$GPZDA,061442.00,01,01,2025,,*66
$GPDTM,W84,,00.0000000,N,00.0000000,E,00.0000000,W84*5F
$PSSN,TFM,061442.00,,,,*6A
$GPRMC,061442.00,A,4742.1601661,N,01618.0999943,E,0.0,,010125,5.1,E,D*13
$GPGLL,4742.1601661,N,01618.0999943,E,061442.00,A,D*62
$GPGGA,061442.00,4742.1601661,N,01618.0999943,E,2,36,0.4,707.8774,M,43.2066,M,3.0,0136*40
$GNGNS,061442.00,4742.1601661,N,01618.0999943,E,DAAA,36,0.4,707.8774,43.2066,,*5B
$GPGNS,061442.00,,,,,,10,,,,3.0,136*7E
$GLGNS,061442.00,,,,,,08,,,,,*72
$GAGNS,061442.00,,,,,,09,,,,,*7E
$GBGNS,061442.00,,,,,,09,,,,,*7D
$GPLLQ,061442.00,010125,,M,,M,1,36,0.902,,M*1A
$GPVTG,,T,,M,0.00,N,0.00,K,D*26
$GPHDT,,T*1B
$GPTHS,,V*0E
$GPROT,,V*08
$PSSN,HRP,061442.00,010125,,,,,,,00,0,,*64
$PTNL,AVR,061442.00,,Yaw,,Tilt,,,,0,,00*32
$GPGSA,A,3,04,05,06,07,09,11,13,14,20,30,,,0.7,0.4,0.6*38
$GPGSA,A,3,65,71,72,73,74,75,81,88,,,,,0.7,0.4,0.6*3B
$GPGSA,A,3,03,05,09,13,15,24,25,31,34,,,,0.7,0.4,0.6*3A
$GPGSA,A,3,05,06,09,11,16,19,22,36,60,,,,0.7,0.4,0.6*31
$GPGST,061442.00,2.021,0.468,0.331,14.845,0.461,0.342,0.697*6A
$GPGBS,061442.00,3.316,2.792,4.750,72,0.0001,5.258,6.038*56
$GPGRS,061442.00,1,-1.1,-0.4,-0.9,-0.4,0.7,0.5,0.4,0.3,-0.2,0.3,,*6B
$GPGRS,061442.00,1,-2.2,-0.2,5.3,2.7,2.2,-2.4,1.7,-3.0,,,,*49
$GPGRS,061442.00,1,-0.6,0.3,0.6,0.5,-0.2,-0.0,-0.2,-0.3,0.5,,,*48
$GPGRS,061442.00,1,1.0,2.4,-0.0,2.8,-5.7,-0.6,-0.5,0.0,-2.0,,,*46
$GPGSV,6,1,21,30,71,212,51,13,18,276,42,14,14,168,41,11,24,239,44*77
$GPGSV,6,2,21,05,35,309,46,09,32,093,44,20,61,271,49,07,67,066,49*70
$GPGSV,6,3,21,16,03,026,34,06,07,208,38,27,00,053,,04,06,094,37*70
$GPGSV,6,4,21,36,35,170,45,58,13,245,37,40,24,133,37,34,31,208,44*7C
$GPGSV,6,5,21,49,34,195,45,57,07,111,38,41,07,108,35,61,03,257,38*72
$GPGSV,6,6,21*7A
$GLGSV,3,1,09,72,72,006,50,88,19,295,46,81,11,347,43,71,40,102,50*63
$GLGSV,3,2,09,75,22,185,46,65,22,308,43,73,44,047,49,74,64,132,48*69
$GLGSV,3,3,09,87,04,242,40*57
$GAGSV,3,1,11,05,68,070,48,25,20,158,41,13,15,327,39,34,19,219,41*6C
$GAGSV,3,2,11,09,16,090,41,31,22,045,41,16,33,135,,15,33,274,43*6F
$GAGSV,3,3,11,24,39,102,45,03,53,288,47,08,04,277,36*59
$GBGSV,6,1,24,22,83,113,52,58,22,043,,05,22,129,39,26,28,183,*6E
$GBGSV,6,2,24,09,22,054,39,50,17,302,,46,27,048,,19,27,122,47*6D
$GBGSV,6,3,24,45,37,190,,36,65,110,51,21,82,071,,02,05,108,34*61
$GBGSV,6,4,24,07,05,109,,28,04,338,,34,03,285,39,12,02,259,36*68
$GBGSV,6,5,24,40,06,075,,43,03,328,,16,05,054,38,11,08,308,39*62
$GBGSV,6,6,24,48,02,122,,10,04,116,,06,08,055,36,60,07,112,40*6D
$GPGGA,061442.00,,,,,0,00,,,M,,M,,*4D
$PTNL,GGK,061442.00,010125,4742.1601661,N,01618.0999943,E,1,36,0.7,EHT751.0840,M*49
$GPGGQ,061442.00,010125,4742.1601661,N,01618.0999943,E,1,36,0.902,707.8774,M*38
$GPGFA,061442.00,4.453,5.712,0.468,0.331,14.845,0.697,,VVV*3E
$GPLLK,061442.00,010125,,M,,M,1,36,0.8,,M*03
$GNGMP,061442.00,,,,,DAAA,36,0.4,,,,*52
$GPGMP,061442.00,,,,,,10,,,,3.0,136*7E
$GLGMP,061442.00,,,,,,08,,,,,*72
$GAGMP,061442.00,,,,,,09,,,,,*7E
$GBGMP,061442.00,,,,,,09,,,,,*7D
$PSSN,SNC,[0,281700000,2347]*48
$GPZDA,061447.00,01,01,2025,,*63
$GPDTM,W84,,00.0000000,N,00.0000000,E,00.0000000,W84*5F
$PSSN,TFM,061447.00,,,,*6F
$GPRMC,061447.00,A,4742.1601671,N,01618.0999960,E,0.0,,010125,5.1,E,D*16
$GPGLL,4742.1601671,N,01618.0999960,E,061447.00,A,D*67
$GPGGA,061447.00,4742.1601671,N,01618.0999960,E,2,36,0.4,707.8796,M,43.2066,M,3.6,0136*4F
$GNGNS,061447.00,4742.1601671,N,01618.0999960,E,DAAA,36,0.4,707.8796,43.2066,,*52
$GPGNS,061447.00,,,,,,10,,,,3.6,136*7D
$GLGNS,061447.00,,,,,,08,,,,,*77
$GAGNS,061447.00,,,,,,09,,,,,*7B
$GBGNS,061447.00,,,,,,09,,,,,*78
$GPLLQ,061447.00,010125,,M,,M,1,36,0.916,,M*1A
$GPVTG,,T,,M,0.01,N,0.01,K,D*26
$GPHDT,,T*1B
$GPTHS,,V*0E
$GPROT,,V*08
$PSSN,HRP,061447.00,010125,,,,,,,00,0,,*61
$PTNL,AVR,061447.00,,Yaw,,Tilt,,,,0,,00*37
$GPGSA,A,3,04,05,06,07,09,11,13,14,20,30,,,0.7,0.4,0.6*38
$GPGSA,A,3,65,71,72,73,74,75,81,88,,,,,0.7,0.4,0.6*3B
$GPGSA,A,3,03,05,09,13,15,24,25,31,34,,,,0.7,0.4,0.6*3A
$GPGSA,A,3,05,06,09,11,16,19,22,36,60,,,,0.7,0.4,0.6*31
$GPGST,061447.00,2.057,0.478,0.336,14.830,0.470,0.347,0.707*67
$GPGBS,061447.00,3.372,2.810,4.604,72,0.0001,5.281,6.038*50
$GPGRS,061447.00,1,-1.0,-0.2,-0.8,-0.4,0.4,0.5,0.6,-0.3,-0.2,0.2,,*45
$GPGRS,061447.00,1,-4.0,-0.2,5.3,2.8,2.1,-2.5,0.4,-3.1,,,,*46
$GPGRS,061447.00,1,-0.7,0.3,0.1,0.2,-0.1,0.0,-0.4,-0.7,0.6,,,*63
$GPGRS,061447.00,1,1.3,1.8,0.3,1.9,-5.7,-0.4,-0.5,-0.1,-2.1,,,*4C
$GPGSV,6,1,21,30,71,212,51,13,18,277,42,14,14,168,41,11,24,239,44*76
$GPGSV,6,2,21,05,35,309,46,09,32,093,44,20,61,271,49,07,67,066,49*70
$GPGSV,6,3,21,16,03,026,34,06,07,208,37,27,00,052,,04,06,094,37*7E
$GPGSV,6,4,21,36,35,170,45,58,13,245,37,40,24,133,37,34,31,208,44*7C
$GPGSV,6,5,21,49,34,195,45,57,07,111,38,41,07,108,35,61,03,257,39*73
$GPGSV,6,6,21*7A
$GLGSV,3,1,09,72,72,006,50,88,19,295,46,81,11,347,43,71,40,102,50*63
$GLGSV,3,2,09,75,22,185,46,65,22,308,43,73,44,047,49,74,64,132,48*69
$GLGSV,3,3,09,87,04,242,39*59
$GAGSV,3,1,11,05,68,070,48,25,20,158,40,13,15,327,39,34,19,219,41*6D
$GAGSV,3,2,11,09,16,090,40,31,22,045,41,16,33,135,,15,33,274,44*69
$GAGSV,3,3,11,24,39,102,45,03,53,288,47,08,04,277,37*58
$GBGSV,6,1,24,22,83,113,52,58,22,043,,05,22,129,39,26,28,183,*6E
$GBGSV,6,2,24,09,22,054,39,50,18,302,,46,27,048,,19,27,122,46*63
$GBGSV,6,3,24,45,37,190,,36,65,110,51,21,82,072,,02,05,108,34*62
$GBGSV,6,4,24,07,05,109,,28,04,338,,34,03,285,38,12,02,259,35*6A
$GBGSV,6,5,24,40,06,075,,43,03,328,,16,05,054,38,11,08,307,38*6C
$GBGSV,6,6,24,48,02,123,,10,04,116,,06,08,055,35,60,07,112,40*6F
$GPGGA,061447.00,,,,,0,00,,,M,,M,,*48
$PTNL,GGK,061447.00,010125,4742.1601671,N,01618.0999960,E,1,36,0.7,EHT751.0862,M*4C
$GPGGQ,061447.00,010125,4742.1601671,N,01618.0999960,E,1,36,0.916,707.8796,M*34
$GPGFA,061447.00,4.541,5.794,0.478,0.336,14.830,0.707,,VVV*3B
$GPLLK,061447.00,010125,,M,,M,1,36,0.8,,M*06
$GNGMP,061447.00,,,,,DAAA,36,0.4,,,,*57
$GPGMP,061447.00,,,,,,10,,,,3.6,136*7D
$GLGMP,061447.00,,,,,,08,,,,,*77
$GAGMP,061447.00,,,,,,09,,,,,*7B
$GBGMP,061447.00,,,,,,09,,,,,*78
$PSSN,SNC,[0,281705000,2347]*4D
$GPZDA,061452.00,01,01,2025,,*67
$GPDTM,W84,,00.0000000,N,00.0000000,E,00.0000000,W84*5F
$PSSN,TFM,061452.00,,,,*6B
$GPRMC,061452.00,A,4742.1601686,N,01618.0999958,E,0.0,,010125,5.1,E,D*11
$GPGLL,4742.1601686,N,01618.0999958,E,061452.00,A,D*60
$GPGGA,061452.00,4742.1601686,N,01618.0999958,E,2,36,0.4,707.8766,M,43.2066,M,1.4,0136*47
$GNGNS,061452.00,4742.1601686,N,01618.0999958,E,DAAA,36,0.4,707.8766,43.2066,,*5A
$GPGNS,061452.00,,,,,,10,,,,1.4,136*79
$GLGNS,061452.00,,,,,,08,,,,,*73
$GAGNS,061452.00,,,,,,09,,,,,*7F
$GBGNS,061452.00,,,,,,09,,,,,*7C
$GPLLQ,061452.00,010125,,M,,M,1,36,0.915,,M*1D
$GPVTG,,T,,M,0.01,N,0.01,K,D*26
$GPHDT,,T*1B
$GPTHS,,V*0E
$GPROT,,V*08
$PSSN,HRP,061452.00,010125,,,,,,,00,0,,*65
$PTNL,AVR,061452.00,,Yaw,,Tilt,,,,0,,00*33
$GPGSA,A,3,04,05,06,07,09,11,13,14,20,30,,,0.7,0.4,0.6*38
$GPGSA,A,3,65,71,72,73,74,75,81,88,,,,,0.7,0.4,0.6*3B
$GPGSA,A,3,03,05,09,13,15,24,25,31,34,,,,0.7,0.4,0.6*3A
$GPGSA,A,3,05,06,09,11,16,19,22,36,60,,,,0.7,0.4,0.6*31
$GPGST,061452.00,1.912,0.476,0.332,14.565,0.468,0.343,0.707*62
$GPGBS,061452.00,3.299,2.703,4.538,72,0.0001,5.540,6.038*5B
$GPGRS,061452.00,1,-0.4,-0.3,-0.8,-0.3,0.3,0.4,0.4,0.0,-0.1,0.3,,*6A
$GPGRS,061452.00,1,-3.7,-0.2,5.5,2.5,2.3,-2.5,0.3,-2.6,,,,*4A
$GPGRS,061452.00,1,-0.4,0.5,0.2,0.7,0.1,0.4,-0.4,-0.6,0.5,,,*4F
$GPGRS,061452.00,1,1.1,1.1,0.6,1.6,-5.0,-0.1,-0.2,0.1,-1.6,,,*65
$GPGSV,6,1,21,30,71,212,51,13,18,277,41,14,14,168,40,11,24,239,44*74
$GPGSV,6,2,21,05,35,309,46,09,32,093,44,20,61,271,48,07,67,066,49*71
$GPGSV,6,3,21,16,03,026,34,06,07,208,36,27,00,052,,04,06,094,37*7F
$GPGSV,6,4,21,36,35,170,45,58,13,245,37,40,24,133,37,34,31,208,44*7C
$GPGSV,6,5,21,49,34,195,45,57,07,111,38,41,07,108,36,61,03,257,38*71
$GPGSV,6,6,21*7A
$GLGSV,3,1,09,72,72,006,50,88,18,295,46,81,11,347,44,71,40,102,49*6D
$GLGSV,3,2,09,75,22,185,46,65,22,308,43,73,44,047,49,74,64,132,48*69
$GLGSV,3,3,09,87,04,242,40*57
$GAGSV,3,1,11,05,68,070,48,25,20,158,40,13,15,327,38,34,19,219,41*6C
$GAGSV,3,2,11,09,16,090,40,31,22,045,40,16,33,135,,15,33,274,44*68
$GAGSV,3,3,11,24,39,102,45,03,53,288,47,08,04,277,36*59
$GBGSV,6,1,24,22,83,114,52,58,22,043,,05,22,129,38,26,29,183,*69
$GBGSV,6,2,24,09,22,054,39,50,18,302,,46,27,048,,19,27,122,46*63
$GBGSV,6,3,24,45,37,190,,36,65,110,51,21,82,072,,02,05,108,34*62
$GBGSV,6,4,24,07,05,109,,28,04,338,,34,03,285,40,12,02,259,36*66
$GBGSV,6,5,24,40,06,075,,43,03,327,,16,05,054,38,11,08,307,38*63
$GBGSV,6,6,24,48,02,123,,10,04,116,,06,08,055,35,60,07,112,40*6F
$GPGGA,061452.00,,,,,0,00,,,M,,M,,*4C
$PTNL,GGK,061452.00,010125,4742.1601686,N,01618.0999958,E,1,36,0.7,EHT751.0832,M*4E
$GPGGQ,061452.00,010125,4742.1601686,N,01618.0999958,E,1,36,0.915,707.8766,M*3F
$GPGFA,061452.00,4.528,5.795,0.476,0.332,14.565,0.707,,VVV*36
$GPLLK,061452.00,010125,,M,,M,1,36,0.8,,M*02
$GNGMP,061452.00,,,,,DAAA,36,0.4,,,,*53
$GPGMP,061452.00,,,,,,10,,,,1.4,136*79
$GLGMP,061452.00,,,,,,08,,,,,*73
$GAGMP,061452.00,,,,,,09,,,,,*7F
$GBGMP,061452.00,,,,,,09,,,,,*7C
$PSSN,SNC,[0,281710000,2347]*49
$GPZDA,061457.00,01,01,2025,,*62
$GPDTM,W84,,00.0000000,N,00.0000000,E,00.0000000,W84*5F
$PSSN,TFM,061457.00,,,,*6E
$GPRMC,061457.00,A,4742.1601691,N,01618.0999946,E,0.0,,010125,5.1,E,D*1D
$GPGLL,4742.1601691,N,01618.0999946,E,061457.00,A,D*6C
$GPGGA,061457.00,4742.1601691,N,01618.0999946,E,2,36,0.4,707.8794,M,43.2066,M,2.0,0136*41
$GNGNS,061457.00,4742.1601691,N,01618.0999946,E,DAAA,36,0.4,707.8794,43.2066,,*5B
$GPGNS,061457.00,,,,,,10,,,,2.0,136*7B
$GLGNS,061457.00,,,,,,08,,,,,*76
$GAGNS,061457.00,,,,,,09,,,,,*7A
$GBGNS,061457.00,,,,,,09,,,,,*79
$GPLLQ,061457.00,010125,,M,,M,1,36,0.900,,M*1C
$GPVTG,,T,,M,0.00,N,0.01,K,D*27
$GPHDT,,T*1B
$GPTHS,,V*0E
$GPROT,,V*08
$PSSN,HRP,061457.00,010125,,,,,,,00,0,,*60
$PTNL,AVR,061457.00,,Yaw,,Tilt,,,,0,,00*36
$GPGSA,A,3,04,05,06,07,09,11,13,14,20,30,,,0.7,0.4,0.6*38
$GPGSA,A,3,65,71,72,73,74,75,81,88,,,,,0.7,0.4,0.6*3B
$GPGSA,A,3,03,05,09,13,15,24,25,31,34,,,,0.7,0.4,0.6*3A
$GPGSA,A,3,05,06,09,11,16,19,22,36,60,,,,0.7,0.4,0.6*31
$GPGST,061457.00,1.992,0.467,0.326,14.706,0.459,0.337,0.697*64
$GPGBS,061457.00,3.274,2.736,4.657,72,0.0001,6.012,6.038*50
$GPGRS,061457.00,1,0.5,-0.5,0.1,-0.2,0.3,0.2,0.1,0.4,-0.0,0.1,,*64
$GPGRS,061457.00,1,-3.4,-0.5,6.0,2.8,2.2,-2.5,1.9,-2.5,,,,*49
$GPGRS,061457.00,1,-0.4,0.3,0.7,0.9,0.1,0.5,-0.5,-0.4,0.6,,,*46
$GPGRS,061457.00,1,1.3,1.7,0.8,2.4,-4.6,-0.5,-0.4,-0.0,-1.7,,,*43
$GPGSV,6,1,21,30,71,212,51,13,18,277,42,14,14,168,41,11,24,239,44*76
$GPGSV,6,2,21,05,35,309,46,09,32,093,44,20,61,271,48,07,67,066,49*71
$GPGSV,6,3,21,16,03,026,34,06,07,208,36,27,00,052,,04,06,094,37*7F
$GPGSV,6,4,21,36,35,170,45,58,13,245,37,40,24,133,37,34,31,208,44*7C
$GPGSV,6,5,21,49,34,195,45,57,07,111,38,41,07,108,35,61,03,257,38*72
$GPGSV,6,6,21*7A
$GLGSV,3,1,09,72,72,006,51,88,18,295,46,81,11,347,44,71,40,102,49*6C
$GLGSV,3,2,09,75,22,185,46,65,22,308,44,73,44,047,49,74,64,132,48*6E
$GLGSV,3,3,09,87,04,242,40*57
$GAGSV,3,1,11,05,68,070,48,25,20,158,41,13,15,327,38,34,19,219,41*6D
$GAGSV,3,2,11,09,16,090,40,31,22,045,40,16,33,135,,15,33,274,43*6F
$GAGSV,3,3,11,24,39,102,45,03,53,288,47,08,04,277,36*59
$GBGSV,6,1,24,22,83,114,52,58,22,043,,05,22,129,38,26,29,183,*69
$GBGSV,6,2,24,09,22,054,39,50,18,302,,46,27,048,,19,27,122,46*63
$GBGSV,6,3,24,45,37,190,,36,65,110,51,21,82,072,,02,05,108,33*65
$GBGSV,6,4,24,07,05,109,,28,04,338,,34,03,285,39,12,02,259,36*68
$GBGSV,6,5,24,40,06,075,,43,03,327,,16,05,054,38,11,08,307,38*63
$GBGSV,6,6,24,48,02,123,,10,04,116,,06,08,055,35,60,07,112,40*6F
$GPGGA,061457.00,,,,,0,00,,,M,,M,,*49
$PTNL,GGK,061457.00,010125,4742.1601691,N,01618.0999946,E,1,36,0.7,EHT751.0860,M*45
$GPGGQ,061457.00,010125,4742.1601691,N,01618.0999946,E,1,36,0.900,707.8794,M*3A
$GPGFA,061457.00,4.436,5.714,0.467,0.326,14.706,0.697,,VVV*3E
$GPLLK,061457.00,010125,,M,,M,1,36,0.8,,M*07
$GNGMP,061457.00,,,,,DAAA,36,0.4,,,,*56
$GPGMP,061457.00,,,,,,10,,,,2.0,136*7B
$GLGMP,061457.00,,,,,,08,,,,,*76
$GAGMP,061457.00,,,,,,09,,,,,*7A
$GBGMP,061457.00,,,,,,09,,,,,*79
$PSSN,SNC,[0,281715000,2347]*4C
$GPZDA,061502.00,01,01,2025,,*63
$GPDTM,W84,,00.0000000,N,00.0000000,E,00.0000000,W84*5F
$PSSN,TFM,061502.00,,,,*6F
$GPRMC,061502.00,A,4742.1601699,N,01618.0999930,E,0.0,,010125,5.1,E,D*15
$GPGLL,4742.1601699,N,01618.0999930,E,061502.00,A,D*64
$GPGGA,061502.00,4742.1601699,N,01618.0999930,E,2,36,0.4,707.8797,M,43.2066,M,3.0,0136*4B
$GNGNS,061502.00,4742.1601699,N,01618.0999930,E,DAAA,36,0.4,707.8797,43.2066,,*50
$GPGNS,061502.00,,,,,,10,,,,3.0,136*7B
$GLGNS,061502.00,,,,,,08,,,,,*77
$GAGNS,061502.00,,,,,,09,,,,,*7B
$GBGNS,061502.00,,,,,,09,,,,,*78
$GPLLQ,061502.00,010125,,M,,M,1,36,0.903,,M*1E
$GPVTG,,T,,M,0.00,N,0.01,K,D*27
$GPHDT,,T*1B
$GPTHS,,V*0E
$GPROT,,V*08
$PSSN,HRP,061502.00,010125,,,,,,,00,0,,*61
$PTNL,AVR,061502.00,,Yaw,,Tilt,,,,0,,00*37
$GPGSA,A,3,04,05,06,07,09,11,13,14,20,30,,,0.7,0.4,0.6*38
$GPGSA,A,3,65,71,72,73,74,75,81,88,,,,,0.7,0.4,0.6*3B
$GPGSA,A,3,03,05,09,13,15,24,25,31,34,,,,0.7,0.4,0.6*3A
$GPGSA,A,3,05,06,09,11,16,19,22,36,60,,,,0.7,0.4,0.6*31
$GPGST,061502.00,1.868,0.469,0.331,14.881,0.461,0.342,0.697*60
$GPGBS,061502.00,3.313,2.786,4.760,72,0.0001,5.845,6.038*56
$GPGRS,061502.00,1,-0.3,-0.2,-1.0,-0.1,0.5,0.2,0.6,0.3,-0.1,-0.1,,*4D
$GPGRS,061502.00,1,-2.5,-0.8,5.8,2.5,1.7,-2.6,1.2,-2.6,,,,*4E
$GPGRS,061502.00,1,-0.3,0.3,0.4,0.4,-0.2,0.0,-0.2,-0.3,0.4,,,*67
$GPGRS,061502.00,1,1.4,0.7,0.6,1.5,-4.9,-0.7,-0.5,-0.2,-1.9,,,*48
$GPGSV,6,1,21,30,71,212,51,13,18,277,42,14,14,168,41,11,24,239,44*76
$GPGSV,6,2,21,05,35,309,46,09,32,093,44,20,61,271,48,07,67,066,49*71
$GPGSV,6,3,21,16,03,026,34,06,07,208,37,27,00,052,,04,06,094,37*7E
$GPGSV,6,4,21,36,35,170,45,58,13,245,37,40,24,133,37,34,31,208,44*7C
$GPGSV,6,5,21,49,34,195,45,57,07,111,38,41,07,108,35,61,03,257,38*72
$GPGSV,6,6,21*7A
$GLGSV,3,1,09,72,72,006,51,88,18,295,46,81,11,347,43,71,40,102,49*6B
$GLGSV,3,2,09,75,22,185,46,65,22,308,44,73,44,047,49,74,64,132,48*6E
$GLGSV,3,3,09,87,04,242,41*56
$GAGSV,3,1,11,05,68,070,48,25,20,158,41,13,15,327,38,34,19,219,41*6D
$GAGSV,3,2,11,09,16,090,40,31,22,045,40,16,33,135,,15,33,274,43*6F
$GAGSV,3,3,11,24,39,102,45,03,53,288,47,08,04,277,36*59
$GBGSV,6,1,24,22,83,114,52,58,22,043,,05,22,129,39,26,29,183,*68
$GBGSV,6,2,24,09,22,054,39,50,18,302,,46,27,048,,19,27,122,46*63
$GBGSV,6,3,24,45,37,190,,36,65,110,51,21,82,072,,02,05,108,33*65
$GBGSV,6,4,24,07,05,109,,28,04,338,,34,03,285,38,12,02,259,35*6A
$GBGSV,6,5,24,40,06,075,,43,03,327,,16,05,054,38,11,08,307,39*62
$GBGSV,6,6,24,48,02,123,,10,04,116,,06,08,055,35,60,07,112,40*6F
$GPGGA,061502.00,,,,,0,00,,,M,,M,,*48
$PTNL,GGK,061502.00,010125,4742.1601699,N,01618.0999930,E,1,36,0.7,EHT751.0862,M*4F
$GPGGQ,061502.00,010125,4742.1601699,N,01618.0999930,E,1,36,0.903,707.8797,M*32
$GPGFA,061502.00,4.462,5.718,0.469,0.331,14.881,0.697,,VVV*3A
$GPLLK,061502.00,010125,,M,,M,1,36,0.8,,M*06
$GNGMP,061502.00,,,,,DAAA,36,0.4,,,,*57
$GPGMP,061502.00,,,,,,10,,,,3.0,136*7B
$GLGMP,061502.00,,,,,,08,,,,,*77
$GAGMP,061502.00,,,,,,09,,,,,*7B
$GBGMP,061502.00,,,,,,09,,,,,*78
$PSSN,SNC,[0,281720000,2347]*4A
$GPZDA,061507.00,01,01,2025,,*66
$GPDTM,W84,,00.0000000,N,00.0000000,E,00.0000000,W84*5F
$PSSN,TFM,061507.00,,,,*6A
$GPRMC,061507.00,A,4742.1601705,N,01618.0999941,E,0.0,,010125,5.1,E,D*12
$GPGLL,4742.1601705,N,01618.0999941,E,061507.00,A,D*63
$GPGGA,061507.00,4742.1601705,N,01618.0999941,E,2,36,0.4,707.8787,M,43.2066,M,3.6,0136*4B
$GNGNS,061507.00,4742.1601705,N,01618.0999941,E,DAAA,36,0.4,707.8787,43.2066,,*56
$GPGNS,061507.00,,,,,,10,,,,3.6,136*78
$GLGNS,061507.00,,,,,,08,,,,,*72
$GAGNS,061507.00,,,,,,09,,,,,*7E
$GBGNS,061507.00,,,,,,09,,,,,*7D
$GPLLQ,061507.00,010125,,M,,M,1,36,0.918,,M*11
$GPVTG,,T,,M,0.00,N,0.01,K,D*27
$GPHDT,,T*1B
$GPTHS,,V*0E
$GPROT,,V*08
$PSSN,HRP,061507.00,010125,,,,,,,00,0,,*64
$PTNL,AVR,061507.00,,Yaw,,Tilt,,,,0,,00*32
$GPGSA,A,3,04,05,06,07,09,11,13,14,20,30,,,0.7,0.4,0.6*38
$GPGSA,A,3,65,71,72,73,74,75,81,88,,,,,0.7,0.4,0.6*3B
$GPGSA,A,3,03,05,09,13,15,24,25,31,34,,,,0.7,0.4,0.6*3A
$GPGSA,A,3,05,06,09,11,16,19,22,36,60,,,,0.7,0.4,0.6*31
$GPGST,061507.00,1.907,0.479,0.335,14.854,0.471,0.347,0.708*63
$GPGBS,061507.00,3.370,2.804,4.612,72,0.0001,5.671,6.038*5E
$GPGRS,061507.00,1,-0.3,-0.6,-0.5,-0.3,-0.0,0.4,0.7,0.0,0.0,0.3,,*65
$GPGRS,061507.00,1,-3.3,-0.6,5.7,2.7,1.6,-2.7,0.3,-3.0,,,,*48
$GPGRS,061507.00,1,-0.4,0.5,0.3,0.4,-0.2,0.2,-0.3,-0.2,0.3,,,*61
$GPGRS,061507.00,1,1.8,0.6,0.0,2.0,-4.7,-0.8,-0.3,-0.2,-1.6,,,*48
$GPGSV,6,1,21,30,71,212,51,13,18,277,41,14,14,168,41,11,24,239,45*74
$GPGSV,6,2,21,05,35,309,46,09,32,093,43,20,61,271,48,07,67,066,49*76
$GPGSV,6,3,21,16,03,026,34,06,07,208,38,27,00,052,,04,06,094,38*7E
$GPGSV,6,4,21,36,35,170,45,58,13,245,37,40,24,133,37,34,31,208,44*7C
$GPGSV,6,5,21,49,34,195,45,57,07,111,38,41,07,108,35,61,03,257,38*72
$GPGSV,6,6,21*7A
$GLGSV,3,1,09,72,72,006,51,88,18,295,45,81,11,347,44,71,40,102,49*6F
$GLGSV,3,2,09,75,22,185,47,65,22,308,43,73,44,047,49,74,65,132,48*69
$GLGSV,3,3,09,87,04,242,40*57
$GAGSV,3,1,11,05,68,070,48,25,20,158,41,13,15,327,38,34,19,219,42*6E
$GAGSV,3,2,11,09,16,090,40,31,22,045,40,16,33,135,,15,33,274,43*6F
$GAGSV,3,3,11,24,39,102,45,03,53,288,47,08,04,277,35*5A
$GBGSV,6,1,24,22,83,114,52,58,22,042,,05,22,129,38,26,29,183,*68
$GBGSV,6,2,24,09,22,054,38,50,18,303,,46,27,048,,19,27,122,46*63
$GBGSV,6,3,24,45,37,190,,36,65,110,51,21,82,073,,02,05,108,33*64
$GBGSV,6,4,24,07,05,109,,28,04,338,,34,03,285,39,12,02,259,35*6B
$GBGSV,6,5,24,40,06,075,,43,03,327,,16,05,054,38,11,08,307,39*62
$GBGSV,6,6,24,48,02,123,,10,04,116,,06,08,055,35,60,07,112,40*6F
$GPGGA,061507.00,,,,,0,00,,,M,,M,,*4D
$PTNL,GGK,061507.00,010125,4742.1601705,N,01618.0999941,E,1,36,0.7,EHT751.0852,M*4B
$GPGGQ,061507.00,010125,4742.1601705,N,01618.0999941,E,1,36,0.918,707.8787,M*3E
$GPGFA,061507.00,4.551,5.802,0.479,0.335,14.854,0.708,,VVV*30
$GPLLK,061507.00,010125,,M,,M,1,36,0.8,,M*03
$GNGMP,061507.00,,,,,DAAA,36,0.4,,,,*52
$GPGMP,061507.00,,,,,,10,,,,3.6,136*78
$GLGMP,061507.00,,,,,,08,,,,,*72
$GAGMP,061507.00,,,,,,09,,,,,*7E
$GBGMP,061507.00,,,,,,09,,,,,*7D
$PSSN,SNC,[0,281725000,2347]*4F
$GPZDA,061512.00,01,01,2025,,*62
$GPDTM,W84,,00.0000000,N,00.0000000,E,00.0000000,W84*5F
$PSSN,TFM,061512.00,,,,*6E
$GPRMC,061512.00,A,4742.1601742,N,01618.0999953,E,0.0,,010125,5.1,E,D*16
$GPGLL,4742.1601742,N,01618.0999953,E,061512.00,A,D*67
$GPGGA,061512.00,4742.1601742,N,01618.0999953,E,2,36,0.4,707.8737,M,43.2066,M,1.4,0136*44
$GNGNS,061512.00,4742.1601742,N,01618.0999953,E,DAAA,36,0.4,707.8737,43.2066,,*59
$GPGNS,061512.00,,,,,,10,,,,1.4,136*7C
$GLGNS,061512.00,,,,,,08,,,,,*76
$GAGNS,061512.00,,,,,,09,,,,,*7A
$GBGNS,061512.00,,,,,,09,,,,,*79
$GPLLQ,061512.00,010125,,M,,M,1,36,0.915,,M*18
$GPVTG,,T,,M,0.00,N,0.00,K,D*26
$GPHDT,,T*1B
$GPTHS,,V*0E
$GPROT,,V*08
$PSSN,HRP,061512.00,010125,,,,,,,00,0,,*60
$PTNL,AVR,061512.00,,Yaw,,Tilt,,,,0,,00*36
$GPGSA,A,3,04,05,06,07,09,11,13,14,20,30,,,0.7,0.4,0.6*38
$GPGSA,A,3,65,71,72,73,74,75,81,88,,,,,0.7,0.4,0.6*3B
$GPGSA,A,3,03,05,09,13,15,24,25,31,34,,,,0.7,0.4,0.6*3A
$GPGSA,A,3,05,06,09,11,16,19,22,36,60,,,,0.7,0.4,0.6*31
$GPGST,061512.00,1.946,0.477,0.332,14.518,0.469,0.343,0.707*6C
$GPGBS,061512.00,3.295,2.698,4.547,05,0.0001,-0.674,0.691*76
$GPGRS,061512.00,1,0.1,-0.7,-0.3,-0.2,0.2,0.2,0.3,-0.1,0.1,0.4,,*4F
$GPGRS,061512.00,1,-3.8,-0.4,5.6,2.7,1.9,-2.2,0.7,-2.6,,,,*4D
$GPGRS,061512.00,1,-0.3,0.7,0.3,0.3,-0.2,0.5,-0.3,-0.4,0.5,,,*60
$GPGRS,061512.00,1,1.7,1.1,0.1,1.9,-5.1,-0.7,-0.5,-0.3,-1.8,,,*4F
$GPGSV,6,1,21,30,71,212,51,13,18,277,41,14,14,168,40,11,24,239,44*74
$GPGSV,6,2,21,05,35,309,46,09,32,093,44,20,61,271,48,07,67,065,49*72
$GPGSV,6,3,21,16,03,026,34,06,07,208,38,27,00,052,,04,06,094,38*7E
$GPGSV,6,4,21,36,35,170,45,58,13,245,37,40,24,133,37,34,31,208,43*7B
$GPGSV,6,5,21,49,34,195,45,57,07,111,38,41,07,108,36,61,03,257,38*71
$GPGSV,6,6,21*7A
$GLGSV,3,1,09,72,72,006,51,88,18,295,46,81,11,347,44,71,40,102,49*6C
$GLGSV,3,2,09,75,22,185,47,65,22,308,43,73,44,047,50,74,65,132,48*61
$GLGSV,3,3,09,87,04,242,40*57
$GAGSV,3,1,11,05,68,070,48,25,20,158,41,13,15,327,39,34,19,219,42*6F
$GAGSV,3,2,11,09,16,090,39,31,22,045,41,16,33,135,,15,33,274,43*60
$GAGSV,3,3,11,24,39,102,46,03,53,288,47,08,04,277,36*5A
$GBGSV,6,1,24,22,83,114,52,58,22,042,,05,22,129,39,09,22,054,39*6E
$GBGSV,6,2,24,26,29,183,,50,18,303,,46,27,048,,19,27,122,46*65
$GBGSV,6,3,24,45,37,190,,36,65,109,51,21,82,073,,02,05,108,33*6C
$GBGSV,6,4,24,07,05,109,,28,04,338,,34,03,285,38,12,02,259,35*6A
$GBGSV,6,5,24,40,06,075,,43,03,327,,16,05,054,37,11,08,307,38*6C
$GBGSV,6,6,24,48,02,123,,10,04,116,,06,08,055,35,60,07,112,40*6F
$GPGGA,061512.00,,,,,0,00,,,M,,M,,*49
$PTNL,GGK,061512.00,010125,4742.1601742,N,01618.0999953,E,1,36,0.7,EHT751.0803,M*4B
$GPGGQ,061512.00,010125,4742.1601742,N,01618.0999953,E,1,36,0.915,707.8737,M*3C
$GPGFA,061512.00,4.531,5.795,0.477,0.332,14.518,0.707,,VVV*30
$GPLLK,061512.00,010125,,M,,M,1,36,0.8,,M*07
$GNGMP,061512.00,,,,,DAAA,36,0.4,,,,*56
$GPGMP,061512.00,,,,,,10,,,,1.4,136*7C
$GLGMP,061512.00,,,,,,08,,,,,*76
$GAGMP,061512.00,,,,,,09,,,,,*7A
$GBGMP,061512.00,,,,,,09,,,,,*79
$PSSN,SNC,[0,281730000,2347]*4B
$GPZDA,061517.00,01,01,2025,,*67
$GPDTM,W84,,00.0000000,N,00.0000000,E,00.0000000,W84*5F
$PSSN,TFM,061517.00,,,,*6B
$GPRMC,061517.00,A,4742.1601741,N,01618.0999939,E,0.0,,010125,5.1,E,D*1C
$GPGLL,4742.1601741,N,01618.0999939,E,061517.00,A,D*6D
$GPGGA,061517.00,4742.1601741,N,01618.0999939,E,2,36,0.4,707.8728,M,43.2066,M,2.0,0136*47
$GNGNS,061517.00,4742.1601741,N,01618.0999939,E,DAAA,36,0.4,707.8728,43.2066,,*5D
$GPGNS,061517.00,,,,,,10,,,,2.0,136*7E
$GLGNS,061517.00,,,,,,08,,,,,*73
$GAGNS,061517.00,,,,,,09,,,,,*7F
$GBGNS,061517.00,,,,,,09,,,,,*7C
$GPLLQ,061517.00,010125,,M,,M,1,36,0.900,,M*19
$GPVTG,,T,,M,0.01,N,0.01,K,D*26
$GPHDT,,T*1B
$GPTHS,,V*0E
$GPROT,,V*08
$PSSN,HRP,061517.00,010125,,,,,,,00,0,,*65
$PTNL,AVR,061517.00,,Yaw,,Tilt,,,,0,,00*33
$GPGSA,A,3,04,05,06,07,09,11,13,14,20,30,,,0.7,0.4,0.6*38
$GPGSA,A,3,65,71,72,73,74,75,81,88,,,,,0.7,0.4,0.6*3B
$GPGSA,A,3,03,05,09,13,15,24,25,31,34,,,,0.7,0.4,0.6*3A
$GPGSA,A,3,05,06,09,11,16,19,22,36,60,,,,0.7,0.4,0.6*31
$GPGST,061517.00,1.984,0.467,0.326,14.678,0.459,0.337,0.697*6E
$GPGBS,061517.00,3.272,2.730,4.666,72,0.0001,5.357,6.038*56
$GPGRS,061517.00,1,-0.4,-0.3,-0.3,-0.2,0.7,0.1,0.6,-0.6,-0.0,0.2,,*48
$GPGRS,061517.00,1,-3.8,-0.5,5.4,3.0,2.0,-2.2,0.6,-2.4,,,,*44
$GPGRS,061517.00,1,-0.3,0.3,0.3,-0.1,-0.2,0.2,-0.4,-0.4,0.4,,,*4F
$GPGRS,061517.00,1,1.2,1.2,-0.1,1.2,-5.8,-1.1,-0.6,-0.2,-2.2,,,*6F
$GPGSV,6,1,21,30,71,212,51,13,18,277,41,14,14,168,40,11,24,239,44*74
$GPGSV,6,2,21,05,35,309,46,09,32,093,45,20,61,270,48,07,67,065,49*72
$GPGSV,6,3,21,16,03,025,34,06,07,208,38,27,00,052,,04,06,094,38*7D
$GPGSV,6,4,21,36,35,170,45,58,13,245,37,40,24,133,37,34,31,208,44*7C
$GPGSV,6,5,21,49,34,195,45,57,07,111,38,41,07,108,35,61,03,257,39*73
$GPGSV,6,6,21*7A
$GLGSV,3,1,09,72,72,007,50,88,18,295,46,81,11,347,44,71,40,102,49*6C
$GLGSV,3,2,09,75,22,185,46,65,22,308,43,73,44,047,49,74,65,132,48*68
$GLGSV,3,3,09,87,04,242,40*57
$GAGSV,3,1,11,05,68,070,48,25,20,158,41,13,15,327,38,34,19,219,41*6D
$GAGSV,3,2,11,09,16,090,39,31,22,045,41,16,33,135,,15,33,274,44*67
$GAGSV,3,3,11,24,39,102,45,03,53,288,47,08,04,277,36*59
$GBGSV,6,1,24,22,83,114,52,58,22,042,,05,22,129,38,09,22,054,38*6E
$GBGSV,6,2,24,26,29,183,,50,18,303,,46,27,048,,19,27,122,46*65
$GBGSV,6,3,24,45,37,190,,36,65,109,51,21,82,073,,02,05,108,33*6C
$GBGSV,6,4,24,07,05,109,,28,04,338,,34,03,285,39,12,02,259,35*6B
$GBGSV,6,5,24,40,06,075,,43,03,327,,16,05,054,37,11,08,307,38*6C
$GBGSV,6,6,24,48,02,123,,10,04,116,,06,08,055,35,60,07,112,40*6F
$GPGGA,061517.00,,,,,0,00,,,M,,M,,*4C
$PTNL,GGK,061517.00,010125,4742.1601741,N,01618.0999939,E,1,36,0.7,EHT751.0794,M*40
$GPGGQ,061517.00,010125,4742.1601741,N,01618.0999939,E,1,36,0.900,707.8728,M*3C
$GPGFA,061517.00,4.439,5.715,0.467,0.326,14.678,0.697,,VVV*3D
$GPLLK,061517.00,010125,,M,,M,1,36,0.8,,M*02
$GNGMP,061517.00,,,,,DAAA,36,0.4,,,,*53
$GPGMP,061517.00,,,,,,10,,,,2.0,136*7E
$GLGMP,061517.00,,,,,,08,,,,,*73
$GAGMP,061517.00,,,,,,09,,,,,*7F
$GBGMP,061517.00,,,,,,09,,,,,*7C
$PSSN,SNC,[0,281735000,2347]*4E
$GPZDA,061522.00,01,01,2025,,*61
$GPDTM,W84,,00.0000000,N,00.0000000,E,00.0000000,W84*5F
$PSSN,TFM,061522.00,,,,*6D
$GPRMC,061522.00,A,4742.1601735,N,01618.0999944,E,0.0,,010125,5.1,E,D*13
$GPGLL,4742.1601735,N,01618.0999944,E,061522.00,A,D*62
$GPGGA,061522.00,4742.1601735,N,01618.0999944,E,2,36,0.4,707.8708,M,43.2066,M,3.0,0136*4B
$GNGNS,061522.00,4742.1601735,N,01618.0999944,E,DAAA,36,0.4,707.8708,43.2066,,*50
$GPGNS,061522.00,,,,,,10,,,,3.0,136*79
$GLGNS,061522.00,,,,,,08,,,,,*75
$GAGNS,061522.00,,,,,,09,,,,,*79
$GBGNS,061522.00,,,,,,09,,,,,*7A
$GPLLQ,061522.00,010125,,M,,M,1,36,0.903,,M*1C
$GPVTG,,T,,M,0.01,N,0.01,K,D*26
$GPHDT,,T*1B
$GPTHS,,V*0E
$GPROT,,V*08
$PSSN,HRP,061522.00,010125,,,,,,,00,0,,*63
$PTNL,AVR,061522.00,,Yaw,,Tilt,,,,0,,00*35
$GPGSA,A,3,04,05,06,07,09,11,13,14,20,30,,,0.7,0.4,0.6*38
$GPGSA,A,3,65,71,72,73,74,75,81,88,,,,,0.7,0.4,0.6*3B
$GPGSA,A,3,03,05,09,13,15,24,25,31,34,,,,0.7,0.4,0.6*3A
$GPGSA,A,3,05,06,09,11,16,19,22,36,60,,,,0.7,0.4,0.6*31
$GPGST,061522.00,1.954,0.469,0.331,14.803,0.461,0.342,0.697*66
$GPGBS,061522.00,3.310,2.781,4.768,72,0.0001,5.335,6.038*54
$GPGRS,061522.00,1,-0.6,-0.5,-0.5,-0.1,0.2,0.2,0.6,-0.4,0.1,0.1,,*64
$GPGRS,061522.00,1,-3.7,0.0,5.3,2.5,1.8,-3.1,0.7,-2.1,,,,*6B
$GPGRS,061522.00,1,-0.5,0.1,0.3,0.3,-0.2,-0.1,-0.3,-0.3,0.1,,,*49
$GPGRS,061522.00,1,1.3,1.8,-0.3,1.2,-5.6,-0.7,-0.5,0.0,-1.8,,,*4C
$GPGSV,6,1,21,30,71,212,51,13,19,277,42,14,14,168,40,11,24,239,44*76
$GPGSV,6,2,21,05,35,309,46,09,32,093,44,20,61,270,48,07,67,065,49*73
$GPGSV,6,3,21,16,03,025,34,06,07,208,38,27,00,052,,04,06,094,38*7D
$GPGSV,6,4,21,36,35,170,45,58,13,245,37,40,24,133,37,34,31,208,44*7C
$GPGSV,6,5,21,49,34,195,45,57,07,111,38,41,07,108,36,61,03,257,38*71
$GPGSV,6,6,21*7A
$GLGSV,3,1,09,72,72,007,50,88,18,295,48,81,11,347,43,71,40,102,49*65
$GLGSV,3,2,09,75,22,185,45,65,22,308,43,73,44,047,49,74,65,132,48*6B
$GLGSV,3,3,09,87,04,242,41*56
$GAGSV,3,1,11,05,68,070,48,25,20,158,41,13,15,327,38,34,19,219,41*6D
$GAGSV,3,2,11,09,16,090,38,31,22,044,41,16,33,135,,15,33,274,43*60
$GAGSV,3,3,11,24,39,102,45,03,53,288,47,08,04,277,36*59
$GBGSV,6,1,24,22,83,114,52,58,22,042,,05,22,129,39,09,22,054,38*6F
$GBGSV,6,2,24,26,29,183,,50,18,303,,46,27,048,,19,27,122,47*64
$GBGSV,6,3,24,45,37,190,,36,65,109,51,21,82,073,,02,05,108,33*6C
$GBGSV,6,4,24,07,05,109,,28,04,338,,34,03,285,38,12,02,259,36*69
$GBGSV,6,5,24,40,06,075,,43,03,327,,16,05,054,37,11,08,307,38*6C
$GBGSV,6,6,24,48,02,123,,10,04,116,,06,08,055,36,60,07,112,40*6C
$GPGGA,061522.00,,,,,0,00,,,M,,M,,*4A
$PTNL,GGK,061522.00,010125,4742.1601735,N,01618.0999944,E,1,36,0.7,EHT751.0773,M*46
$GPGGQ,061522.00,010125,4742.1601735,N,01618.0999944,E,1,36,0.903,707.8708,M*32
$GPGFA,061522.00,4.461,5.714,0.469,0.331,14.803,0.697,,VVV*3D
$GPLLK,061522.00,010125,,M,,M,1,36,0.8,,M*04
$GNGMP,061522.00,,,,,DAAA,36,0.4,,,,*55
$GPGMP,061522.00,,,,,,10,,,,3.0,136*79
$GLGMP,061522.00,,,,,,08,,,,,*75
$GAGMP,061522.00,,,,,,09,,,,,*79
$GBGMP,061522.00,,,,,,09,,,,,*7A
$PSSN,SNC,[0,281740000,2347]*4C
$GPZDA,061527.00,01,01,2025,,*64
$GPDTM,W84,,00.0000000,N,00.0000000,E,00.0000000,W84*5F
$PSSN,TFM,061527.00,,,,*68
$GPRMC,061527.00,A,4742.1601749,N,01618.0999977,E,0.0,,010125,5.1,E,D*1D
$GPGLL,4742.1601749,N,01618.0999977,E,061527.00,A,D*6C
$GPGGA,061527.00,4742.1601749,N,01618.0999977,E,2,36,0.4,707.8678,M,43.2066,M,3.6,0136*45
$GNGNS,061527.00,4742.1601749,N,01618.0999977,E,DAAA,36,0.4,707.8678,43.2066,,*58
$GPGNS,061527.00,,,,,,10,,,,3.6,136*7A
$GLGNS,061527.00,,,,,,08,,,,,*70
$GAGNS,061527.00,,,,,,09,,,,,*7C
$GBGNS,061527.00,,,,,,09,,,,,*7F
$GPLLQ,061527.00,010125,,M,,M,1,36,0.917,,M*1C
$GPVTG,,T,,M,0.00,N,0.01,K,D*27
$GPHDT,,T*1B
$GPTHS,,V*0E
$GPROT,,V*08
$PSSN,HRP,061527.00,010125,,,,,,,00,0,,*66
$PTNL,AVR,061527.00,,Yaw,,Tilt,,,,0,,00*30
$GPGSA,A,3,04,05,06,07,09,11,13,14,20,30,,,0.7,0.4,0.6*38
$GPGSA,A,3,65,71,72,73,74,75,81,88,,,,,0.7,0.4,0.6*3B
$GPGSA,A,3,03,05,09,13,15,24,25,31,34,,,,0.7,0.4,0.6*3A
$GPGSA,A,3,05,06,09,11,16,19,22,36,60,,,,0.7,0.4,0.6*31
$GPGST,061527.00,2.074,0.478,0.335,14.781,0.470,0.346,0.707*66
$GPGBS,061527.00,3.368,2.799,4.619,05,0.0001,-0.856,0.736*79
$GPGRS,061527.00,1,-0.5,-0.9,-0.5,-0.2,-0.1,0.6,0.9,-0.1,0.1,0.2,,*4E
$GPGRS,061527.00,1,-4.0,-0.4,5.8,2.5,2.3,-3.1,0.5,-2.1,,,,*46
$GPGRS,061527.00,1,-0.4,0.4,0.3,0.7,0.2,0.2,-0.3,-0.2,0.1,,,*4E
$GPGRS,061527.00,1,1.4,2.0,0.2,2.1,-5.6,-0.4,-0.4,-0.0,-1.7,,,*49
$GPGSV,6,1,21,30,71,212,51,13,19,277,42,14,14,168,41,11,24,239,44*77
$GPGSV,6,2,21,05,35,309,46,09,32,093,44,20,61,270,48,07,67,065,49*73
$GPGSV,6,3,21,16,03,025,33,06,07,208,38,27,00,052,,04,06,094,38*7A
$GPGSV,6,4,21,36,35,170,45,58,13,245,37,40,24,133,37,34,31,208,44*7C
$GPGSV,6,5,21,49,34,195,45,57,07,111,38,41,07,108,35,61,03,257,38*72
$GPGSV,6,6,21*7A
$GLGSV,3,1,09,72,72,007,50,88,18,295,46,81,11,347,43,71,40,102,49*6B
$GLGSV,3,2,09,75,22,185,45,65,22,308,43,73,44,047,49,74,65,131,48*68
$GLGSV,3,3,09,87,04,242,41*56
$GAGSV,3,1,11,05,68,070,48,25,20,158,42,13,15,327,39,34,19,219,41*6F
$GAGSV,3,2,11,09,16,090,38,31,22,044,41,16,33,135,,15,33,274,43*60
$GAGSV,3,3,11,24,39,102,45,03,53,288,47,08,04,277,36*59
$GBGSV,6,1,24,22,83,115,52,58,22,042,,05,22,129,39,09,22,054,38*6E
$GBGSV,6,2,24,26,29,183,,50,18,303,,46,27,048,,19,27,122,46*65
$GBGSV,6,3,24,45,37,190,,36,65,109,51,21,82,073,,02,05,108,33*6C
$GBGSV,6,4,24,07,05,109,,28,04,338,,34,03,285,38,12,02,259,35*6A
$GBGSV,6,5,24,40,06,075,,43,03,327,,16,05,054,37,11,08,307,38*6C
$GBGSV,6,6,24,48,02,123,,10,04,116,,06,08,055,36,60,07,112,40*6C
$GPGGA,061527.00,,,,,0,00,,,M,,M,,*4F
$PTNL,GGK,061527.00,010125,4742.1601749,N,01618.0999977,E,1,36,0.7,EHT751.0743,M*4B
$GPGGQ,061527.00,010125,4742.1601749,N,01618.0999977,E,1,36,0.917,707.8678,M*3F
$GPGFA,061527.00,4.549,5.797,0.478,0.335,14.781,0.707,,VVV*31
$GPLLK,061527.00,010125,,M,,M,1,36,0.8,,M*01
$GNGMP,061527.00,,,,,DAAA,36,0.4,,,,*50
$GPGMP,061527.00,,,,,,10,,,,3.6,136*7A
$GLGMP,061527.00,,,,,,08,,,,,*70
$GAGMP,061527.00,,,,,,09,,,,,*7C
$GBGMP,061527.00,,,,,,09,,,,,*7F
$PSSN,SNC,[0,281745000,2347]*49
$GPZDA,061532.00,01,01,2025,,*60
$GPDTM,W84,,00.0000000,N,00.0000000,E,00.0000000,W84*5F
$PSSN,TFM,061532.00,,,,*6C
$GPRMC,061532.00,A,4742.1601793,N,01618.0999992,E,0.0,,010125,5.1,E,D*15
$GPGLL,4742.1601793,N,01618.0999992,E,061532.00,A,D*64
$GPGGA,061532.00,4742.1601793,N,01618.0999992,E,2,36,0.4,707.8733,M,43.2066,M,1.4,0136*43
$GNGNS,061532.00,4742.1601793,N,01618.0999992,E,DAAA,36,0.4,707.8733,43.2066,,*5E
$GPGNS,061532.00,,,,,,10,,,,1.4,136*7E
$GLGNS,061532.00,,,,,,08,,,,,*74
$GAGNS,061532.00,,,,,,09,,,,,*78
$GBGNS,061532.00,,,,,,09,,,,,*7B
$GPLLQ,061532.00,010125,,M,,M,1,36,0.915,,M*1A
$GPVTG,,T,,M,0.00,N,0.01,K,D*27
$GPHDT,,T*1B
$GPTHS,,V*0E
$GPROT,,V*08
$PSSN,HRP,061532.00,010125,,,,,,,00,0,,*62
$PTNL,AVR,061532.00,,Yaw,,Tilt,,,,0,,00*34
$GPGSA,A,3,04,05,06,07,09,11,13,14,20,30,,,0.7,0.4,0.6*38
$GPGSA,A,3,65,71,72,73,74,75,81,88,,,,,0.7,0.4,0.6*3B
$GPGSA,A,3,03,05,09,13,15,24,25,31,34,,,,0.7,0.4,0.6*3A
$GPGSA,A,3,05,06,09,11,16,19,22,36,60,,,,0.7,0.4,0.6*31
$GPGST,061532.00,2.044,0.477,0.332,14.503,0.469,0.343,0.707*6C
$GPGBS,061532.00,3.292,2.692,4.556,11,0.0001,0.829,0.798*5F
$GPGRS,061532.00,1,-0.2,-0.3,-0.4,-0.3,0.0,0.8,0.6,-0.1,0.0,-0.0,,*44
$GPGRS,061532.00,1,-3.7,-0.8,5.6,2.6,2.1,-2.8,0.4,-3.0,,,,*48
$GPGRS,061532.00,1,-0.7,0.1,0.3,0.1,0.1,0.1,-0.4,-0.2,0.0,,,*4C
$GPGRS,061532.00,1,1.6,1.7,0.0,2.4,-5.4,-0.8,-0.7,-0.1,-1.9,,,*4E
$GPGSV,6,1,21,30,71,212,51,13,19,277,41,14,14,168,41,11,24,239,44*74
$GPGSV,6,2,21,05,35,309,46,09,32,093,44,20,61,270,48,07,67,065,49*73
$GPGSV,6,3,21,16,03,025,34,06,07,208,38,27,00,052,,04,06,094,38*7D
$GPGSV,6,4,21,36,35,170,45,58,13,245,37,40,24,133,37,34,31,208,44*7C
$GPGSV,6,5,21,49,34,195,45,57,07,111,38,41,07,108,35,61,03,257,38*72
$GPGSV,6,6,21*7A
$GLGSV,3,1,09,72,72,007,50,88,18,295,46,81,11,347,44,71,39,102,49*62
$GLGSV,3,2,09,75,22,185,46,65,22,308,43,73,44,046,49,74,65,131,48*6A
$GLGSV,3,3,09,87,04,242,40*57
$GAGSV,3,1,11,05,68,070,48,25,20,158,42,13,15,327,39,34,19,219,41*6F
$GAGSV,3,2,11,09,16,090,39,31,22,044,41,16,33,135,,15,33,274,43*61
$GAGSV,3,3,11,24,39,102,45,03,53,288,47,08,04,277,36*59
$GBGSV,6,1,24,22,83,115,52,58,22,042,,05,22,129,38,09,22,054,38*6F
$GBGSV,6,2,24,26,29,183,,50,18,303,,46,26,048,,19,27,122,46*64
$GBGSV,6,3,24,45,37,190,,36,65,109,51,21,82,074,,02,05,108,33*6B
$GBGSV,6,4,24,07,05,109,,28,04,338,,34,03,285,38,12,02,259,35*6A
$GBGSV,6,5,24,40,07,075,,43,03,327,,16,05,054,37,11,08,307,38*6D
$GBGSV,6,6,24,48,02,123,,10,04,116,,06,08,055,36,60,07,112,40*6C
$GPGGA,061532.00,,,,,0,00,,,M,,M,,*4B
$PTNL,GGK,061532.00,010125,4742.1601793,N,01618.0999992,E,1,36,0.7,EHT751.0798,M*45
$GPGGQ,061532.00,010125,4742.1601793,N,01618.0999992,E,1,36,0.915,707.8733,M*3B
$GPGFA,061532.00,4.536,5.798,0.477,0.332,14.503,0.707,,VVV*32
$GPLLK,061532.00,010125,,M,,M,1,36,0.8,,M*05
$GNGMP,061532.00,,,,,DAAA,36,0.4,,,,*54
$GPGMP,061532.00,,,,,,10,,,,1.4,136*7E
$GLGMP,061532.00,,,,,,08,,,,,*74
$GAGMP,061532.00,,,,,,09,,,,,*78
$GBGMP,061532.00,,,,,,09,,,,,*7B
$PSSN,SNC,[0,281750000,2347]*4D
$GPZDA,061537.00,01,01,2025,,*65
$GPDTM,W84,,00.0000000,N,00.0000000,E,00.0000000,W84*5F
$PSSN,TFM,061537.00,,,,*69
$GPRMC,061537.00,A,4742.1601823,N,01618.1000032,E,0.0,,010125,5.1,E,D*1F
$GPGLL,4742.1601823,N,01618.1000032,E,061537.00,A,D*6E
$GPGGA,061537.00,4742.1601823,N,01618.1000032,E,2,36,0.4,707.8743,M,43.2066,M,2.0,0136*49
$GNGNS,061537.00,4742.1601823,N,01618.1000032,E,DAAA,36,0.4,707.8743,43.2066,,*53
$GPGNS,061537.00,,,,,,10,,,,2.0,136*7C
$GLGNS,061537.00,,,,,,08,,,,,*71
$GAGNS,061537.00,,,,,,09,,,,,*7D
$GBGNS,061537.00,,,,,,09,,,,,*7E
$GPLLQ,061537.00,010125,,M,,M,1,36,0.900,,M*1B
$GPVTG,,T,,M,0.00,N,0.01,K,D*27
$GPHDT,,T*1B
$GPTHS,,V*0E
$GPROT,,V*08
$PSSN,HRP,061537.00,010125,,,,,,,00,0,,*67
$PTNL,AVR,061537.00,,Yaw,,Tilt,,,,0,,00*31
$GPGSA,A,3,04,05,06,07,09,11,13,14,20,30,,,0.7,0.4,0.6*38
$GPGSA,A,3,65,71,72,73,74,75,81,88,,,,,0.7,0.4,0.6*3B
$GPGSA,A,3,03,05,09,13,15,24,25,31,34,,,,0.7,0.4,0.6*3A
$GPGSA,A,3,05,06,09,11,16,19,22,36,60,,,,0.7,0.4,0.6*31
$GPGST,061537.00,2.125,0.467,0.325,14.678,0.460,0.336,0.697*64
$GPGBS,061537.00,3.267,2.725,4.674,72,0.0001,5.233,6.038*54
$GPGRS,061537.00,1,-0.8,-0.3,-0.3,-0.4,0.5,0.5,0.3,0.4,0.0,-0.0,,*6E
$GPGRS,061537.00,1,-3.9,-0.2,5.2,3.1,1.6,-2.6,0.9,-3.4,,,,*48
$GPGRS,061537.00,1,-0.6,0.1,0.8,0.1,0.2,0.3,-0.3,-0.3,0.1,,,*45
$GPGRS,061537.00,1,1.2,2.4,0.4,2.8,-5.9,-0.8,-0.5,-0.2,-1.9,,,*4B
$GPGSV,6,1,21,30,71,212,51,13,19,277,41,14,14,168,41,11,24,239,44*74
$GPGSV,6,2,21,05,35,309,46,09,32,093,44,20,61,270,48,07,67,065,49*73
$GPGSV,6,3,21,16,03,025,34,06,07,208,38,27,00,052,,04,05,094,38*7E
$GPGSV,6,4,21,36,35,170,45,58,13,245,37,40,24,133,37,34,31,208,44*7C
$GPGSV,6,5,21,49,34,195,45,57,07,111,38,41,07,108,36,61,03,257,38*71
$GPGSV,6,6,21*7A
$GLGSV,3,1,09,72,72,007,51,88,18,295,46,81,11,347,44,71,39,103,49*62
$GLGSV,3,2,09,75,22,185,46,65,22,308,43,73,44,046,50,74,65,131,48*62
$GLGSV,3,3,09,87,04,241,40*54
$GAGSV,3,1,11,05,68,070,48,25,20,158,42,34,19,219,41,13,15,327,38*6E
$GAGSV,3,2,11,09,16,090,39,31,22,044,41,16,33,135,,15,33,274,44*66
$GAGSV,3,3,11,24,39,102,45,03,53,288,47,08,04,277,36*59
$GBGSV,6,1,24,22,82,115,52,58,22,042,,05,22,129,38,09,22,054,38*6E
$GBGSV,6,2,24,26,29,183,,50,18,303,,46,26,048,,19,27,122,46*64
$GBGSV,6,3,24,45,37,190,,36,65,109,51,21,82,074,,02,05,108,33*6B
$GBGSV,6,4,24,07,05,109,,28,04,338,,34,03,285,38,12,02,259,35*6A
$GBGSV,6,5,24,40,07,075,,43,03,327,,16,05,054,37,11,08,307,38*6D
$GBGSV,6,6,24,48,02,123,,10,04,116,,06,08,055,36,60,07,112,40*6C
$GPGGA,061537.00,,,,,0,00,,,M,,M,,*4E
$PTNL,GGK,061537.00,010125,4742.1601823,N,01618.1000032,E,1,36,0.7,EHT751.0809,M*48
$GPGGQ,061537.00,010125,4742.1601823,N,01618.1000032,E,1,36,0.900,707.8743,M*32
$GPGFA,061537.00,4.443,5.717,0.467,0.325,14.678,0.697,,VVV*33
$GPLLK,061537.00,010125,,M,,M,1,36,0.8,,M*00
$GNGMP,061537.00,,,,,DAAA,36,0.4,,,,*51
$GPGMP,061537.00,,,,,,10,,,,2.0,136*7C
$GLGMP,061537.00,,,,,,08,,,,,*71
$GAGMP,061537.00,,,,,,09,,,,,*7D
$GBGMP,061537.00,,,,,,09,,,,,*7E
$PSSN,SNC,[0,281755000,2347]*48
$GPZDA,061542.00,01,01,2025,,*67
$GPDTM,W84,,00.0000000,N,00.0000000,E,00.0000000,W84*5F
$PSSN,TFM,061542.00,,,,*6B
$GPRMC,061542.00,A,4742.1601836,N,01618.0999998,E,0.0,,010125,5.1,E,D*18
$GPGLL,4742.1601836,N,01618.0999998,E,061542.00,A,D*69
$GPGGA,061542.00,4742.1601836,N,01618.0999998,E,2,36,0.4,707.8772,M,43.2066,M,3.0,0136*4D
$GNGNS,061542.00,4742.1601836,N,01618.0999998,E,DAAA,36,0.4,707.8772,43.2066,,*56
$GPGNS,061542.00,,,,,,10,,,,3.0,136*7F
$GLGNS,061542.00,,,,,,08,,,,,*73
$GAGNS,061542.00,,,,,,09,,,,,*7F
$GBGNS,061542.00,,,,,,09,,,,,*7C
$GPLLQ,061542.00,010125,,M,,M,1,36,0.903,,M*1A
$GPVTG,,T,,M,0.00,N,0.00,K,D*26
$GPHDT,,T*1B
$GPTHS,,V*0E
$GPROT,,V*08
$PSSN,HRP,061542.00,010125,,,,,,,00,0,,*65
$PTNL,AVR,061542.00,,Yaw,,Tilt,,,,0,,00*33
$GPGSA,A,3,04,05,06,07,09,11,13,14,20,30,,,0.7,0.4,0.6*38
$GPGSA,A,3,65,71,72,73,74,75,81,88,,,,,0.7,0.4,0.6*3B
$GPGSA,A,3,03,05,09,13,15,24,25,31,34,,,,0.7,0.4,0.6*3A
$GPGSA,A,3,05,06,09,11,16,19,22,36,60,,,,0.7,0.4,0.6*31
$GPGST,061542.00,2.046,0.470,0.331,14.781,0.462,0.341,0.697*64
$GPGBS,061542.00,3.308,2.776,4.777,09,0.0001,0.836,0.892*52
$GPGRS,061542.00,1,-0.1,-0.4,-0.9,-0.4,0.8,0.3,0.9,0.2,-0.2,0.0,,*6D
$GPGRS,061542.00,1,-3.2,-0.4,5.4,3.2,2.3,-2.6,1.6,-3.1,,,,*4F
$GPGRS,061542.00,1,-0.6,0.2,0.7,-0.2,0.0,0.4,-0.5,-0.4,0.3,,,*63
$GPGRS,061542.00,1,1.4,1.8,0.7,2.0,-5.5,-0.7,-0.4,-0.1,-1.7,,,*44
$GPGSV,6,1,21,30,71,212,51,13,19,277,41,14,14,168,41,11,24,239,44*74
$GPGSV,6,2,21,05,35,309,46,09,32,093,44,20,61,270,48,07,67,065,48*72
$GPGSV,6,3,21,16,03,025,34,06,07,208,38,27,00,052,,04,05,094,38*7E
$GPGSV,6,4,21,36,35,170,45,58,13,245,37,40,24,133,37,34,31,208,44*7C
$GPGSV,6,5,21,49,34,195,45,57,07,111,38,41,07,108,35,61,03,257,38*72
$GPGSV,6,6,21*7A
$GLGSV,3,1,09,72,72,007,50,88,18,295,46,81,11,347,45,71,39,103,49*62
$GLGSV,3,2,09,75,22,185,46,65,22,308,44,73,44,046,49,74,65,131,48*6D
$GLGSV,3,3,09,87,04,241,40*54
$GAGSV,3,1,11,05,68,070,49,25,20,158,42,34,19,219,42,13,15,327,39*6D
$GAGSV,3,2,11,09,16,090,40,31,22,044,41,16,33,135,,15,33,274,44*68
$GAGSV,3,3,11,24,39,102,45,03,53,288,47,08,04,277,36*59
$GBGSV,6,1,24,22,82,115,52,58,22,042,,05,22,129,39,09,22,054,38*6F
$GBGSV,6,2,24,26,29,183,,50,18,303,,46,26,048,,19,27,122,46*64
$GBGSV,6,3,24,45,37,190,,36,65,109,51,21,82,074,,02,05,108,33*6B
$GBGSV,6,4,24,07,05,109,,28,04,338,,34,03,285,38,12,02,259,35*6A
$GBGSV,6,5,24,40,07,075,,43,03,327,,16,05,054,37,11,08,307,37*62
$GBGSV,6,6,24,48,02,123,,10,04,116,,06,08,055,35,60,07,112,40*6F
$GPGGA,061542.00,,,,,0,00,,,M,,M,,*4C
$PTNL,GGK,061542.00,010125,4742.1601836,N,01618.0999998,E,1,36,0.7,EHT751.0837,M*42
$GPGGQ,061542.00,010125,4742.1601836,N,01618.0999998,E,1,36,0.903,707.8772,M*34
$GPGFA,061542.00,4.466,5.717,0.470,0.331,14.781,0.697,,VVV*32
$GPLLK,061542.00,010125,,M,,M,1,36,0.8,,M*02
$GNGMP,061542.00,,,,,DAAA,36,0.4,,,,*53
$GPGMP,061542.00,,,,,,10,,,,3.0,136*7F
$GLGMP,061542.00,,,,,,08,,,,,*73
$GAGMP,061542.00,,,,,,09,,,,,*7F
$GBGMP,061542.00,,,,,,09,,,,,*7C
$PSSN,SNC,[0,281760000,2347]*4E
$GPZDA,061547.00,01,01,2025,,*62
$GPDTM,W84,,00.0000000,N,00.0000000,E,00.0000000,W84*5F
$PSSN,TFM,061547.00,,,,*6E
$GPRMC,061547.00,A,4742.1601842,N,01618.1000004,E,0.0,,010125,5.1,E,D*1A
$GPGLL,4742.1601842,N,01618.1000004,E,061547.00,A,D*6B
$GPGGA,061547.00,4742.1601842,N,01618.1000004,E,2,36,0.4,707.8849,M,43.2066,M,3.6,0136*4E
$GNGNS,061547.00,4742.1601842,N,01618.1000004,E,DAAA,36,0.4,707.8849,43.2066,,*53
$GPGNS,061547.00,,,,,,10,,,,3.6,136*7C
$GLGNS,061547.00,,,,,,08,,,,,*76
$GAGNS,061547.00,,,,,,09,,,,,*7A
$GBGNS,061547.00,,,,,,09,,,,,*79
$GPLLQ,061547.00,010125,,M,,M,1,36,0.918,,M*15
$GPVTG,,T,,M,0.00,N,0.01,K,D*27
$GPHDT,,T*1B
$GPTHS,,V*0E
$GPROT,,V*08
$PSSN,HRP,061547.00,010125,,,,,,,00,0,,*60
$PTNL,AVR,061547.00,,Yaw,,Tilt,,,,0,,00*36
$GPGSA,A,3,04,05,06,07,09,11,13,14,20,30,,,0.7,0.4,0.6*38
$GPGSA,A,3,65,71,72,73,74,75,81,88,,,,,0.7,0.4,0.6*3B
$GPGSA,A,3,03,05,09,13,15,24,25,31,34,,,,0.7,0.4,0.6*3A
$GPGSA,A,3,05,06,09,11,16,19,22,36,60,,,,0.7,0.4,0.6*31
$GPGST,061547.00,2.029,0.479,0.335,14.736,0.471,0.346,0.707*64
$GPGBS,061547.00,3.365,2.793,4.626,72,0.0001,5.435,6.038*5A
$GPGRS,061547.00,1,-0.2,-0.4,-0.6,-0.5,0.6,0.7,0.9,-0.2,0.0,-0.0,,*40
$GPGRS,061547.00,1,-3.2,-0.7,5.4,2.5,2.1,-3.1,1.4,-3.0,,,,*48
$GPGRS,061547.00,1,-0.6,0.2,0.3,0.1,-0.2,0.3,-0.5,-0.4,0.3,,,*64
$GPGRS,061547.00,1,1.5,1.8,-0.2,1.7,-5.7,-0.8,-0.6,-0.2,-1.6,,,*61
$GPGSV,6,1,21,30,71,212,51,13,19,277,42,14,14,168,41,11,24,239,44*77
$GPGSV,6,2,21,05,35,309,46,09,32,093,44,20,61,270,49,07,67,065,49*72
$GPGSV,6,3,21,16,03,025,34,06,07,208,38,27,00,052,,04,05,094,38*7E
$GPGSV,6,4,21,36,35,170,45,58,13,245,37,40,24,133,37,34,31,208,44*7C
$GPGSV,6,5,21,49,34,195,45,57,07,111,38,41,07,108,36,61,03,257,39*70
$GPGSV,6,6,21*7A
$GLGSV,3,1,09,72,73,007,50,88,18,295,46,81,11,347,43,71,39,103,49*65
$GLGSV,3,2,09,75,22,185,46,65,22,308,43,73,44,046,49,74,65,131,48*6A
$GLGSV,3,3,09,87,03,241,40*53
$GAGSV,3,1,11,05,68,070,48,25,20,158,41,34,19,219,42,13,15,327,39*6F
$GAGSV,3,2,11,09,16,090,40,31,22,044,41,16,33,135,,15,33,274,44*68
$GAGSV,3,3,11,24,39,102,46,03,53,288,47,08,04,277,36*5A
$GBGSV,6,1,24,22,82,115,52,58,22,042,,05,22,129,39,09,22,054,38*6F
$GBGSV,6,2,24,26,29,183,,50,18,303,,46,26,048,,19,27,122,47*65
$GBGSV,6,3,24,45,37,190,,36,65,109,52,21,82,074,,02,05,108,33*68
$GBGSV,6,4,24,07,05,109,,28,04,338,,34,03,285,38,12,02,259,35*6A
$GBGSV,6,5,24,40,07,075,,43,03,327,,16,05,054,38,11,08,307,38*62
$GBGSV,6,6,24,48,02,123,,10,04,116,,06,08,055,36,60,07,112,40*6C
$GPGGA,061547.00,,,,,0,00,,,M,,M,,*49
$PTNL,GGK,061547.00,010125,4742.1601842,N,01618.1000004,E,1,36,0.7,EHT751.0914,M*40
$GPGGQ,061547.00,010125,4742.1601842,N,01618.1000004,E,1,36,0.918,707.8849,M*3B
$GPGFA,061547.00,4.554,5.799,0.479,0.335,14.736,0.707,,VVV*38
$GPLLK,061547.00,010125,,M,,M,1,36,0.8,,M*07
$GNGMP,061547.00,,,,,DAAA,36,0.4,,,,*56
$GPGMP,061547.00,,,,,,10,,,,3.6,136*7C
$GLGMP,061547.00,,,,,,08,,,,,*76
$GAGMP,061547.00,,,,,,09,,,,,*7A
$GBGMP,061547.00,,,,,,09,,,,,*79
$PSSN,SNC,[0,281765000,2347]*4B
$GPZDA,061552.00,01,01,2025,,*66
$GPDTM,W84,,00.0000000,N,00.0000000,E,00.0000000,W84*5F
$PSSN,TFM,061552.00,,,,*6A
$GPRMC,061552.00,A,4742.1601861,N,01618.1000045,E,0.0,,010125,5.1,E,D*1A
$GPGLL,4742.1601861,N,01618.1000045,E,061552.00,A,D*6B
$GPGGA,061552.00,4742.1601861,N,01618.1000045,E,2,36,0.4,707.8857,M,43.2066,M,1.4,0136*41
$GNGNS,061552.00,4742.1601861,N,01618.1000045,E,DAAA,36,0.4,707.8857,43.2066,,*5C
$GPGNS,061552.00,,,,,,10,,,,1.4,136*78
$GLGNS,061552.00,,,,,,08,,,,,*72
$GAGNS,061552.00,,,,,,09,,,,,*7E
$GBGNS,061552.00,,,,,,09,,,,,*7D
$GPLLQ,061552.00,010125,,M,,M,1,36,0.915,,M*1C
$GPVTG,,T,,M,0.00,N,0.00,K,D*26
$GPHDT,,T*1B
$GPTHS,,V*0E
$GPROT,,V*08
$PSSN,HRP,061552.00,010125,,,,,,,00,0,,*64
$PTNL,AVR,061552.00,,Yaw,,Tilt,,,,0,,00*32
$GPGSA,A,3,04,05,06,07,09,11,13,14,20,30,,,0.7,0.4,0.6*38
$GPGSA,A,3,65,71,72,73,74,75,81,88,,,,,0.7,0.4,0.6*3B
$GPGSA,A,3,03,05,09,13,15,24,25,31,34,,,,0.7,0.4,0.6*3A
$GPGSA,A,3,05,06,09,11,16,19,22,36,60,,,,0.7,0.4,0.6*31
$GPGST,061552.00,2.115,0.477,0.331,14.473,0.470,0.342,0.707*63
$GPGBS,061552.00,3.287,2.686,4.563,13,0.0001,0.927,0.933*5C
$GPGRS,061552.00,1,-0.3,-0.6,-0.5,-0.4,0.4,0.5,0.9,-0.4,0.2,0.1,,*6D
$GPGRS,061552.00,1,-4.3,-0.7,5.4,2.5,1.7,-2.8,0.1,-2.6,,,,*44
$GPGRS,061552.00,1,-0.6,0.0,0.6,0.3,-0.5,0.2,-0.7,-0.7,0.1,,,*60
$GPGRS,061552.00,1,1.4,2.0,-0.2,2.0,-6.2,-0.5,-0.6,-0.3,-1.9,,,*6E
$GPGSV,6,1,21,30,71,212,51,13,19,277,42,14,14,168,41,11,24,239,44*77
$GPGSV,6,2,21,05,35,309,46,09,32,093,44,20,61,270,48,07,67,065,49*73
$GPGSV,6,3,21,16,03,025,34,06,07,208,38,27,00,052,,04,05,094,38*7E
$GPGSV,6,4,21,36,35,170,45,58,13,245,37,40,24,133,37,34,31,208,44*7C
$GPGSV,6,5,21,49,34,195,45,57,07,111,38,41,07,108,35,61,03,257,38*72
$GPGSV,6,6,21*7A
$GLGSV,3,1,09,72,73,008,50,88,18,295,46,81,11,347,43,71,39,103,49*6A
$GLGSV,3,2,09,75,23,185,47,65,23,308,43,73,44,046,49,74,65,131,48*6B
$GLGSV,3,3,09,87,03,241,40*53
$GAGSV,3,1,11,05,68,070,48,25,20,158,41,34,19,219,41,13,15,327,40*62
$GAGSV,3,2,11,09,16,090,40,31,22,044,41,16,33,135,,15,33,273,44*6F
$GAGSV,3,3,11,24,39,102,45,03,53,288,47,08,04,277,36*59
$GBGSV,6,1,24,22,82,115,52,58,22,042,,05,22,129,39,09,22,054,38*6F
$GBGSV,6,2,24,26,29,183,,50,18,303,,46,26,048,,19,27,122,46*64
$GBGSV,6,3,24,45,37,190,,36,65,109,51,21,82,074,,02,05,108,33*6B
$GBGSV,6,4,24,07,05,109,,28,04,338,,34,03,285,38,12,02,259,35*6A
$GBGSV,6,5,24,40,07,075,,43,03,327,,16,05,054,38,11,08,307,38*62
$GBGSV,6,6,24,48,02,123,,10,04,116,,06,08,055,36,60,07,112,40*6C
$GPGGA,061552.00,,,,,0,00,,,M,,M,,*4D
$PTNL,GGK,061552.00,010125,4742.1601861,N,01618.1000045,E,1,36,0.7,EHT751.0923,M*44
$GPGGQ,061552.00,010125,4742.1601861,N,01618.1000045,E,1,36,0.915,707.8857,M*39
$GPGFA,061552.00,4.539,5.799,0.477,0.331,14.473,0.707,,VVV*3F
$GPLLK,061552.00,010125,,M,,M,1,36,0.8,,M*03
$GNGMP,061552.00,,,,,DAAA,36,0.4,,,,*52
$GPGMP,061552.00,,,,,,10,,,,1.4,136*78
$GLGMP,061552.00,,,,,,08,,,,,*72
$GAGMP,061552.00,,,,,,09,,,,,*7E
$GBGMP,061552.00,,,,,,09,,,,,*7D
$PSSN,SNC,[0,281770000,2347]*4F
$GPZDA,061557.00,01,01,2025,,*63
$GPDTM,W84,,00.0000000,N,00.0000000,E,00.0000000,W84*5F
$PSSN,TFM,061557.00,,,,*6F
$GPRMC,061557.00,A,4742.1601857,N,01618.1000042,E,0.0,,010125,5.1,E,D*1D
$GPGLL,4742.1601857,N,01618.1000042,E,061557.00,A,D*6C
$GPGGA,061557.00,4742.1601857,N,01618.1000042,E,2,36,0.4,707.8847,M,43.2066,M,2.0,0136*40
$GNGNS,061557.00,4742.1601857,N,01618.1000042,E,DAAA,36,0.4,707.8847,43.2066,,*5A
$GPGNS,061557.00,,,,,,10,,,,2.0,136*7A
$GLGNS,061557.00,,,,,,08,,,,,*77
$GAGNS,061557.00,,,,,,09,,,,,*7B
$GBGNS,061557.00,,,,,,09,,,,,*78
$GPLLQ,061557.00,010125,,M,,M,1,36,0.901,,M*1C
$GPVTG,,T,,M,0.01,N,0.01,K,D*26
$GPHDT,,T*1B
$GPTHS,,V*0E
$GPROT,,V*08
$PSSN,HRP,061557.00,010125,,,,,,,00,0,,*61
$PTNL,AVR,061557.00,,Yaw,,Tilt,,,,0,,00*37
$GPGSA,A,3,04,05,06,07,09,11,13,14,20,30,,,0.7,0.4,0.6*38
$GPGSA,A,3,65,71,72,73,74,75,81,88,,,,,0.7,0.4,0.6*3B
$GPGSA,A,3,03,05,09,13,15,24,25,31,34,,,,0.7,0.4,0.6*3A
$GPGSA,A,3,05,06,09,11,16,19,22,36,60,,,,0.7,0.4,0.6*31
$GPGST,061557.00,2.128,0.468,0.325,14.655,0.460,0.336,0.697*6F
$GPGBS,061557.00,3.264,2.719,4.683,72,0.0001,5.626,6.038*56
$GPGRS,061557.00,1,-0.4,-0.3,-0.6,0.0,0.2,0.2,0.5,-0.2,-0.0,-0.0,,*48
$GPGRS,061557.00,1,-4.2,-0.1,5.6,2.8,2.3,-2.9,-0.2,-2.6,,,,*61
$GPGRS,061557.00,1,-0.5,0.5,0.5,0.1,-0.5,0.2,-0.4,-0.4,0.5,,,*66
$GPGRS,061557.00,1,1.7,2.3,0.1,3.2,-5.4,-0.3,-0.5,-0.2,-1.6,,,*48
$GPGSV,6,1,21,30,71,212,51,13,19,277,42,14,14,168,41,11,24,239,44*77
$GPGSV,6,2,21,05,35,309,46,09,32,093,44,20,61,270,48,07,67,065,49*73
$GPGSV,6,3,21,16,03,025,34,06,07,208,38,27,00,052,,04,05,094,38*7E
$GPGSV,6,4,21,36,35,170,45,58,13,245,37,40,24,133,37,34,31,208,44*7C
$GPGSV,6,5,21,49,34,195,45,57,07,111,38,41,07,108,35,61,03,257,38*72
$GPGSV,6,6,21*7A
$GLGSV,3,1,09,72,73,008,50,88,18,295,47,81,11,347,43,71,39,103,49*6B
$GLGSV,3,2,09,75,23,185,47,65,23,308,43,73,44,046,50,74,65,131,48*63
$GLGSV,3,3,09,87,03,241,40*53
$GAGSV,3,1,11,05,68,071,48,25,20,158,41,34,19,219,42,13,15,327,39*6E
$GAGSV,3,2,11,09,16,090,40,31,22,044,41,16,33,135,,15,33,273,44*6F
$GAGSV,3,3,11,24,39,102,45,03,53,288,47,08,04,277,37*58
$GBGSV,6,1,24,22,82,115,52,58,22,042,,05,22,129,38,09,22,054,38*6E
$GBGSV,6,2,24,26,29,183,,50,18,303,,46,26,048,,19,27,122,46*64
$GBGSV,6,3,24,45,37,190,,36,65,109,51,21,82,074,,02,05,108,33*6B
$GBGSV,6,4,24,07,05,109,,28,04,338,,34,03,285,38,12,02,259,35*6A
$GBGSV,6,5,24,40,07,075,,43,03,327,,16,05,054,38,11,08,307,38*62
$GBGSV,6,6,24,48,02,123,,10,04,116,,06,08,055,35,60,07,112,40*6F
$GPGGA,061557.00,,,,,0,00,,,M,,M,,*48
$PTNL,GGK,061557.00,010125,4742.1601857,N,01618.1000042,E,1,36,0.7,EHT751.0913,M*40
$GPGGQ,061557.00,010125,4742.1601857,N,01618.1000042,E,1,36,0.901,707.8847,M*3A
$GPGFA,061557.00,4.447,5.719,0.468,0.325,14.655,0.697,,VVV*3F
$GPLLK,061557.00,010125,,M,,M,1,36,0.8,,M*06
$GNGMP,061557.00,,,,,DAAA,36,0.4,,,,*57
$GPGMP,061557.00,,,,,,10,,,,2.0,136*7A
$GLGMP,061557.00,,,,,,08,,,,,*77
$GAGMP,061557.00,,,,,,09,,,,,*7B
$GBGMP,061557.00,,,,,,09,,,,,*78
$PSSN,SNC,[0,281775000,2347]*4A
$GPZDA,061602.00,01,01,2025,,*60
$GPDTM,W84,,00.0000000,N,00.0000000,E,00.0000000,W84*5F
$PSSN,TFM,061602.00,,,,*6C
$GPRMC,061602.00,A,4742.1601854,N,01618.1000030,E,0.0,,010125,5.1,E,D*18
$GPGLL,4742.1601854,N,01618.1000030,E,061602.00,A,D*69
$GPGGA,061602.00,4742.1601854,N,01618.1000030,E,2,36,0.4,707.8823,M,43.2066,M,3.0,0136*46
$GNGNS,061602.00,4742.1601854,N,01618.1000030,E,DAAA,36,0.4,707.8823,43.2066,,*5D
$GPGNS,061602.00,,,,,,10,,,,3.0,136*78
$GLGNS,061602.00,,,,,,08,,,,,*74
$GAGNS,061602.00,,,,,,09,,,,,*78
$GBGNS,061602.00,,,,,,09,,,,,*7B
$GPLLQ,061602.00,010125,,M,,M,1,36,0.904,,M*1A
$GPVTG,,T,,M,0.01,N,0.01,K,D*26
$GPHDT,,T*1B
$GPTHS,,V*0E
$GPROT,,V*08
$PSSN,HRP,061602.00,010125,,,,,,,00,0,,*62
$PTNL,AVR,061602.00,,Yaw,,Tilt,,,,0,,00*34
$GPGSA,A,3,04,05,06,07,09,11,13,14,20,30,,,0.7,0.4,0.6*38
$GPGSA,A,3,65,71,72,73,74,75,81,88,,,,,0.7,0.4,0.6*3B
$GPGSA,A,3,03,05,09,13,15,24,25,31,34,,,,0.7,0.4,0.6*3A
$GPGSA,A,3,05,06,09,11,16,19,22,36,60,,,,0.7,0.4,0.6*31
$GPGST,061602.00,1.937,0.470,0.331,14.765,0.462,0.341,0.697*65
$GPGBS,061602.00,3.304,2.770,4.786,72,0.0001,5.334,6.038*5F
$GPGRS,061602.00,1,-0.4,-0.2,-0.6,-0.1,0.0,0.1,0.5,0.0,-0.1,0.1,,*65
$GPGRS,061602.00,1,-3.4,-0.2,5.3,3.0,2.2,-2.4,0.5,-2.9,,,,*45
$GPGRS,061602.00,1,-0.6,0.3,0.5,-0.3,-0.3,0.3,-0.2,-0.7,0.2,,,*4A
$GPGRS,061602.00,1,1.7,1.7,0.8,1.8,-5.0,-0.6,-0.5,-0.2,-1.8,,,*42
$GPGSV,6,1,21,30,71,212,51,13,19,277,41,14,14,168,41,11,24,239,44*74
$GPGSV,6,2,21,05,35,309,46,09,32,093,44,20,61,270,48,07,67,065,49*73
$GPGSV,6,3,21,16,03,025,34,06,06,208,37,27,00,052,,04,05,094,38*70
$GPGSV,6,4,21,36,35,170,45,58,13,245,37,40,24,133,37,34,31,208,44*7C
$GPGSV,6,5,21,49,34,195,45,57,07,111,38,41,07,108,35,61,03,257,38*72
$GPGSV,6,6,21*7A
$GLGSV,3,1,09,72,73,008,50,88,18,295,47,81,11,347,44,71,39,103,49*6C
$GLGSV,3,2,09,75,23,185,46,65,23,308,43,73,44,046,49,74,65,131,48*6A
$GLGSV,3,3,09,87,03,241,39*5D
$GAGSV,3,1,11,05,68,071,48,25,20,158,41,34,19,219,41,13,15,327,39*6D
$GAGSV,3,2,11,09,16,091,40,31,22,044,41,16,34,135,,15,33,273,43*6E
$GAGSV,3,3,11,24,40,102,45,03,53,288,47,08,04,277,36*57
$GBGSV,6,1,24,22,82,115,52,58,22,042,,05,22,129,39,09,22,054,39*6E
$GBGSV,6,2,24,26,29,183,,50,18,303,,46,26,048,,19,27,122,46*64
$GBGSV,6,3,24,45,37,190,,36,65,109,51,21,81,075,,02,05,108,33*69
$GBGSV,6,4,24,07,05,109,,28,04,338,,34,03,285,38,12,02,259,35*6A
$GBGSV,6,5,24,40,07,075,,43,03,327,,16,05,054,38,11,08,307,38*62
$GBGSV,6,6,24,48,02,123,,10,04,116,,06,08,055,36,60,07,112,40*6C
$GPGGA,061602.00,,,,,0,00,,,M,,M,,*4B
$PTNL,GGK,061602.00,010125,4742.1601854,N,01618.1000030,E,1,36,0.7,EHT751.0888,M*46
$GPGGQ,061602.00,010125,4742.1601854,N,01618.1000030,E,1,36,0.904,707.8823,M*38
$GPGFA,061602.00,4.471,5.719,0.470,0.331,14.765,0.697,,VVV*37
$GPLLK,061602.00,010125,,M,,M,1,36,0.8,,M*05
$GNGMP,061602.00,,,,,DAAA,36,0.4,,,,*54
$GPGMP,061602.00,,,,,,10,,,,3.0,136*78
$GLGMP,061602.00,,,,,,08,,,,,*74
$GAGMP,061602.00,,,,,,09,,,,,*78
$GBGMP,061602.00,,,,,,09,,,,,*7B
$PSSN,SNC,[0,281780000,2347]*40
$GPZDA,061607.00,01,01,2025,,*65
$GPDTM,W84,,00.0000000,N,00.0000000,E,00.0000000,W84*5F
$PSSN,TFM,061607.00,,,,*69
$GPRMC,061607.00,A,4742.1601832,N,01618.1000046,E,0.0,,010125,5.1,E,D*1C
$GPGLL,4742.1601832,N,01618.1000046,E,061607.00,A,D*6D
$GPGGA,061607.00,4742.1601832,N,01618.1000046,E,2,36,0.4,707.8816,M,43.2066,M,3.6,0136*42
$GNGNS,061607.00,4742.1601832,N,01618.1000046,E,DAAA,36,0.4,707.8816,43.2066,,*5F
$GPGNS,061607.00,,,,,,10,,,,3.6,136*7B
$GLGNS,061607.00,,,,,,08,,,,,*71
$GAGNS,061607.00,,,,,,09,,,,,*7D
$GBGNS,061607.00,,,,,,09,,,,,*7E
$GPLLQ,061607.00,010125,,M,,M,1,36,0.918,,M*12
$GPVTG,,T,,M,0.00,N,0.01,K,D*27
$GPHDT,,T*1B
$GPTHS,,V*0E
$GPROT,,V*08
$PSSN,HRP,061607.00,010125,,,,,,,00,0,,*67
$PTNL,AVR,061607.00,,Yaw,,Tilt,,,,0,,00*31
$GPGSA,A,3,04,05,06,07,09,11,13,14,20,30,,,0.7,0.4,0.6*38
$GPGSA,A,3,65,71,72,73,74,75,81,88,,,,,0.7,0.4,0.6*3B
$GPGSA,A,3,03,05,09,13,15,24,25,31,34,,,,0.7,0.4,0.6*3A
$GPGSA,A,3,05,06,09,11,16,19,22,36,60,,,,0.7,0.4,0.6*31
$GPGST,061607.00,1.953,0.479,0.335,14.706,0.472,0.346,0.707*64
$GPGBS,061607.00,3.362,2.787,4.632,06,0.0001,-1.233,1.220*7C
$GPGRS,061607.00,1,-0.3,-0.3,-1.2,-0.4,0.3,0.1,0.5,0.1,0.4,0.1,,*4C
$GPGRS,061607.00,1,-3.6,-0.8,5.4,2.6,2.0,-3.1,0.1,-2.8,,,,*4B
$GPGRS,061607.00,1,-0.6,0.3,0.7,-0.1,-0.1,0.5,-0.3,-0.2,0.3,,,*4E
$GPGRS,061607.00,1,1.5,1.8,0.5,0.9,-5.2,-0.4,-0.4,-0.3,-1.7,,,*48
$GPGSV,6,1,21,30,71,212,51,13,19,277,42,14,15,168,42,11,24,239,44*75
$GPGSV,6,2,21,05,35,309,45,09,32,093,44,20,61,270,48,07,67,065,49*70
$GPGSV,6,3,21,16,03,025,34,06,06,208,38,27,00,052,,04,05,094,38*7F
$GPGSV,6,4,21,36,35,170,45,58,13,245,37,40,24,133,37,34,31,208,44*7C
$GPGSV,6,5,21,49,34,195,45,57,07,111,38,41,07,108,36,61,03,257,38*71
$GPGSV,6,6,21*7A
$GLGSV,3,1,09,72,73,008,50,88,18,295,47,81,11,347,43,71,39,103,49*6B
$GLGSV,3,2,09,75,23,185,46,65,23,308,44,73,44,046,49,74,65,131,48*6D
$GLGSV,3,3,09,87,03,241,40*53
$GAGSV,3,1,11,05,68,071,48,25,20,158,41,34,19,219,41,13,15,327,38*6C
$GAGSV,3,2,11,09,16,091,40,31,22,044,40,16,34,135,,15,33,273,43*6F
$GAGSV,3,3,11,24,40,102,45,03,53,288,47,08,04,277,36*57
$GBGSV,6,1,24,22,82,116,52,58,21,042,,05,22,129,39,09,22,054,39*6E
$GBGSV,6,2,24,26,29,183,,50,18,303,,46,26,048,,19,27,122,47*65
$GBGSV,6,3,24,45,37,190,,36,65,109,51,21,81,075,,02,05,108,33*69
$GBGSV,6,4,24,07,05,109,,28,04,338,,34,03,285,38,12,02,259,37*68
$GBGSV,6,5,24,40,07,075,,43,03,327,,16,05,054,38,11,08,307,38*62
$GBGSV,6,6,24,48,02,123,,10,04,116,,06,08,055,36,60,07,112,40*6C
$GPGGA,061607.00,,,,,0,00,,,M,,M,,*4E
$PTNL,GGK,061607.00,010125,4742.1601832,N,01618.1000046,E,1,36,0.7,EHT751.0882,M*48
$GPGGQ,061607.00,010125,4742.1601832,N,01618.1000046,E,1,36,0.918,707.8816,M*37
$GPGFA,061607.00,4.559,5.801,0.479,0.335,14.706,0.707,,VVV*3F
$GPLLK,061607.00,010125,,M,,M,1,36,0.8,,M*00
$GNGMP,061607.00,,,,,DAAA,36,0.4,,,,*51
$GPGMP,061607.00,,,,,,10,,,,3.6,136*7B
$GLGMP,061607.00,,,,,,08,,,,,*71
$GAGMP,061607.00,,,,,,09,,,,,*7D
$GBGMP,061607.00,,,,,,09,,,,,*7E
$PSSN,SNC,[0,281785000,2347]*45
$GPZDA,061612.00,01,01,2025,,*61
$GPDTM,W84,,00.0000000,N,00.0000000,E,00.0000000,W84*5F
$PSSN,TFM,061612.00,,,,*6D
$GPRMC,061612.00,A,4742.1601846,N,01618.1000055,E,0.0,,010125,5.1,E,D*19
$GPGLL,4742.1601846,N,01618.1000055,E,061612.00,A,D*68
$GPGGA,061612.00,4742.1601846,N,01618.1000055,E,2,36,0.4,707.8780,M,43.2066,M,1.4,0136*47
$GNGNS,061612.00,4742.1601846,N,01618.1000055,E,DAAA,36,0.4,707.8780,43.2066,,*5A
$GPGNS,061612.00,,,,,,10,,,,1.4,136*7F
$GLGNS,061612.00,,,,,,08,,,,,*75
$GAGNS,061612.00,,,,,,09,,,,,*79
$GBGNS,061612.00,,,,,,09,,,,,*7A
$GPLLQ,061612.00,010125,,M,,M,1,36,0.916,,M*18
$GPVTG,,T,,M,0.00,N,0.01,K,D*27
$GPHDT,,T*1B
$GPTHS,,V*0E
$GPROT,,V*08
$PSSN,HRP,061612.00,010125,,,,,,,00,0,,*63
$PTNL,AVR,061612.00,,Yaw,,Tilt,,,,0,,00*35
$GPGSA,A,3,04,05,06,07,09,11,13,14,20,30,,,0.7,0.4,0.6*38
$GPGSA,A,3,65,71,72,73,74,75,81,88,,,,,0.7,0.4,0.6*3B
$GPGSA,A,3,03,05,09,13,15,24,25,31,34,,,,0.7,0.4,0.6*3A
$GPGSA,A,3,05,06,09,11,16,19,22,36,60,,,,0.7,0.4,0.6*31
$GPGST,061612.00,2.035,0.478,0.331,14.433,0.470,0.342,0.708*63
$GPGBS,061612.00,3.284,2.681,4.572,06,0.0001,-1.260,1.194*7B
$GPGRS,061612.00,1,-0.6,-0.5,-1.3,-0.4,0.4,0.5,0.7,0.3,0.1,0.2,,*4F
$GPGRS,061612.00,1,-3.4,-1.0,5.6,2.6,2.0,-3.5,-0.5,-3.0,,,,*62
$GPGRS,061612.00,1,-0.8,0.3,0.7,0.4,-0.4,0.4,-0.4,-0.3,0.3,,,*6E
$GPGRS,061612.00,1,0.9,1.5,0.5,3.0,-4.9,-0.0,-0.4,-0.2,-1.9,,,*47
$GPGSV,6,1,21,30,71,212,51,13,19,277,42,14,15,168,41,11,24,239,44*76
$GPGSV,6,2,21,05,35,309,45,09,32,093,44,20,61,270,48,07,67,065,49*70
$GPGSV,6,3,21,16,03,025,34,06,06,208,38,27,00,052,,04,05,094,38*7F
$GPGSV,6,4,21,36,35,170,45,58,13,245,37,40,24,133,37,34,31,208,44*7C
$GPGSV,6,5,21,49,34,195,45,57,07,111,38,41,07,108,35,61,03,257,38*72
$GPGSV,6,6,21*7A
$GLGSV,3,1,09,72,73,008,50,88,18,295,47,81,11,347,44,71,39,103,49*6C
$GLGSV,3,2,09,75,23,185,46,65,23,308,43,73,44,046,49,74,65,131,48*6A
$GLGSV,3,3,09,87,03,241,40*53
$GAGSV,3,1,11,05,68,071,48,25,20,158,41,34,19,219,41,13,15,327,38*6C
$GAGSV,3,2,11,09,16,091,40,31,22,044,40,16,34,135,,15,33,273,43*6F
$GAGSV,3,3,11,24,40,102,45,03,53,288,47,08,04,277,36*57
$GBGSV,6,1,24,22,82,116,52,58,21,042,,05,22,129,39,09,22,054,39*6E
$GBGSV,6,2,24,26,29,183,,50,18,303,,46,26,048,,19,27,122,47*65
$GBGSV,6,3,24,45,37,190,,36,65,108,51,21,81,075,,02,05,108,33*68
$GBGSV,6,4,24,07,05,109,,28,04,338,,34,03,284,38,12,02,259,37*69
$GBGSV,6,5,24,40,07,075,,43,03,327,,16,05,054,38,11,08,307,38*62
$GBGSV,6,6,24,48,02,123,,10,04,116,,06,08,055,36,60,07,112,40*6C
$GPGGA,061612.00,,,,,0,00,,,M,,M,,*4A
$PTNL,GGK,061612.00,010125,4742.1601846,N,01618.1000055,E,1,36,0.7,EHT751.0846,M*45
$GPGGQ,061612.00,010125,4742.1601846,N,01618.1000055,E,1,36,0.916,707.8780,M*3C
$GPGFA,061612.00,4.545,5.802,0.478,0.331,14.433,0.708,,VVV*3A
$GPLLK,061612.00,010125,,M,,M,1,36,0.8,,M*04
$GNGMP,061612.00,,,,,DAAA,36,0.4,,,,*55
$GPGMP,061612.00,,,,,,10,,,,1.4,136*7F
$GLGMP,061612.00,,,,,,08,,,,,*75
$GAGMP,061612.00,,,,,,09,,,,,*79
$GBGMP,061612.00,,,,,,09,,,,,*7A
$PSSN,SNC,[0,281790000,2347]*41
$GPZDA,061617.00,01,01,2025,,*64
$GPDTM,W84,,00.0000000,N,00.0000000,E,00.0000000,W84*5F
$PSSN,TFM,061617.00,,,,*68
$GPRMC,061617.00,A,4742.1601845,N,01618.1000078,E,0.0,,010125,5.1,E,D*10
$GPGLL,4742.1601845,N,01618.1000078,E,061617.00,A,D*61
$GPGGA,061617.00,4742.1601845,N,01618.1000078,E,2,36,0.4,707.8821,M,43.2066,M,2.0,0136*4D
$GNGNS,061617.00,4742.1601845,N,01618.1000078,E,DAAA,36,0.4,707.8821,43.2066,,*57
$GPGNS,061617.00,,,,,,10,,,,2.0,136*7D
$GLGNS,061617.00,,,,,,08,,,,,*70
$GAGNS,061617.00,,,,,,09,,,,,*7C
$GBGNS,061617.00,,,,,,09,,,,,*7F
$GPLLQ,061617.00,010125,,M,,M,1,36,0.901,,M*1B
$GPVTG,,T,,M,0.01,N,0.01,K,D*26
$GPHDT,,T*1B
$GPTHS,,V*0E
$GPROT,,V*08
$PSSN,HRP,061617.00,010125,,,,,,,00,0,,*66
$PTNL,AVR,061617.00,,Yaw,,Tilt,,,,0,,00*30
$GPGSA,A,3,04,05,06,07,09,11,13,14,20,30,,,0.7,0.4,0.6*38
$GPGSA,A,3,65,71,72,73,74,75,81,88,,,,,0.7,0.4,0.6*3B
$GPGSA,A,3,03,05,09,13,15,24,25,31,34,,,,0.7,0.4,0.6*3A
$GPGSA,A,3,05,06,09,11,16,19,22,36,60,,,,0.7,0.4,0.6*31
$GPGST,061617.00,2.009,0.468,0.325,14.656,0.460,0.336,0.698*66
$GPGBS,061617.00,3.261,2.714,4.691,13,0.0001,1.081,0.940*52
$GPGRS,061617.00,1,-0.6,-0.3,-1.0,-0.4,0.6,0.6,1.1,-0.3,-0.3,0.2,,*4B
$GPGRS,061617.00,1,-3.8,-0.5,5.8,2.7,1.8,-3.1,1.4,-2.6,,,,*45
$GPGRS,061617.00,1,-0.7,0.3,0.3,0.2,-0.3,0.1,-0.6,-0.5,0.7,,,*64
$GPGRS,061617.00,1,1.4,1.1,0.3,2.3,-4.8,-0.1,-0.7,-0.4,-1.7,,,*45
$GPGSV,6,1,21,30,72,212,51,13,19,277,42,14,15,168,41,11,24,239,44*75
$GPGSV,6,2,21,05,35,309,46,09,32,093,44,20,61,269,48,07,67,065,48*7A
$GPGSV,6,3,21,16,03,025,34,06,06,208,38,27,00,052,,04,05,094,38*7F
$GPGSV,6,4,21,36,35,170,45,58,13,245,37,40,24,133,37,34,31,208,44*7C
$GPGSV,6,5,21,49,34,195,45,57,07,111,38,41,07,108,35,61,03,257,39*73
$GPGSV,6,6,21*7A
$GLGSV,3,1,09,72,73,008,51,88,18,295,47,81,11,347,44,71,39,103,49*6D
$GLGSV,3,2,09,75,23,185,46,65,23,308,44,73,44,046,49,74,65,131,48*6D
$GLGSV,3,3,09,87,03,241,40*53
$GAGSV,3,1,11,05,68,071,48,25,20,158,40,34,19,219,41,13,15,327,38*6D
$GAGSV,3,2,11,09,16,091,40,31,22,044,40,16,34,135,,15,33,273,44*68
$GAGSV,3,3,11,24,40,102,45,03,53,288,47,08,05,277,37*57
$GBGSV,6,1,24,22,82,116,52,58,21,042,,05,22,129,39,09,22,054,39*6E
$GBGSV,6,2,24,26,29,183,,50,18,303,,46,26,048,,19,27,122,46*64
$GBGSV,6,3,24,45,37,190,,36,65,108,51,21,81,075,,02,05,108,33*68
$GBGSV,6,4,24,07,05,109,,28,04,338,,34,03,284,38,12,02,259,36*68
$GBGSV,6,5,24,40,07,075,,43,03,327,,16,05,054,37,11,08,307,38*6D
$GBGSV,6,6,24,48,02,123,,10,04,116,,06,08,055,36,60,07,112,40*6C
$GPGGA,061617.00,,,,,0,00,,,M,,M,,*4F
$PTNL,GGK,061617.00,010125,4742.1601845,N,01618.1000078,E,1,36,0.7,EHT751.0887,M*41
$GPGGQ,061617.00,010125,4742.1601845,N,01618.1000078,E,1,36,0.901,707.8821,M*37
$GPGFA,061617.00,4.451,5.722,0.468,0.325,14.656,0.698,,VVV*3B
$GPLLK,061617.00,010125,,M,,M,1,36,0.8,,M*01
$GNGMP,061617.00,,,,,DAAA,36,0.4,,,,*50
$GPGMP,061617.00,,,,,,10,,,,2.0,136*7D
$GLGMP,061617.00,,,,,,08,,,,,*70
$GAGMP,061617.00,,,,,,09,,,,,*7C
$GBGMP,061617.00,,,,,,09,,,,,*7F
$PSSN,SNC,[0,281795000,2347]*44
$GPZDA,061622.00,01,01,2025,,*62
