$GPZDA,195942.00,01,01,2025,,*61
$GPDTM,W84,,00.0000000,N,00.0000000,E,00.0000000,W84*5F
$PSSN,TFM,195942.00,,,,*6D
$GPRMC,195942.00,A,4742.1605016,N,01618.1002172,E,0.0,,010125,5.1,E,D*16
$GPGLL,4742.1605016,N,01618.1002172,E,195942.00,A,D*67
$GPGGA,195942.00,4742.1605016,N,01618.1002172,E,2,39,0.4,708.5196,M,43.2066,M,2.4,0136*47
$GNGNS,195942.00,4742.1605016,N,01618.1002172,E,DAAA,39,0.4,708.5196,43.2066,,*59
$GPGNS,195942.00,,,,,,10,,,,2.4,136*7C
$GLGNS,195942.00,,,,,,08,,,,,*75
$GAGNS,195942.00,,,,,,07,,,,,*77
$GBGNS,195942.00,,,,,,14,,,,,*76
$GPLLQ,195942.00,010125,,M,,M,1,39,0.844,,M*11
$GPVTG,,T,,M,0.00,N,0.00,K,D*26
$GPHDT,,T*1B
$GPTHS,,V*0E
$GPROT,,V*08
$PSSN,HRP,195942.00,010125,,,,,,,00,0,,*63
$PTNL,AVR,195942.00,,Yaw,,Tilt,,,,0,,00*35
$GPGSA,A,3,07,08,10,15,16,18,21,23,26,27,,,0.8,0.4,0.6*3F
$GPGSA,A,3,66,67,73,74,80,82,83,84,,,,,0.8,0.4,0.6*3B
$GPGSA,A,3,03,08,13,15,21,26,31,,,,,,0.8,0.4,0.6*30
$GPGSA,A,3,05,08,11,13,14,21,27,28,33,37,38,42,0.8,0.4,0.6*37
$GPGSA,A,3,43,60,,,,,,,,,,,0.8,0.4,0.6*39
$GPGST,195942.00,2.131,0.366,0.317,336.028,0.359,0.326,0.691*58
$GPGBS,195942.00,2.373,1.890,4.561,67,0.0001,7.816,6.114*54
$GPGRS,195942.00,1,0.1,-0.2,0.3,-0.3,0.1,0.2,1.0,-0.1,-0.6,-0.1,,*66
$GPGRS,195942.00,1,-3.9,7.8,5.0,-4.2,-0.9,-0.2,-1.5,-2.9,,,,*4E
$GPGRS,195942.00,1,-0.5,-0.2,0.3,-0.3,-0.0,0.1,0.2,,,,,*66
$GPGRS,195942.00,1,0.4,0.4,1.2,0.8,2.1,-1.5,-0.2,-0.2,0.7,-0.6,-1.2,-0.6*44
$GPGRS,195942.00,1,-0.0,-1.2,,,,,,,,,,*4F
$GPGSV,6,1,21,27,71,303,51,15,15,047,40,26,24,189,40,21,11,258,36*72
$GPGSV,6,2,21,08,35,301,44,18,29,065,43,16,50,209,48,10,56,162,50*73
$GPGSV,6,3,21,23,57,076,47,13,03,019,34,07,07,307,39,30,01,338,37*70
$GPGSV,6,4,21,36,35,170,44,58,13,245,37,57,11,108,38,34,31,208,42*7C
$GPGSV,6,5,21,40,24,133,36,49,34,195,44,41,07,108,34,61,03,257,38*7B
$GPGSV,6,6,21*7A
$GLGSV,3,1,10,83,66,009,42,84,25,279,38,66,15,021,44,68,25,132,*60
$GLGSV,3,2,10,82,35,066,48,74,36,304,45,73,37,246,48,67,38,075,49*6C
$GLGSV,3,3,10,80,06,198,43,75,04,347,*6B
$GAGSV,3,1,10,13,70,045,48,08,12,103,37,03,14,053,38,23,47,290,*6C
$GAGSV,3,2,10,21,48,204,47,15,18,063,39,26,50,255,47,27,08,166,32*6D
$GAGSV,3,3,10,31,08,326,38,33,03,248,36*67
$GBGSV,6,1,23,28,70,302,51,38,13,038,40,60,11,108,40,50,22,045,*6C
$GBGSV,6,2,23,05,23,128,38,08,27,037,39,46,23,302,,31,24,056,*6C
$GBGSV,6,3,23,33,34,138,46,11,18,089,40,37,26,243,45,13,35,043,43*6C
$GBGSV,6,4,23,58,31,298,,27,25,281,45,30,24,274,,42,36,069,46*66
$GBGSV,6,5,23,14,41,105,46,43,40,090,49,21,07,027,40,02,08,105,34*64
$GBGSV,6,6,23,57,09,222,,23,04,198,34,41,03,177,*56
$GPGGA,195942.00,,,,,0,00,,,M,,M,,*4A
$PTNL,GGK,195942.00,010125,4742.1605016,N,01618.1002172,E,1,39,0.8,EHT751.7261,M*42
$GPGGQ,195942.00,010125,4742.1605016,N,01618.1002172,E,1,39,0.844,708.5196,M*39
$GPGFA,195942.00,3.483,5.663,0.366,0.317,336.028,0.691,,VVV*0F
$GPLLK,195942.00,010125,,M,,M,1,39,0.8,,M*0B
$GNGMP,195942.00,,,,,DAAA,39,0.4,,,,*5A
$GPGMP,195942.00,,,,,,10,,,,2.4,136*7C
$GLGMP,195942.00,,,,,,08,,,,,*75
$GAGMP,195942.00,,,,,,07,,,,,*77
$GBGMP,195942.00,,,,,,14,,,,,*76
$PSSN,SNC,[0,331200000,2347]*47
$GPZDA,195947.00,01,01,2025,,*64
$GPDTM,W84,,00.0000000,N,00.0000000,E,00.0000000,W84*5F
$PSSN,TFM,195947.00,,,,*68
$GPRMC,195947.00,A,4742.1605031,N,01618.1002144,E,0.0,,010125,5.1,E,D*13
$GPGLL,4742.1605031,N,01618.1002144,E,195947.00,A,D*62
$GPGGA,195947.00,4742.1605031,N,01618.1002144,E,2,39,0.4,708.5171,M,43.2066,M,3.4,0136*4A
$GNGNS,195947.00,4742.1605031,N,01618.1002144,E,DAAA,39,0.4,708.5171,43.2066,,*55
$GPGNS,195947.00,,,,,,10,,,,3.4,136*78
$GLGNS,195947.00,,,,,,08,,,,,*70
$GAGNS,195947.00,,,,,,07,,,,,*72
$GBGNS,195947.00,,,,,,14,,,,,*73
$GPLLQ,195947.00,010125,,M,,M,1,39,0.853,,M*12
$GPVTG,,T,,M,0.00,N,0.01,K,D*27
$GPHDT,,T*1B
$GPTHS,,V*0E
$GPROT,,V*08
$PSSN,HRP,195947.00,010125,,,,,,,00,0,,*66
$PTNL,AVR,195947.00,,Yaw,,Tilt,,,,0,,00*30
$GPGSA,A,3,07,08,10,15,16,18,21,23,26,27,,,0.8,0.4,0.6*3F
$GPGSA,A,3,66,67,73,74,80,82,83,84,,,,,0.8,0.4,0.6*3B
$GPGSA,A,3,03,08,13,15,21,26,31,,,,,,0.8,0.4,0.6*30
$GPGSA,A,3,05,08,11,13,14,21,27,28,33,37,38,42,0.8,0.4,0.6*37
$GPGSA,A,3,43,60,,,,,,,,,,,0.8,0.4,0.6*39
$GPGST,195947.00,1.942,0.366,0.321,338.589,0.360,0.327,0.700*55
$GPGBS,195947.00,2.428,1.921,4.623,67,0.0001,6.751,6.113*5C
$GPGRS,195947.00,1,-0.5,-0.4,0.2,0.5,0.1,0.3,0.6,-0.1,-0.3,-0.1,,*65
$GPGRS,195947.00,1,-4.0,6.8,5.1,-3.0,-0.4,0.2,-0.8,-2.7,,,,*62
$GPGRS,195947.00,1,-0.2,-0.5,0.5,0.2,0.4,0.3,0.4,,,,,*64
$GPGRS,195947.00,1,0.9,0.5,0.8,0.7,2.2,-1.4,0.1,-0.1,0.6,-0.3,-1.0,-0.4*62
$GPGRS,195947.00,1,0.3,-1.7,,,,,,,,,,*61
$GPGSV,6,1,21,27,71,303,50,15,15,047,40,26,23,189,41,21,11,258,36*75
$GPGSV,6,2,21,08,35,301,44,18,29,065,44,16,50,209,48,10,56,162,50*74
$GPGSV,6,3,21,23,57,076,47,13,03,019,34,07,07,307,38,30,01,338,37*71
$GPGSV,6,4,21,36,35,170,44,58,13,245,37,57,11,108,38,34,31,208,42*7C
$GPGSV,6,5,21,40,24,133,36,49,34,195,44,41,07,108,34,61,03,257,38*7B
$GPGSV,6,6,21*7A
$GLGSV,3,1,10,83,66,009,42,84,25,279,38,66,15,021,45,68,25,132,*61
$GLGSV,3,2,10,82,35,066,48,74,36,304,45,73,37,246,49,67,38,075,49*6D
$GLGSV,3,3,10,80,06,198,43,75,04,347,*6B
$GAGSV,3,1,10,13,70,045,47,08,12,102,37,03,14,053,38,23,47,290,*62
$GAGSV,3,2,10,21,48,204,46,15,18,063,38,26,51,255,47,27,08,166,32*6C
$GAGSV,3,3,10,31,08,326,37,33,03,248,36*68
$GBGSV,6,1,23,28,70,302,51,38,13,038,40,60,11,108,40,50,22,045,*6C
$GBGSV,6,2,23,05,23,128,38,08,27,037,39,46,23,302,,31,24,056,*6C
$GBGSV,6,3,23,33,34,138,46,11,18,089,41,37,25,243,45,13,35,043,43*6E
$GBGSV,6,4,23,58,31,298,,27,25,281,45,30,24,274,,42,36,069,47*67
$GBGSV,6,5,23,14,41,105,46,43,40,090,49,21,07,027,39,02,08,105,34*6A
$GBGSV,6,6,23,57,09,222,,23,04,198,34,41,03,177,*56
$GPGGA,195947.00,,,,,0,00,,,M,,M,,*4F
$PTNL,GGK,195947.00,010125,4742.1605031,N,01618.1002144,E,1,39,0.8,EHT751.7237,M*44
$GPGGQ,195947.00,010125,4742.1605031,N,01618.1002144,E,1,39,0.853,708.5171,M*33
$GPGFA,195947.00,3.475,5.740,0.366,0.321,338.589,0.700,,VVV*0F
$GPLLK,195947.00,010125,,M,,M,1,39,0.8,,M*0E
$GNGMP,195947.00,,,,,DAAA,39,0.4,,,,*5F
$GPGMP,195947.00,,,,,,10,,,,3.4,136*78
$GLGMP,195947.00,,,,,,08,,,,,*70
$GAGMP,195947.00,,,,,,07,,,,,*72
$GBGMP,195947.00,,,,,,14,,,,,*73
$PSSN,SNC,[0,331205000,2347]*42
$GPZDA,195952.00,01,01,2025,,*60
$GPDTM,W84,,00.0000000,N,00.0000000,E,00.0000000,W84*5F
$PSSN,TFM,195952.00,,,,*6C
$GPRMC,195952.00,A,4742.1605054,N,01618.1002136,E,0.0,,010125,5.1,E,D*11
$GPGLL,4742.1605054,N,01618.1002136,E,195952.00,A,D*60
$GPGGA,195952.00,4742.1605054,N,01618.1002136,E,2,39,0.4,708.5174,M,43.2066,M,1.6,0136*4D
$GNGNS,195952.00,4742.1605054,N,01618.1002136,E,DAAA,39,0.4,708.5174,43.2066,,*52
$GPGNS,195952.00,,,,,,10,,,,1.6,136*7C
$GLGNS,195952.00,,,,,,08,,,,,*74
$GAGNS,195952.00,,,,,,07,,,,,*76
$GBGNS,195952.00,,,,,,14,,,,,*77
$GPLLQ,195952.00,010125,,M,,M,1,39,0.848,,M*1C
$GPVTG,,T,,M,0.00,N,0.01,K,D*27
$GPHDT,,T*1B
$GPTHS,,V*0E
$GPROT,,V*08
$PSSN,HRP,195952.00,010125,,,,,,,00,0,,*62
$PTNL,AVR,195952.00,,Yaw,,Tilt,,,,0,,00*34
$GPGSA,A,3,07,08,10,15,16,18,21,23,26,27,,,0.8,0.4,0.6*3F
$GPGSA,A,3,66,67,73,74,80,82,83,84,,,,,0.8,0.4,0.6*3B
$GPGSA,A,3,03,08,13,15,21,26,31,,,,,,0.8,0.4,0.6*30
$GPGSA,A,3,05,08,11,13,14,21,27,28,33,37,38,42,0.8,0.4,0.6*37
$GPGSA,A,3,43,60,,,,,,,,,,,0.8,0.4,0.6*39
$GPGST,195952.00,2.011,0.367,0.319,336.991,0.360,0.327,0.694*50
$GPGBS,195952.00,2.358,1.845,4.487,67,0.0001,7.241,6.113*52
$GPGRS,195952.00,1,-0.2,-0.2,0.4,-0.1,0.4,0.1,0.1,-0.1,-0.3,-0.4,,*4A
$GPGRS,195952.00,1,-3.5,7.2,5.5,-3.8,-0.8,0.1,-1.1,-1.8,,,,*68
$GPGRS,195952.00,1,-0.3,-0.4,0.5,0.3,0.5,0.4,0.4,,,,,*67
$GPGRS,195952.00,1,0.9,-0.0,1.2,0.8,1.5,-1.6,-0.0,-0.1,0.5,-0.7,-0.8,-0.4*6E
$GPGRS,195952.00,1,0.6,-1.7,,,,,,,,,,*60
$GPGSV,6,1,21,27,71,303,51,15,14,047,40,26,23,189,42,21,11,258,35*75
$GPGSV,6,2,21,08,35,301,44,18,29,065,44,16,50,209,47,10,56,162,51*7A
$GPGSV,6,3,21,23,57,076,47,13,03,018,34,07,07,307,39,30,01,338,36*70
$GPGSV,6,4,21,36,35,170,44,58,13,245,37,57,11,108,38,34,31,208,42*7C
$GPGSV,6,5,21,40,24,133,36,49,34,195,44,41,07,108,34,61,03,257,38*7B
$GPGSV,6,6,21*7A
$GLGSV,3,1,10,83,66,009,42,84,25,279,38,66,15,021,44,68,25,132,*60
$GLGSV,3,2,10,82,35,066,48,74,36,304,45,73,37,246,49,67,38,075,50*65
$GLGSV,3,3,10,80,06,198,43,75,04,347,*6B
$GAGSV,3,1,10,13,70,045,48,08,12,102,38,03,14,053,38,23,47,290,*62
$GAGSV,3,2,10,21,48,204,47,15,18,063,39,26,51,256,47,27,08,166,33*6E
$GAGSV,3,3,10,31,08,326,37,33,03,248,36*68
$GBGSV,6,1,23,28,70,302,51,38,13,038,40,60,11,108,40,50,22,045,*6C
$GBGSV,6,2,23,05,23,128,38,08,27,037,39,46,23,302,,31,24,056,*6C
$GBGSV,6,3,23,33,34,138,46,11,18,089,41,37,25,243,45,13,35,043,43*6E
$GBGSV,6,4,23,58,31,298,,27,25,281,45,30,24,274,,42,36,069,47*67
$GBGSV,6,5,23,14,41,105,46,43,40,090,48,21,07,027,39,02,08,105,35*6A
$GBGSV,6,6,23,57,09,222,,23,04,198,34,41,03,177,*56
$GPGGA,195952.00,,,,,0,00,,,M,,M,,*4B
$PTNL,GGK,195952.00,010125,4742.1605054,N,01618.1002136,E,1,39,0.8,EHT751.7239,M*48
$GPGGQ,195952.00,010125,4742.1605054,N,01618.1002136,E,1,39,0.848,708.5174,M*3E
$GPGFA,195952.00,3.488,5.695,0.367,0.319,336.991,0.694,,VVV*0D
$GPLLK,195952.00,010125,,M,,M,1,39,0.8,,M*0A
$GNGMP,195952.00,,,,,DAAA,39,0.4,,,,*5B
$GPGMP,195952.00,,,,,,10,,,,1.6,136*7C
$GLGMP,195952.00,,,,,,08,,,,,*74
$GAGMP,195952.00,,,,,,07,,,,,*76
$GBGMP,195952.00,,,,,,14,,,,,*77
$PSSN,SNC,[0,331210000,2347]*46
$GPZDA,195957.00,01,01,2025,,*65
$GPDTM,W84,,00.0000000,N,00.0000000,E,00.0000000,W84*5F
$PSSN,TFM,195957.00,,,,*69
$GPRMC,195957.00,A,4742.1605060,N,01618.1002121,E,0.0,,010125,5.1,E,D*15
$GPGLL,4742.1605060,N,01618.1002121,E,195957.00,A,D*64
$GPGGA,195957.00,4742.1605060,N,01618.1002121,E,2,39,0.4,708.5177,M,43.2066,M,2.6,0136*49
$GNGNS,195957.00,4742.1605060,N,01618.1002121,E,DAAA,39,0.4,708.5177,43.2066,,*55
$GPGNS,195957.00,,,,,,10,,,,2.6,136*7A
$GLGNS,195957.00,,,,,,08,,,,,*71
$GAGNS,195957.00,,,,,,07,,,,,*73
$GBGNS,195957.00,,,,,,14,,,,,*72
$GPLLQ,195957.00,010125,,M,,M,1,39,0.834,,M*12
$GPVTG,,T,,M,0.00,N,0.01,K,D*27
$GPHDT,,T*1B
$GPTHS,,V*0E
$GPROT,,V*08
$PSSN,HRP,195957.00,010125,,,,,,,00,0,,*67
$PTNL,AVR,195957.00,,Yaw,,Tilt,,,,0,,00*31
$GPGSA,A,3,07,08,10,15,16,18,21,23,26,27,,,0.8,0.4,0.6*3F
$GPGSA,A,3,66,67,73,74,80,82,83,84,,,,,0.8,0.4,0.6*3B
$GPGSA,A,3,03,08,13,15,21,26,31,,,,,,0.8,0.4,0.6*30
$GPGSA,A,3,05,08,11,13,14,21,27,28,33,37,38,42,0.8,0.4,0.6*37
$GPGSA,A,3,43,60,,,,,,,,,,,0.8,0.4,0.6*39
$GPGST,195957.00,2.169,0.365,0.313,334.655,0.356,0.323,0.681*53
$GPGBS,195957.00,2.408,1.870,4.538,67,0.0001,8.007,6.113*59
$GPGRS,195957.00,1,0.2,0.0,0.3,-0.0,-0.0,-0.2,0.5,-0.1,-0.6,-0.1,,*48
$GPGRS,195957.00,1,-4.1,8.0,5.3,-4.2,-0.9,-0.4,-1.7,-2.4,,,,*48
$GPGRS,195957.00,1,-0.4,0.1,0.5,0.5,0.7,0.4,0.7,,,,,*4A
$GPGRS,195957.00,1,0.5,-0.5,1.8,0.6,1.0,-1.8,0.2,0.0,0.4,-0.6,-1.0,-0.3*60
$GPGRS,195957.00,1,0.4,-1.4,,,,,,,,,,*64
$GPGSV,6,1,21,27,71,303,51,15,14,047,40,26,23,189,42,21,11,258,36*76
$GPGSV,6,2,21,08,35,301,44,18,29,065,44,16,50,209,48,10,56,162,50*74
$GPGSV,6,3,21,23,57,075,47,13,03,018,34,07,07,307,38,30,01,338,37*73
$GPGSV,6,4,21,36,35,170,45,58,13,245,37,57,11,108,38,34,31,208,42*7D
$GPGSV,6,5,21,40,24,133,36,49,34,195,44,41,07,108,34,61,03,257,38*7B
$GPGSV,6,6,21*7A
$GLGSV,3,1,10,83,65,009,42,84,25,279,37,66,15,021,44,68,25,132,*6C
$GLGSV,3,2,10,82,35,066,48,74,36,304,45,73,37,246,49,67,38,075,50*65
$GLGSV,3,3,10,80,06,198,44,75,04,347,*6C
$GAGSV,3,1,10,13,70,045,48,08,12,102,38,03,14,053,39,23,47,290,*63
$GAGSV,3,2,10,21,48,204,47,15,18,063,39,26,51,256,47,27,08,166,33*6E
$GAGSV,3,3,10,31,08,326,38,33,03,248,36*67
$GBGSV,6,1,23,28,70,302,51,38,13,038,40,60,11,108,40,50,22,045,*6C
$GBGSV,6,2,23,05,23,128,38,08,27,037,39,46,23,302,,31,24,056,*6C
$GBGSV,6,3,23,33,34,138,46,11,18,089,41,37,25,243,45,13,35,043,43*6E
$GBGSV,6,4,23,58,31,298,,27,25,281,46,30,24,274,,42,36,069,47*64
$GBGSV,6,5,23,14,41,105,46,43,40,090,48,21,07,027,39,02,08,105,35*6A
$GBGSV,6,6,23,57,09,222,,23,04,198,34,41,03,177,*56
$GPGGA,195957.00,,,,,0,00,,,M,,M,,*4E
$PTNL,GGK,195957.00,010125,4742.1605060,N,01618.1002121,E,1,39,0.8,EHT751.7242,M*40
$GPGGQ,195957.00,010125,4742.1605060,N,01618.1002121,E,1,39,0.834,708.5177,M*32
$GPGFA,195957.00,3.472,5.583,0.365,0.313,334.655,0.681,,VVV*00
$GPLLK,195957.00,010125,,M,,M,1,39,0.8,,M*0F
$GNGMP,195957.00,,,,,DAAA,39,0.4,,,,*5E
$GPGMP,195957.00,,,,,,10,,,,2.6,136*7A
$GLGMP,195957.00,,,,,,08,,,,,*71
$GAGMP,195957.00,,,,,,07,,,,,*73
$GBGMP,195957.00,,,,,,14,,,,,*72
$PSSN,SNC,[0,331215000,2347]*43
$GPZDA,200002.00,01,01,2025,,*63
$GPDTM,W84,,00.0000000,N,00.0000000,E,00.0000000,W84*5F
$PSSN,TFM,200002.00,,,,*6F
$GPRMC,200002.00,A,4742.1605082,N,01618.1002140,E,0.0,,010125,5.1,E,D*18
$GPGLL,4742.1605082,N,01618.1002140,E,200002.00,A,D*69
$GPGGA,200002.00,4742.1605082,N,01618.1002140,E,2,39,0.4,708.5152,M,43.2066,M,2.4,0136*41
$GNGNS,200002.00,4742.1605082,N,01618.1002140,E,DAAA,39,0.4,708.5152,43.2066,,*5F
$GPGNS,200002.00,,,,,,10,,,,2.4,136*7E
$GLGNS,200002.00,,,,,,08,,,,,*77
$GAGNS,200002.00,,,,,,07,,,,,*75
$GBGNS,200002.00,,,,,,14,,,,,*74
$GPLLQ,200002.00,010125,,M,,M,1,39,0.843,,M*14
$GPVTG,,T,,M,0.00,N,0.01,K,D*27
$GPHDT,,T*1B
$GPTHS,,V*0E
$GPROT,,V*08
$PSSN,HRP,200002.00,010125,,,,,,,00,0,,*61
$PTNL,AVR,200002.00,,Yaw,,Tilt,,,,0,,00*37
$GPGSA,A,3,07,08,10,15,16,18,21,23,26,27,,,0.8,0.4,0.6*3F
$GPGSA,A,3,66,67,73,74,80,82,83,84,,,,,0.8,0.4,0.6*3B
$GPGSA,A,3,03,08,13,15,21,26,31,,,,,,0.8,0.4,0.6*30
$GPGSA,A,3,05,08,11,13,14,21,27,28,33,37,38,42,0.8,0.4,0.6*37
$GPGSA,A,3,43,60,,,,,,,,,,,0.8,0.4,0.6*39
$GPGST,200002.00,2.256,0.367,0.317,335.865,0.359,0.326,0.690*5A
$GPGBS,200002.00,2.373,1.890,4.552,67,0.0001,8.088,6.113*51
$GPGRS,200002.00,1,-0.3,-0.1,0.2,-0.4,0.6,-0.1,0.7,0.0,-0.6,-0.2,,*4E
$GPGRS,200002.00,1,-4.4,8.1,5.8,-4.0,-0.4,-0.3,-1.8,-3.1,,,,*42
$GPGRS,200002.00,1,-0.3,0.1,0.6,0.5,0.6,0.2,0.7,,,,,*4F
$GPGRS,200002.00,1,0.2,-0.8,2.1,0.7,1.4,-1.4,-0.3,0.1,0.7,-0.3,-0.8,-0.4*4A
$GPGRS,200002.00,1,0.4,-1.2,,,,,,,,,,*64
$GPGSV,6,1,21,27,71,303,51,15,14,047,40,26,23,189,41,21,11,258,36*75
$GPGSV,6,2,21,08,35,301,44,18,29,065,44,16,49,209,48,10,56,162,50*7C
$GPGSV,6,3,21,23,57,075,47,13,03,018,34,07,07,307,39,30,01,338,37*72
$GPGSV,6,4,21,36,35,170,44,58,13,245,37,57,11,108,38,34,31,208,42*7C
$GPGSV,6,5,21,40,24,133,36,49,34,195,44,41,07,108,34,61,03,257,38*7B
$GPGSV,6,6,21*7A
$GLGSV,3,1,10,83,65,009,42,84,25,279,38,66,15,021,44,68,25,132,*63
$GLGSV,3,2,10,82,35,066,48,74,36,304,45,73,37,245,49,67,38,075,49*6E
$GLGSV,3,3,10,80,06,198,44,75,04,347,*6C
$GAGSV,3,1,10,13,70,045,48,08,12,102,38,03,14,053,38,23,47,290,*62
$GAGSV,3,2,10,21,48,204,47,15,18,063,39,26,51,256,47,27,08,166,32*6F
$GAGSV,3,3,10,31,08,326,38,33,03,248,36*67
$GBGSV,6,1,23,28,70,302,51,38,13,038,40,60,11,108,40,50,22,045,*6C
$GBGSV,6,2,23,05,23,128,38,08,27,037,39,46,23,302,,31,24,056,*6C
$GBGSV,6,3,23,33,34,138,46,11,18,089,41,37,25,243,44,13,35,043,43*6F
$GBGSV,6,4,23,58,31,297,,27,25,281,45,30,25,274,,42,36,069,47*69
$GBGSV,6,5,23,14,41,105,46,43,40,090,48,21,07,027,39,02,08,105,34*6B
$GBGSV,6,6,23,57,09,222,,23,04,198,34,41,03,177,*56
$GPGGA,200002.00,,,,,0,00,,,M,,M,,*48
$PTNL,GGK,200002.00,010125,4742.1605082,N,01618.1002140,E,1,39,0.8,EHT751.7217,M*4D
$GPGGQ,200002.00,010125,4742.1605082,N,01618.1002140,E,1,39,0.843,708.5152,M*38
$GPGFA,200002.00,3.487,5.657,0.367,0.317,335.865,0.690,,VVV*0C
$GPLLK,200002.00,010125,,M,,M,1,39,0.8,,M*09
$GNGMP,200002.00,,,,,DAAA,39,0.4,,,,*58
$GPGMP,200002.00,,,,,,10,,,,2.4,136*7E
$GLGMP,200002.00,,,,,,08,,,,,*77
$GAGMP,200002.00,,,,,,07,,,,,*75
$GBGMP,200002.00,,,,,,14,,,,,*74
$PSSN,SNC,[0,331220000,2347]*45
$GPZDA,200007.00,01,01,2025,,*66
$GPDTM,W84,,00.0000000,N,00.0000000,E,00.0000000,W84*5F
$PSSN,TFM,200007.00,,,,*6A
$GPRMC,200007.00,A,4742.1605094,N,01618.1002132,E,0.0,,010125,5.1,E,D*1F
$GPGLL,4742.1605094,N,01618.1002132,E,200007.00,A,D*6E
$GPGGA,200007.00,4742.1605094,N,01618.1002132,E,2,39,0.4,708.5093,M,43.2066,M,3.4,0136*4B
$GNGNS,200007.00,4742.1605094,N,01618.1002132,E,DAAA,39,0.4,708.5093,43.2066,,*54
$GPGNS,200007.00,,,,,,10,,,,3.4,136*7A
$GLGNS,200007.00,,,,,,08,,,,,*72
$GAGNS,200007.00,,,,,,07,,,,,*70
$GBGNS,200007.00,,,,,,14,,,,,*71
$GPLLQ,200007.00,010125,,M,,M,1,39,0.852,,M*11
$GPVTG,,T,,M,0.00,N,0.01,K,D*27
$GPHDT,,T*1B
$GPTHS,,V*0E
$GPROT,,V*08
$PSSN,HRP,200007.00,010125,,,,,,,00,0,,*64
$PTNL,AVR,200007.00,,Yaw,,Tilt,,,,0,,00*32
$GPGSA,A,3,07,08,10,15,16,18,21,23,26,27,,,0.8,0.4,0.6*3F
$GPGSA,A,3,66,67,73,74,80,82,83,84,,,,,0.8,0.4,0.6*3B
$GPGSA,A,3,03,08,13,15,21,26,31,,,,,,0.8,0.4,0.6*30
$GPGSA,A,3,05,08,11,13,14,21,27,28,33,37,38,42,0.8,0.4,0.6*37
$GPGSA,A,3,43,60,,,,,,,,,,,0.8,0.4,0.6*39
$GPGST,200007.00,2.089,0.366,0.321,338.455,0.360,0.327,0.699*5B
$GPGBS,200007.00,2.427,1.921,4.612,67,0.0001,7.115,6.113*54
$GPGRS,200007.00,1,0.4,-0.1,0.2,-0.1,0.2,-0.2,0.6,0.0,-0.7,-0.3,,*62
$GPGRS,200007.00,1,-4.4,7.1,5.7,-3.4,-1.0,0.0,-1.1,-2.0,,,,*66
$GPGRS,200007.00,1,-0.2,-0.2,0.4,0.3,0.3,0.2,0.7,,,,,*64
$GPGRS,200007.00,1,0.3,-0.4,1.8,1.0,2.3,-1.5,-0.6,0.1,0.7,-0.3,-1.2,-0.2*43
$GPGRS,200007.00,1,0.3,-1.4,,,,,,,,,,*60
$GPGSV,6,1,21,27,72,303,51,15,14,047,39,26,23,189,41,21,11,258,36*78
$GPGSV,6,2,21,08,35,301,44,18,29,065,44,16,49,209,48,10,56,161,50*7F
$GPGSV,6,3,21,23,57,075,47,13,03,018,34,07,07,307,39,30,01,338,36*73
$GPGSV,6,4,21,36,35,170,44,58,13,245,37,57,11,108,38,34,31,208,42*7C
$GPGSV,6,5,21,40,24,133,35,49,34,195,44,41,07,108,34,61,03,257,38*78
$GPGSV,6,6,21*7A
$GLGSV,3,1,10,83,65,009,42,84,25,279,38,66,15,021,45,68,25,132,*62
$GLGSV,3,2,10,82,35,066,48,74,36,304,45,73,37,245,49,67,38,074,49*6F
$GLGSV,3,3,10,80,06,198,44,75,04,347,*6C
$GAGSV,3,1,10,13,70,045,48,08,12,102,38,03,14,053,38,23,47,290,*62
$GAGSV,3,2,10,21,48,204,46,15,18,063,39,26,51,256,47,27,08,166,32*6E
$GAGSV,3,3,10,31,08,326,38,33,04,248,36*60
$GBGSV,6,1,23,28,70,302,51,38,13,038,40,60,11,108,40,50,22,045,*6C
$GBGSV,6,2,23,05,23,128,38,08,27,037,39,46,23,302,,31,24,056,*6C
$GBGSV,6,3,23,33,34,138,47,11,18,089,41,37,25,243,44,13,35,043,43*6E
$GBGSV,6,4,23,58,31,297,,27,25,281,45,30,25,274,,42,36,069,46*68
$GBGSV,6,5,23,14,41,105,46,43,40,090,48,21,07,027,39,02,08,105,34*6B
$GBGSV,6,6,23,57,09,222,,23,03,198,33,41,03,177,*56
$GPGGA,200007.00,,,,,0,00,,,M,,M,,*4D
$PTNL,GGK,200007.00,010125,4742.1605094,N,01618.1002132,E,1,39,0.8,EHT751.7159,M*43
$GPGGQ,200007.00,010125,4742.1605094,N,01618.1002132,E,1,39,0.852,708.5093,M*33
$GPGFA,200007.00,3.477,5.731,0.366,0.321,338.455,0.699,,VVV*08
$GPLLK,200007.00,010125,,M,,M,1,39,0.8,,M*0C
$GNGMP,200007.00,,,,,DAAA,39,0.4,,,,*5D
$GPGMP,200007.00,,,,,,10,,,,3.4,136*7A
$GLGMP,200007.00,,,,,,08,,,,,*72
$GAGMP,200007.00,,,,,,07,,,,,*70
$GBGMP,200007.00,,,,,,14,,,,,*71
$PSSN,SNC,[0,331225000,2347]*40
$GPZDA,200012.00,01,01,2025,,*62
$GPDTM,W84,,00.0000000,N,00.0000000,E,00.0000000,W84*5F
$PSSN,TFM,200012.00,,,,*6E
$GPRMC,200012.00,A,4742.1605119,N,01618.1002179,E,0.0,,010125,5.1,E,D*10
$GPGLL,4742.1605119,N,01618.1002179,E,200012.00,A,D*61
$GPGGA,200012.00,4742.1605119,N,01618.1002179,E,2,39,0.4,708.5152,M,43.2066,M,1.6,0136*48
$GNGNS,200012.00,4742.1605119,N,01618.1002179,E,DAAA,39,0.4,708.5152,43.2066,,*57
$GPGNS,200012.00,,,,,,10,,,,1.6,136*7E
$GLGNS,200012.00,,,,,,08,,,,,*76
$GAGNS,200012.00,,,,,,07,,,,,*74
$GBGNS,200012.00,,,,,,14,,,,,*75
$GPLLQ,200012.00,010125,,M,,M,1,39,0.847,,M*11
$GPVTG,,T,,M,0.00,N,0.01,K,D*27
$GPHDT,,T*1B
$GPTHS,,V*0E
$GPROT,,V*08
$PSSN,HRP,200012.00,010125,,,,,,,00,0,,*60
$PTNL,AVR,200012.00,,Yaw,,Tilt,,,,0,,00*36
$GPGSA,A,3,07,08,10,15,16,18,21,23,26,27,,,0.8,0.4,0.6*3F
$GPGSA,A,3,66,67,73,74,80,82,83,84,,,,,0.8,0.4,0.6*3B
$GPGSA,A,3,03,08,13,15,21,26,31,,,,,,0.8,0.4,0.6*30
$GPGSA,A,3,05,08,11,13,14,21,27,28,33,37,38,42,0.8,0.4,0.6*37
$GPGSA,A,3,43,60,,,,,,,,,,,0.8,0.4,0.6*39
$GPGST,200012.00,2.099,0.367,0.319,336.746,0.360,0.327,0.694*56
$GPGBS,200012.00,2.355,1.846,4.479,67,0.0001,6.926,6.113*54
$GPGRS,200012.00,1,0.0,0.1,0.5,0.2,0.3,-0.5,1.1,-0.2,-0.7,-0.2,,*48
$GPGRS,200012.00,1,-3.9,6.9,5.3,-4.7,-1.2,-0.0,-2.6,-1.5,,,,*4C
$GPGRS,200012.00,1,-0.3,-0.1,0.1,-0.2,0.3,0.1,0.5,,,,,*4A
$GPGRS,200012.00,1,0.5,0.4,0.4,0.7,2.5,-1.3,-0.2,-0.2,0.0,-0.6,-1.3,-0.5*49
$GPGRS,200012.00,1,0.3,-1.9,,,,,,,,,,*69
$GPGSV,6,1,21,27,72,303,51,15,14,047,38,26,23,189,42,21,11,258,35*79
$GPGSV,6,2,21,08,35,301,44,18,29,065,44,16,49,209,48,10,56,161,51*7E
$GPGSV,6,3,21,23,57,075,47,13,03,018,34,07,07,307,38,30,01,338,36*72
$GPGSV,6,4,21,36,35,170,44,58,13,245,37,57,11,108,38,34,31,208,42*7C
$GPGSV,6,5,21,40,24,133,36,49,34,195,44,41,07,108,34,61,03,257,38*7B
$GPGSV,6,6,21*7A
$GLGSV,3,1,10,83,65,009,42,84,25,279,37,66,15,021,44,68,25,132,*6C
$GLGSV,3,2,10,82,35,067,48,74,36,304,45,73,37,245,49,67,38,074,50*66
$GLGSV,3,3,10,80,06,198,44,75,05,347,*6D
$GAGSV,3,1,10,13,70,045,48,08,12,102,38,03,14,053,38,23,47,290,*62
$GAGSV,3,2,10,21,48,204,47,15,18,063,39,26,51,256,47,27,08,166,32*6F
$GAGSV,3,3,10,31,08,326,38,33,04,248,36*60
$GBGSV,6,1,23,28,70,302,51,38,13,038,40,60,11,108,40,50,22,045,*6C
$GBGSV,6,2,23,05,23,128,38,08,27,037,39,46,23,302,,31,24,056,*6C
$GBGSV,6,3,23,33,34,138,46,11,18,089,41,37,25,243,44,13,35,043,43*6F
$GBGSV,6,4,23,58,31,297,,27,25,281,45,30,25,274,,42,36,069,47*69
$GBGSV,6,5,23,14,41,105,46,43,40,090,48,21,07,027,39,02,08,105,35*6A
$GBGSV,6,6,23,57,09,222,,23,03,198,33,41,03,177,*56
$GPGGA,200012.00,,,,,0,00,,,M,,M,,*49
$PTNL,GGK,200012.00,010125,4742.1605119,N,01618.1002179,E,1,39,0.8,EHT751.7217,M*45
$GPGGQ,200012.00,010125,4742.1605119,N,01618.1002179,E,1,39,0.847,708.5152,M*34
$GPGFA,200012.00,3.490,5.689,0.367,0.319,336.746,0.694,,VVV*0F
$GPLLK,200012.00,010125,,M,,M,1,39,0.8,,M*08
$GNGMP,200012.00,,,,,DAAA,39,0.4,,,,*59
$GPGMP,200012.00,,,,,,10,,,,1.6,136*7E
$GLGMP,200012.00,,,,,,08,,,,,*76
$GAGMP,200012.00,,,,,,07,,,,,*74
$GBGMP,200012.00,,,,,,14,,,,,*75
$PSSN,SNC,[0,331230000,2347]*44
$GPZDA,200017.00,01,01,2025,,*67
$GPDTM,W84,,00.0000000,N,00.0000000,E,00.0000000,W84*5F
$PSSN,TFM,200017.00,,,,*6B
$GPRMC,200017.00,A,4742.1605129,N,01618.1002203,E,0.0,,010125,5.1,E,D*18
$GPGLL,4742.1605129,N,01618.1002203,E,200017.00,A,D*69
$GPGGA,200017.00,4742.1605129,N,01618.1002203,E,2,39,0.4,708.5122,M,43.2066,M,2.6,0136*44
$GNGNS,200017.00,4742.1605129,N,01618.1002203,E,DAAA,39,0.4,708.5122,43.2066,,*58
$GPGNS,200017.00,,,,,,10,,,,2.6,136*78
$GLGNS,200017.00,,,,,,08,,,,,*73
$GAGNS,200017.00,,,,,,07,,,,,*71
$GBGNS,200017.00,,,,,,14,,,,,*70
$GPLLQ,200017.00,010125,,M,,M,1,39,0.830,,M*14
$GPVTG,,T,,M,0.00,N,0.00,K,D*26
$GPHDT,,T*1B
$GPTHS,,V*0E
$GPROT,,V*08
$PSSN,HRP,200017.00,010125,,,,,,,00,0,,*65
$PTNL,AVR,200017.00,,Yaw,,Tilt,,,,0,,00*33
$GPGSA,A,3,07,08,10,15,16,18,21,23,26,27,,,0.8,0.4,0.6*3F
$GPGSA,A,3,66,67,73,74,80,82,83,84,,,,,0.8,0.4,0.6*3B
$GPGSA,A,3,03,08,13,15,21,26,31,,,,,,0.8,0.4,0.6*30
$GPGSA,A,3,05,08,11,13,14,21,27,28,33,37,38,42,0.8,0.4,0.6*37
$GPGSA,A,3,43,60,,,,,,,,,,,0.8,0.4,0.6*39
$GPGST,200017.00,2.143,0.366,0.312,334.672,0.356,0.322,0.677*56
$GPGBS,200017.00,2.398,1.868,4.516,67,0.0001,7.665,6.113*5D
$GPGRS,200017.00,1,-0.4,-0.0,0.3,0.1,0.2,-0.3,0.5,-0.0,-0.6,-0.2,,*4C
$GPGRS,200017.00,1,-3.9,7.7,5.3,-4.2,-0.9,0.1,-2.9,-1.9,,,,*66
$GPGRS,200017.00,1,-0.2,0.2,0.5,0.1,0.5,-0.0,0.3,,,,,*66
$GPGRS,200017.00,1,0.4,1.4,1.1,0.5,1.6,-1.4,0.4,-0.3,-0.0,-0.3,-1.1,0.1*64
$GPGRS,200017.00,1,1.0,-1.4,,,,,,,,,,*63
$GPGSV,6,1,21,27,72,303,51,15,14,047,39,26,23,189,42,21,11,258,35*78
$GPGSV,6,2,21,08,35,301,45,18,29,065,44,16,49,209,48,10,56,161,51*7F
$GPGSV,6,3,21,23,57,075,47,13,03,018,34,07,07,307,39,30,01,338,37*72
$GPGSV,6,4,21,36,35,170,44,58,13,245,38,57,11,108,38,34,31,208,42*73
$GPGSV,6,5,21,40,24,133,36,49,34,195,44,41,07,108,34,61,03,257,38*7B
$GPGSV,6,6,21*7A
$GLGSV,3,1,10,83,65,009,42,84,25,279,38,66,15,021,45,68,25,132,*62
$GLGSV,3,2,10,82,35,067,48,74,36,304,45,73,37,245,49,67,38,074,50*66
$GLGSV,3,3,10,80,06,198,44,75,05,347,*6D
$GAGSV,3,1,10,13,70,045,48,08,12,102,38,03,14,053,38,23,47,290,*62
$GAGSV,3,2,10,21,48,204,47,15,18,063,39,26,51,256,47,27,08,166,32*6F
$GAGSV,3,3,10,31,08,326,38,33,04,248,36*60
$GBGSV,6,1,23,28,70,302,51,38,13,038,40,60,11,108,40,50,22,045,*6C
$GBGSV,6,2,23,05,23,128,38,08,27,037,39,46,23,302,,31,24,056,*6C
$GBGSV,6,3,23,33,34,138,46,11,18,090,41,37,25,243,44,13,35,043,43*67
$GBGSV,6,4,23,58,31,297,,27,25,281,45,30,25,274,,42,36,069,47*69
$GBGSV,6,5,23,14,41,105,46,43,40,090,48,21,07,027,40,02,08,105,35*64
$GBGSV,6,6,23,57,09,222,,23,03,198,33,41,03,177,*56
$GPGGA,200017.00,,,,,0,00,,,M,,M,,*4C
$PTNL,GGK,200017.00,010125,4742.1605129,N,01618.1002203,E,1,39,0.8,EHT751.7188,M*48
$GPGGQ,200017.00,010125,4742.1605129,N,01618.1002203,E,1,39,0.830,708.5122,M*3B
$GPGFA,200017.00,3.477,5.548,0.366,0.312,334.672,0.677,,VVV*0E
$GPLLK,200017.00,010125,,M,,M,1,39,0.8,,M*0D
$GNGMP,200017.00,,,,,DAAA,39,0.4,,,,*5C
$GPGMP,200017.00,,,,,,10,,,,2.6,136*78
$GLGMP,200017.00,,,,,,08,,,,,*73
$GAGMP,200017.00,,,,,,07,,,,,*71
$GBGMP,200017.00,,,,,,14,,,,,*70
$PSSN,SNC,[0,331235000,2347]*41
$GPZDA,200022.00,01,01,2025,,*61
$GPDTM,W84,,00.0000000,N,00.0000000,E,00.0000000,W84*5F
$PSSN,TFM,200022.00,,,,*6D
$GPRMC,200022.00,A,4742.1605161,N,01618.1002196,E,0.0,,010125,5.1,E,D*1D
$GPGLL,4742.1605161,N,01618.1002196,E,200022.00,A,D*6C
$GPGGA,200022.00,4742.1605161,N,01618.1002196,E,2,39,0.4,708.5161,M,43.2066,M,2.4,0136*44
$GNGNS,200022.00,4742.1605161,N,01618.1002196,E,DAAA,39,0.4,708.5161,43.2066,,*5A
$GPGNS,200022.00,,,,,,10,,,,2.4,136*7C
$GLGNS,200022.00,,,,,,08,,,,,*75
$GAGNS,200022.00,,,,,,07,,,,,*77
$GBGNS,200022.00,,,,,,14,,,,,*76
$GPLLQ,200022.00,010125,,M,,M,1,39,0.839,,M*1B
$GPVTG,,T,,M,0.00,N,0.00,K,D*26
$GPHDT,,T*1B
$GPTHS,,V*0E
$GPROT,,V*08
$PSSN,HRP,200022.00,010125,,,,,,,00,0,,*63
$PTNL,AVR,200022.00,,Yaw,,Tilt,,,,0,,00*35
$GPGSA,A,3,07,08,10,15,16,18,21,23,26,27,,,0.8,0.4,0.6*3F
$GPGSA,A,3,66,67,73,74,80,82,83,84,,,,,0.8,0.4,0.6*3B
$GPGSA,A,3,03,08,13,15,21,26,31,,,,,,0.8,0.4,0.6*30
$GPGSA,A,3,05,08,11,13,14,21,27,28,33,37,38,42,0.8,0.4,0.6*37
$GPGSA,A,3,43,60,,,,,,,,,,,0.8,0.4,0.6*39
$GPGST,200022.00,2.103,0.367,0.316,335.803,0.359,0.325,0.685*5D
$GPGBS,200022.00,2.361,1.886,4.524,67,0.0001,6.957,6.113*53
$GPGRS,200022.00,1,0.2,-0.1,0.2,0.4,0.3,-0.3,1.1,-0.0,-0.2,-0.4,,*62
$GPGRS,200022.00,1,-3.7,7.0,5.1,-4.7,-1.1,0.0,-2.7,-2.6,,,,*64
$GPGRS,200022.00,1,-0.8,-0.2,0.3,-0.2,0.5,0.1,0.1,,,,,*41
$GPGRS,200022.00,1,0.6,1.4,1.3,0.6,1.5,-1.7,0.2,-0.3,0.2,-0.7,-1.0,-0.6*67
$GPGRS,200022.00,1,0.8,-1.5,,,,,,,,,,*6D
$GPGSV,6,1,21,27,72,303,51,15,14,047,40,26,23,189,41,21,11,258,36*76
$GPGSV,6,2,21,08,35,301,44,18,29,066,44,16,49,209,48,10,56,161,51*7D
$GPGSV,6,3,21,23,57,075,47,13,03,018,34,07,07,307,39,30,01,338,36*73
$GPGSV,6,4,21,36,35,170,44,58,13,245,37,57,11,108,38,34,31,208,42*7C
$GPGSV,6,5,21,40,24,133,36,49,34,195,44,41,07,108,34,61,03,257,38*7B
$GPGSV,6,6,21*7A
$GLGSV,3,1,10,83,65,010,41,84,25,279,38,66,15,021,45,68,25,132,*69
$GLGSV,3,2,10,82,35,067,48,74,36,304,45,73,37,245,49,67,38,074,50*66
$GLGSV,3,3,10,80,06,198,44,75,05,347,*6D
$GAGSV,3,1,10,13,70,045,47,08,12,102,37,03,14,053,38,23,47,290,*62
$GAGSV,3,2,10,21,48,204,47,15,18,063,38,26,51,256,46,27,08,166,31*6C
$GAGSV,3,3,10,31,08,326,37,33,04,248,36*6F
$GBGSV,6,1,23,28,70,302,51,38,13,038,40,60,11,108,40,50,22,045,*6C
$GBGSV,6,2,23,05,23,128,38,08,27,037,39,46,23,302,,31,24,056,*6C
$GBGSV,6,3,23,33,34,138,46,11,18,090,41,37,25,243,44,13,35,043,43*67
$GBGSV,6,4,23,58,31,297,,27,25,281,45,30,25,274,,42,36,069,47*69
$GBGSV,6,5,23,14,41,105,46,43,40,090,48,21,07,027,40,02,08,105,34*65
$GBGSV,6,6,23,57,09,222,,23,03,198,32,41,03,177,*57
$GPGGA,200022.00,,,,,0,00,,,M,,M,,*4A
$PTNL,GGK,200022.00,010125,4742.1605161,N,01618.1002196,E,1,39,0.8,EHT751.7227,M*4B
$GPGGQ,200022.00,010125,4742.1605161,N,01618.1002196,E,1,39,0.839,708.5161,M*30
$GPGFA,200022.00,3.488,5.616,0.367,0.316,335.803,0.685,,VVV*01
$GPLLK,200022.00,010125,,M,,M,1,39,0.8,,M*0B
$GNGMP,200022.00,,,,,DAAA,39,0.4,,,,*5A
$GPGMP,200022.00,,,,,,10,,,,2.4,136*7C
$GLGMP,200022.00,,,,,,08,,,,,*75
$GAGMP,200022.00,,,,,,07,,,,,*77
$GBGMP,200022.00,,,,,,14,,,,,*76
$PSSN,SNC,[0,331240000,2347]*43
$GPZDA,200027.00,01,01,2025,,*64
$GPDTM,W84,,00.0000000,N,00.0000000,E,00.0000000,W84*5F
$PSSN,TFM,200027.00,,,,*68
$GPRMC,200027.00,A,4742.1605162,N,01618.1002250,E,0.0,,010125,5.1,E,D*12
$GPGLL,4742.1605162,N,01618.1002250,E,200027.00,A,D*63
$GPGGA,200027.00,4742.1605162,N,01618.1002250,E,2,39,0.4,708.5200,M,43.2066,M,3.4,0136*4E
$GNGNS,200027.00,4742.1605162,N,01618.1002250,E,DAAA,39,0.4,708.5200,43.2066,,*51
$GPGNS,200027.00,,,,,,10,,,,3.4,136*78
$GLGNS,200027.00,,,,,,08,,,,,*70
$GAGNS,200027.00,,,,,,07,,,,,*72
$GBGNS,200027.00,,,,,,14,,,,,*73
$GPLLQ,200027.00,010125,,M,,M,1,39,0.847,,M*17
$GPVTG,,T,,M,0.01,N,0.01,K,D*26
$GPHDT,,T*1B
$GPTHS,,V*0E
$GPROT,,V*08
$PSSN,HRP,200027.00,010125,,,,,,,00,0,,*66
$PTNL,AVR,200027.00,,Yaw,,Tilt,,,,0,,00*30
$GPGSA,A,3,07,08,10,15,16,18,21,23,26,27,,,0.8,0.4,0.6*3F
$GPGSA,A,3,66,67,73,74,80,82,83,84,,,,,0.8,0.4,0.6*3B
$GPGSA,A,3,03,08,13,15,21,26,31,,,,,,0.8,0.4,0.6*30
$GPGSA,A,3,05,08,11,13,14,21,27,28,33,37,38,42,0.8,0.4,0.6*37
$GPGSA,A,3,43,60,,,,,,,,,,,0.8,0.4,0.6*39
$GPGST,200027.00,2.076,0.366,0.320,338.216,0.360,0.326,0.694*55
$GPGBS,200027.00,2.414,1.917,4.585,67,0.0001,6.766,6.113*5D
$GPGRS,200027.00,1,-0.3,0.3,0.2,0.3,0.0,-0.1,1.1,-0.1,-0.5,-0.4,,*64
$GPGRS,200027.00,1,-3.2,6.8,5.3,-4.1,-1.2,-0.1,-3.0,-2.0,,,,*46
$GPGRS,200027.00,1,-0.9,-0.6,0.2,0.2,0.2,0.1,0.5,,,,,*6E
$GPGRS,200027.00,1,0.6,1.8,1.2,0.4,1.6,-2.2,-0.3,-0.2,-0.3,-0.7,-1.0,-0.7*68
$GPGRS,200027.00,1,0.8,-1.8,,,,,,,,,,*65
$GPGSV,6,1,21,27,72,303,50,15,14,047,40,26,23,189,41,21,11,258,36*77
$GPGSV,6,2,21,08,35,301,44,18,29,066,43,16,49,209,48,10,56,161,51*7A
$GPGSV,6,3,21,23,57,075,47,13,03,018,35,07,07,307,39,30,01,338,36*72
$GPGSV,6,4,21,36,35,170,44,58,13,245,37,57,11,108,37,34,31,208,42*73
$GPGSV,6,5,21,40,24,133,35,49,34,195,44,41,07,108,33,61,03,257,38*7F
$GPGSV,6,6,21*7A
$GLGSV,3,1,10,83,65,010,41,84,25,279,38,66,15,021,45,68,25,132,*69
$GLGSV,3,2,10,82,34,067,48,74,36,304,45,73,37,245,49,67,38,074,49*6F
$GLGSV,3,3,10,80,06,198,43,75,05,347,*6A
$GAGSV,3,1,10,13,70,045,48,08,12,102,38,03,14,053,38,23,47,290,*62
$GAGSV,3,2,10,21,48,204,47,15,18,063,38,26,51,256,47,27,08,166,32*6E
$GAGSV,3,3,10,31,08,326,38,33,04,248,36*60
$GBGSV,6,1,23,28,70,302,51,38,13,038,40,60,11,108,40,50,22,045,*6C
$GBGSV,6,2,23,05,23,128,38,08,27,037,39,46,23,302,,31,24,056,*6C
$GBGSV,6,3,23,33,34,138,46,11,18,090,41,37,25,243,45,13,35,043,43*66
$GBGSV,6,4,23,58,31,297,,27,25,281,45,30,25,274,,42,36,069,47*69
$GBGSV,6,5,23,14,41,105,46,43,40,090,49,21,07,027,40,02,08,105,35*65
$GBGSV,6,6,23,57,09,222,,23,03,198,32,41,03,177,*57
$GPGGA,200027.00,,,,,0,00,,,M,,M,,*4F
$PTNL,GGK,200027.00,010125,4742.1605162,N,01618.1002250,E,1,39,0.8,EHT751.7265,M*42
$GPGGQ,200027.00,010125,4742.1605162,N,01618.1002250,E,1,39,0.847,708.5200,M*32
$GPGFA,200027.00,3.479,5.690,0.366,0.320,338.216,0.694,,VVV*03
$GPLLK,200027.00,010125,,M,,M,1,39,0.8,,M*0E
$GNGMP,200027.00,,,,,DAAA,39,0.4,,,,*5F
$GPGMP,200027.00,,,,,,10,,,,3.4,136*78
$GLGMP,200027.00,,,,,,08,,,,,*70
$GAGMP,200027.00,,,,,,07,,,,,*72
$GBGMP,200027.00,,,,,,14,,,,,*73
$PSSN,SNC,[0,331245000,2347]*46
$GPZDA,200032.00,01,01,2025,,*60
$GPDTM,W84,,00.0000000,N,00.0000000,E,00.0000000,W84*5F
$PSSN,TFM,200032.00,,,,*6C
$GPRMC,200032.00,A,4742.1605175,N,01618.1002247,E,0.0,,010125,5.1,E,D*16
$GPGLL,4742.1605175,N,01618.1002247,E,200032.00,A,D*67
$GPGGA,200032.00,4742.1605175,N,01618.1002247,E,2,39,0.4,708.5258,M,43.2066,M,1.6,0136*47
$GNGNS,200032.00,4742.1605175,N,01618.1002247,E,DAAA,39,0.4,708.5258,43.2066,,*58
$GPGNS,200032.00,,,,,,10,,,,1.6,136*7C
$GLGNS,200032.00,,,,,,08,,,,,*74
$GAGNS,200032.00,,,,,,07,,,,,*76
$GBGNS,200032.00,,,,,,14,,,,,*77
$GPLLQ,200032.00,010125,,M,,M,1,39,0.843,,M*17
$GPVTG,,T,,M,0.00,N,0.00,K,D*26
$GPHDT,,T*1B
$GPTHS,,V*0E
$GPROT,,V*08
$PSSN,HRP,200032.00,010125,,,,,,,00,0,,*62
$PTNL,AVR,200032.00,,Yaw,,Tilt,,,,0,,00*34
$GPGSA,A,3,07,08,10,15,16,18,21,23,26,27,,,0.8,0.4,0.6*3F
$GPGSA,A,3,66,67,73,74,80,82,83,84,,,,,0.8,0.4,0.6*3B
$GPGSA,A,3,03,08,13,15,21,26,31,,,,,,0.8,0.4,0.6*30
$GPGSA,A,3,05,08,11,13,14,21,27,28,33,37,38,42,0.8,0.4,0.6*37
$GPGSA,A,3,43,60,,,,,,,,,,,0.8,0.4,0.6*39
$GPGST,200032.00,2.110,0.367,0.318,336.593,0.360,0.326,0.689*52
$GPGBS,200032.00,2.345,1.841,4.457,67,0.0001,6.578,6.113*5B
$GPGRS,200032.00,1,0.1,-0.3,0.4,-0.0,-0.1,0.0,0.8,-0.1,-0.1,-0.3,,*41
$GPGRS,200032.00,1,-4.1,6.6,5.5,-4.6,-1.7,-0.4,-2.4,-2.3,,,,*4F
$GPGRS,200032.00,1,-0.3,-0.3,0.2,0.3,0.2,0.3,0.7,,,,,*64
$GPGRS,200032.00,1,0.5,1.4,1.4,0.1,1.1,-2.0,-0.4,-0.1,-0.5,-0.7,-1.2,-0.8*6A
$GPGRS,200032.00,1,1.0,-1.3,,,,,,,,,,*63
$GPGSV,6,1,21,27,72,303,50,15,14,047,40,26,23,189,41,21,11,258,36*77
$GPGSV,6,2,21,08,35,301,44,18,29,066,43,16,49,209,48,10,56,161,50*7B
$GPGSV,6,3,21,23,57,075,47,13,03,018,35,07,07,307,38,30,01,338,36*73
$GPGSV,6,4,21,36,35,170,44,58,13,245,37,57,11,108,38,34,31,208,42*7C
$GPGSV,6,5,21,40,24,133,36,49,34,195,44,41,07,108,34,61,03,257,38*7B
$GPGSV,6,6,21*7A
$GLGSV,3,1,10,83,65,010,42,84,25,279,38,66,15,021,44,68,25,132,*6B
$GLGSV,3,2,10,82,34,067,48,74,36,304,45,73,37,245,49,67,38,074,50*67
$GLGSV,3,3,10,80,06,198,43,75,05,347,*6A
$GAGSV,3,1,10,13,70,045,48,08,12,102,37,03,14,053,38,23,48,290,*62
$GAGSV,3,2,10,21,48,204,46,15,18,063,39,26,51,256,47,27,08,166,31*6D
$GAGSV,3,3,10,31,08,326,38,33,04,248,35*63
$GBGSV,6,1,23,28,71,303,51,38,13,038,40,60,11,108,40,50,22,044,*6D
$GBGSV,6,2,23,05,23,128,38,08,27,037,40,46,23,302,,31,24,056,*62
$GBGSV,6,3,23,33,34,138,46,11,18,090,41,37,25,243,45,13,35,043,43*66
$GBGSV,6,4,23,58,31,297,,27,26,281,45,30,25,274,,42,36,069,46*6B
$GBGSV,6,5,23,14,41,105,46,43,40,090,48,21,07,027,39,02,08,105,35*6A
$GBGSV,6,6,23,57,09,222,,23,03,198,32,41,03,177,*57
$GPGGA,200032.00,,,,,0,00,,,M,,M,,*4B
$PTNL,GGK,200032.00,010125,4742.1605175,N,01618.1002247,E,1,39,0.8,EHT751.7323,M*45
$GPGGQ,200032.00,010125,4742.1605175,N,01618.1002247,E,1,39,0.843,708.5258,M*3F
$GPGFA,200032.00,3.492,5.646,0.367,0.318,336.593,0.689,,VVV*0B
$GPLLK,200032.00,010125,,M,,M,1,39,0.8,,M*0A
$GNGMP,200032.00,,,,,DAAA,39,0.4,,,,*5B
$GPGMP,200032.00,,,,,,10,,,,1.6,136*7C
$GLGMP,200032.00,,,,,,08,,,,,*74
$GAGMP,200032.00,,,,,,07,,,,,*76
$GBGMP,200032.00,,,,,,14,,,,,*77
$PSSN,SNC,[0,331250000,2347]*42
$GPZDA,200037.00,01,01,2025,,*65
$GPDTM,W84,,00.0000000,N,00.0000000,E,00.0000000,W84*5F
$PSSN,TFM,200037.00,,,,*69
$GPRMC,200037.00,A,4742.1605201,N,01618.1002240,E,0.0,,010125,5.1,E,D*14
$GPGLL,4742.1605201,N,01618.1002240,E,200037.00,A,D*65
$GPGGA,200037.00,4742.1605201,N,01618.1002240,E,2,39,0.4,708.5259,M,43.2066,M,2.6,0136*47
$GNGNS,200037.00,4742.1605201,N,01618.1002240,E,DAAA,39,0.4,708.5259,43.2066,,*5B
$GPGNS,200037.00,,,,,,10,,,,2.6,136*7A
$GLGNS,200037.00,,,,,,08,,,,,*71
$GAGNS,200037.00,,,,,,07,,,,,*73
$GBGNS,200037.00,,,,,,14,,,,,*72
$GPLLQ,200037.00,010125,,M,,M,1,39,0.829,,M*1E
$GPVTG,,T,,M,0.00,N,0.01,K,D*27
$GPHDT,,T*1B
$GPTHS,,V*0E
$GPROT,,V*08
$PSSN,HRP,200037.00,010125,,,,,,,00,0,,*67
$PTNL,AVR,200037.00,,Yaw,,Tilt,,,,0,,00*31
$GPGSA,A,3,07,08,10,15,16,18,21,23,26,27,,,0.8,0.4,0.6*3F
$GPGSA,A,3,66,67,73,74,80,82,83,84,,,,,0.8,0.4,0.6*3B
$GPGSA,A,3,03,08,13,15,21,26,31,,,,,,0.8,0.4,0.6*30
$GPGSA,A,3,05,08,11,13,14,21,27,28,33,37,38,42,0.8,0.4,0.6*37
$GPGSA,A,3,43,60,,,,,,,,,,,0.8,0.4,0.6*39
$GPGST,200037.00,2.095,0.366,0.312,334.565,0.357,0.322,0.675*58
$GPGBS,200037.00,2.396,1.865,4.507,67,0.0001,6.636,6.113*5B
$GPGRS,200037.00,1,-0.4,-0.0,0.1,-0.1,-0.0,0.2,1.0,0.0,-0.1,-0.1,,*4F
$GPGRS,200037.00,1,-4.3,6.6,5.5,-3.9,-1.1,-0.5,-2.1,-2.3,,,,*42
$GPGRS,200037.00,1,-0.3,-0.5,0.2,0.5,0.3,0.2,0.6,,,,,*60
$GPGRS,200037.00,1,0.4,1.6,2.0,0.3,1.7,-2.0,-0.0,-0.3,-0.5,-0.4,-1.1,-0.6*67
$GPGRS,200037.00,1,0.8,-1.4,,,,,,,,,,*68
$GPGSV,6,1,21,27,72,303,51,15,14,047,41,26,23,189,41,21,11,258,36*77
$GPGSV,6,2,21,08,35,301,44,18,29,066,43,16,49,209,48,10,56,161,50*7B
$GPGSV,6,3,21,23,57,075,47,13,03,018,35,07,07,307,39,30,01,338,36*72
$GPGSV,6,4,21,36,35,170,44,58,13,245,37,57,11,108,38,34,31,208,42*7C
$GPGSV,6,5,21,40,24,133,36,49,34,195,44,41,07,108,34,61,03,257,38*7B
$GPGSV,6,6,21*7A
$GLGSV,3,1,10,83,65,010,41,84,25,279,37,66,15,021,44,68,25,132,*67
$GLGSV,3,2,10,82,34,067,47,74,36,304,45,73,37,245,49,67,38,074,49*60
$GLGSV,3,3,10,80,06,198,43,75,05,347,*6A
$GAGSV,3,1,10,13,70,046,48,08,12,102,38,03,14,053,38,23,48,290,*6E
$GAGSV,3,2,10,21,48,204,46,15,18,063,39,26,51,256,47,27,08,166,31*6D
$GAGSV,3,3,10,31,08,326,38,33,04,248,36*60
$GBGSV,6,1,23,28,71,303,51,38,13,038,40,60,11,108,40,50,22,044,*6D
$GBGSV,6,2,23,05,23,128,38,08,27,037,39,46,23,302,,31,24,056,*6C
$GBGSV,6,3,23,33,34,138,46,11,18,090,41,37,25,243,45,13,35,043,43*66
$GBGSV,6,4,23,58,31,297,,27,26,281,45,30,25,274,,42,36,069,46*6B
$GBGSV,6,5,23,14,41,105,46,43,40,090,48,21,07,027,39,02,08,105,34*6B
$GBGSV,6,6,23,57,09,222,,23,03,198,32,41,03,177,*57
$GPGGA,200037.00,,,,,0,00,,,M,,M,,*4E
$PTNL,GGK,200037.00,010125,4742.1605201,N,01618.1002240,E,1,39,0.8,EHT751.7325,M*41
$GPGGQ,200037.00,010125,4742.1605201,N,01618.1002240,E,1,39,0.829,708.5259,M*30
$GPGFA,200037.00,3.481,5.538,0.366,0.312,334.565,0.675,,VVV*05
$GPLLK,200037.00,010125,,M,,M,1,39,0.8,,M*0F
$GNGMP,200037.00,,,,,DAAA,39,0.4,,,,*5E
$GPGMP,200037.00,,,,,,10,,,,2.6,136*7A
$GLGMP,200037.00,,,,,,08,,,,,*71
$GAGMP,200037.00,,,,,,07,,,,,*73
$GBGMP,200037.00,,,,,,14,,,,,*72
$PSSN,SNC,[0,331255000,2347]*47
$GPZDA,200042.00,01,01,2025,,*67
$GPDTM,W84,,00.0000000,N,00.0000000,E,00.0000000,W84*5F
$PSSN,TFM,200042.00,,,,*6B
$GPRMC,200042.00,A,4742.1605191,N,01618.1002241,E,0.0,,010125,5.1,E,D*1D
$GPGLL,4742.1605191,N,01618.1002241,E,200042.00,A,D*6C
$GPGGA,200042.00,4742.1605191,N,01618.1002241,E,2,39,0.4,708.5326,M,43.2066,M,2.4,0136*45
$GNGNS,200042.00,4742.1605191,N,01618.1002241,E,DAAA,39,0.4,708.5326,43.2066,,*5B
$GPGNS,200042.00,,,,,,10,,,,2.4,136*7A
$GLGNS,200042.00,,,,,,08,,,,,*73
$GAGNS,200042.00,,,,,,07,,,,,*71
$GBGNS,200042.00,,,,,,14,,,,,*70
$GPLLQ,200042.00,010125,,M,,M,1,39,0.838,,M*1C
$GPVTG,,T,,M,0.00,N,0.00,K,D*26
$GPHDT,,T*1B
$GPTHS,,V*0E
$GPROT,,V*08
$PSSN,HRP,200042.00,010125,,,,,,,00,0,,*65
$PTNL,AVR,200042.00,,Yaw,,Tilt,,,,0,,00*33
$GPGSA,A,3,07,08,10,15,16,18,21,23,26,27,,,0.8,0.4,0.6*3F
$GPGSA,A,3,66,67,73,74,80,82,83,84,,,,,0.8,0.4,0.6*3B
$GPGSA,A,3,03,08,13,15,21,26,31,,,,,,0.8,0.4,0.6*30
$GPGSA,A,3,05,08,11,13,14,21,27,28,33,37,38,42,0.8,0.4,0.6*37
$GPGSA,A,3,43,60,,,,,,,,,,,0.8,0.4,0.6*39
$GPGST,200042.00,2.054,0.367,0.316,335.668,0.359,0.325,0.684*5A
$GPGBS,200042.00,2.359,1.885,4.512,67,0.0001,6.645,6.113*54
$GPGRS,200042.00,1,-0.2,-0.0,0.1,0.0,0.2,0.3,0.9,0.1,-0.7,-0.3,,*44
$GPGRS,200042.00,1,-3.3,6.6,5.5,-4.0,-1.1,-0.3,-2.7,-2.5,,,,*4F
$GPGRS,200042.00,1,-0.8,-0.4,0.2,0.5,0.3,0.1,0.3,,,,,*6E
$GPGRS,200042.00,1,0.6,1.1,1.6,-0.1,1.2,-2.3,0.1,-0.4,-0.6,-0.4,-1.0,-0.3*60
$GPGRS,200042.00,1,0.7,-1.6,,,,,,,,,,*67
$GPGSV,6,1,21,27,72,303,50,15,14,047,40,26,23,189,41,21,11,258,37*76
$GPGSV,6,2,21,08,35,301,44,18,29,066,44,16,49,209,48,10,56,161,51*7D
$GPGSV,6,3,21,23,57,075,47,13,03,018,35,07,07,307,38,30,01,338,37*72
$GPGSV,6,4,21,36,35,170,44,58,13,245,37,57,11,108,38,34,31,208,42*7C
$GPGSV,6,5,21,40,24,133,36,49,34,195,43,41,07,108,34,61,03,257,38*7C
$GPGSV,6,6,21*7A
$GLGSV,3,1,10,83,65,010,41,84,25,279,38,66,15,021,43,68,25,132,*6F
$GLGSV,3,2,10,82,34,067,47,74,36,304,45,73,37,245,49,67,38,074,50*68
$GLGSV,3,3,10,80,06,198,43,75,05,347,*6A
$GAGSV,3,1,10,13,70,046,48,08,12,102,38,03,14,053,38,23,48,290,*6E
$GAGSV,3,2,10,21,48,204,47,15,18,063,40,26,51,256,47,27,08,166,31*62
$GAGSV,3,3,10,31,08,326,38,33,04,248,36*60
$GBGSV,6,1,23,28,71,303,51,38,13,038,40,60,11,108,40,50,22,044,*6D
$GBGSV,6,2,23,05,23,128,38,08,27,037,39,46,23,302,,31,24,056,*6C
$GBGSV,6,3,23,33,34,138,46,11,18,090,41,37,25,243,44,13,35,043,43*67
$GBGSV,6,4,23,58,31,297,,27,26,281,45,30,25,274,,42,36,069,46*6B
$GBGSV,6,5,23,14,41,105,46,43,40,090,48,21,07,027,39,02,08,105,34*6B
$GBGSV,6,6,23,57,09,222,,23,03,198,32,41,03,177,*57
$GPGGA,200042.00,,,,,0,00,,,M,,M,,*4C
$PTNL,GGK,200042.00,010125,4742.1605191,N,01618.1002241,E,1,39,0.8,EHT751.7391,M*47
$GPGGQ,200042.00,010125,4742.1605191,N,01618.1002241,E,1,39,0.838,708.5326,M*30
$GPGFA,200042.00,3.490,5.605,0.367,0.316,335.668,0.684,,VVV*0E
$GPLLK,200042.00,010125,,M,,M,1,39,0.8,,M*0D
$GNGMP,200042.00,,,,,DAAA,39,0.4,,,,*5C
$GPGMP,200042.00,,,,,,10,,,,2.4,136*7A
$GLGMP,200042.00,,,,,,08,,,,,*73
$GAGMP,200042.00,,,,,,07,,,,,*71
$GBGMP,200042.00,,,,,,14,,,,,*70
$PSSN,SNC,[0,331260000,2347]*41
$GPZDA,200047.00,01,01,2025,,*62
$GPDTM,W84,,00.0000000,N,00.0000000,E,00.0000000,W84*5F
$PSSN,TFM,200047.00,,,,*6E
$GPRMC,200047.00,A,4742.1605193,N,01618.1002230,E,0.0,,010125,5.1,E,D*1C
$GPGLL,4742.1605193,N,01618.1002230,E,200047.00,A,D*6D
$GPGGA,200047.00,4742.1605193,N,01618.1002230,E,2,39,0.4,708.5306,M,43.2066,M,3.4,0136*47
$GNGNS,200047.00,4742.1605193,N,01618.1002230,E,DAAA,39,0.4,708.5306,43.2066,,*58
$GPGNS,200047.00,,,,,,10,,,,3.4,136*7E
$GLGNS,200047.00,,,,,,08,,,,,*76
$GAGNS,200047.00,,,,,,07,,,,,*74
$GBGNS,200047.00,,,,,,14,,,,,*75
$GPLLQ,200047.00,010125,,M,,M,1,39,0.846,,M*10
$GPVTG,,T,,M,0.01,N,0.01,K,D*26
$GPHDT,,T*1B
$GPTHS,,V*0E
$GPROT,,V*08
$PSSN,HRP,200047.00,010125,,,,,,,00,0,,*60
$PTNL,AVR,200047.00,,Yaw,,Tilt,,,,0,,00*36
$GPGSA,A,3,07,08,10,15,16,18,21,23,26,27,,,0.8,0.4,0.6*3F
$GPGSA,A,3,66,67,73,74,80,82,83,84,,,,,0.8,0.4,0.6*3B
$GPGSA,A,3,03,08,13,15,21,26,31,,,,,,0.8,0.4,0.6*30
$GPGSA,A,3,05,08,11,13,14,21,27,28,33,37,38,42,0.8,0.4,0.6*37
$GPGSA,A,3,43,60,,,,,,,,,,,0.8,0.4,0.6*39
$GPGST,200047.00,2.138,0.366,0.319,338.057,0.360,0.326,0.692*53
$GPGBS,200047.00,2.413,1.916,4.571,67,0.0001,6.553,6.113*52
$GPGRS,200047.00,1,-0.2,-0.1,0.2,-0.7,0.3,0.3,0.3,0.0,-0.4,-0.3,,*60
$GPGRS,200047.00,1,-3.7,6.6,6.2,-5.2,-1.5,0.2,-1.8,-2.1,,,,*69
$GPGRS,200047.00,1,-0.8,-0.0,0.3,0.4,0.3,-0.0,0.4,,,,,*44
$GPGRS,200047.00,1,0.8,0.9,0.9,0.4,0.5,-1.8,0.4,-0.4,-0.5,-0.4,-1.2,-0.1*4C
$GPGRS,200047.00,1,0.9,-1.8,,,,,,,,,,*62
$GPGSV,6,1,21,27,72,303,50,15,14,047,40,26,23,189,42,21,11,258,37*75
$GPGSV,6,2,21,08,35,301,45,18,29,066,44,16,49,209,48,10,56,161,51*7C
$GPGSV,6,3,21,23,56,075,47,13,03,018,34,07,07,307,38,30,01,338,38*7D
$GPGSV,6,4,21,36,35,170,44,58,13,245,37,57,11,108,38,34,31,208,42*7C
$GPGSV,6,5,21,40,24,133,36,49,34,195,44,41,07,108,34,61,03,257,38*7B
$GPGSV,6,6,21*7A
$GLGSV,3,1,10,83,65,010,42,84,25,279,37,66,15,021,44,68,25,132,*64
$GLGSV,3,2,10,82,34,067,48,74,36,304,44,73,37,245,50,67,38,074,49*66
$GLGSV,3,3,10,80,06,198,43,75,05,347,*6A
$GAGSV,3,1,10,13,70,046,48,08,12,102,38,03,14,053,38,21,48,204,46*63
$GAGSV,3,2,10,23,48,290,,15,18,063,40,26,51,256,47,27,08,166,30*6F
$GAGSV,3,3,10,31,08,326,38,33,04,248,35*63
$GBGSV,6,1,23,28,71,303,51,38,13,038,40,60,11,108,40,50,22,044,*6D
$GBGSV,6,2,23,05,23,128,38,08,27,037,39,46,23,302,,31,24,056,*6C
$GBGSV,6,3,23,33,34,138,46,11,18,090,41,37,25,243,44,13,35,043,43*67
$GBGSV,6,4,23,58,31,297,,27,26,281,45,30,25,274,,42,36,069,46*6B
$GBGSV,6,5,23,14,41,104,46,43,40,091,47,21,07,027,39,02,08,105,35*65
$GBGSV,6,6,23,57,09,222,,23,03,198,32,41,03,177,*57
$GPGGA,200047.00,,,,,0,00,,,M,,M,,*49
$PTNL,GGK,200047.00,010125,4742.1605193,N,01618.1002230,E,1,39,0.8,EHT751.7371,M*48
$GPGGQ,200047.00,010125,4742.1605193,N,01618.1002230,E,1,39,0.846,708.5306,M*3A
$GPGFA,200047.00,3.480,5.678,0.366,0.319,338.057,0.692,,VVV*0E
$GPLLK,200047.00,010125,,M,,M,1,39,0.8,,M*08
$GNGMP,200047.00,,,,,DAAA,39,0.4,,,,*59
$GPGMP,200047.00,,,,,,10,,,,3.4,136*7E
$GLGMP,200047.00,,,,,,08,,,,,*76
$GAGMP,200047.00,,,,,,07,,,,,*74
$GBGMP,200047.00,,,,,,14,,,,,*75
$PSSN,SNC,[0,331265000,2347]*44
$GPZDA,200052.00,01,01,2025,,*66
$GPDTM,W84,,00.0000000,N,00.0000000,E,00.0000000,W84*5F
$PSSN,TFM,200052.00,,,,*6A
$GPRMC,200052.00,A,4742.1605213,N,01618.1002215,E,0.0,,010125,5.1,E,D*14
$GPGLL,4742.1605213,N,01618.1002215,E,200052.00,A,D*65
$GPGGA,200052.00,4742.1605213,N,01618.1002215,E,2,39,0.4,708.5247,M,43.2066,M,1.6,0136*4B
$GNGNS,200052.00,4742.1605213,N,01618.1002215,E,DAAA,39,0.4,708.5247,43.2066,,*54
$GPGNS,200052.00,,,,,,10,,,,1.6,136*7A
$GLGNS,200052.00,,,,,,08,,,,,*72
$GAGNS,200052.00,,,,,,07,,,,,*70
$GBGNS,200052.00,,,,,,14,,,,,*71
$GPLLQ,200052.00,010125,,M,,M,1,39,0.842,,M*10
$GPVTG,,T,,M,0.00,N,0.00,K,D*26
$GPHDT,,T*1B
$GPTHS,,V*0E
$GPROT,,V*08
$PSSN,HRP,200052.00,010125,,,,,,,00,0,,*64
$PTNL,AVR,200052.00,,Yaw,,Tilt,,,,0,,00*32
$GPGSA,A,3,07,08,10,15,16,18,21,23,26,27,,,0.8,0.4,0.6*3F
$GPGSA,A,3,66,67,73,74,80,82,83,84,,,,,0.8,0.4,0.6*3B
$GPGSA,A,3,03,08,13,15,21,26,31,,,,,,0.8,0.4,0.6*30
$GPGSA,A,3,05,08,11,13,14,21,27,28,33,37,38,42,0.8,0.4,0.6*37
$GPGSA,A,3,43,60,,,,,,,,,,,0.8,0.4,0.6*39
$GPGST,200052.00,1.982,0.367,0.318,336.512,0.360,0.326,0.687*53
$GPGBS,200052.00,2.344,1.840,4.449,67,0.0001,6.468,6.113*52
$GPGRS,200052.00,1,-0.6,-0.3,0.2,-0.2,0.0,-0.1,0.5,0.2,-0.7,0.3,,*61
$GPGRS,200052.00,1,-3.1,6.5,6.1,-3.9,-1.2,0.2,-1.8,-1.8,,,,*6B
$GPGRS,200052.00,1,-0.3,0.0,0.4,0.1,0.4,0.1,0.6,,,,,*4D
$GPGRS,200052.00,1,0.3,0.3,1.4,0.7,1.1,-1.9,-0.0,-0.2,0.0,-0.3,-0.9,-0.5*4C
$GPGRS,200052.00,1,0.9,-1.4,,,,,,,,,,*6A
$GPGSV,6,1,21,27,72,303,50,15,14,047,40,26,23,189,41,21,11,258,36*77
$GPGSV,6,2,21,08,35,301,45,18,28,066,44,16,49,209,47,10,56,161,50*73
$GPGSV,6,3,21,23,56,075,47,13,03,018,34,07,07,307,38,30,01,338,37*72
$GPGSV,6,4,21,36,35,170,44,58,13,245,37,57,11,108,38,34,31,208,42*7C
$GPGSV,6,5,21,40,24,133,36,49,34,195,44,41,07,108,34,61,03,257,38*7B
$GPGSV,6,6,21*7A
$GLGSV,3,1,10,83,65,010,42,84,25,280,37,66,15,021,44,68,25,132,*62
$GLGSV,3,2,10,82,34,067,48,74,36,304,45,73,36,245,50,67,38,074,50*6E
$GLGSV,3,3,10,80,06,198,43,75,05,347,*6A
$GAGSV,3,1,10,13,70,046,48,08,12,102,38,03,14,053,38,21,48,204,47*62
$GAGSV,3,2,10,23,48,290,,15,18,063,40,26,51,256,47,27,08,166,31*6E
$GAGSV,3,3,10,31,08,326,38,33,04,248,36*60
$GBGSV,6,1,23,28,71,303,51,38,13,038,40,60,11,108,40,50,22,044,*6D
$GBGSV,6,2,23,05,23,128,38,08,27,037,39,46,23,301,,31,24,056,*6F
$GBGSV,6,3,23,33,34,138,46,11,18,090,41,37,25,243,44,13,35,043,43*67
$GBGSV,6,4,23,58,31,297,,27,26,281,45,30,25,274,,42,36,069,46*6B
$GBGSV,6,5,23,14,41,104,46,43,40,091,48,21,07,027,40,02,08,105,35*64
$GBGSV,6,6,23,57,09,222,,23,03,198,32,41,03,177,*57
$GPGGA,200052.00,,,,,0,00,,,M,,M,,*4D
$PTNL,GGK,200052.00,010125,4742.1605213,N,01618.1002215,E,1,39,0.8,EHT751.7312,M*45
$GPGGQ,200052.00,010125,4742.1605213,N,01618.1002215,E,1,39,0.842,708.5247,M*32
$GPGFA,200052.00,3.494,5.636,0.367,0.318,336.512,0.687,,VVV*0B
$GPLLK,200052.00,010125,,M,,M,1,39,0.8,,M*0C
$GNGMP,200052.00,,,,,DAAA,39,0.4,,,,*5D
$GPGMP,200052.00,,,,,,10,,,,1.6,136*7A
$GLGMP,200052.00,,,,,,08,,,,,*72
$GAGMP,200052.00,,,,,,07,,,,,*70
$GBGMP,200052.00,,,,,,14,,,,,*71
$PSSN,SNC,[0,331270000,2347]*40
$GPZDA,200057.00,01,01,2025,,*63
$GPDTM,W84,,00.0000000,N,00.0000000,E,00.0000000,W84*5F
$PSSN,TFM,200057.00,,,,*6F
$GPRMC,200057.00,A,4742.1605204,N,01618.1002221,E,0.0,,010125,5.1,E,D*10
$GPGLL,4742.1605204,N,01618.1002221,E,200057.00,A,D*61
$GPGGA,200057.00,4742.1605204,N,01618.1002221,E,2,39,0.4,708.5212,M,43.2066,M,2.6,0136*4C
$GNGNS,200057.00,4742.1605204,N,01618.1002221,E,DAAA,39,0.4,708.5212,43.2066,,*50
$GPGNS,200057.00,,,,,,10,,,,2.6,136*7C
$GLGNS,200057.00,,,,,,08,,,,,*77
$GAGNS,200057.00,,,,,,07,,,,,*75
$GBGNS,200057.00,,,,,,14,,,,,*74
$GPLLQ,200057.00,010125,,M,,M,1,39,0.829,,M*18
$GPVTG,,T,,M,0.00,N,0.01,K,D*27
$GPHDT,,T*1B
$GPTHS,,V*0E
$GPROT,,V*08
$PSSN,HRP,200057.00,010125,,,,,,,00,0,,*61
$PTNL,AVR,200057.00,,Yaw,,Tilt,,,,0,,00*37
$GPGSA,A,3,07,08,10,15,16,18,21,23,26,27,,,0.8,0.4,0.6*3F
$GPGSA,A,3,66,67,73,74,80,82,83,84,,,,,0.8,0.4,0.6*3B
$GPGSA,A,3,03,08,13,15,21,26,31,,,,,,0.8,0.4,0.6*30
$GPGSA,A,3,05,08,11,13,14,21,27,28,33,37,38,42,0.8,0.4,0.6*37
$GPGSA,A,3,43,60,,,,,,,,,,,0.8,0.4,0.6*39
$GPGST,200057.00,2.063,0.366,0.312,334.542,0.357,0.322,0.675*52
$GPGBS,200057.00,2.396,1.866,4.502,67,0.0001,6.948,6.113*5D
$GPGRS,200057.00,1,0.2,0.1,0.2,0.1,0.1,-0.0,0.3,-0.2,-0.7,0.1,,*65
$GPGRS,200057.00,1,-4.0,6.9,5.8,-3.4,-0.7,-0.5,-3.2,-1.7,,,,*4A
$GPGRS,200057.00,1,-0.3,-0.1,0.1,0.1,0.4,0.2,0.4,,,,,*60
$GPGRS,200057.00,1,0.7,-0.3,1.4,0.7,1.1,-2.0,0.1,-0.3,0.0,-0.5,-1.0,-0.5*49
$GPGRS,200057.00,1,0.9,-1.2,,,,,,,,,,*69
$GPGSV,6,1,21,27,72,303,50,15,14,047,40,26,23,189,41,21,11,258,36*77
$GPGSV,6,2,21,08,35,301,45,18,28,066,44,16,49,209,48,10,56,161,51*7D
$GPGSV,6,3,21,23,56,075,47,13,03,018,35,07,07,307,39,30,01,338,36*73
$GPGSV,6,4,21,36,35,170,44,58,13,245,37,57,11,108,38,34,31,208,42*7C
$GPGSV,6,5,21,40,24,133,36,49,34,195,44,41,07,108,34,61,03,257,38*7B
$GPGSV,6,6,21*7A
$GLGSV,3,1,10,83,65,010,42,84,25,280,38,66,15,021,44,68,25,132,*6D
$GLGSV,3,2,10,82,34,067,47,74,36,304,45,73,36,245,50,67,38,074,49*69
$GLGSV,3,3,10,80,06,198,43,75,05,347,*6A
$GAGSV,3,1,10,13,70,046,48,08,12,102,39,03,14,053,38,21,48,204,47*63
$GAGSV,3,2,10,23,48,290,,15,18,063,40,26,51,256,47,27,08,166,30*6F
$GAGSV,3,3,10,31,08,326,39,33,04,248,36*61
$GBGSV,6,1,23,28,71,303,51,38,13,038,40,60,11,108,40,50,22,044,*6D
$GBGSV,6,2,23,05,23,128,38,08,27,037,39,46,23,301,,31,24,056,*6F
$GBGSV,6,3,23,33,34,138,46,11,18,090,41,37,25,243,44,13,35,043,43*67
$GBGSV,6,4,23,58,31,297,,27,26,281,45,30,25,274,,42,36,069,46*6B
$GBGSV,6,5,23,14,41,104,46,43,40,091,48,21,07,027,40,02,08,105,35*64
$GBGSV,6,6,23,57,09,222,,23,03,198,32,41,03,177,*57
$GPGGA,200057.00,,,,,0,00,,,M,,M,,*48
$PTNL,GGK,200057.00,010125,4742.1605204,N,01618.1002221,E,1,39,0.8,EHT751.7277,M*43
$GPGGQ,200057.00,010125,4742.1605204,N,01618.1002221,E,1,39,0.829,708.5212,M*3B
$GPGFA,200057.00,3.484,5.533,0.366,0.312,334.542,0.675,,VVV*08
$GPLLK,200057.00,010125,,M,,M,1,39,0.8,,M*09
$GNGMP,200057.00,,,,,DAAA,39,0.4,,,,*58
$GPGMP,200057.00,,,,,,10,,,,2.6,136*7C
$GLGMP,200057.00,,,,,,08,,,,,*77
$GAGMP,200057.00,,,,,,07,,,,,*75
$GBGMP,200057.00,,,,,,14,,,,,*74
$PSSN,SNC,[0,331275000,2347]*45
$GPZDA,200102.00,01,01,2025,,*62
$GPDTM,W84,,00.0000000,N,00.0000000,E,00.0000000,W84*5F
$PSSN,TFM,200102.00,,,,*6E
$GPRMC,200102.00,A,4742.1605216,N,01618.1002234,E,0.0,,010125,5.1,E,D*16
$GPGLL,4742.1605216,N,01618.1002234,E,200102.00,A,D*67
$GPGGA,200102.00,4742.1605216,N,01618.1002234,E,2,39,0.4,708.5175,M,43.2066,M,2.4,0136*4A
$GNGNS,200102.00,4742.1605216,N,01618.1002234,E,DAAA,39,0.4,708.5175,43.2066,,*54
$GPGNS,200102.00,,,,,,10,,,,2.4,136*7F
$GLGNS,200102.00,,,,,,08,,,,,*76
$GAGNS,200102.00,,,,,,07,,,,,*74
$GBGNS,200102.00,,,,,,14,,,,,*75
$GPLLQ,200102.00,010125,,M,,M,1,39,0.835,,M*14
$GPVTG,,T,,M,0.00,N,0.00,K,D*26
$GPHDT,,T*1B
$GPTHS,,V*0E
$GPROT,,V*08
$PSSN,HRP,200102.00,010125,,,,,,,00,0,,*60
$PTNL,AVR,200102.00,,Yaw,,Tilt,,,,0,,00*36
$GPGSA,A,3,07,08,10,15,16,18,21,23,26,27,,,0.8,0.4,0.6*3F
$GPGSA,A,3,66,67,73,74,80,82,83,84,,,,,0.8,0.4,0.6*3B
$GPGSA,A,3,03,08,13,15,21,26,31,,,,,,0.8,0.4,0.6*30
$GPGSA,A,3,05,08,11,13,14,21,27,28,33,37,38,42,0.8,0.4,0.6*37
$GPGSA,A,3,43,60,,,,,,,,,,,0.8,0.4,0.6*39
$GPGST,200102.00,1.991,0.367,0.314,335.397,0.359,0.324,0.681*5F
$GPGBS,200102.00,2.360,1.859,4.489,67,0.0001,6.386,6.113*53
$GPGRS,200102.00,1,-0.1,-0.2,0.2,0.1,0.3,-0.2,0.4,0.0,-0.3,-0.2,,*66
$GPGRS,200102.00,1,-3.8,6.4,5.5,-3.7,-0.7,-0.3,-2.4,-2.5,,,,*47
$GPGRS,200102.00,1,-0.5,-0.3,0.1,-0.1,0.2,-0.0,0.4,,,,,*61
$GPGRS,200102.00,1,0.7,-0.1,1.1,0.3,1.3,-2.6,-0.0,-0.4,-0.1,-0.5,-0.4,-0.5*4D
$GPGRS,200102.00,1,0.7,-1.8,,,,,,,,,,*6C
$GPGSV,6,1,21,27,72,303,50,15,14,047,40,26,23,189,40,21,11,259,37*76
$GPGSV,6,2,21,08,35,301,45,18,28,066,44,16,49,209,48,10,56,161,51*7D
$GPGSV,6,3,21,23,56,075,47,13,03,018,35,07,07,307,39,30,01,338,36*73
$GPGSV,6,4,21,36,35,170,44,58,13,245,37,57,11,108,38,34,31,208,42*7C
$GPGSV,6,5,21,40,24,133,36,49,34,195,44,41,07,108,33,61,03,257,38*7C
$GPGSV,6,6,21*7A
$GLGSV,3,1,10,83,65,010,41,84,25,280,37,66,15,021,43,68,25,132,*66
$GLGSV,3,2,10,82,34,067,48,74,36,304,45,73,36,245,49,67,38,074,49*6E
$GLGSV,3,3,10,80,06,198,43,75,05,347,*6A
$GAGSV,3,1,10,13,70,046,48,08,12,102,39,03,14,053,38,21,48,204,47*63
$GAGSV,3,2,10,23,48,290,,15,18,063,40,26,51,256,47,27,07,166,30*60
$GAGSV,3,3,10,31,08,326,38,33,04,248,36*60
$GBGSV,6,1,23,28,71,303,51,38,13,038,40,60,11,108,40,50,22,044,*6D
$GBGSV,6,2,23,05,23,128,38,08,27,037,39,46,23,301,,31,24,056,*6F
$GBGSV,6,3,23,33,34,138,46,11,18,090,40,37,25,243,44,13,35,043,43*66
$GBGSV,6,4,23,58,31,297,,27,26,282,45,30,25,274,,42,36,069,46*68
$GBGSV,6,5,23,14,41,104,46,43,40,091,48,21,07,027,39,02,08,105,34*6B
$GBGSV,6,6,23,57,09,222,,23,03,198,31,41,03,177,*54
$GPGGA,200102.00,,,,,0,00,,,M,,M,,*49
$PTNL,GGK,200102.00,010125,4742.1605216,N,01618.1002234,E,1,39,0.8,EHT751.7241,M*40
$GPGGQ,200102.00,010125,4742.1605216,N,01618.1002234,E,1,39,0.835,708.5175,M*32
$GPGFA,200102.00,3.493,5.582,0.367,0.314,335.397,0.681,,VVV*06
$GPLLK,200102.00,010125,,M,,M,1,39,0.8,,M*08
$GNGMP,200102.00,,,,,DAAA,39,0.4,,,,*59
$GPGMP,200102.00,,,,,,10,,,,2.4,136*7F
$GLGMP,200102.00,,,,,,08,,,,,*76
$GAGMP,200102.00,,,,,,07,,,,,*74
$GBGMP,200102.00,,,,,,14,,,,,*75
$PSSN,SNC,[0,331280000,2347]*4F
$GPZDA,200107.00,01,01,2025,,*67
$GPDTM,W84,,00.0000000,N,00.0000000,E,00.0000000,W84*5F
$PSSN,TFM,200107.00,,,,*6B
$GPRMC,200107.00,A,4742.1605243,N,01618.1002255,E,0.0,,010125,5.1,E,D*14
$GPGLL,4742.1605243,N,01618.1002255,E,200107.00,A,D*65
$GPGGA,200107.00,4742.1605243,N,01618.1002255,E,2,39,0.4,708.5157,M,43.2066,M,3.4,0136*49
$GNGNS,200107.00,4742.1605243,N,01618.1002255,E,DAAA,39,0.4,708.5157,43.2066,,*56
$GPGNS,200107.00,,,,,,10,,,,3.4,136*7B
$GLGNS,200107.00,,,,,,08,,,,,*73
$GAGNS,200107.00,,,,,,07,,,,,*71
$GBGNS,200107.00,,,,,,14,,,,,*70
$GPLLQ,200107.00,010125,,M,,M,1,39,0.843,,M*10
$GPVTG,,T,,M,0.00,N,0.01,K,D*27
$GPHDT,,T*1B
$GPTHS,,V*0E
$GPROT,,V*08
$PSSN,HRP,200107.00,010125,,,,,,,00,0,,*65
$PTNL,AVR,200107.00,,Yaw,,Tilt,,,,0,,00*33
$GPGSA,A,3,07,08,10,15,16,18,21,23,26,27,,,0.8,0.4,0.6*3F
$GPGSA,A,3,66,67,73,74,80,82,83,84,,,,,0.8,0.4,0.6*3B
$GPGSA,A,3,03,08,13,15,21,26,31,,,,,,0.8,0.4,0.6*30
$GPGSA,A,3,05,08,11,13,14,21,27,28,33,37,38,42,0.8,0.4,0.6*37
$GPGSA,A,3,43,60,,,,,,,,,,,0.8,0.4,0.6*39
$GPGST,200107.00,2.035,0.366,0.318,337.689,0.360,0.325,0.690*50
$GPGBS,200107.00,2.415,1.891,4.549,21,0.0001,1.188,1.118*5F
$GPGRS,200107.00,1,-0.4,-0.3,0.2,-0.2,0.3,-0.1,1.2,0.1,-0.6,-0.1,,*4A
$GPGRS,200107.00,1,-4.1,6.4,5.1,-3.9,-0.3,0.0,-2.6,-2.3,,,,*68
$GPGRS,200107.00,1,-0.6,-0.5,0.3,0.3,0.3,0.1,0.4,,,,,*61
$GPGRS,200107.00,1,0.1,0.6,0.1,0.8,2.3,-2.6,0.0,-0.5,0.1,-0.8,-1.0,0.1*4D
$GPGRS,200107.00,1,0.9,-1.6,,,,,,,,,,*69
$GPGSV,6,1,21,27,72,303,50,15,14,047,39,26,23,189,41,21,11,259,36*78
$GPGSV,6,2,21,08,35,301,44,18,28,066,44,16,49,209,48,10,56,161,50*7D
$GPGSV,6,3,21,23,56,075,47,13,03,018,35,07,07,307,38,30,01,338,36*72
$GPGSV,6,4,21,36,35,170,44,58,13,245,37,57,11,108,37,34,31,208,42*73
$GPGSV,6,5,21,40,24,133,36,49,34,195,43,41,07,108,34,61,03,257,38*7C
$GPGSV,6,6,21*7A
$GLGSV,3,1,10,83,65,011,42,84,25,280,37,66,15,021,43,68,25,132,*64
$GLGSV,3,2,10,82,34,067,48,74,36,303,45,73,36,245,49,67,38,074,50*61
$GLGSV,3,3,10,80,06,198,43,75,05,347,*6A
$GAGSV,3,1,10,13,70,046,47,08,12,102,39,03,14,053,38,21,48,204,47*6C
$GAGSV,3,2,10,23,48,290,,15,18,063,39,26,51,256,47,27,07,166,29*66
$GAGSV,3,3,10,31,08,326,38,33,04,248,36*60
$GBGSV,6,1,23,28,71,303,51,38,13,038,40,60,11,108,40,50,22,044,*6D
$GBGSV,6,2,23,05,23,128,38,08,27,037,39,46,23,301,,31,24,056,*6F
$GBGSV,6,3,23,33,34,138,46,11,18,090,40,37,25,243,45,13,34,043,43*66
$GBGSV,6,4,23,58,31,297,,27,26,282,45,30,25,274,,42,36,069,46*68
$GBGSV,6,5,23,14,41,104,46,43,40,091,48,21,07,027,39,02,08,105,35*6A
$GBGSV,6,6,23,57,09,222,,23,03,198,31,41,03,177,*54
$GPGGA,200107.00,,,,,0,00,,,M,,M,,*4C
$PTNL,GGK,200107.00,010125,4742.1605243,N,01618.1002255,E,1,39,0.8,EHT751.7223,M*46
$GPGGQ,200107.00,010125,4742.1605243,N,01618.1002255,E,1,39,0.843,708.5157,M*31
$GPGFA,200107.00,3.483,5.655,0.366,0.318,337.689,0.690,,VVV*0E
$GPLLK,200107.00,010125,,M,,M,1,39,0.8,,M*0D
$GNGMP,200107.00,,,,,DAAA,39,0.4,,,,*5C
$GPGMP,200107.00,,,,,,10,,,,3.4,136*7B
$GLGMP,200107.00,,,,,,08,,,,,*73
$GAGMP,200107.00,,,,,,07,,,,,*71
$GBGMP,200107.00,,,,,,14,,,,,*70
$PSSN,SNC,[0,331285000,2347]*4A
$GPZDA,200112.00,01,01,2025,,*63
$GPDTM,W84,,00.0000000,N,00.0000000,E,00.0000000,W84*5F
$PSSN,TFM,200112.00,,,,*6F
$GPRMC,200112.00,A,4742.1605283,N,01618.1002256,E,0.0,,010125,5.1,E,D*1F
$GPGLL,4742.1605283,N,01618.1002256,E,200112.00,A,D*6E
$GPGGA,200112.00,4742.1605283,N,01618.1002256,E,2,38,0.4,708.5171,M,43.2066,M,1.7,0136*46
$GNGNS,200112.00,4742.1605283,N,01618.1002256,E,DAAA,38,0.4,708.5171,43.2066,,*58
$GPGNS,200112.00,,,,,,09,,,,1.7,136*76
$GLGNS,200112.00,,,,,,08,,,,,*77
$GAGNS,200112.00,,,,,,07,,,,,*75
$GBGNS,200112.00,,,,,,14,,,,,*74
$GPLLQ,200112.00,010125,,M,,M,1,38,0.907,,M*14
$GPVTG,,T,,M,0.00,N,0.01,K,D*27
$GPHDT,,T*1B
$GPTHS,,V*0E
$GPROT,,V*08
$PSSN,HRP,200112.00,010125,,,,,,,00,0,,*61
$PTNL,AVR,200112.00,,Yaw,,Tilt,,,,0,,00*37
$GPGSA,A,3,07,08,10,15,16,18,23,26,27,,,,0.8,0.4,0.7*3D
$GPGSA,A,3,66,67,73,74,80,82,83,84,,,,,0.8,0.4,0.7*3A
$GPGSA,A,3,03,08,13,15,21,26,31,,,,,,0.8,0.4,0.7*31
$GPGSA,A,3,05,08,11,13,14,21,27,28,33,37,38,42,0.8,0.4,0.7*36
$GPGSA,A,3,43,60,,,,,,,,,,,0.8,0.4,0.7*38
$GPGST,200112.00,2.177,0.367,0.343,336.907,0.363,0.347,0.755*5B
$GPGBS,200112.00,2.484,1.977,4.639,67,0.0001,6.640,6.112*55
$GPGRS,200112.00,1,-0.2,-0.2,0.3,-0.1,0.2,-0.2,0.1,-0.4,0.1,,,*4B
$GPGRS,200112.00,1,-4.5,6.6,5.0,-4.0,-0.8,-0.4,-3.5,-2.7,,,,*41
$GPGRS,200112.00,1,-0.6,-0.6,0.3,-0.0,0.4,-0.1,0.3,,,,,*65
$GPGRS,200112.00,1,0.4,0.8,0.1,0.6,2.4,-2.6,0.1,-0.4,0.3,-0.4,-0.9,0.1*4D
$GPGRS,200112.00,1,1.0,-1.9,,,,,,,,,,*6A
$GPGSV,6,1,21,27,72,303,50,15,14,046,40,26,23,189,41,21,11,259,35*74
$GPGSV,6,2,21,08,35,301,45,18,28,066,44,16,49,209,48,10,56,161,50*7C
$GPGSV,6,3,21,23,56,075,47,13,03,018,35,07,07,307,39,30,01,338,36*73
$GPGSV,6,4,21,36,35,170,44,58,13,245,37,57,11,108,37,34,31,208,42*73
$GPGSV,6,5,21,40,24,133,36,49,34,195,44,41,07,108,34,61,03,257,38*7B
$GPGSV,6,6,21*7A
$GLGSV,3,1,10,83,65,011,42,84,25,280,38,66,15,021,43,68,25,132,*6B
$GLGSV,3,2,10,82,34,067,48,74,36,303,45,73,36,245,49,67,38,074,50*61
$GLGSV,3,3,10,80,06,198,43,75,05,347,*6A
$GAGSV,3,1,10,13,70,046,47,08,12,102,39,03,14,053,38,21,48,204,46*6D
$GAGSV,3,2,10,23,48,290,,15,17,063,39,26,51,256,47,27,07,166,29*69
$GAGSV,3,3,10,31,08,326,38,33,04,249,36*61
$GBGSV,6,1,23,28,71,303,50,38,13,038,39,60,11,108,40,50,22,044,*62
$GBGSV,6,2,23,05,23,128,38,08,27,037,39,46,23,301,,31,24,056,*6F
$GBGSV,6,3,23,33,34,138,46,11,18,090,40,37,25,243,45,13,34,043,42*67
$GBGSV,6,4,23,58,31,297,,27,26,282,45,30,25,274,,42,36,069,46*68
$GBGSV,6,5,23,14,41,104,46,43,40,091,48,21,07,027,39,02,08,105,34*6B
$GBGSV,6,6,23,57,09,222,,23,03,198,30,41,03,177,*55
$GPGGA,200112.00,,,,,0,00,,,M,,M,,*48
$PTNL,GGK,200112.00,010125,4742.1605283,N,01618.1002256,E,1,38,0.8,EHT751.7236,M*48
$GPGGQ,200112.00,010125,4742.1605283,N,01618.1002256,E,1,38,0.907,708.5171,M*3E
$GPGFA,200112.00,3.487,6.189,0.367,0.343,336.907,0.755,,VVV*04
$GPLLK,200112.00,010125,,M,,M,1,38,0.9,,M*09
$GNGMP,200112.00,,,,,DAAA,38,0.4,,,,*59
$GPGMP,200112.00,,,,,,09,,,,1.7,136*76
$GLGMP,200112.00,,,,,,08,,,,,*77
$GAGMP,200112.00,,,,,,07,,,,,*75
$GBGMP,200112.00,,,,,,14,,,,,*74
$PSSN,SNC,[0,331290000,2347]*4E
$GPZDA,200117.00,01,01,2025,,*66
$GPDTM,W84,,00.0000000,N,00.0000000,E,00.0000000,W84*5F
$PSSN,TFM,200117.00,,,,*6A
$GPRMC,200117.00,A,4742.1605265,N,01618.1002249,E,0.0,,010125,5.1,E,D*1C
$GPGLL,4742.1605265,N,01618.1002249,E,200117.00,A,D*6D
$GPGGA,200117.00,4742.1605265,N,01618.1002249,E,2,39,0.4,708.5104,M,43.2066,M,2.6,0136*44
$GNGNS,200117.00,4742.1605265,N,01618.1002249,E,DAAA,39,0.4,708.5104,43.2066,,*58
$GPGNS,200117.00,,,,,,10,,,,2.6,136*79
$GLGNS,200117.00,,,,,,08,,,,,*72
$GAGNS,200117.00,,,,,,07,,,,,*70
$GBGNS,200117.00,,,,,,14,,,,,*71
$GPLLQ,200117.00,010125,,M,,M,1,39,0.827,,M*13
$GPVTG,,T,,M,0.00,N,0.01,K,D*27
$GPHDT,,T*1B
$GPTHS,,V*0E
$GPROT,,V*08
$PSSN,HRP,200117.00,010125,,,,,,,00,0,,*64
$PTNL,AVR,200117.00,,Yaw,,Tilt,,,,0,,00*32
$GPGSA,A,3,07,08,10,15,16,18,21,23,26,27,,,0.8,0.4,0.6*3F
$GPGSA,A,3,66,67,73,74,80,82,83,84,,,,,0.8,0.4,0.6*3B
$GPGSA,A,3,03,08,13,15,21,26,31,,,,,,0.8,0.4,0.6*30
$GPGSA,A,3,05,08,11,13,14,21,27,28,33,37,38,42,0.8,0.4,0.6*37
$GPGSA,A,3,43,60,,,,,,,,,,,0.8,0.4,0.6*39
$GPGST,200117.00,2.164,0.367,0.311,334.106,0.357,0.323,0.673*50
$GPGBS,200117.00,2.397,1.841,4.480,67,0.0001,7.236,6.112*55
$GPGRS,200117.00,1,0.1,0.4,0.3,0.4,-0.1,-0.2,-0.0,0.1,-0.8,-0.2,,*6C
$GPGRS,200117.00,1,-4.0,7.2,5.7,-3.6,-1.4,-0.3,-3.1,-2.9,,,,*42
$GPGRS,200117.00,1,-0.7,-0.5,0.3,-0.1,0.2,-0.0,0.4,,,,,*63
$GPGRS,200117.00,1,0.5,0.6,1.3,0.6,0.7,-2.4,-0.1,-0.3,-0.5,-0.6,-0.8,0.1*45
