$GPZDA,205942.00,01,01,2025,,*6B
$GPDTM,W84,,00.0000000,N,00.0000000,E,00.0000000,W84*5F
$PSSN,TFM,205942.00,,,,*67
$GPRMC,205942.00,A,4742.1604351,N,01618.1004510,E,0.0,,010125,5.1,E,D*1B
$GPGLL,4742.1604351,N,01618.1004510,E,205942.00,A,D*6A
$GPGGA,205942.00,4742.1604351,N,01618.1004510,E,2,38,0.4,708.2529,M,43.2066,M,2.3,0136*4B
$GNGNS,205942.00,4742.1604351,N,01618.1004510,E,DAAA,38,0.4,708.2529,43.2066,,*52
$GPGNS,205942.00,,,,,,09,,,,2.3,136*79
$GLGNS,205942.00,,,,,,09,,,,,*7E
$GAGNS,205942.00,,,,,,08,,,,,*72
$GBGNS,205942.00,,,,,,12,,,,,*7A
$GPLLQ,205942.00,010125,,M,,M,1,38,0.987,,M*14
$GPVTG,,T,,M,0.00,N,0.00,K,D*26
$GPHDT,,T*1B
$GPTHS,,V*0E
$GPROT,,V*08
$PSSN,HRP,205942.00,010125,,,,,,,00,0,,*69
$PTNL,AVR,205942.00,,Yaw,,Tilt,,,,0,,00*3F
$GPGSA,A,3,02,08,10,16,18,21,23,27,32,,,,0.8,0.4,0.7*3A
$GPGSA,A,3,67,68,69,73,74,75,82,83,84,,,,0.8,0.4,0.7*31
$GPGSA,A,3,03,07,08,13,21,26,31,33,,,,,0.8,0.4,0.7*32
$GPGSA,A,3,05,08,13,14,27,28,33,37,41,42,43,60,0.8,0.4,0.7*3A
$GPGST,205942.00,2.272,0.513,0.359,14.814,0.505,0.371,0.762*6C
$GPGBS,205942.00,3.576,2.599,4.408,68,0.0001,6.104,6.075*57
$GPGRS,205942.00,1,0.7,-0.2,0.1,-0.3,-0.6,-0.1,0.4,-0.3,0.1,,,*43
$GPGRS,205942.00,1,5.4,6.1,0.7,4.7,-4.8,-3.9,-1.4,-2.7,-3.7,,,*45
$GPGRS,205942.00,1,0.3,-0.9,0.3,0.1,0.2,0.1,-0.0,0.1,,,,*4C
$GPGRS,205942.00,1,1.1,0.7,-0.6,1.2,0.4,-0.4,-0.5,-0.5,0.5,-0.2,0.9,-1.1*4A
$GPGSV,5,1,19,27,78,163,50,02,15,271,41,16,23,196,41,32,17,138,42*7F
$GPGSV,5,2,19,23,36,051,45,21,34,275,42,08,61,296,49,10,73,101,51*7B
$GPGSV,5,3,19,18,07,079,36,15,03,026,36,36,35,170,44,58,13,245,38*76
$GPGSV,5,4,19,57,11,108,37,34,31,208,42,40,24,132,36,49,34,195,44*76
$GPGSV,5,5,19,41,07,108,33,61,03,257,37*7A
$GLGSV,3,1,10,68,50,104,52,73,10,226,44,75,22,325,46,69,22,159,47*69
$GLGSV,3,2,10,82,13,091,42,67,31,038,47,74,29,267,43,84,47,308,40*64
$GLGSV,3,3,10,83,50,067,40,85,01,286,40*6B
$GAGSV,3,1,10,26,68,287,48,21,25,197,42,03,12,034,37,07,14,137,38*62
$GAGSV,3,2,10,33,20,264,40,31,23,316,40,08,26,084,42,13,51,064,45*6E
$GAGSV,3,3,10,23,46,258,,15,01,077,34*67
$GBGSV,6,1,21,28,82,060,51,05,23,128,38,08,18,041,38,60,11,108,40*6D
$GBGSV,6,2,21,41,27,173,44,46,18,278,,31,18,064,,42,26,045,44*65
$GBGSV,6,3,21,43,20,107,45,13,26,045,40,58,26,270,,57,31,235,*64
$GBGSV,6,4,21,27,46,295,49,30,45,290,,14,45,070,46,33,53,112,50*67
$GBGSV,6,5,21,38,05,044,38,50,06,032,,37,06,227,39,36,08,327,*68
$GBGSV,6,6,21,02,08,105,34*51
$GPGGA,205942.00,,,,,0,00,,,M,,M,,*40
$PTNL,GGK,205942.00,010125,4742.1604351,N,01618.1004510,E,1,38,0.8,EHT751.4595,M*41
$GPGGQ,205942.00,010125,4742.1604351,N,01618.1004510,E,1,38,0.987,708.2529,M*3C
$GPGFA,205942.00,4.881,6.250,0.513,0.359,14.814,0.762,,VVV*3C
$GPLLK,205942.00,010125,,M,,M,1,38,0.9,,M*01
$GNGMP,205942.00,,,,,DAAA,38,0.4,,,,*51
$GPGMP,205942.00,,,,,,09,,,,2.3,136*79
$GLGMP,205942.00,,,,,,09,,,,,*7E
$GAGMP,205942.00,,,,,,08,,,,,*72
$GBGMP,205942.00,,,,,,12,,,,,*7A
$PSSN,SNC,[0,334800000,2347]*48
$GPZDA,205947.00,01,01,2025,,*6E
$GPDTM,W84,,00.0000000,N,00.0000000,E,00.0000000,W84*5F
$PSSN,TFM,205947.00,,,,*62
$GPRMC,205947.00,A,4742.1604342,N,01618.1004505,E,0.0,,010125,5.1,E,D*18
$GPGLL,4742.1604342,N,01618.1004505,E,205947.00,A,D*69
$GPGGA,205947.00,4742.1604342,N,01618.1004505,E,2,38,0.4,708.2588,M,43.2066,M,1.8,0136*4B
$GNGNS,205947.00,4742.1604342,N,01618.1004505,E,DAAA,38,0.4,708.2588,43.2066,,*5A
$GPGNS,205947.00,,,,,,09,,,,1.8,136*74
$GLGNS,205947.00,,,,,,09,,,,,*7B
$GAGNS,205947.00,,,,,,08,,,,,*77
$GBGNS,205947.00,,,,,,12,,,,,*7F
$GPLLQ,205947.00,010125,,M,,M,1,38,0.968,,M*10
$GPVTG,,T,,M,0.00,N,0.00,K,D*26
$GPHDT,,T*1B
$GPTHS,,V*0E
$GPROT,,V*08
$PSSN,HRP,205947.00,010125,,,,,,,00,0,,*6C
$PTNL,AVR,205947.00,,Yaw,,Tilt,,,,0,,00*3A
$GPGSA,A,3,02,08,10,16,18,21,23,27,32,,,,0.8,0.4,0.7*3A
$GPGSA,A,3,67,68,69,73,74,75,82,83,84,,,,0.8,0.4,0.7*31
$GPGSA,A,3,03,07,08,13,21,26,31,33,,,,,0.8,0.4,0.7*32
$GPGSA,A,3,05,08,13,14,27,28,33,37,41,42,43,60,0.8,0.4,0.7*3A
$GPGST,205947.00,2.274,0.502,0.352,14.621,0.494,0.364,0.749*68
$GPGBS,205947.00,3.593,2.614,4.203,68,0.0001,5.964,6.075*5F
$GPGRS,205947.00,1,-0.1,-0.0,-0.1,-0.2,-1.3,0.3,0.1,-0.1,0.5,,,*6B
$GPGRS,205947.00,1,5.8,6.0,0.6,4.0,-5.5,-4.1,-2.4,-2.6,-2.5,,,*49
$GPGRS,205947.00,1,0.4,-0.7,-0.2,0.1,0.1,-0.2,-0.2,-0.1,,,,*6E
$GPGRS,205947.00,1,0.5,0.8,-0.2,0.5,-0.1,-0.7,-0.6,-0.6,1.0,-0.8,1.0,-1.1*6A
$GPGSV,5,1,19,27,78,163,50,02,15,271,41,16,23,196,41,32,17,138,42*7F
$GPGSV,5,2,19,23,36,051,45,21,34,275,42,08,61,296,49,10,73,101,52*78
$GPGSV,5,3,19,18,07,079,37,15,03,026,35,36,35,170,44,58,13,245,38*74
$GPGSV,5,4,19,57,11,108,37,34,31,208,42,40,24,132,36,49,34,195,44*76
$GPGSV,5,5,19,41,07,108,34,61,03,257,38*72
$GLGSV,3,1,10,68,50,104,51,73,10,225,44,75,22,325,45,69,22,159,47*6A
$GLGSV,3,2,10,82,13,091,42,67,31,038,47,74,29,267,43,84,47,308,40*64
$GLGSV,3,3,10,83,50,067,40,85,01,286,41*6A
$GAGSV,3,1,10,26,68,287,48,21,25,197,42,03,12,034,38,07,14,137,38*6D
$GAGSV,3,2,10,33,20,264,41,31,23,316,40,08,26,084,42,13,51,064,45*6F
$GAGSV,3,3,10,23,46,258,,15,01,077,33*60
$GBGSV,6,1,21,28,82,060,51,05,23,128,38,08,18,041,38,60,11,108,40*6D
$GBGSV,6,2,21,41,27,173,44,46,18,278,,31,18,064,,42,26,045,44*65
$GBGSV,6,3,21,43,20,107,44,13,26,045,40,58,26,270,,57,31,235,*65
$GBGSV,6,4,21,27,46,295,49,30,45,290,,14,45,070,46,33,53,112,50*67
$GBGSV,6,5,21,38,05,044,38,50,06,032,,37,06,227,40,36,08,327,*66
$GBGSV,6,6,21,02,08,105,34*51
$GPGGA,205947.00,,,,,0,00,,,M,,M,,*45
$PTNL,GGK,205947.00,010125,4742.1604342,N,01618.1004505,E,1,38,0.8,EHT751.4654,M*4C
$GPGGQ,205947.00,010125,4742.1604342,N,01618.1004505,E,1,38,0.968,708.2588,M*35
$GPGFA,205947.00,4.771,6.140,0.502,0.352,14.621,0.749,,VVV*31
$GPLLK,205947.00,010125,,M,,M,1,38,0.9,,M*04
$GNGMP,205947.00,,,,,DAAA,38,0.4,,,,*54
$GPGMP,205947.00,,,,,,09,,,,1.8,136*74
$GLGMP,205947.00,,,,,,09,,,,,*7B
$GAGMP,205947.00,,,,,,08,,,,,*77
$GBGMP,205947.00,,,,,,12,,,,,*7F
$PSSN,SNC,[0,334805000,2347]*4D
$GPZDA,205952.00,01,01,2025,,*6A
$GPDTM,W84,,00.0000000,N,00.0000000,E,00.0000000,W84*5F
$PSSN,TFM,205952.00,,,,*66
$GPRMC,205952.00,A,4742.1604328,N,01618.1004490,E,0.0,,010125,5.1,E,D*1D
$GPGLL,4742.1604328,N,01618.1004490,E,205952.00,A,D*6C
$GPGGA,205952.00,4742.1604328,N,01618.1004490,E,2,38,0.4,708.2619,M,43.2066,M,2.8,0136*46
$GNGNS,205952.00,4742.1604328,N,01618.1004490,E,DAAA,38,0.4,708.2619,43.2066,,*54
$GPGNS,205952.00,,,,,,09,,,,2.8,136*73
$GLGNS,205952.00,,,,,,09,,,,,*7F
$GAGNS,205952.00,,,,,,08,,,,,*73
$GBGNS,205952.00,,,,,,12,,,,,*7B
$GPLLQ,205952.00,010125,,M,,M,1,38,0.974,,M*19
$GPVTG,,T,,M,0.00,N,0.00,K,D*26
$GPHDT,,T*1B
$GPTHS,,V*0E
$GPROT,,V*08
$PSSN,HRP,205952.00,010125,,,,,,,00,0,,*68
$PTNL,AVR,205952.00,,Yaw,,Tilt,,,,0,,00*3E
$GPGSA,A,3,02,08,10,16,18,21,23,27,32,,,,0.8,0.4,0.7*3A
$GPGSA,A,3,67,68,69,73,74,75,82,83,84,,,,0.8,0.4,0.7*31
$GPGSA,A,3,03,07,08,13,21,26,31,33,,,,,0.8,0.4,0.7*32
$GPGSA,A,3,05,08,13,14,27,28,33,37,41,42,43,60,0.8,0.4,0.7*3A
$GPGST,205952.00,2.352,0.508,0.353,15.214,0.499,0.366,0.752*64
$GPGBS,205952.00,3.637,2.644,4.246,68,0.0001,6.139,6.075*51
$GPGRS,205952.00,1,0.3,-0.2,0.2,0.1,-0.6,0.1,0.1,-0.3,0.1,,,*42
$GPGRS,205952.00,1,5.4,6.1,0.4,4.7,-6.0,-3.8,-1.5,-3.5,-2.5,,,*4D
$GPGRS,205952.00,1,1.1,-0.7,0.1,0.3,0.1,-0.2,0.0,0.6,,,,*47
$GPGRS,205952.00,1,1.2,0.3,0.0,0.3,0.1,-0.6,-0.4,-0.4,1.4,-0.5,1.0,-1.4*6A
$GPGSV,5,1,19,27,78,163,50,02,15,271,40,16,23,196,42,32,17,138,42*7D
$GPGSV,5,2,19,23,36,051,45,21,34,275,41,08,61,296,49,10,73,101,52*7B
$GPGSV,5,3,19,18,07,079,37,15,03,026,35,36,35,170,44,58,13,245,38*74
$GPGSV,5,4,19,57,11,108,38,34,31,208,42,40,24,132,36,49,34,195,44*79
$GPGSV,5,5,19,41,07,108,34,61,03,257,38*72
$GLGSV,3,1,10,68,50,104,51,73,10,225,44,75,22,325,45,69,22,159,46*6B
$GLGSV,3,2,10,82,13,091,42,67,31,038,47,74,29,267,44,84,47,308,40*63
$GLGSV,3,3,10,83,50,067,41,85,01,286,39*64
$GAGSV,3,1,10,26,68,287,48,21,25,197,42,03,12,034,37,07,14,136,38*63
$GAGSV,3,2,10,33,20,264,41,31,23,316,40,08,26,084,42,13,51,064,45*6F
$GAGSV,3,3,10,23,46,258,,15,01,077,33*60
$GBGSV,6,1,21,28,82,060,51,05,23,128,38,08,18,041,38,60,11,108,40*6D
$GBGSV,6,2,21,41,27,173,44,46,18,278,,31,17,064,,13,26,045,41*6B
$GBGSV,6,3,21,43,20,107,44,42,26,045,44,58,26,270,,57,31,235,*65
$GBGSV,6,4,21,27,46,295,49,30,45,290,,14,45,070,45,33,53,112,50*64
$GBGSV,6,5,21,38,05,044,38,50,06,032,,37,06,227,40,36,08,327,*66
$GBGSV,6,6,21,02,08,105,34*51
$GPGGA,205952.00,,,,,0,00,,,M,,M,,*41
$PTNL,GGK,205952.00,010125,4742.1604328,N,01618.1004490,E,1,38,0.8,EHT751.4685,M*45
$GPGGQ,205952.00,010125,4742.1604328,N,01618.1004490,E,1,38,0.974,708.2619,M*36
$GPGFA,205952.00,4.834,6.164,0.508,0.353,15.214,0.752,,VVV*3F
$GPLLK,205952.00,010125,,M,,M,1,38,0.9,,M*00
$GNGMP,205952.00,,,,,DAAA,38,0.4,,,,*50
$GPGMP,205952.00,,,,,,09,,,,2.8,136*73
$GLGMP,205952.00,,,,,,09,,,,,*7F
$GAGMP,205952.00,,,,,,08,,,,,*73
$GBGMP,205952.00,,,,,,12,,,,,*7B
$PSSN,SNC,[0,334810000,2347]*49
$GPZDA,205957.00,01,01,2025,,*6F
$GPDTM,W84,,00.0000000,N,00.0000000,E,00.0000000,W84*5F
$PSSN,TFM,205957.00,,,,*63
$GPRMC,205957.00,A,4742.1604321,N,01618.1004485,E,0.0,,010125,5.1,E,D*15
$GPGLL,4742.1604321,N,01618.1004485,E,205957.00,A,D*64
$GPGGA,205957.00,4742.1604321,N,01618.1004485,E,2,38,0.4,708.2652,M,43.2066,M,3.3,0136*4B
$GNGNS,205957.00,4742.1604321,N,01618.1004485,E,DAAA,38,0.4,708.2652,43.2066,,*53
$GPGNS,205957.00,,,,,,09,,,,3.3,136*7C
$GLGNS,205957.00,,,,,,09,,,,,*7A
$GAGNS,205957.00,,,,,,08,,,,,*76
$GBGNS,205957.00,,,,,,12,,,,,*7E
$GPLLQ,205957.00,010125,,M,,M,1,38,0.988,,M*1F
$GPVTG,,T,,M,0.00,N,0.00,K,D*26
$GPHDT,,T*1B
$GPTHS,,V*0E
$GPROT,,V*08
$PSSN,HRP,205957.00,010125,,,,,,,00,0,,*6D
$PTNL,AVR,205957.00,,Yaw,,Tilt,,,,0,,00*3B
$GPGSA,A,3,02,08,10,16,18,21,23,27,32,,,,0.8,0.4,0.7*3A
$GPGSA,A,3,67,68,69,73,74,75,82,83,84,,,,0.8,0.4,0.7*31
$GPGSA,A,3,03,07,08,13,21,26,31,33,,,,,0.8,0.4,0.7*32
$GPGSA,A,3,05,08,13,14,27,28,33,37,41,42,43,60,0.8,0.4,0.7*3A
$GPGST,205957.00,2.303,0.516,0.357,15.313,0.507,0.371,0.763*6A
$GPGBS,205957.00,3.714,2.638,4.253,68,0.0001,6.574,6.075*56
$GPGRS,205957.00,1,0.3,-0.1,0.0,-0.1,-1.3,0.0,0.2,-0.3,0.1,,,*6D
$GPGRS,205957.00,1,5.5,6.6,0.3,5.4,-4.8,-3.7,-1.1,-2.8,-2.0,,,*43
$GPGRS,205957.00,1,0.8,-1.0,0.2,0.3,-0.1,-0.5,0.0,0.2,,,,*61
$GPGRS,205957.00,1,1.2,0.5,0.0,0.4,0.3,-0.7,-0.7,-0.5,1.4,-0.3,0.9,-1.5*60
$GPGSV,5,1,19,27,78,163,50,02,15,271,41,16,23,196,42,32,17,138,42*7C
$GPGSV,5,2,19,23,36,051,45,21,34,275,41,08,61,296,49,10,73,101,51*78
$GPGSV,5,3,19,18,07,079,38,15,03,026,33,36,35,170,44,58,13,245,37*72
$GPGSV,5,4,19,57,11,108,37,34,31,208,42,40,24,132,36,49,34,195,44*76
$GPGSV,5,5,19,41,07,108,34,61,03,257,37*7D
$GLGSV,3,1,10,68,50,104,51,73,10,225,45,75,22,325,45,69,22,159,46*6A
$GLGSV,3,2,10,82,13,091,42,67,31,038,47,74,29,267,43,84,47,308,40*64
$GLGSV,3,3,10,83,50,067,40,85,01,286,38*64
$GAGSV,3,1,10,26,68,287,48,21,25,197,42,03,12,034,37,07,14,136,38*63
$GAGSV,3,2,10,33,20,264,41,31,23,316,40,08,26,084,42,13,51,064,46*6C
$GAGSV,3,3,10,23,46,257,,15,01,077,33*6F
$GBGSV,6,1,21,28,82,060,51,05,23,128,38,08,18,041,37,60,11,108,40*62
$GBGSV,6,2,21,41,27,173,45,46,18,278,,31,17,064,,13,26,045,40*6B
$GBGSV,6,3,21,43,20,107,44,42,26,045,44,58,26,270,,57,31,235,*65
$GBGSV,6,4,21,27,46,295,49,30,45,290,,14,45,070,46,33,53,112,50*67
$GBGSV,6,5,21,38,05,044,38,50,06,032,,37,06,227,40,36,08,327,*66
$GBGSV,6,6,21,02,08,105,34*51
$GPGGA,205957.00,,,,,0,00,,,M,,M,,*44
$PTNL,GGK,205957.00,010125,4742.1604321,N,01618.1004485,E,1,38,0.8,EHT751.4717,M*47
$GPGGQ,205957.00,010125,4742.1604321,N,01618.1004485,E,1,38,0.988,708.2652,M*32
$GPGFA,205957.00,4.908,6.259,0.516,0.357,15.313,0.763,,VVV*36
$GPLLK,205957.00,010125,,M,,M,1,38,0.9,,M*05
$GNGMP,205957.00,,,,,DAAA,38,0.4,,,,*55
$GPGMP,205957.00,,,,,,09,,,,3.3,136*7C
$GLGMP,205957.00,,,,,,09,,,,,*7A
$GAGMP,205957.00,,,,,,08,,,,,*76
$GBGMP,205957.00,,,,,,12,,,,,*7E
$PSSN,SNC,[0,334815000,2347]*4C
$GPZDA,210002.00,01,01,2025,,*62
$GPDTM,W84,,00.0000000,N,00.0000000,E,00.0000000,W84*5F
$PSSN,TFM,210002.00,,,,*6E
$GPRMC,210002.00,A,4742.1604323,N,01618.1004455,E,0.0,,010125,5.1,E,D*17
$GPGLL,4742.1604323,N,01618.1004455,E,210002.00,A,D*66
$GPGGA,210002.00,4742.1604323,N,01618.1004455,E,2,38,0.4,708.2678,M,43.2066,M,2.3,0136*40
$GNGNS,210002.00,4742.1604323,N,01618.1004455,E,DAAA,38,0.4,708.2678,43.2066,,*59
$GPGNS,210002.00,,,,,,09,,,,2.3,136*70
$GLGNS,210002.00,,,,,,09,,,,,*77
$GAGNS,210002.00,,,,,,08,,,,,*7B
$GBGNS,210002.00,,,,,,12,,,,,*73
$GPLLQ,210002.00,010125,,M,,M,1,38,0.986,,M*1C
$GPVTG,,T,,M,0.00,N,0.01,K,D*27
$GPHDT,,T*1B
$GPTHS,,V*0E
$GPROT,,V*08
$PSSN,HRP,210002.00,010125,,,,,,,00,0,,*60
$PTNL,AVR,210002.00,,Yaw,,Tilt,,,,0,,00*36
$GPGSA,A,3,02,08,10,16,18,21,23,27,32,,,,0.8,0.4,0.7*3A
$GPGSA,A,3,67,68,69,73,74,75,82,83,84,,,,0.8,0.4,0.7*31
$GPGSA,A,3,03,07,08,13,21,26,31,33,,,,,0.8,0.4,0.7*32
$GPGSA,A,3,05,08,13,14,27,28,33,37,41,42,43,60,0.8,0.4,0.7*3A
$GPGST,210002.00,2.327,0.513,0.357,14.903,0.504,0.369,0.763*64
$GPGBS,210002.00,3.576,2.590,4.422,68,0.0001,6.131,6.075*59
$GPGRS,210002.00,1,0.2,-0.2,0.2,-0.2,-1.1,-0.1,0.5,-0.1,0.4,,,*4D
$GPGRS,210002.00,1,5.4,6.1,0.6,4.9,-5.3,-3.9,-1.7,-3.2,-3.1,,,*48
$GPGRS,210002.00,1,0.8,-0.9,0.0,-0.0,-0.1,-0.4,-0.0,-0.2,,,,*49
$GPGRS,210002.00,1,0.8,0.2,0.0,0.5,0.1,-0.4,-0.5,0.0,1.2,-0.7,0.9,-1.5*49
$GPGSV,5,1,19,27,78,163,51,02,15,272,40,16,23,196,42,32,17,138,42*7F
$GPGSV,5,2,19,23,36,051,44,21,34,275,41,08,61,296,49,10,73,101,52*7A
$GPGSV,5,3,19,18,07,079,38,15,03,026,33,36,35,170,44,58,13,245,37*72
$GPGSV,5,4,19,57,11,108,37,34,31,208,41,40,24,132,36,49,34,195,43*72
$GPGSV,5,5,19,41,07,108,33,61,03,257,38*75
$GLGSV,3,1,10,68,50,104,51,73,10,225,45,75,22,325,45,69,23,159,47*6A
$GLGSV,3,2,10,82,13,092,42,67,31,038,47,74,29,267,43,84,47,308,40*67
$GLGSV,3,3,10,83,50,067,40,85,01,286,39*65
$GAGSV,3,1,10,26,68,287,48,21,25,197,42,03,12,034,38,07,14,136,38*6C
$GAGSV,3,2,10,33,20,264,41,31,23,316,41,08,26,084,42,13,51,064,46*6D
$GAGSV,3,3,10,23,46,257,,15,01,077,33*6F
$GBGSV,6,1,21,28,82,061,51,05,23,128,38,08,18,041,38,60,11,108,40*6C
$GBGSV,6,2,21,41,27,173,45,46,18,278,,31,17,064,,13,26,045,41*6A
$GBGSV,6,3,21,43,20,107,43,42,26,045,44,58,26,270,,57,31,235,*62
$GBGSV,6,4,21,27,46,295,49,30,45,290,,14,45,070,45,33,53,112,50*64
$GBGSV,6,5,21,38,05,044,38,50,06,032,,37,06,227,40,36,08,327,*66
$GBGSV,6,6,21,02,08,105,34*51
$GPGGA,210002.00,,,,,0,00,,,M,,M,,*49
$PTNL,GGK,210002.00,010125,4742.1604323,N,01618.1004455,E,1,38,0.8,EHT751.4744,M*43
$GPGGQ,210002.00,010125,4742.1604323,N,01618.1004455,E,1,38,0.986,708.2678,M*36
$GPGFA,210002.00,4.873,6.254,0.513,0.357,14.903,0.763,,VVV*34
$GPLLK,210002.00,010125,,M,,M,1,38,0.9,,M*08
$GNGMP,210002.00,,,,,DAAA,38,0.4,,,,*58
$GPGMP,210002.00,,,,,,09,,,,2.3,136*70
$GLGMP,210002.00,,,,,,09,,,,,*77
$GAGMP,210002.00,,,,,,08,,,,,*7B
$GBGMP,210002.00,,,,,,12,,,,,*73
$PSSN,SNC,[0,334820000,2347]*4A
$GPZDA,210007.00,01,01,2025,,*67
$GPDTM,W84,,00.0000000,N,00.0000000,E,00.0000000,W84*5F
$PSSN,TFM,210007.00,,,,*6B
$GPRMC,210007.00,A,4742.1604300,N,01618.1004418,E,0.0,,010125,5.1,E,D*1A
$GPGLL,4742.1604300,N,01618.1004418,E,210007.00,A,D*6B
$GPGGA,210007.00,4742.1604300,N,01618.1004418,E,2,38,0.4,708.2708,M,43.2066,M,1.8,0136*43
$GNGNS,210007.00,4742.1604300,N,01618.1004418,E,DAAA,38,0.4,708.2708,43.2066,,*52
$GPGNS,210007.00,,,,,,09,,,,1.8,136*7D
$GLGNS,210007.00,,,,,,09,,,,,*72
$GAGNS,210007.00,,,,,,08,,,,,*7E
$GBGNS,210007.00,,,,,,12,,,,,*76
$GPLLQ,210007.00,010125,,M,,M,1,38,0.969,,M*18
$GPVTG,,T,,M,0.01,N,0.01,K,D*26
$GPHDT,,T*1B
$GPTHS,,V*0E
$GPROT,,V*08
$PSSN,HRP,210007.00,010125,,,,,,,00,0,,*65
$PTNL,AVR,210007.00,,Yaw,,Tilt,,,,0,,00*33
$GPGSA,A,3,02,08,10,16,18,21,23,27,32,,,,0.8,0.4,0.7*3A
$GPGSA,A,3,67,68,69,73,74,75,82,83,84,,,,0.8,0.4,0.7*31
$GPGSA,A,3,03,07,08,13,21,26,31,33,,,,,0.8,0.4,0.7*32
$GPGSA,A,3,05,08,13,14,27,28,33,37,41,42,43,60,0.8,0.4,0.7*3A
$GPGST,210007.00,2.283,0.502,0.353,14.507,0.494,0.364,0.751*66
$GPGBS,210007.00,3.601,2.604,4.222,68,0.0001,5.557,6.075*50
$GPGRS,210007.00,1,-0.2,-0.1,0.1,-0.1,-1.0,0.3,0.5,-0.3,-0.3,,,*60
$GPGRS,210007.00,1,5.5,5.6,0.4,4.7,-5.3,-4.9,-2.2,-2.6,-2.3,,,*43
$GPGRS,210007.00,1,1.0,-1.2,-0.1,-0.2,-0.2,-0.3,-0.3,-0.1,,,,*65
$GPGRS,210007.00,1,0.8,-0.4,0.2,0.4,0.0,-0.6,-0.4,0.1,0.7,-0.8,0.6,-1.5*63
$GPGSV,5,1,19,27,77,163,50,02,15,272,41,16,23,196,42,32,17,138,42*70
$GPGSV,5,2,19,23,36,051,44,21,34,275,41,08,61,296,49,10,73,100,52*7B
$GPGSV,5,3,19,18,07,079,38,15,03,026,33,36,35,170,44,58,13,245,37*72
$GPGSV,5,4,19,57,11,108,37,34,31,208,42,40,24,132,36,49,34,195,43*71
$GPGSV,5,5,19,41,07,108,33,61,03,257,37*7A
$GLGSV,3,1,10,68,50,103,51,73,10,225,44,75,22,325,45,69,23,159,46*6D
$GLGSV,3,2,10,82,13,092,42,67,31,038,47,74,29,267,43,84,47,308,40*67
$GLGSV,3,3,10,83,50,067,41,85,01,286,41*6B
$GAGSV,3,1,10,26,68,287,48,21,25,197,42,03,12,034,38,07,14,136,38*6C
$GAGSV,3,2,10,33,20,264,41,31,23,316,41,08,26,084,42,13,51,064,46*6D
$GAGSV,3,3,10,23,46,257,,15,01,077,34*68
$GBGSV,6,1,21,28,82,061,51,05,23,128,38,08,18,041,37,60,11,108,40*63
$GBGSV,6,2,21,41,27,173,45,46,18,278,,31,17,064,,13,26,045,41*6A
$GBGSV,6,3,21,43,20,107,42,42,26,045,44,58,26,270,,57,31,235,*63
$GBGSV,6,4,21,27,46,295,49,30,45,290,,14,45,070,45,33,53,112,50*64
$GBGSV,6,5,21,38,04,044,38,50,06,032,,37,06,227,40,36,08,327,*67
$GBGSV,6,6,21,02,08,105,34*51
$GPGGA,210007.00,,,,,0,00,,,M,,M,,*4C
$PTNL,GGK,210007.00,010125,4742.1604300,N,01618.1004418,E,1,38,0.8,EHT751.4774,M*4D
$GPGGQ,210007.00,010125,4742.1604300,N,01618.1004418,E,1,38,0.969,708.2708,M*3C
$GPGFA,210007.00,4.773,6.156,0.502,0.353,14.507,0.751,,VVV*32
$GPLLK,210007.00,010125,,M,,M,1,38,0.9,,M*0D
$GNGMP,210007.00,,,,,DAAA,38,0.4,,,,*5D
$GPGMP,210007.00,,,,,,09,,,,1.8,136*7D
$GLGMP,210007.00,,,,,,09,,,,,*72
$GAGMP,210007.00,,,,,,08,,,,,*7E
$GBGMP,210007.00,,,,,,12,,,,,*76
$PSSN,SNC,[0,334825000,2347]*4F
$GPZDA,210012.00,01,01,2025,,*63
$GPDTM,W84,,00.0000000,N,00.0000000,E,00.0000000,W84*5F
$PSSN,TFM,210012.00,,,,*6F
$GPRMC,210012.00,A,4742.1604273,N,01618.1004431,E,0.0,,010125,5.1,E,D*10
$GPGLL,4742.1604273,N,01618.1004431,E,210012.00,A,D*61
$GPGGA,210012.00,4742.1604273,N,01618.1004431,E,2,38,0.4,708.2740,M,43.2066,M,2.8,0136*46
$GNGNS,210012.00,4742.1604273,N,01618.1004431,E,DAAA,38,0.4,708.2740,43.2066,,*54
$GPGNS,210012.00,,,,,,09,,,,2.8,136*7A
$GLGNS,210012.00,,,,,,09,,,,,*76
$GAGNS,210012.00,,,,,,08,,,,,*7A
$GBGNS,210012.00,,,,,,12,,,,,*72
$GPLLQ,210012.00,010125,,M,,M,1,38,0.975,,M*11
$GPVTG,,T,,M,0.01,N,0.01,K,D*26
$GPHDT,,T*1B
$GPTHS,,V*0E
$GPROT,,V*08
$PSSN,HRP,210012.00,010125,,,,,,,00,0,,*61
$PTNL,AVR,210012.00,,Yaw,,Tilt,,,,0,,00*37
$GPGSA,A,3,02,08,10,16,18,21,23,27,32,,,,0.8,0.4,0.7*3A
$GPGSA,A,3,67,68,69,73,74,75,82,83,84,,,,0.8,0.4,0.7*31
$GPGSA,A,3,03,07,08,13,21,26,31,33,,,,,0.8,0.4,0.7*32
$GPGSA,A,3,05,08,13,14,27,28,33,37,41,42,43,60,0.8,0.4,0.7*3A
$GPGST,210012.00,2.139,0.509,0.353,15.068,0.500,0.366,0.754*6D
$GPGBS,210012.00,3.643,2.634,4.265,68,0.0001,5.222,6.075*57
$GPGRS,210012.00,1,0.5,-0.2,-0.1,-0.2,-1.3,0.5,0.7,-0.3,-0.4,,,*63
$GPGRS,210012.00,1,5.3,5.2,0.2,4.5,-5.0,-4.6,-1.5,-1.0,-2.1,,,*4E
$GPGRS,210012.00,1,1.2,-1.1,-0.4,0.1,-0.2,-0.0,-0.5,-0.3,,,,*4C
$GPGRS,210012.00,1,1.0,-0.4,0.5,0.6,-0.3,-0.5,-0.3,-0.3,0.3,-0.9,0.5,-1.5*68
$GPGSV,5,1,19,27,77,163,51,02,15,272,41,16,23,196,42,32,17,138,41*72
$GPGSV,5,2,19,23,36,051,45,21,34,275,42,08,61,296,49,10,73,100,52*79
$GPGSV,5,3,19,18,07,079,38,15,03,026,33,36,35,170,44,58,13,245,37*72
$GPGSV,5,4,19,57,11,108,37,34,31,208,41,40,24,132,36,49,34,195,43*72
$GPGSV,5,5,19,41,07,108,33,61,03,257,37*7A
$GLGSV,3,1,10,68,50,103,51,73,10,225,44,75,22,325,45,69,23,159,46*6D
$GLGSV,3,2,10,82,13,092,42,67,31,038,48,74,29,267,43,84,47,308,41*69
$GLGSV,3,3,10,83,50,067,41,85,01,286,40*6A
$GAGSV,3,1,10,26,68,287,48,21,25,197,42,03,12,034,38,07,14,136,38*6C
$GAGSV,3,2,10,33,20,264,41,31,23,316,41,08,26,084,42,13,51,064,46*6D
$GAGSV,3,3,10,23,46,257,,15,01,077,34*68
$GBGSV,6,1,21,28,82,061,51,05,23,128,38,08,18,041,37,60,11,108,40*63
$GBGSV,6,2,21,41,27,173,46,46,18,278,,31,17,064,,42,26,045,44*68
$GBGSV,6,3,21,43,20,107,43,13,26,045,41,58,26,270,,57,31,235,*63
$GBGSV,6,4,21,27,46,295,49,30,45,290,,14,45,070,46,33,53,112,50*67
$GBGSV,6,5,21,38,04,044,38,50,06,032,,37,06,227,40,36,08,327,*67
$GBGSV,6,6,21,02,08,105,34*51
$GPGGA,210012.00,,,,,0,00,,,M,,M,,*48
$PTNL,GGK,210012.00,010125,4742.1604273,N,01618.1004431,E,1,38,0.8,EHT751.4805,M*4E
$GPGGQ,210012.00,010125,4742.1604273,N,01618.1004431,E,1,38,0.975,708.2740,M*37
$GPGFA,210012.00,4.836,6.180,0.509,0.353,15.068,0.754,,VVV*30
$GPLLK,210012.00,010125,,M,,M,1,38,0.9,,M*09
$GNGMP,210012.00,,,,,DAAA,38,0.4,,,,*59
$GPGMP,210012.00,,,,,,09,,,,2.8,136*7A
$GLGMP,210012.00,,,,,,09,,,,,*76
$GAGMP,210012.00,,,,,,08,,,,,*7A
$GBGMP,210012.00,,,,,,12,,,,,*72
$PSSN,SNC,[0,334830000,2347]*4B
$GPZDA,210017.00,01,01,2025,,*66
$GPDTM,W84,,00.0000000,N,00.0000000,E,00.0000000,W84*5F
$PSSN,TFM,210017.00,,,,*6A
$GPRMC,210017.00,A,4742.1604236,N,01618.1004444,E,0.0,,010125,5.1,E,D*16
$GPGLL,4742.1604236,N,01618.1004444,E,210017.00,A,D*67
$GPGGA,210017.00,4742.1604236,N,01618.1004444,E,2,38,0.4,708.2801,M,43.2066,M,3.3,0136*40
$GNGNS,210017.00,4742.1604236,N,01618.1004444,E,DAAA,38,0.4,708.2801,43.2066,,*58
$GPGNS,210017.00,,,,,,09,,,,3.3,136*75
$GLGNS,210017.00,,,,,,09,,,,,*73
$GAGNS,210017.00,,,,,,08,,,,,*7F
$GBGNS,210017.00,,,,,,12,,,,,*77
$GPLLQ,210017.00,010125,,M,,M,1,38,0.997,,M*18
$GPVTG,,T,,M,0.00,N,0.01,K,D*27
$GPHDT,,T*1B
$GPTHS,,V*0E
$GPROT,,V*08
$PSSN,HRP,210017.00,010125,,,,,,,00,0,,*64
$PTNL,AVR,210017.00,,Yaw,,Tilt,,,,0,,00*32
$GPGSA,A,3,02,08,10,16,18,21,23,27,32,,,,0.8,0.4,0.7*3A
$GPGSA,A,3,67,68,69,73,74,75,82,83,84,,,,0.8,0.4,0.7*31
$GPGSA,A,3,03,07,08,13,21,26,31,33,,,,,0.8,0.4,0.7*32
$GPGSA,A,3,05,08,13,14,27,28,33,37,41,42,43,60,0.8,0.4,0.7*3A
$GPGST,210017.00,2.255,0.520,0.360,15.140,0.511,0.373,0.771*62
$GPGBS,210017.00,3.721,2.628,4.268,68,0.0001,5.809,6.075*54
$GPGRS,210017.00,1,0.4,-0.1,-0.3,-0.3,-0.8,0.5,0.5,-0.2,-0.6,,,*6C
$GPGRS,210017.00,1,5.5,5.8,-0.2,5.5,-5.1,-4.5,-1.1,-1.3,-2.6,,,*69
$GPGRS,210017.00,1,1.0,-1.1,-0.4,0.2,-0.1,-0.2,-0.1,0.1,,,,*62
$GPGRS,210017.00,1,0.7,-0.6,-0.5,0.1,-0.1,-0.5,-0.7,-0.1,-0.4,-0.5,0.2,-1.4*67
$GPGSV,5,1,19,27,77,163,51,02,15,272,40,16,23,196,42,32,17,138,41*73
$GPGSV,5,2,19,23,36,051,45,21,34,275,41,08,61,296,49,10,73,100,52*7A
$GPGSV,5,3,19,18,07,079,39,15,03,026,33,36,35,170,44,58,13,245,37*73
$GPGSV,5,4,19,57,11,108,37,34,31,208,41,40,24,132,36,49,34,195,43*72
$GPGSV,5,5,19,41,07,108,33,61,03,257,37*7A
$GLGSV,3,1,10,68,50,103,52,73,10,225,44,75,22,325,45,69,23,159,45*6D
$GLGSV,3,2,10,82,13,092,42,67,31,038,48,74,29,267,43,84,47,309,40*69
$GLGSV,3,3,10,83,50,067,41,85,01,286,39*64
$GAGSV,3,1,10,26,68,287,48,21,25,197,41,03,12,034,38,07,14,136,37*60
$GAGSV,3,2,10,33,20,264,40,31,23,316,41,08,26,084,42,13,51,064,46*6C
$GAGSV,3,3,10,23,46,257,,15,01,077,32*6E
$GBGSV,6,1,21,28,82,061,51,05,23,128,38,08,18,041,37,60,11,108,40*63
$GBGSV,6,2,21,41,27,173,45,46,18,278,,31,17,064,,42,26,045,44*6B
$GBGSV,6,3,21,43,20,107,43,13,26,045,41,58,26,270,,57,31,235,*63
$GBGSV,6,4,21,27,46,295,49,30,45,290,,14,45,070,46,33,53,112,51*66
$GBGSV,6,5,21,38,04,044,38,50,06,032,,37,06,227,40,36,08,327,*67
$GBGSV,6,6,21,02,08,105,34*51
$GPGGA,210017.00,,,,,0,00,,,M,,M,,*4D
$PTNL,GGK,210017.00,010125,4742.1604236,N,01618.1004444,E,1,38,0.8,EHT751.4867,M*4C
$GPGGQ,210017.00,010125,4742.1604236,N,01618.1004444,E,1,38,0.997,708.2801,M*37
$GPGFA,210017.00,4.943,6.318,0.520,0.360,15.140,0.771,,VVV*32
$GPLLK,210017.00,010125,,M,,M,1,38,0.9,,M*0C
$GNGMP,210017.00,,,,,DAAA,38,0.4,,,,*5C
$GPGMP,210017.00,,,,,,09,,,,3.3,136*75
$GLGMP,210017.00,,,,,,09,,,,,*73
$GAGMP,210017.00,,,,,,08,,,,,*7F
$GBGMP,210017.00,,,,,,12,,,,,*77
$PSSN,SNC,[0,334835000,2347]*4E
$GPZDA,210022.00,01,01,2025,,*60
$GPDTM,W84,,00.0000000,N,00.0000000,E,00.0000000,W84*5F
$PSSN,TFM,210022.00,,,,*6C
$GPRMC,210022.00,A,4742.1604205,N,01618.1004454,E,0.0,,010125,5.1,E,D*11
$GPGLL,4742.1604205,N,01618.1004454,E,210022.00,A,D*60
$GPGGA,210022.00,4742.1604205,N,01618.1004454,E,2,38,0.4,708.2822,M,43.2066,M,2.3,0136*47
$GNGNS,210022.00,4742.1604205,N,01618.1004454,E,DAAA,38,0.4,708.2822,43.2066,,*5E
$GPGNS,210022.00,,,,,,09,,,,2.3,136*72
$GLGNS,210022.00,,,,,,09,,,,,*75
$GAGNS,210022.00,,,,,,08,,,,,*79
$GBGNS,210022.00,,,,,,12,,,,,*71
$GPLLQ,210022.00,010125,,M,,M,1,38,0.986,,M*1E
$GPVTG,,T,,M,0.00,N,0.00,K,D*26
$GPHDT,,T*1B
$GPTHS,,V*0E
$GPROT,,V*08
$PSSN,HRP,210022.00,010125,,,,,,,00,0,,*62
$PTNL,AVR,210022.00,,Yaw,,Tilt,,,,0,,00*34
$GPGSA,A,3,02,08,10,16,18,21,23,27,32,,,,0.8,0.4,0.7*3A
$GPGSA,A,3,67,68,69,73,74,75,82,83,84,,,,0.8,0.4,0.7*31
$GPGSA,A,3,03,07,08,13,21,26,31,33,,,,,0.8,0.4,0.7*32
$GPGSA,A,3,05,08,13,14,27,28,33,37,41,42,43,60,0.8,0.4,0.7*3A
$GPGST,210022.00,2.318,0.513,0.357,14.844,0.504,0.369,0.764*6F
$GPGBS,210022.00,3.577,2.586,4.413,68,0.0001,5.742,6.075*5E
$GPGRS,210022.00,1,-0.0,-0.1,0.1,-0.2,-0.8,-0.0,0.2,-0.1,-0.2,,,*45
$GPGRS,210022.00,1,5.3,5.7,-0.4,5.4,-5.0,-5.2,-0.8,-1.9,-3.3,,,*60
$GPGRS,210022.00,1,0.7,-0.8,-0.4,0.1,-0.0,-0.3,-0.0,0.3,,,,*6A
$GPGRS,210022.00,1,1.2,-0.2,-0.4,-0.8,0.1,-0.5,-0.9,0.4,-1.1,0.1,0.4,-1.3*63
$GPGSV,5,1,19,27,77,163,51,02,15,272,41,16,23,196,41,32,17,138,41*71
$GPGSV,5,2,19,23,36,051,45,21,34,275,42,08,61,296,49,10,73,100,52*79
$GPGSV,5,3,19,18,07,080,38,15,03,026,32,36,35,170,44,58,13,245,37*75
$GPGSV,5,4,19,57,11,108,37,34,31,208,42,40,24,132,36,49,34,195,43*71
$GPGSV,5,5,19,41,07,108,33,61,03,257,37*7A
$GLGSV,3,1,10,68,50,103,51,73,10,225,44,75,22,325,46,69,23,159,46*6E
$GLGSV,3,2,10,82,13,092,41,67,31,038,47,74,29,267,43,84,47,309,40*65
$GLGSV,3,3,10,83,50,067,41,85,01,286,40*6A
$GAGSV,3,1,10,26,68,287,48,21,25,197,41,03,12,034,38,07,14,136,38*6F
$GAGSV,3,2,10,33,20,264,41,31,23,316,41,08,26,084,42,13,51,064,46*6D
$GAGSV,3,3,10,23,46,257,,15,01,077,33*6F
$GBGSV,6,1,21,28,82,061,51,05,23,128,38,08,18,041,37,60,11,108,40*63
$GBGSV,6,2,21,41,27,173,44,46,18,278,,42,26,045,44,43,20,107,44*6F
$GBGSV,6,3,21,31,17,064,,13,26,045,41,58,26,270,,57,31,235,*61
$GBGSV,6,4,21,27,46,295,49,30,45,290,,14,45,070,46,33,53,112,51*66
$GBGSV,6,5,21,38,04,044,38,50,05,032,,37,06,227,40,36,08,327,*64
$GBGSV,6,6,21,02,08,105,34*51
$GPGGA,210022.00,,,,,0,00,,,M,,M,,*4B
$PTNL,GGK,210022.00,010125,4742.1604205,N,01618.1004454,E,1,38,0.8,EHT751.4887,M*45
$GPGGQ,210022.00,010125,4742.1604205,N,01618.1004454,E,1,38,0.986,708.2822,M*31
$GPGFA,210022.00,4.873,6.261,0.513,0.357,14.844,0.764,,VVV*35
$GPLLK,210022.00,010125,,M,,M,1,38,0.9,,M*0A
$GNGMP,210022.00,,,,,DAAA,38,0.4,,,,*5A
$GPGMP,210022.00,,,,,,09,,,,2.3,136*72
$GLGMP,210022.00,,,,,,09,,,,,*75
$GAGMP,210022.00,,,,,,08,,,,,*79
$GBGMP,210022.00,,,,,,12,,,,,*71
$PSSN,SNC,[0,334840000,2347]*4C
$GPZDA,210027.00,01,01,2025,,*65
$GPDTM,W84,,00.0000000,N,00.0000000,E,00.0000000,W84*5F
$PSSN,TFM,210027.00,,,,*69
$GPRMC,210027.00,A,4742.1604193,N,01618.1004433,E,0.0,,010125,5.1,E,D*19
$GPGLL,4742.1604193,N,01618.1004433,E,210027.00,A,D*68
$GPGGA,210027.00,4742.1604193,N,01618.1004433,E,2,38,0.4,708.2835,M,43.2066,M,1.8,0136*41
$GNGNS,210027.00,4742.1604193,N,01618.1004433,E,DAAA,38,0.4,708.2835,43.2066,,*50
$GPGNS,210027.00,,,,,,09,,,,1.8,136*7F
$GLGNS,210027.00,,,,,,09,,,,,*70
$GAGNS,210027.00,,,,,,08,,,,,*7C
$GBGNS,210027.00,,,,,,12,,,,,*74
$GPLLQ,210027.00,010125,,M,,M,1,38,0.969,,M*1A
$GPVTG,,T,,M,0.00,N,0.01,K,D*27
$GPHDT,,T*1B
$GPTHS,,V*0E
$GPROT,,V*08
$PSSN,HRP,210027.00,010125,,,,,,,00,0,,*67
$PTNL,AVR,210027.00,,Yaw,,Tilt,,,,0,,00*31
$GPGSA,A,3,02,08,10,16,18,21,23,27,32,,,,0.8,0.4,0.7*3A
$GPGSA,A,3,67,68,69,73,74,75,82,83,84,,,,0.8,0.4,0.7*31
$GPGSA,A,3,03,07,08,13,21,26,31,33,,,,,0.8,0.4,0.7*32
$GPGSA,A,3,05,08,13,14,27,28,33,37,41,42,43,60,0.8,0.4,0.7*3A
$GPGST,210027.00,2.227,0.502,0.352,14.471,0.494,0.364,0.750*6A
$GPGBS,210027.00,3.602,2.598,4.224,67,0.0001,5.494,6.175*51
$GPGRS,210027.00,1,0.7,-0.2,0.1,-0.1,-1.2,-0.1,0.3,-0.2,-0.2,,,*62
$GPGRS,210027.00,1,5.5,5.4,-0.1,5.5,-4.7,-4.2,-1.0,-2.7,-2.6,,,*63
$GPGRS,210027.00,1,0.9,-0.7,0.0,-0.1,0.1,-0.2,-0.2,0.3,,,,*45
$GPGRS,210027.00,1,1.4,-0.2,-0.3,-0.2,0.2,-0.3,-1.0,0.3,-0.2,-0.0,0.6,-1.3*4B
$GPGSV,5,1,19,27,77,163,50,02,15,272,41,16,23,196,41,32,18,138,41*7F
$GPGSV,5,2,19,23,36,051,45,21,34,275,41,08,61,296,49,10,73,100,51*79
$GPGSV,5,3,19,18,07,080,38,15,03,026,33,36,35,170,44,58,13,245,37*74
$GPGSV,5,4,19,57,11,108,37,34,31,208,41,40,24,132,36,49,34,195,43*72
$GPGSV,5,5,19,41,07,108,33,61,03,257,37*7A
$GLGSV,3,1,10,68,50,103,52,73,10,225,45,75,22,325,45,69,23,159,46*6F
$GLGSV,3,2,10,82,13,092,41,67,31,038,48,74,29,267,43,84,47,309,40*6A
$GLGSV,3,3,10,83,50,067,40,85,01,286,41*6A
$GAGSV,3,1,10,26,68,287,48,21,25,197,41,03,12,034,38,07,14,136,38*6F
$GAGSV,3,2,10,33,20,264,41,31,23,316,40,08,26,084,42,13,51,064,46*6C
$GAGSV,3,3,10,23,46,257,,15,01,077,33*6F
$GBGSV,6,1,21,28,82,062,51,05,23,128,38,08,18,041,37,60,11,108,40*60
$GBGSV,6,2,21,41,27,173,45,46,18,278,,42,26,045,44,43,20,108,44*61
$GBGSV,6,3,21,31,17,064,,13,26,045,41,58,26,270,,57,31,235,*61
$GBGSV,6,4,21,27,46,295,49,30,45,290,,14,45,070,46,33,53,112,50*67
$GBGSV,6,5,21,38,04,044,38,50,05,032,,37,06,227,40,36,08,327,*64
$GBGSV,6,6,21,02,08,105,35*50
$GPGGA,210027.00,,,,,0,00,,,M,,M,,*4E
$PTNL,GGK,210027.00,010125,4742.1604193,N,01618.1004433,E,1,38,0.8,EHT751.4900,M*43
$GPGGQ,210027.00,010125,4742.1604193,N,01618.1004433,E,1,38,0.969,708.2835,M*3E
$GPGFA,210027.00,4.773,6.152,0.502,0.352,14.471,0.750,,VVV*34
$GPLLK,210027.00,010125,,M,,M,1,38,0.9,,M*0F
$GNGMP,210027.00,,,,,DAAA,38,0.4,,,,*5F
$GPGMP,210027.00,,,,,,09,,,,1.8,136*7F
$GLGMP,210027.00,,,,,,09,,,,,*70
$GAGMP,210027.00,,,,,,08,,,,,*7C
$GBGMP,210027.00,,,,,,12,,,,,*74
$PSSN,SNC,[0,334845000,2347]*49
$GPZDA,210032.00,01,01,2025,,*61
$GPDTM,W84,,00.0000000,N,00.0000000,E,00.0000000,W84*5F
$PSSN,TFM,210032.00,,,,*6D
$GPRMC,210032.00,A,4742.1604184,N,01618.1004434,E,0.0,,010125,5.1,E,D*1C
$GPGLL,4742.1604184,N,01618.1004434,E,210032.00,A,D*6D
$GPGGA,210032.00,4742.1604184,N,01618.1004434,E,2,38,0.4,708.2885,M,43.2066,M,2.8,0136*4C
$GNGNS,210032.00,4742.1604184,N,01618.1004434,E,DAAA,38,0.4,708.2885,43.2066,,*5E
$GPGNS,210032.00,,,,,,09,,,,2.8,136*78
$GLGNS,210032.00,,,,,,09,,,,,*74
$GAGNS,210032.00,,,,,,08,,,,,*78
$GBGNS,210032.00,,,,,,12,,,,,*70
$GPLLQ,210032.00,010125,,M,,M,1,38,0.975,,M*13
$GPVTG,,T,,M,0.00,N,0.01,K,D*27
$GPHDT,,T*1B
$GPTHS,,V*0E
$GPROT,,V*08
$PSSN,HRP,210032.00,010125,,,,,,,00,0,,*63
$PTNL,AVR,210032.00,,Yaw,,Tilt,,,,0,,00*35
$GPGSA,A,3,02,08,10,16,18,21,23,27,32,,,,0.8,0.4,0.7*3A
$GPGSA,A,3,67,68,69,73,74,75,82,83,84,,,,0.8,0.4,0.7*31
$GPGSA,A,3,03,07,08,13,21,26,31,33,,,,,0.8,0.4,0.7*32
$GPGSA,A,3,05,08,13,14,27,28,33,37,41,42,43,60,0.8,0.4,0.7*3A
$GPGST,210032.00,2.341,0.509,0.353,15.008,0.500,0.365,0.753*60
$GPGBS,210032.00,3.646,2.628,4.269,73,0.0001,6.043,6.299*5D
$GPGRS,210032.00,1,0.1,-0.0,-0.1,-0.2,-1.1,0.3,0.2,-0.2,0.1,,,*4F
$GPGRS,210032.00,1,5.7,5.7,0.0,6.0,-5.1,-4.7,-0.7,-2.2,-2.4,,,*4F
$GPGRS,210032.00,1,0.9,-0.8,0.1,0.0,-0.1,0.0,0.2,0.3,,,,*4C
$GPGRS,210032.00,1,1.2,-0.3,-0.5,0.5,-0.0,-0.1,-1.0,0.8,0.2,0.1,0.7,-1.3*42
$GPGSV,5,1,19,27,77,163,51,02,15,272,40,16,23,196,41,32,18,138,41*7F
$GPGSV,5,2,19,23,36,051,45,21,34,275,42,08,61,296,49,10,73,100,51*7A
$GPGSV,5,3,19,18,07,080,38,15,03,026,33,36,35,170,44,58,13,245,37*74
$GPGSV,5,4,19,57,11,108,37,34,31,208,42,40,24,132,36,49,34,195,43*71
$GPGSV,5,5,19,41,07,108,33,61,03,257,37*7A
$GLGSV,3,1,10,68,51,103,51,73,10,225,45,75,22,325,45,69,23,159,46*6D
$GLGSV,3,2,10,82,13,092,41,67,31,038,47,74,29,267,42,84,47,309,40*64
$GLGSV,3,3,10,83,49,067,40,85,01,286,40*63
$GAGSV,3,1,10,26,68,287,48,21,25,197,41,03,12,034,38,07,14,136,38*6F
$GAGSV,3,2,10,33,20,264,41,31,23,316,40,08,26,084,42,13,51,064,46*6C
$GAGSV,3,3,10,23,46,257,,15,01,077,32*6E
$GBGSV,6,1,21,28,82,062,51,05,23,128,38,08,18,041,37,60,11,108,40*60
$GBGSV,6,2,21,41,27,173,45,46,18,278,,42,26,045,44,43,20,108,44*61
$GBGSV,6,3,21,31,17,064,,13,26,045,41,58,26,270,,57,31,235,*61
$GBGSV,6,4,21,27,46,295,48,30,45,290,,14,45,070,46,33,53,112,50*66
$GBGSV,6,5,21,38,04,044,38,50,05,032,,37,06,227,40,36,08,327,*64
$GBGSV,6,6,21,02,08,105,34*51
$GPGGA,210032.00,,,,,0,00,,,M,,M,,*4A
$PTNL,GGK,210032.00,010125,4742.1604184,N,01618.1004434,E,1,38,0.8,EHT751.4951,M*42
$GPGGQ,210032.00,010125,4742.1604184,N,01618.1004434,E,1,38,0.975,708.2885,M*3D
$GPGFA,210032.00,4.836,6.178,0.509,0.353,15.008,0.753,,VVV*34
$GPLLK,210032.00,010125,,M,,M,1,38,0.9,,M*0B
$GNGMP,210032.00,,,,,DAAA,38,0.4,,,,*5B
$GPGMP,210032.00,,,,,,09,,,,2.8,136*78
$GLGMP,210032.00,,,,,,09,,,,,*74
$GAGMP,210032.00,,,,,,08,,,,,*78
$GBGMP,210032.00,,,,,,12,,,,,*70
$PSSN,SNC,[0,334850000,2347]*4D
$GPZDA,210037.00,01,01,2025,,*64
$GPDTM,W84,,00.0000000,N,00.0000000,E,00.0000000,W84*5F
$PSSN,TFM,210037.00,,,,*68
$GPRMC,210037.00,A,4742.1604173,N,01618.1004417,E,0.0,,010125,5.1,E,D*10
$GPGLL,4742.1604173,N,01618.1004417,E,210037.00,A,D*61
$GPGGA,210037.00,4742.1604173,N,01618.1004417,E,2,38,0.4,708.2900,M,43.2066,M,3.3,0136*46
$GNGNS,210037.00,4742.1604173,N,01618.1004417,E,DAAA,38,0.4,708.2900,43.2066,,*5E
$GPGNS,210037.00,,,,,,09,,,,3.3,136*77
$GLGNS,210037.00,,,,,,09,,,,,*71
$GAGNS,210037.00,,,,,,08,,,,,*7D
$GBGNS,210037.00,,,,,,12,,,,,*75
$GPLLQ,210037.00,010125,,M,,M,1,38,0.990,,M*1D
$GPVTG,,T,,M,0.00,N,0.01,K,D*27
$GPHDT,,T*1B
$GPTHS,,V*0E
$GPROT,,V*08
$PSSN,HRP,210037.00,010125,,,,,,,00,0,,*66
$PTNL,AVR,210037.00,,Yaw,,Tilt,,,,0,,00*30
$GPGSA,A,3,02,08,10,16,18,21,23,27,32,,,,0.8,0.4,0.7*3A
$GPGSA,A,3,67,68,69,73,74,75,82,83,84,,,,0.8,0.4,0.7*31
$GPGSA,A,3,03,07,08,13,21,26,31,33,,,,,0.8,0.4,0.7*32
$GPGSA,A,3,05,08,13,14,27,28,33,37,41,42,43,60,0.8,0.4,0.7*3A
$GPGST,210037.00,2.305,0.516,0.357,15.113,0.507,0.370,0.765*62
$GPGBS,210037.00,3.722,2.623,4.261,68,0.0001,5.550,6.075*56
$GPGRS,210037.00,1,-0.2,-0.1,-0.0,-0.1,-1.0,0.1,0.2,0.0,0.4,,,*4E
$GPGRS,210037.00,1,4.9,5.6,0.5,5.2,-5.2,-4.2,-1.8,-2.6,-4.3,,,*4D
$GPGRS,210037.00,1,0.8,-0.9,0.2,0.0,-0.0,-0.1,0.1,-0.2,,,,*48
$GPGRS,210037.00,1,1.4,-0.7,-0.2,-0.7,0.3,-0.2,-1.1,0.6,0.1,-0.4,0.7,-1.3*64
$GPGSV,5,1,19,27,77,163,51,02,15,272,40,16,23,196,42,32,18,138,41*7C
$GPGSV,5,2,19,23,36,051,45,21,34,276,41,08,61,296,49,10,73,100,52*79
$GPGSV,5,3,19,18,07,080,38,15,03,026,34,36,35,170,44,58,13,245,37*73
$GPGSV,5,4,19,57,11,108,37,34,31,208,42,40,24,132,36,49,34,195,43*71
$GPGSV,5,5,19,41,07,108,33,61,03,257,37*7A
$GLGSV,3,1,10,68,51,103,51,73,10,225,44,75,22,325,46,69,23,159,47*6E
$GLGSV,3,2,10,82,13,092,41,67,30,038,47,74,29,267,43,84,48,309,40*6B
$GLGSV,3,3,10,83,49,067,40,85,01,286,39*6D
$GAGSV,3,1,10,26,68,288,48,21,25,197,41,03,12,034,38,07,15,136,38*61
$GAGSV,3,2,10,33,20,265,41,31,23,316,40,08,26,084,42,13,51,064,46*6D
$GAGSV,3,3,10,23,46,257,,15,01,077,32*6E
$GBGSV,6,1,21,28,82,062,51,05,23,128,38,08,18,041,37,60,11,108,40*60
$GBGSV,6,2,21,41,27,173,44,46,18,278,,42,26,045,44,43,20,108,43*67
$GBGSV,6,3,21,31,17,064,,13,26,045,41,58,26,270,,57,31,236,*62
$GBGSV,6,4,21,27,46,295,48,30,45,290,,14,45,070,46,33,53,112,50*66
$GBGSV,6,5,21,38,04,044,38,50,05,032,,37,06,227,39,36,08,327,*6A
$GBGSV,6,6,21,02,08,105,34*51
$GPGGA,210037.00,,,,,0,00,,,M,,M,,*4F
$PTNL,GGK,210037.00,010125,4742.1604173,N,01618.1004417,E,1,38,0.8,EHT751.4965,M*49
$GPGGQ,210037.00,010125,4742.1604173,N,01618.1004417,E,1,38,0.990,708.2900,M*36
$GPGFA,210037.00,4.908,6.273,0.516,0.357,15.113,0.765,,VVV*31
$GPLLK,210037.00,010125,,M,,M,1,38,0.9,,M*0E
$GNGMP,210037.00,,,,,DAAA,38,0.4,,,,*5E
$GPGMP,210037.00,,,,,,09,,,,3.3,136*77
$GLGMP,210037.00,,,,,,09,,,,,*71
$GAGMP,210037.00,,,,,,08,,,,,*7D
$GBGMP,210037.00,,,,,,12,,,,,*75
$PSSN,SNC,[0,334855000,2347]*48
$GPZDA,210042.00,01,01,2025,,*66
$GPDTM,W84,,00.0000000,N,00.0000000,E,00.0000000,W84*5F
$PSSN,TFM,210042.00,,,,*6A
$GPRMC,210042.00,A,4742.1604176,N,01618.1004411,E,0.0,,010125,5.1,E,D*11
$GPGLL,4742.1604176,N,01618.1004411,E,210042.00,A,D*60
$GPGGA,210042.00,4742.1604176,N,01618.1004411,E,2,38,0.4,708.2937,M,43.2066,M,2.3,0136*42
$GNGNS,210042.00,4742.1604176,N,01618.1004411,E,DAAA,38,0.4,708.2937,43.2066,,*5B
$GPGNS,210042.00,,,,,,09,,,,2.3,136*74
$GLGNS,210042.00,,,,,,09,,,,,*73
$GAGNS,210042.00,,,,,,08,,,,,*7F
$GBGNS,210042.00,,,,,,12,,,,,*77
$GPLLQ,210042.00,010125,,M,,M,1,38,0.986,,M*18
$GPVTG,,T,,M,0.00,N,0.00,K,D*26
$GPHDT,,T*1B
$GPTHS,,V*0E
$GPROT,,V*08
$PSSN,HRP,210042.00,010125,,,,,,,00,0,,*64
$PTNL,AVR,210042.00,,Yaw,,Tilt,,,,0,,00*32
$GPGSA,A,3,02,08,10,16,18,21,23,27,32,,,,0.8,0.4,0.7*3A
$GPGSA,A,3,67,68,69,73,74,75,82,83,84,,,,0.8,0.4,0.7*31
$GPGSA,A,3,03,07,08,13,21,26,31,33,,,,,0.8,0.4,0.7*32
$GPGSA,A,3,05,08,13,14,27,28,33,37,41,42,43,60,0.8,0.4,0.7*3A
$GPGST,210042.00,2.148,0.512,0.357,14.820,0.504,0.369,0.763*6A
$GPGBS,210042.00,3.579,2.580,4.406,68,0.0001,5.638,6.075*58
$GPGRS,210042.00,1,0.3,-0.1,0.1,-0.2,-0.8,0.3,0.3,-0.3,-0.2,,,*40
$GPGRS,210042.00,1,5.0,5.6,0.2,5.1,-4.7,-3.8,-1.1,-2.3,-2.8,,,*4B
$GPGRS,210042.00,1,0.7,-1.0,0.0,-0.2,0.1,-0.2,0.0,-0.1,,,,*4D
$GPGRS,210042.00,1,1.0,-0.1,0.1,-0.8,0.3,-0.6,-1.2,-0.2,0.5,-0.5,0.4,-1.3*6D
$GPGSV,5,1,19,27,77,163,50,02,15,272,41,16,23,196,42,32,18,138,41*7C
$GPGSV,5,2,19,23,36,051,45,21,34,276,42,08,61,296,49,10,73,099,51*78
$GPGSV,5,3,19,18,07,080,38,15,03,026,33,36,35,170,44,58,13,245,37*74
$GPGSV,5,4,19,57,11,108,37,34,31,208,42,40,24,132,36,49,34,195,43*71
$GPGSV,5,5,19,41,07,108,34,61,03,257,37*7D
$GLGSV,3,1,10,68,51,103,51,67,30,038,47,75,22,325,46,82,13,092,41*62
$GLGSV,3,2,10,69,23,159,47,74,29,267,44,83,49,067,40,84,48,309,40*63
$GLGSV,3,3,10,73,10,225,45,85,01,286,40*61
$GAGSV,3,1,10,26,68,288,48,21,25,197,41,03,12,034,38,07,15,136,38*61
$GAGSV,3,2,10,33,20,265,40,31,23,316,40,08,26,084,42,13,51,064,46*6C
$GAGSV,3,3,10,23,46,257,,15,01,077,32*6E
$GBGSV,6,1,21,28,82,062,51,05,23,128,38,08,18,041,37,60,11,108,40*60
$GBGSV,6,2,21,41,27,173,45,46,18,278,,42,26,045,44,43,20,108,43*66
$GBGSV,6,3,21,31,17,064,,13,26,045,41,58,26,270,,57,31,236,*62
$GBGSV,6,4,21,27,46,295,49,30,45,290,,14,45,070,46,33,53,111,50*64
$GBGSV,6,5,21,38,04,044,38,50,05,032,,37,06,227,39,36,08,327,*6A
$GBGSV,6,6,21,02,08,105,34*51
$GPGGA,210042.00,,,,,0,00,,,M,,M,,*4D
$PTNL,GGK,210042.00,010125,4742.1604176,N,01618.1004411,E,1,38,0.8,EHT751.5003,M*40
$GPGGQ,210042.00,010125,4742.1604176,N,01618.1004411,E,1,38,0.986,708.2937,M*34
$GPGFA,210042.00,4.871,6.257,0.512,0.357,14.820,0.763,,VVV*30
$GPLLK,210042.00,010125,,M,,M,1,38,0.9,,M*0C
$GNGMP,210042.00,,,,,DAAA,38,0.4,,,,*5C
$GPGMP,210042.00,,,,,,09,,,,2.3,136*74
$GLGMP,210042.00,,,,,,09,,,,,*73
$GAGMP,210042.00,,,,,,08,,,,,*7F
$GBGMP,210042.00,,,,,,12,,,,,*77
$PSSN,SNC,[0,334860000,2347]*4E
$GPZDA,210047.00,01,01,2025,,*63
$GPDTM,W84,,00.0000000,N,00.0000000,E,00.0000000,W84*5F
$PSSN,TFM,210047.00,,,,*6F
$GPRMC,210047.00,A,4742.1604150,N,01618.1004425,E,0.0,,010125,5.1,E,D*17
$GPGLL,4742.1604150,N,01618.1004425,E,210047.00,A,D*66
$GPGGA,210047.00,4742.1604150,N,01618.1004425,E,2,38,0.4,708.2982,M,43.2066,M,1.8,0136*42
$GNGNS,210047.00,4742.1604150,N,01618.1004425,E,DAAA,38,0.4,708.2982,43.2066,,*53
$GPGNS,210047.00,,,,,,09,,,,1.8,136*79
$GLGNS,210047.00,,,,,,09,,,,,*76
$GAGNS,210047.00,,,,,,08,,,,,*7A
$GBGNS,210047.00,,,,,,12,,,,,*72
$GPLLQ,210047.00,010125,,M,,M,1,38,0.970,,M*14
$GPVTG,,T,,M,0.00,N,0.01,K,D*27
$GPHDT,,T*1B
$GPTHS,,V*0E
$GPROT,,V*08
$PSSN,HRP,210047.00,010125,,,,,,,00,0,,*61
$PTNL,AVR,210047.00,,Yaw,,Tilt,,,,0,,00*37
$GPGSA,A,3,02,08,10,16,18,21,23,27,32,,,,0.8,0.4,0.7*3A
$GPGSA,A,3,67,68,69,73,74,75,82,83,84,,,,0.8,0.4,0.7*31
$GPGSA,A,3,03,07,08,13,21,26,31,33,,,,,0.8,0.4,0.7*32
$GPGSA,A,3,05,08,13,14,27,28,33,37,41,42,43,60,0.8,0.4,0.7*3A
$GPGST,210047.00,2.211,0.502,0.352,14.439,0.494,0.363,0.751*63
$GPGBS,210047.00,3.604,2.597,4.218,67,0.0001,5.761,6.176*5B
$GPGRS,210047.00,1,0.5,-0.3,-0.1,-0.3,-0.7,0.4,0.4,-0.3,-0.1,,,*61
$GPGRS,210047.00,1,5.8,5.5,0.3,4.8,-4.9,-4.8,-0.7,-1.3,-2.8,,,*41
$GPGRS,210047.00,1,1.1,-1.0,0.2,-0.0,0.1,-0.1,0.4,-0.2,,,,*4B
$GPGRS,210047.00,1,1.5,-0.1,-0.4,-0.4,0.2,-0.4,-0.9,0.1,0.2,-0.9,0.2,-1.1*61
$GPGSV,5,1,19,27,77,163,50,02,15,272,40,16,23,196,41,32,18,138,41*7E
$GPGSV,5,2,19,23,36,051,45,21,34,276,41,08,61,296,49,10,73,099,51*7B
$GPGSV,5,3,19,18,07,080,37,15,03,026,34,36,35,170,44,58,13,245,37*7C
$GPGSV,5,4,19,57,11,108,37,34,31,208,42,40,24,132,36,49,34,195,43*71
$GPGSV,5,5,19,41,07,108,33,61,03,257,37*7A
$GLGSV,3,1,10,68,51,103,51,67,30,037,47,75,22,325,45,82,13,092,42*6D
$GLGSV,3,2,10,69,23,159,47,74,29,267,43,83,49,067,40,84,48,309,40*64
$GLGSV,3,3,10,73,10,225,44,85,01,286,41*61
$GAGSV,3,1,10,26,68,288,48,21,25,197,41,03,12,034,37,07,15,136,37*61
$GAGSV,3,2,10,33,20,265,40,31,23,316,40,08,26,084,42,13,51,065,45*6E
$GAGSV,3,3,10,23,45,257,,15,01,077,32*6D
$GBGSV,6,1,21,28,82,062,51,05,23,128,38,08,18,041,37,60,11,108,40*60
$GBGSV,6,2,21,41,28,173,45,46,17,278,,42,26,045,44,43,20,108,43*66
$GBGSV,6,3,21,31,17,064,,13,26,045,41,58,26,270,,57,31,236,*62
$GBGSV,6,4,21,27,47,295,49,30,45,290,,14,45,070,46,33,54,111,50*62
$GBGSV,6,5,21,38,04,044,38,50,05,031,,37,06,227,39,36,08,327,*69
$GBGSV,6,6,21,02,08,105,34*51
$GPGGA,210047.00,,,,,0,00,,,M,,M,,*48
$PTNL,GGK,210047.00,010125,4742.1604150,N,01618.1004425,E,1,38,0.8,EHT751.5047,M*46
$GPGGQ,210047.00,010125,4742.1604150,N,01618.1004425,E,1,38,0.970,708.2982,M*35
$GPGFA,210047.00,4.772,6.159,0.502,0.352,14.439,0.751,,VVV*35
$GPLLK,210047.00,010125,,M,,M,1,38,0.9,,M*09
$GNGMP,210047.00,,,,,DAAA,38,0.4,,,,*59
$GPGMP,210047.00,,,,,,09,,,,1.8,136*79
$GLGMP,210047.00,,,,,,09,,,,,*76
$GAGMP,210047.00,,,,,,08,,,,,*7A
$GBGMP,210047.00,,,,,,12,,,,,*72
$PSSN,SNC,[0,334865000,2347]*4B
$GPZDA,210052.00,01,01,2025,,*67
$GPDTM,W84,,00.0000000,N,00.0000000,E,00.0000000,W84*5F
$PSSN,TFM,210052.00,,,,*6B
$GPRMC,210052.00,A,4742.1604135,N,01618.1004449,E,0.0,,010125,5.1,E,D*1A
$GPGLL,4742.1604135,N,01618.1004449,E,210052.00,A,D*6B
$GPGGA,210052.00,4742.1604135,N,01618.1004449,E,2,38,0.4,708.3040,M,43.2066,M,2.8,0136*4A
$GNGNS,210052.00,4742.1604135,N,01618.1004449,E,DAAA,38,0.4,708.3040,43.2066,,*58
$GPGNS,210052.00,,,,,,09,,,,2.8,136*7E
$GLGNS,210052.00,,,,,,09,,,,,*72
$GAGNS,210052.00,,,,,,08,,,,,*7E
$GBGNS,210052.00,,,,,,12,,,,,*76
$GPLLQ,210052.00,010125,,M,,M,1,38,0.988,,M*17
$GPVTG,,T,,M,0.00,N,0.00,K,D*26
$GPHDT,,T*1B
$GPTHS,,V*0E
$GPROT,,V*08
$PSSN,HRP,210052.00,010125,,,,,,,00,0,,*65
$PTNL,AVR,210052.00,,Yaw,,Tilt,,,,0,,00*33
$GPGSA,A,3,02,08,10,16,18,21,23,27,32,,,,0.8,0.4,0.7*3A
$GPGSA,A,3,67,68,69,73,74,75,82,83,84,,,,0.8,0.4,0.7*31
$GPGSA,A,3,03,07,08,13,21,26,31,33,,,,,0.8,0.4,0.7*32
$GPGSA,A,3,05,08,13,14,27,28,33,37,41,42,43,60,0.8,0.4,0.7*3A
$GPGST,210052.00,2.240,0.519,0.355,16.518,0.508,0.371,0.762*69
$GPGBS,210052.00,3.709,2.671,4.337,68,0.0001,5.674,6.083*55
$GPGRS,210052.00,1,0.2,0.1,0.0,0.1,-0.7,0.1,-0.0,-0.3,-0.4,,,*67
$GPGRS,210052.00,1,5.7,5.7,0.3,4.9,-4.5,-5.5,-0.6,-1.2,-2.3,,,*42
$GPGRS,210052.00,1,1.1,-1.1,-0.1,0.1,-0.1,0.0,-0.3,0.1,,,,*49
$GPGRS,210052.00,1,1.3,-0.3,-0.1,0.1,0.3,-0.2,-0.9,0.8,0.2,-0.2,0.1,-1.2*49
$GPGSV,5,1,19,27,77,163,50,02,15,272,41,16,23,196,42,32,18,138,41*7C
$GPGSV,5,2,19,23,36,051,45,21,34,276,42,08,61,296,49,10,73,099,51*78
$GPGSV,5,3,19,18,06,080,37,15,03,026,34,36,35,170,44,58,13,245,37*7D
$GPGSV,5,4,19,57,11,108,37,34,31,208,41,40,24,132,36,49,34,195,43*72
$GPGSV,5,5,19,41,07,108,34,61,03,257,37*7D
$GLGSV,3,1,10,68,51,103,51,67,30,037,47,75,22,325,45,82,13,092,43*6C
$GLGSV,3,2,10,69,23,159,46,74,29,267,43,83,49,067,41,84,48,309,40*64
$GLGSV,3,3,10,73,10,225,44,85,01,286,39*6E
$GAGSV,3,1,10,26,68,288,48,21,25,197,41,03,12,034,37,07,15,136,38*6E
$GAGSV,3,2,10,33,20,265,40,31,23,316,40,08,26,084,42,13,50,065,45*6F
$GAGSV,3,3,10,23,45,257,,15,01,077,32*6D
$GBGSV,6,1,21,28,81,063,51,05,23,128,38,08,18,041,37,60,11,108,40*62
$GBGSV,6,2,21,41,28,173,44,46,17,278,,42,26,045,44,43,20,108,43*67
$GBGSV,6,3,21,31,17,064,,13,26,045,41,58,26,270,,57,31,236,*62
$GBGSV,6,4,21,27,47,295,49,30,45,290,,14,45,069,46,33,54,111,50*6A
$GBGSV,6,5,21,38,04,044,37,50,05,031,,37,06,227,39,36,08,327,*66
$GBGSV,6,6,21,02,08,105,34*51
$GPGGA,210052.00,,,,,0,00,,,M,,M,,*4C
$PTNL,GGK,210052.00,010125,4742.1604135,N,01618.1004449,E,1,38,0.8,EHT751.5106,M*4F
$GPGGQ,210052.00,010125,4742.1604135,N,01618.1004449,E,1,38,0.988,708.3040,M*39
$GPGFA,210052.00,4.933,6.247,0.519,0.355,16.518,0.762,,VVV*3B
$GPLLK,210052.00,010125,,M,,M,1,38,0.9,,M*0D
$GNGMP,210052.00,,,,,DAAA,38,0.4,,,,*5D
$GPGMP,210052.00,,,,,,09,,,,2.8,136*7E
$GLGMP,210052.00,,,,,,09,,,,,*72
$GAGMP,210052.00,,,,,,08,,,,,*7E
$GBGMP,210052.00,,,,,,12,,,,,*76
$PSSN,SNC,[0,334870000,2347]*4F
$GPZDA,210057.00,01,01,2025,,*62
$GPDTM,W84,,00.0000000,N,00.0000000,E,00.0000000,W84*5F
$PSSN,TFM,210057.00,,,,*6E
$GPRMC,210057.00,A,4742.1604116,N,01618.1004453,E,0.0,,010125,5.1,E,D*15
$GPGLL,4742.1604116,N,01618.1004453,E,210057.00,A,D*64
$GPGGA,210057.00,4742.1604116,N,01618.1004453,E,2,38,0.4,708.3028,M,43.2066,M,3.3,0136*41
$GNGNS,210057.00,4742.1604116,N,01618.1004453,E,DAAA,38,0.4,708.3028,43.2066,,*59
$GPGNS,210057.00,,,,,,09,,,,3.3,136*71
$GLGNS,210057.00,,,,,,09,,,,,*77
$GAGNS,210057.00,,,,,,08,,,,,*7B
$GBGNS,210057.00,,,,,,12,,,,,*73
$GPLLQ,210057.00,010125,,M,,M,1,38,1.002,,M*18
$GPVTG,,T,,M,0.00,N,0.00,K,D*26
$GPHDT,,T*1B
$GPTHS,,V*0E
$GPROT,,V*08
$PSSN,HRP,210057.00,010125,,,,,,,00,0,,*60
$PTNL,AVR,210057.00,,Yaw,,Tilt,,,,0,,00*36
$GPGSA,A,3,02,08,10,16,18,21,23,27,32,,,,0.8,0.4,0.7*3A
$GPGSA,A,3,67,68,69,73,74,75,82,83,84,,,,0.8,0.4,0.7*31
$GPGSA,A,3,03,07,08,13,21,26,31,33,,,,,0.8,0.4,0.7*32
$GPGSA,A,3,05,08,13,14,27,28,33,37,41,42,43,60,0.8,0.4,0.7*3A
$GPGST,210057.00,2.144,0.526,0.359,16.515,0.515,0.375,0.773*6E
$GPGBS,210057.00,3.782,2.662,4.307,68,0.0001,5.400,6.083*53
$GPGRS,210057.00,1,0.6,0.0,0.0,-0.2,-0.4,0.1,0.4,-0.2,-0.8,,,*6E
$GPGRS,210057.00,1,4.7,5.4,0.2,4.5,-5.0,-4.6,-1.3,-1.4,-3.2,,,*4C
$GPGRS,210057.00,1,1.2,-0.6,-0.2,-0.0,-0.1,-0.2,-0.1,0.1,,,,*4B
$GPGRS,210057.00,1,1.7,-0.5,-0.4,0.1,0.2,-0.4,-0.9,0.3,0.9,-0.4,0.2,-1.0*4B
$GPGSV,5,1,19,27,77,162,50,02,15,272,42,16,23,196,42,32,18,138,41*7E
$GPGSV,5,2,19,23,36,051,45,21,34,276,42,08,61,296,49,10,73,099,52*7B
$GPGSV,5,3,19,18,06,080,37,15,03,026,34,36,35,170,44,58,13,245,37*7D
$GPGSV,5,4,19,57,11,108,37,34,31,208,42,40,24,132,36,49,34,195,44*76
$GPGSV,5,5,19,41,07,108,33,61,03,257,36*7B
$GLGSV,3,1,10,68,51,103,52,67,30,037,47,75,22,324,46,82,13,092,43*6D
$GLGSV,3,2,10,69,23,159,47,74,28,267,43,83,49,068,40,84,48,309,39*64
$GLGSV,3,3,10,73,10,225,44,85,01,286,40*60
$GAGSV,3,1,10,26,68,288,48,21,25,197,41,03,12,034,37,07,15,136,38*6E
$GAGSV,3,2,10,33,20,265,39,31,23,316,40,08,26,084,41,13,50,065,45*62
$GAGSV,3,3,10,23,45,257,,15,01,077,32*6D
$GBGSV,6,1,21,28,81,063,51,05,23,128,38,08,18,041,36,60,11,108,40*63
$GBGSV,6,2,21,41,28,173,44,46,17,277,,42,26,045,44,43,20,108,43*68
$GBGSV,6,3,21,31,17,064,,13,26,045,41,58,26,270,,57,31,236,*62
$GBGSV,6,4,21,27,47,295,49,30,45,290,,14,45,069,46,33,54,111,50*6A
$GBGSV,6,5,21,38,04,044,37,50,05,031,,37,06,227,39,36,08,326,*67
$GBGSV,6,6,21,02,08,105,34*51
$GPGGA,210057.00,,,,,0,00,,,M,,M,,*49
$PTNL,GGK,210057.00,010125,4742.1604116,N,01618.1004453,E,1,38,0.8,EHT751.5093,M*4D
$GPGGQ,210057.00,010125,4742.1604116,N,01618.1004453,E,1,38,1.002,708.3028,M*32
$GPGFA,210057.00,5.004,6.339,0.526,0.359,16.515,0.773,,VVV*37
$GPLLK,210057.00,010125,,M,,M,1,38,0.9,,M*08
$GNGMP,210057.00,,,,,DAAA,38,0.4,,,,*58
$GPGMP,210057.00,,,,,,09,,,,3.3,136*71
$GLGMP,210057.00,,,,,,09,,,,,*77
$GAGMP,210057.00,,,,,,08,,,,,*7B
$GBGMP,210057.00,,,,,,12,,,,,*73
$PSSN,SNC,[0,334875000,2347]*4A
$GPZDA,210102.00,01,01,2025,,*63
$GPDTM,W84,,00.0000000,N,00.0000000,E,00.0000000,W84*5F
$PSSN,TFM,210102.00,,,,*6F
$GPRMC,210102.00,A,4742.1604089,N,01618.1004481,E,0.0,,010125,5.1,E,D*1C
$GPGLL,4742.1604089,N,01618.1004481,E,210102.00,A,D*6D
$GPGGA,210102.00,4742.1604089,N,01618.1004481,E,2,38,0.4,708.3080,M,43.2066,M,2.3,0136*4B
$GNGNS,210102.00,4742.1604089,N,01618.1004481,E,DAAA,38,0.4,708.3080,43.2066,,*52
$GPGNS,210102.00,,,,,,09,,,,2.3,136*71
$GLGNS,210102.00,,,,,,09,,,,,*76
$GAGNS,210102.00,,,,,,08,,,,,*7A
$GBGNS,210102.00,,,,,,12,,,,,*72
$GPLLQ,210102.00,010125,,M,,M,1,38,0.998,,M*12
$GPVTG,,T,,M,0.00,N,0.00,K,D*26
$GPHDT,,T*1B
$GPTHS,,V*0E
$GPROT,,V*08
$PSSN,HRP,210102.00,010125,,,,,,,00,0,,*61
$PTNL,AVR,210102.00,,Yaw,,Tilt,,,,0,,00*37
$GPGSA,A,3,02,08,10,16,18,21,23,27,32,,,,0.8,0.4,0.7*3A
$GPGSA,A,3,67,68,69,73,74,75,82,83,84,,,,0.8,0.4,0.7*31
$GPGSA,A,3,03,07,08,13,21,26,31,33,,,,,0.8,0.4,0.7*32
$GPGSA,A,3,05,08,13,14,27,28,33,37,41,42,43,60,0.8,0.4,0.7*3A
$GPGST,210102.00,2.235,0.523,0.358,16.313,0.511,0.374,0.771*69
$GPGBS,210102.00,3.647,2.627,4.450,68,0.0001,5.403,6.083*5D
$GPGRS,210102.00,1,0.1,0.1,0.0,-0.2,-0.7,0.3,0.0,-0.2,-0.4,,,*60
$GPGRS,210102.00,1,4.9,5.4,0.4,5.6,-5.3,-4.6,-1.2,-2.0,-3.1,,,*41
$GPGRS,210102.00,1,0.3,-0.5,0.1,0.1,-0.0,-0.3,0.0,0.2,,,,*64
$GPGRS,210102.00,1,1.5,-0.0,-0.2,-0.3,-0.2,-0.3,-0.6,0.1,1.1,-0.7,-0.0,-1.2*64
$GPGSV,5,1,19,27,77,162,51,02,15,272,41,16,23,196,42,32,18,138,41*7C
$GPGSV,5,2,19,23,36,051,45,21,34,276,42,08,61,296,49,10,73,099,51*78
$GPGSV,5,3,19,18,06,080,37,15,03,026,33,36,35,170,44,58,13,245,37*7A
$GPGSV,5,4,19,57,11,108,37,34,31,208,42,40,24,132,36,49,34,195,44*76
$GPGSV,5,5,19,41,07,108,33,61,03,257,35*78
$GLGSV,3,1,10,68,51,103,52,67,30,037,48,75,22,324,45,82,13,092,42*60
$GLGSV,3,2,10,69,23,159,47,74,28,267,43,83,49,068,40,84,48,309,40*6A
$GLGSV,3,3,10,73,10,225,44,85,01,286,39*6E
$GAGSV,3,1,10,26,68,288,48,21,25,197,42,03,12,034,37,07,15,136,38*6D
$GAGSV,3,2,10,33,20,265,40,31,23,316,40,08,26,084,42,13,50,065,45*6F
$GAGSV,3,3,10,23,45,257,,15,01,077,32*6D
$GBGSV,6,1,21,28,81,063,51,41,28,173,45,60,11,108,40,08,18,041,37*6D
$GBGSV,6,2,21,05,23,128,38,46,17,277,,42,26,045,44,43,20,108,43*66
$GBGSV,6,3,21,31,17,064,,13,26,045,41,58,26,270,,57,31,236,*62
$GBGSV,6,4,21,27,47,295,49,30,45,290,,14,45,069,46,33,54,111,50*6A
$GBGSV,6,5,21,38,04,044,37,50,05,031,,37,06,227,39,36,08,326,*67
$GBGSV,6,6,21,02,08,105,34*51
$GPGGA,210102.00,,,,,0,00,,,M,,M,,*48
$PTNL,GGK,210102.00,010125,4742.1604089,N,01618.1004481,E,1,38,0.8,EHT751.5145,M*4E
$GPGGQ,210102.00,010125,4742.1604089,N,01618.1004481,E,1,38,0.998,708.3080,M*32
$GPGFA,210102.00,4.968,6.324,0.523,0.358,16.313,0.771,,VVV*3E
$GPLLK,210102.00,010125,,M,,M,1,38,0.9,,M*09
$GNGMP,210102.00,,,,,DAAA,38,0.4,,,,*59
$GPGMP,210102.00,,,,,,09,,,,2.3,136*71
$GLGMP,210102.00,,,,,,09,,,,,*76
$GAGMP,210102.00,,,,,,08,,,,,*7A
$GBGMP,210102.00,,,,,,12,,,,,*72
$PSSN,SNC,[0,334880000,2347]*40
$GPZDA,210107.00,01,01,2025,,*66
$GPDTM,W84,,00.0000000,N,00.0000000,E,00.0000000,W84*5F
$PSSN,TFM,210107.00,,,,*6A
$GPRMC,210107.00,A,4742.1604093,N,01618.1004486,E,0.0,,010125,5.1,E,D*15
$GPGLL,4742.1604093,N,01618.1004486,E,210107.00,A,D*64
$GPGGA,210107.00,4742.1604093,N,01618.1004486,E,2,38,0.4,708.3039,M,43.2066,M,1.8,0136*48
$GNGNS,210107.00,4742.1604093,N,01618.1004486,E,DAAA,38,0.4,708.3039,43.2066,,*59
$GPGNS,210107.00,,,,,,09,,,,1.8,136*7C
$GLGNS,210107.00,,,,,,09,,,,,*73
$GAGNS,210107.00,,,,,,08,,,,,*7F
$GBGNS,210107.00,,,,,,12,,,,,*77
$GPLLQ,210107.00,010125,,M,,M,1,38,0.981,,M*1F
$GPVTG,,T,,M,0.00,N,0.00,K,D*26
$GPHDT,,T*1B
$GPTHS,,V*0E
$GPROT,,V*08
$PSSN,HRP,210107.00,010125,,,,,,,00,0,,*64
$PTNL,AVR,210107.00,,Yaw,,Tilt,,,,0,,00*32
$GPGSA,A,3,02,08,10,16,18,21,23,27,32,,,,0.8,0.4,0.7*3A
$GPGSA,A,3,67,68,69,73,74,75,82,83,84,,,,0.8,0.4,0.7*31
$GPGSA,A,3,03,07,08,13,21,26,31,33,,,,,0.8,0.4,0.7*32
$GPGSA,A,3,05,08,13,14,27,28,33,37,41,42,43,60,0.8,0.4,0.7*3A
$GPGST,210107.00,2.333,0.512,0.354,16.095,0.502,0.368,0.758*6C
$GPGBS,210107.00,3.669,2.636,4.296,68,0.0001,5.713,6.083*5A
$GPGRS,210107.00,1,-0.3,-0.1,-0.1,0.0,-0.5,0.1,-0.0,0.1,0.1,,,*4F
$GPGRS,210107.00,1,5.6,5.7,0.5,5.6,-4.9,-5.2,-1.0,-2.1,-2.8,,,*4D
$GPGRS,210107.00,1,0.7,-0.9,0.2,0.1,0.1,-0.1,-0.1,0.3,,,,*69
$GPGRS,210107.00,1,1.7,-0.2,-0.4,0.0,0.1,-0.2,-0.6,-0.1,1.1,-0.3,0.1,-1.0*61
$GPGSV,5,1,19,27,77,162,50,02,15,272,41,16,23,196,42,32,18,138,42*7E
$GPGSV,5,2,19,23,36,051,45,21,34,276,43,08,61,296,49,10,73,099,52*7A
$GPGSV,5,3,19,18,06,080,37,15,03,026,33,36,35,170,44,58,13,245,37*7A
$GPGSV,5,4,19,57,11,108,37,34,31,208,42,40,24,132,36,49,34,195,44*76
$GPGSV,5,5,19,41,07,108,33,61,03,257,37*7A
$GLGSV,3,1,10,68,51,103,51,67,30,037,48,75,22,324,45,82,12,092,42*62
$GLGSV,3,2,10,69,23,159,46,74,28,267,43,83,49,068,41,84,48,309,40*6A
$GLGSV,3,3,10,73,10,225,44,85,01,286,40*60
$GAGSV,3,1,10,26,68,288,48,21,24,197,41,03,12,034,37,07,15,136,38*6F
$GAGSV,3,2,10,33,20,265,40,31,23,316,41,08,26,084,42,13,50,065,45*6E
$GAGSV,3,3,10,23,45,257,,15,01,077,31*6E
$GBGSV,6,1,21,28,81,063,51,41,28,173,45,60,11,108,40,08,18,041,36*6C
$GBGSV,6,2,21,05,23,128,38,46,17,277,,42,26,045,44,43,20,108,44*61
$GBGSV,6,3,21,31,17,064,,13,26,045,41,58,26,270,,57,31,236,*62
$GBGSV,6,4,21,27,47,295,49,30,45,290,,14,45,069,46,33,54,111,50*6A
$GBGSV,6,5,21,38,04,044,37,50,05,031,,37,06,227,40,36,08,326,*69
$GBGSV,6,6,21,02,08,105,34*51
$GPGGA,210107.00,,,,,0,00,,,M,,M,,*4D
$PTNL,GGK,210107.00,010125,4742.1604093,N,01618.1004486,E,1,38,0.8,EHT751.5105,M*43
$GPGGQ,210107.00,010125,4742.1604093,N,01618.1004486,E,1,38,0.981,708.3039,M*31
$GPGFA,210107.00,4.871,6.219,0.512,0.354,16.095,0.758,,VVV*35
$GPLLK,210107.00,010125,,M,,M,1,38,0.9,,M*0C
$GNGMP,210107.00,,,,,DAAA,38,0.4,,,,*5C
$GPGMP,210107.00,,,,,,09,,,,1.8,136*7C
$GLGMP,210107.00,,,,,,09,,,,,*73
$GAGMP,210107.00,,,,,,08,,,,,*7F
$GBGMP,210107.00,,,,,,12,,,,,*77
$PSSN,SNC,[0,334885000,2347]*45
$GPZDA,210112.00,01,01,2025,,*62
$GPDTM,W84,,00.0000000,N,00.0000000,E,00.0000000,W84*5F
$PSSN,TFM,210112.00,,,,*6E
$GPRMC,210112.00,A,4742.1604092,N,01618.1004454,E,0.0,,010125,5.1,E,D*1F
$GPGLL,4742.1604092,N,01618.1004454,E,210112.00,A,D*6E
$GPGGA,210112.00,4742.1604092,N,01618.1004454,E,2,38,0.4,708.3043,M,43.2066,M,2.8,0136*4C
$GNGNS,210112.00,4742.1604092,N,01618.1004454,E,DAAA,38,0.4,708.3043,43.2066,,*5E
$GPGNS,210112.00,,,,,,09,,,,2.8,136*7B
$GLGNS,210112.00,,,,,,09,,,,,*77
$GAGNS,210112.00,,,,,,08,,,,,*7B
$GBGNS,210112.00,,,,,,12,,,,,*73
$GPLLQ,210112.00,010125,,M,,M,1,38,0.987,,M*1D
$GPVTG,,T,,M,0.00,N,0.00,K,D*26
$GPHDT,,T*1B
$GPTHS,,V*0E
$GPROT,,V*08
$PSSN,HRP,210112.00,010125,,,,,,,00,0,,*60
$PTNL,AVR,210112.00,,Yaw,,Tilt,,,,0,,00*36
$GPGSA,A,3,02,08,10,16,18,21,23,27,32,,,,0.8,0.4,0.6*3B
$GPGSA,A,3,67,68,69,73,74,75,82,83,84,,,,0.8,0.4,0.6*30
$GPGSA,A,3,03,07,08,13,21,26,31,33,,,,,0.8,0.4,0.6*33
$GPGSA,A,3,05,08,13,14,27,28,33,37,41,42,43,60,0.8,0.4,0.6*3B
$GPGST,210112.00,2.244,0.519,0.354,16.474,0.508,0.370,0.761*60
$GPGBS,210112.00,3.711,2.664,4.337,73,0.0001,5.909,6.307*5D
$GPGRS,210112.00,1,0.4,0.0,0.1,-0.3,-0.7,-0.2,0.2,-0.1,0.3,,,*62
$GPGRS,210112.00,1,5.7,5.4,0.2,5.9,-4.7,-4.4,-0.8,-1.8,-2.6,,,*47
$GPGRS,210112.00,1,1.0,-1.1,0.1,-0.1,-0.2,-0.2,0.0,0.2,,,,*4C
$GPGRS,210112.00,1,1.6,-0.6,-0.5,0.2,0.1,-0.5,-0.7,-0.1,0.5,0.1,0.3,-1.0*4D
$GPGSV,5,1,19,27,77,162,50,02,15,272,42,16,23,196,41,32,18,138,43*7F
$GPGSV,5,2,19,23,36,051,45,21,34,276,42,08,61,296,49,10,73,099,52*7B
$GPGSV,5,3,19,18,06,080,37,15,03,026,33,36,35,170,44,58,13,245,37*7A
$GPGSV,5,4,19,57,11,108,37,34,31,208,42,40,24,132,36,49,34,195,44*76
$GPGSV,5,5,19,41,07,108,33,61,03,257,38*75
$GLGSV,3,1,10,68,51,103,51,67,30,037,47,75,22,324,46,82,12,092,43*6F
$GLGSV,3,2,10,69,23,159,46,74,28,267,43,83,49,068,40,84,48,309,40*6B
$GLGSV,3,3,10,73,10,225,45,85,01,286,40*61
$GAGSV,3,1,10,26,68,288,48,21,24,197,41,03,12,034,38,07,15,136,38*60
$GAGSV,3,2,10,33,20,265,40,31,23,316,41,08,26,084,42,13,50,065,45*6E
$GAGSV,3,3,10,23,45,257,,15,01,077,31*6E
$GBGSV,6,1,21,28,81,063,51,41,28,173,46,60,11,108,40,08,18,041,36*6F
$GBGSV,6,2,21,05,23,128,38,46,17,277,,42,26,045,44,43,20,108,44*61
$GBGSV,6,3,21,31,17,064,,13,26,045,41,58,26,270,,57,31,236,*62
$GBGSV,6,4,21,27,47,295,49,30,45,290,,14,45,069,46,33,54,111,50*6A
$GBGSV,6,5,21,38,04,044,37,50,05,031,,37,06,227,40,36,08,326,*69
$GBGSV,6,6,21,02,08,105,34*51
$GPGGA,210112.00,,,,,0,00,,,M,,M,,*49
$PTNL,GGK,210112.00,010125,4742.1604092,N,01618.1004454,E,1,38,0.8,EHT751.5109,M*45
$GPGGQ,210112.00,010125,4742.1604092,N,01618.1004454,E,1,38,0.987,708.3043,M*30
$GPGFA,210112.00,4.933,6.242,0.519,0.354,16.474,0.761,,VVV*32
$GPLLK,210112.00,010125,,M,,M,1,38,0.9,,M*08
$GNGMP,210112.00,,,,,DAAA,38,0.4,,,,*58
$GPGMP,210112.00,,,,,,09,,,,2.8,136*7B
$GLGMP,210112.00,,,,,,09,,,,,*77
$GAGMP,210112.00,,,,,,08,,,,,*7B
$GBGMP,210112.00,,,,,,12,,,,,*73
$PSSN,SNC,[0,334890000,2347]*41
$GPZDA,210117.00,01,01,2025,,*67
$GPDTM,W84,,00.0000000,N,00.0000000,E,00.0000000,W84*5F
$PSSN,TFM,210117.00,,,,*6B
$GPRMC,210117.00,A,4742.1604069,N,01618.1004439,E,0.0,,010125,5.1,E,D*15
$GPGLL,4742.1604069,N,01618.1004439,E,210117.00,A,D*64
$GPGGA,210117.00,4742.1604069,N,01618.1004439,E,2,38,0.4,708.3108,M,43.2066,M,3.3,0136*42
$GNGNS,210117.00,4742.1604069,N,01618.1004439,E,DAAA,38,0.4,708.3108,43.2066,,*5A
$GPGNS,210117.00,,,,,,09,,,,3.3,136*74
$GLGNS,210117.00,,,,,,09,,,,,*72
$GAGNS,210117.00,,,,,,08,,,,,*7E
$GBGNS,210117.00,,,,,,12,,,,,*76
$GPLLQ,210117.00,010125,,M,,M,1,38,1.001,,M*1E
$GPVTG,,T,,M,0.01,N,0.01,K,D*26
$GPHDT,,T*1B
$GPTHS,,V*0E
$GPROT,,V*08
$PSSN,HRP,210117.00,010125,,,,,,,00,0,,*65
$PTNL,AVR,210117.00,,Yaw,,Tilt,,,,0,,00*33
$GPGSA,A,3,02,08,10,16,18,21,23,27,32,,,,0.8,0.4,0.6*3B
$GPGSA,A,3,67,68,69,73,74,75,82,83,84,,,,0.8,0.4,0.6*30
$GPGSA,A,3,03,07,08,13,21,26,31,33,,,,,0.8,0.4,0.6*33
$GPGSA,A,3,05,08,13,14,27,28,33,37,41,42,43,60,0.8,0.4,0.6*3B
$GPGST,210117.00,2.196,0.526,0.359,16.476,0.515,0.375,0.772*61
$GPGBS,210117.00,3.785,2.656,4.307,68,0.0001,5.512,6.083*54
$GPGRS,210117.00,1,0.7,0.1,0.1,-0.6,-1.1,-0.3,0.2,-0.2,0.1,,,*67
$GPGRS,210117.00,1,5.3,5.5,0.4,5.3,-4.7,-3.3,-0.3,-2.5,-3.7,,,*4E
$GPGRS,210117.00,1,1.0,-0.7,0.2,0.1,-0.2,-0.2,-0.4,0.2,,,,*49
$GPGRS,210117.00,1,1.7,-0.7,-0.6,-0.2,0.1,-0.4,-0.9,0.1,-0.4,0.0,0.1,-0.9*63
$GPGSV,5,1,19,27,77,162,50,02,15,272,42,16,23,196,41,32,18,138,42*7E
$GPGSV,5,2,19,23,36,051,45,21,34,276,42,08,61,296,49,10,73,098,52*7A
$GPGSV,5,3,19,18,06,080,37,15,03,026,33,36,35,170,44,58,13,245,37*7A
$GPGSV,5,4,19,57,11,108,37,34,31,208,42,40,24,132,36,49,34,195,43*71
$GPGSV,5,5,19,41,07,108,34,61,03,257,37*7D
$GLGSV,3,1,10,68,51,103,51,67,30,037,48,75,22,324,47,82,12,092,43*61
$GLGSV,3,2,10,69,23,159,46,74,28,266,43,83,49,068,40,84,48,309,40*6A
$GLGSV,3,3,10,73,10,225,45,85,01,286,41*60
$GAGSV,3,1,10,26,68,288,48,21,24,197,41,03,12,034,38,07,15,136,38*60
$GAGSV,3,2,10,33,20,265,41,31,23,315,40,08,26,084,42,13,50,065,45*6D
$GAGSV,3,3,10,23,45,257,,15,01,077,31*6E
$GBGSV,6,1,21,28,81,064,51,41,28,173,45,60,11,108,40,08,18,041,36*6B
$GBGSV,6,2,21,05,23,128,38,46,17,277,,42,26,045,44,43,20,108,44*61
$GBGSV,6,3,21,31,17,064,,13,26,045,41,58,26,270,,57,31,236,*62
$GBGSV,6,4,21,27,47,295,49,30,45,290,,14,45,069,46,33,54,111,50*6A
$GBGSV,6,5,21,38,04,044,37,50,05,031,,37,06,227,40,36,08,326,*69
$GBGSV,6,6,21,02,08,105,34*51
$GPGGA,210117.00,,,,,0,00,,,M,,M,,*4C
$PTNL,GGK,210117.00,010125,4742.1604069,N,01618.1004439,E,1,38,0.8,EHT751.5173,M*42
$GPGGQ,210117.00,010125,4742.1604069,N,01618.1004439,E,1,38,1.001,708.3108,M*32
$GPGFA,210117.00,5.005,6.334,0.526,0.359,16.476,0.772,,VVV*3B
$GPLLK,210117.00,010125,,M,,M,1,38,0.9,,M*0D
$GNGMP,210117.00,,,,,DAAA,38,0.4,,,,*5D
$GPGMP,210117.00,,,,,,09,,,,3.3,136*74
$GLGMP,210117.00,,,,,,09,,,,,*72
$GAGMP,210117.00,,,,,,08,,,,,*7E
$GBGMP,210117.00,,,,,,12,,,,,*76
$PSSN,SNC,[0,334895000,2347]*44
$GPZDA,210122.00,01,01,2025,,*61
$GPDTM,W84,,00.0000000,N,00.0000000,E,00.0000000,W84*5F
$PSSN,TFM,210122.00,,,,*6D
$GPRMC,210122.00,A,4742.1604058,N,01618.1004418,E,0.0,,010125,5.1,E,D*12
$GPGLL,4742.1604058,N,01618.1004418,E,210122.00,A,D*63
$GPGGA,210122.00,4742.1604058,N,01618.1004418,E,2,38,0.4,708.3094,M,43.2066,M,2.3,0136*40
$GNGNS,210122.00,4742.1604058,N,01618.1004418,E,DAAA,38,0.4,708.3094,43.2066,,*59
$GPGNS,210122.00,,,,,,09,,,,2.3,136*73
$GLGNS,210122.00,,,,,,09,,,,,*74
$GAGNS,210122.00,,,,,,08,,,,,*78
$GBGNS,210122.00,,,,,,12,,,,,*70
$GPLLQ,210122.00,010125,,M,,M,1,38,0.997,,M*1F
$GPVTG,,T,,M,0.01,N,0.01,K,D*26
$GPHDT,,T*1B
$GPTHS,,V*0E
$GPROT,,V*08
$PSSN,HRP,210122.00,010125,,,,,,,00,0,,*63
$PTNL,AVR,210122.00,,Yaw,,Tilt,,,,0,,00*35
$GPGSA,A,3,02,08,10,16,18,21,23,27,32,,,,0.8,0.4,0.6*3B
$GPGSA,A,3,67,68,69,73,74,75,82,83,84,,,,0.8,0.4,0.6*30
$GPGSA,A,3,03,07,08,13,21,26,31,33,,,,,0.8,0.4,0.6*33
$GPGSA,A,3,05,08,13,14,27,28,33,37,41,42,43,60,0.8,0.4,0.6*3B
$GPGST,210122.00,2.202,0.522,0.358,16.268,0.511,0.374,0.771*63
$GPGBS,210122.00,3.649,2.620,4.442,67,0.0001,5.737,6.208*5F
$GPGRS,210122.00,1,0.1,0.0,0.1,0.2,-0.7,-0.2,0.1,0.1,-0.2,,,*4A
