$GPZDA,064442.00,01,01,2025,,*63
$GPDTM,W84,,00.0000000,N,00.0000000,E,00.0000000,W84*5F
$PSSN,TFM,064442.00,,,,*6F
$GPRMC,064442.00,A,4742.1603319,N,01618.1000153,E,0.0,,010125,5.1,E,D*1F
$GPGLL,4742.1603319,N,01618.1000153,E,064442.00,A,D*6E
$GPGGA,064442.00,4742.1603319,N,01618.1000153,E,2,36,0.4,708.0744,M,43.2066,M,2.4,0136*4D
$GNGNS,064442.00,4742.1603319,N,01618.1000153,E,DAAA,36,0.4,708.0744,43.2066,,*53
$GPGNS,064442.00,,,,,,08,,,,2.4,136*77
$GLGNS,064442.00,,,,,,08,,,,,*77
$GAGNS,064442.00,,,,,,10,,,,,*73
$GBGNS,064442.00,,,,,,10,,,,,*70
$GPLLQ,064442.00,010125,,M,,M,1,36,1.006,,M*13
$GPVTG,,T,,M,0.00,N,0.01,K,D*27
$GPHDT,,T*1B
$GPTHS,,V*0E
$GPROT,,V*08
$PSSN,HRP,064442.00,010125,,,,,,,00,0,,*61
$PTNL,AVR,064442.00,,Yaw,,Tilt,,,,0,,00*37
$GPGSA,A,3,05,07,09,11,13,14,20,30,,,,,0.7,0.4,0.6*3A
$GPGSA,A,3,65,71,72,73,74,75,81,88,,,,,0.7,0.4,0.6*3B
$GPGSA,A,3,03,05,08,09,13,15,24,25,31,34,,,0.7,0.4,0.6*32
$GPGSA,A,3,05,07,09,19,21,22,36,40,45,60,,,0.7,0.4,0.6*31
$GPGST,064442.00,1.817,0.498,0.326,10.877,0.492,0.333,0.811*67
$GPGBS,064442.00,3.086,2.184,5.464,72,0.0001,5.207,6.053*5A
$GPGRS,064442.00,1,-0.1,-0.1,-0.0,-0.2,0.6,-0.4,-0.0,0.1,,,,*4F
$GPGRS,064442.00,1,-3.8,-1.8,5.2,2.6,2.3,-3.5,0.3,-2.5,,,,*4C
$GPGRS,064442.00,1,-0.1,0.8,-0.7,-0.5,-0.5,0.6,0.2,0.1,-0.1,-0.8,,*4C
$GPGRS,064442.00,1,1.7,1.6,1.1,-2.2,-0.2,-0.3,0.0,1.0,-0.1,-2.0,,*61
$GPGSV,5,1,20,30,85,202,51,09,21,102,42,14,27,164,43,11,14,230,41*7F
$GPGSV,5,2,20,13,29,285,44,05,46,300,47,07,55,060,47,20,59,242,48*79
$GPGSV,5,3,20,18,03,341,38,27,04,041,35,08,04,072,37,36,35,170,45*71
$GPGSV,5,4,20,58,13,245,36,40,24,133,36,34,31,208,44,49,34,195,44*7D
$GPGSV,5,5,20,57,07,112,36,41,07,108,35,61,03,257,38*4B
$GLGSV,3,1,09,72,74,068,51,81,14,333,46,88,11,282,45,73,31,038,48*67
$GLGSV,3,2,09,71,27,116,47,75,38,187,50,65,35,315,46,74,71,087,46*61
$GLGSV,3,3,09,82,01,015,*53
$GAGSV,3,1,11,03,62,297,48,31,16,037,39,13,19,318,39,08,12,284,39*63
$GAGSV,3,2,11,25,31,154,44,15,27,263,42,24,44,088,45,16,43,127,*6F
$GAGSV,3,3,11,05,59,085,48,09,08,098,37,34,09,214,38*56
$GBGSV,6,1,22,22,70,135,52,46,17,045,,10,10,114,,58,12,039,*6E
$GBGSV,6,2,22,19,17,129,42,40,12,072,39,09,19,058,38,05,21,129,39*64
$GBGSV,6,3,22,07,14,080,38,26,42,183,,50,28,305,,45,50,190,50*67
$GBGSV,6,4,22,21,53,304,50,36,63,081,50,06,04,059,33,42,04,308,*65
$GBGSV,6,5,22,43,01,318,,28,05,328,,16,02,059,36,02,05,108,34*67
$GBGSV,6,6,22,11,03,297,36,60,07,112,40*66
$GPGGA,064442.00,,,,,0,00,,,M,,M,,*48
$PTNL,GGK,064442.00,010125,4742.1603319,N,01618.1000153,E,1,36,0.7,EHT751.2809,M*4A
$GPGGQ,064442.00,010125,4742.1603319,N,01618.1000153,E,1,36,1.006,708.0744,M*3C
$GPGFA,064442.00,4.731,6.653,0.498,0.326,10.877,0.811,,VVV*37
$GPLLK,064442.00,010125,,M,,M,1,36,0.8,,M*06
$GNGMP,064442.00,,,,,DAAA,36,0.4,,,,*57
$GPGMP,064442.00,,,,,,08,,,,2.4,136*77
$GLGMP,064442.00,,,,,,08,,,,,*77
$GAGMP,064442.00,,,,,,10,,,,,*73
$GBGMP,064442.00,,,,,,10,,,,,*70
$PSSN,SNC,[0,283500000,2347]*48
$GPZDA,064447.00,01,01,2025,,*66
$GPDTM,W84,,00.0000000,N,00.0000000,E,00.0000000,W84*5F
$PSSN,TFM,064447.00,,,,*6A
$GPRMC,064447.00,A,4742.1603323,N,01618.1000131,E,0.0,,010125,5.1,E,D*17
$GPGLL,4742.1603323,N,01618.1000131,E,064447.00,A,D*66
$GPGGA,064447.00,4742.1603323,N,01618.1000131,E,2,36,0.4,708.0763,M,43.2066,M,2.9,0136*4D
$GNGNS,064447.00,4742.1603323,N,01618.1000131,E,DAAA,36,0.4,708.0763,43.2066,,*5E
$GPGNS,064447.00,,,,,,08,,,,2.9,136*7F
$GLGNS,064447.00,,,,,,08,,,,,*72
$GAGNS,064447.00,,,,,,10,,,,,*76
$GBGNS,064447.00,,,,,,10,,,,,*75
$GPLLQ,064447.00,010125,,M,,M,1,36,1.015,,M*14
$GPVTG,,T,,M,0.00,N,0.00,K,D*26
$GPHDT,,T*1B
$GPTHS,,V*0E
$GPROT,,V*08
$PSSN,HRP,064447.00,010125,,,,,,,00,0,,*64
$PTNL,AVR,064447.00,,Yaw,,Tilt,,,,0,,00*32
$GPGSA,A,3,05,07,09,11,13,14,20,30,,,,,0.7,0.4,0.6*3A
$GPGSA,A,3,65,71,72,73,74,75,81,88,,,,,0.7,0.4,0.6*3B
$GPGSA,A,3,03,05,08,09,13,15,24,25,31,34,,,0.7,0.4,0.6*32
$GPGSA,A,3,05,07,09,19,21,22,36,40,45,60,,,0.7,0.4,0.6*31
$GPGST,064447.00,1.745,0.506,0.331,11.013,0.501,0.339,0.815*64
$GPGBS,064447.00,3.115,2.227,5.593,72,0.0001,4.965,6.052*58
$GPGRS,064447.00,1,-0.4,-0.2,0.3,-0.3,0.3,0.2,-0.1,0.1,,,,*4C
$GPGRS,064447.00,1,-3.6,-0.6,5.0,1.7,3.0,-3.3,0.7,-2.9,,,,*44
$GPGRS,064447.00,1,-0.1,0.8,-0.4,-0.6,-0.1,0.4,0.2,0.1,-0.1,-0.6,,*41
$GPGRS,064447.00,1,1.8,1.9,1.4,-1.8,-0.2,-0.4,0.0,1.1,-0.0,-1.8,,*64
$GPGSV,5,1,20,30,85,202,50,09,21,102,42,14,27,164,44,11,14,230,41*79
$GPGSV,5,2,20,13,30,285,44,05,46,300,47,07,55,060,47,20,59,242,48*71
$GPGSV,5,3,20,18,03,341,38,27,04,041,35,08,04,072,37,36,35,170,44*70
$GPGSV,5,4,20,58,13,245,36,40,24,133,36,34,31,208,43,49,34,195,44*7A
$GPGSV,5,5,20,57,07,112,36,41,07,108,35,61,03,257,38*4B
$GLGSV,3,1,09,72,74,068,51,81,14,333,46,88,11,282,44,73,31,038,47*69
$GLGSV,3,2,09,71,27,116,47,75,38,187,50,65,35,315,46,74,70,087,46*60
$GLGSV,3,3,09,82,01,015,*53
$GAGSV,3,1,11,03,62,297,48,31,16,037,39,13,19,318,39,08,12,284,39*63
$GAGSV,3,2,11,15,27,263,42,25,31,154,44,24,44,088,45,16,43,127,*6F
$GAGSV,3,3,11,05,59,085,47,09,08,098,36,34,09,214,38*58
$GBGSV,6,1,22,22,70,136,52,46,16,045,,10,10,114,,58,12,039,*6C
$GBGSV,6,2,22,19,17,129,43,40,12,072,40,09,19,058,38,05,21,129,39*6B
$GBGSV,6,3,22,07,14,080,38,26,42,183,,50,28,305,,45,50,190,50*67
$GBGSV,6,4,22,21,53,304,50,36,63,081,50,06,04,059,34,42,04,308,*62
$GBGSV,6,5,22,43,01,318,,28,05,328,,16,02,059,36,02,05,108,35*66
$GBGSV,6,6,22,11,03,297,36,60,07,112,40*66
$GPGGA,064447.00,,,,,0,00,,,M,,M,,*4D
$PTNL,GGK,064447.00,010125,4742.1603323,N,01618.1000131,E,1,36,0.7,EHT751.2828,M*41
$GPGGQ,064447.00,010125,4742.1603323,N,01618.1000131,E,1,36,1.015,708.0763,M*33
$GPGFA,064447.00,4.811,6.682,0.506,0.331,11.013,0.815,,VVV*3C
$GPLLK,064447.00,010125,,M,,M,1,36,0.8,,M*03
$GNGMP,064447.00,,,,,DAAA,36,0.4,,,,*52
$GPGMP,064447.00,,,,,,08,,,,2.9,136*7F
$GLGMP,064447.00,,,,,,08,,,,,*72
$GAGMP,064447.00,,,,,,10,,,,,*76
$GBGMP,064447.00,,,,,,10,,,,,*75
$PSSN,SNC,[0,283505000,2347]*4D
$GPZDA,064452.00,01,01,2025,,*62
$GPDTM,W84,,00.0000000,N,00.0000000,E,00.0000000,W84*5F
$PSSN,TFM,064452.00,,,,*6E
$GPRMC,064452.00,A,4742.1603345,N,01618.1000121,E,0.0,,010125,5.1,E,D*12
$GPGLL,4742.1603345,N,01618.1000121,E,064452.00,A,D*63
$GPGGA,064452.00,4742.1603345,N,01618.1000121,E,2,36,0.4,708.0772,M,43.2066,M,3.4,0136*44
$GNGNS,064452.00,4742.1603345,N,01618.1000121,E,DAAA,36,0.4,708.0772,43.2066,,*5B
$GPGNS,064452.00,,,,,,08,,,,3.4,136*77
$GLGNS,064452.00,,,,,,08,,,,,*76
$GAGNS,064452.00,,,,,,10,,,,,*72
$GBGNS,064452.00,,,,,,10,,,,,*71
$GPLLQ,064452.00,010125,,M,,M,1,36,1.014,,M*11
$GPVTG,,T,,M,0.00,N,0.00,K,D*26
$GPHDT,,T*1B
$GPTHS,,V*0E
$GPROT,,V*08
$PSSN,HRP,064452.00,010125,,,,,,,00,0,,*60
$PTNL,AVR,064452.00,,Yaw,,Tilt,,,,0,,00*36
$GPGSA,A,3,05,07,09,11,13,14,20,30,,,,,0.7,0.4,0.6*3A
$GPGSA,A,3,65,71,72,73,74,75,81,88,,,,,0.7,0.4,0.6*3B
$GPGSA,A,3,03,05,08,09,13,15,24,25,31,34,,,0.7,0.4,0.6*32
$GPGSA,A,3,05,07,09,19,21,22,36,40,45,60,,,0.7,0.4,0.6*31
$GPGST,064452.00,1.795,0.511,0.336,10.724,0.506,0.343,0.808*68
$GPGBS,064452.00,3.112,2.233,5.408,72,0.0001,5.133,6.052*57
$GPGRS,064452.00,1,-0.2,-0.3,-0.0,-0.2,0.3,0.6,-0.0,-0.1,,,,*48
$GPGRS,064452.00,1,-4.3,-0.2,5.1,1.9,2.8,-3.5,0.0,-2.7,,,,*4F
$GPGRS,064452.00,1,-0.1,0.7,-0.5,-0.6,0.0,0.4,0.6,-0.3,0.6,-0.8,,*68
$GPGRS,064452.00,1,1.7,1.5,1.0,-1.7,-0.3,-0.3,0.2,1.4,-0.1,-1.9,,*69
$GPGSV,5,1,20,30,85,202,51,09,21,102,41,14,27,164,44,11,14,230,41*7B
$GPGSV,5,2,20,13,30,285,44,05,46,300,46,07,55,060,48,20,59,242,48*7F
$GPGSV,5,3,20,18,03,341,37,27,04,041,35,08,04,072,37,36,35,170,45*7E
$GPGSV,5,4,20,58,13,245,37,40,24,133,36,34,31,208,44,49,34,195,44*7C
$GPGSV,5,5,20,57,07,112,36,41,07,108,35,61,03,257,38*4B
$GLGSV,3,1,09,72,74,068,51,81,14,333,44,88,10,282,46,73,31,038,47*68
$GLGSV,3,2,09,71,27,116,48,75,38,187,50,65,35,315,46,74,70,087,46*6F
$GLGSV,3,3,09,82,01,015,*53
$GAGSV,3,1,11,03,62,297,47,31,16,037,39,13,19,318,39,08,12,284,38*6D
$GAGSV,3,2,11,15,27,263,42,25,31,154,43,24,44,088,46,16,43,127,*6B
$GAGSV,3,3,11,05,59,085,47,09,08,098,37,34,09,214,37*56
$GBGSV,6,1,22,22,70,136,52,46,16,045,,10,10,114,,58,12,039,*6C
$GBGSV,6,2,22,19,17,129,43,40,12,072,40,09,19,058,38,05,21,129,39*6B
$GBGSV,6,3,22,07,14,080,38,26,42,183,,50,28,305,,45,50,190,50*67
$GBGSV,6,4,22,21,53,304,50,36,63,081,51,06,04,059,35,42,04,308,*62
$GBGSV,6,5,22,43,01,317,,28,05,328,,16,02,059,35,02,05,108,34*6B
$GBGSV,6,6,22,11,03,297,35,60,07,112,40*65
$GPGGA,064452.00,,,,,0,00,,,M,,M,,*49
$PTNL,GGK,064452.00,010125,4742.1603345,N,01618.1000121,E,1,36,0.7,EHT751.2838,M*45
$GPGGQ,064452.00,010125,4742.1603345,N,01618.1000121,E,1,36,1.014,708.0772,M*37
$GPGFA,064452.00,4.861,6.627,0.511,0.336,10.724,0.808,,VVV*3F
$GPLLK,064452.00,010125,,M,,M,1,36,0.8,,M*07
$GNGMP,064452.00,,,,,DAAA,36,0.4,,,,*56
$GPGMP,064452.00,,,,,,08,,,,3.4,136*77
$GLGMP,064452.00,,,,,,08,,,,,*76
$GAGMP,064452.00,,,,,,10,,,,,*72
$GBGMP,064452.00,,,,,,10,,,,,*71
$PSSN,SNC,[0,283510000,2347]*49
$GPZDA,064457.00,01,01,2025,,*67
$GPDTM,W84,,00.0000000,N,00.0000000,E,00.0000000,W84*5F
$PSSN,TFM,064457.00,,,,*6B
$GPRMC,064457.00,A,4742.1603355,N,01618.1000109,E,0.0,,010125,5.1,E,D*1C
$GPGLL,4742.1603355,N,01618.1000109,E,064457.00,A,D*6D
$GPGGA,064457.00,4742.1603355,N,01618.1000109,E,2,36,0.4,708.0830,M,43.2066,M,1.4,0136*41
$GNGNS,064457.00,4742.1603355,N,01618.1000109,E,DAAA,36,0.4,708.0830,43.2066,,*5C
$GPGNS,064457.00,,,,,,08,,,,1.4,136*70
$GLGNS,064457.00,,,,,,08,,,,,*73
$GAGNS,064457.00,,,,,,10,,,,,*77
$GBGNS,064457.00,,,,,,10,,,,,*74
$GPLLQ,064457.00,010125,,M,,M,1,36,1.010,,M*10
$GPVTG,,T,,M,0.01,N,0.01,K,D*26
$GPHDT,,T*1B
$GPTHS,,V*0E
$GPROT,,V*08
$PSSN,HRP,064457.00,010125,,,,,,,00,0,,*65
$PTNL,AVR,064457.00,,Yaw,,Tilt,,,,0,,00*33
$GPGSA,A,3,05,07,09,11,13,14,20,30,,,,,0.7,0.4,0.6*3A
$GPGSA,A,3,65,71,72,73,74,75,81,88,,,,,0.7,0.4,0.6*3B
$GPGSA,A,3,03,05,08,09,13,15,24,25,31,34,,,0.7,0.4,0.6*32
$GPGSA,A,3,05,07,09,19,21,22,36,40,45,60,,,0.7,0.4,0.6*31
$GPGST,064457.00,1.764,0.505,0.332,10.392,0.500,0.339,0.809*61
$GPGBS,064457.00,3.039,2.139,5.392,72,0.0001,4.819,6.053*56
$GPGRS,064457.00,1,0.0,-0.1,0.1,-0.2,0.5,0.2,-0.2,-0.0,,,,*4D
$GPGRS,064457.00,1,-4.0,-0.6,4.8,2.2,2.6,-3.4,-0.7,-2.5,,,,*6A
$GPGRS,064457.00,1,-0.2,0.7,-1.0,-0.5,-0.7,0.3,0.5,-0.4,0.3,-0.8,,*45
$GPGRS,064457.00,1,1.7,2.0,0.3,-1.9,-0.3,-0.5,-0.0,1.5,-0.3,-2.0,,*46
$GPGSV,5,1,20,30,85,202,51,09,21,102,41,14,27,164,43,11,14,230,40*7D
$GPGSV,5,2,20,13,30,285,44,05,46,300,46,07,55,060,47,20,59,242,48*70
$GPGSV,5,3,20,18,03,341,37,27,04,041,35,08,04,072,37,36,35,170,45*7E
$GPGSV,5,4,20,58,13,245,37,40,24,133,36,34,31,208,44,49,34,195,45*7D
$GPGSV,5,5,20,57,07,112,36,41,07,108,35,61,03,257,38*4B
$GLGSV,3,1,09,72,74,068,51,81,14,333,45,88,10,282,45,73,31,038,47*6A
$GLGSV,3,2,09,71,27,116,48,75,38,187,50,65,35,315,46,74,70,087,46*6F
$GLGSV,3,3,09,82,01,015,*53
$GAGSV,3,1,11,03,62,297,47,31,16,037,39,13,19,318,39,08,12,284,38*6D
$GAGSV,3,2,11,15,27,263,42,25,31,154,43,24,44,088,46,16,43,126,*6A
$GAGSV,3,3,11,05,59,086,47,09,08,098,37,34,09,214,37*55
$GBGSV,6,1,22,22,70,136,52,46,16,045,,10,10,114,,58,12,039,*6C
$GBGSV,6,2,22,19,17,129,43,40,12,072,40,09,19,058,37,05,21,129,39*64
$GBGSV,6,3,22,07,14,080,38,26,42,183,,50,28,305,,45,50,190,50*67
$GBGSV,6,4,22,21,53,304,50,36,63,081,51,06,04,059,35,42,04,308,*62
$GBGSV,6,5,22,43,01,317,,28,05,328,,16,02,059,35,02,05,108,35*6A
$GBGSV,6,6,22,11,03,297,36,60,07,112,40*66
$GPGGA,064457.00,,,,,0,00,,,M,,M,,*4C
$PTNL,GGK,064457.00,010125,4742.1603355,N,01618.1000109,E,1,36,0.7,EHT751.2896,M*4F
$GPGGQ,064457.00,010125,4742.1603355,N,01618.1000109,E,1,36,1.010,708.0830,M*34
$GPGFA,064457.00,4.802,6.632,0.505,0.332,10.392,0.809,,VVV*32
$GPLLK,064457.00,010125,,M,,M,1,36,0.8,,M*02
$GNGMP,064457.00,,,,,DAAA,36,0.4,,,,*53
$GPGMP,064457.00,,,,,,08,,,,1.4,136*70
$GLGMP,064457.00,,,,,,08,,,,,*73
$GAGMP,064457.00,,,,,,10,,,,,*77
$GBGMP,064457.00,,,,,,10,,,,,*74
$PSSN,SNC,[0,283515000,2347]*4C
$GPZDA,064502.00,01,01,2025,,*66
$GPDTM,W84,,00.0000000,N,00.0000000,E,00.0000000,W84*5F
$PSSN,TFM,064502.00,,,,*6A
$GPRMC,064502.00,A,4742.1603335,N,01618.1000115,E,0.0,,010125,5.1,E,D*16
$GPGLL,4742.1603335,N,01618.1000115,E,064502.00,A,D*67
$GPGGA,064502.00,4742.1603335,N,01618.1000115,E,2,36,0.4,708.0802,M,43.2066,M,2.4,0136*49
$GNGNS,064502.00,4742.1603335,N,01618.1000115,E,DAAA,36,0.4,708.0802,43.2066,,*57
$GPGNS,064502.00,,,,,,08,,,,2.4,136*72
$GLGNS,064502.00,,,,,,08,,,,,*72
$GAGNS,064502.00,,,,,,10,,,,,*76
$GBGNS,064502.00,,,,,,10,,,,,*75
$GPLLQ,064502.00,010125,,M,,M,1,36,1.007,,M*17
$GPVTG,,T,,M,0.00,N,0.01,K,D*27
$GPHDT,,T*1B
$GPTHS,,V*0E
$GPROT,,V*08
$PSSN,HRP,064502.00,010125,,,,,,,00,0,,*64
$PTNL,AVR,064502.00,,Yaw,,Tilt,,,,0,,00*32
$GPGSA,A,3,05,07,09,11,13,14,20,30,,,,,0.7,0.4,0.6*3A
$GPGSA,A,3,65,71,72,73,74,75,81,88,,,,,0.7,0.4,0.6*3B
$GPGSA,A,3,03,05,08,09,13,15,24,25,31,34,,,0.7,0.4,0.6*32
$GPGSA,A,3,05,07,09,19,21,22,36,40,45,60,,,0.7,0.4,0.6*31
$GPGST,064502.00,1.827,0.497,0.326,10.832,0.492,0.334,0.812*6B
$GPGBS,064502.00,3.086,2.176,5.466,72,0.0001,5.084,6.053*59
$GPGRS,064502.00,1,-0.1,-0.2,0.0,0.3,0.5,-0.4,0.0,-0.1,,,,*4B
$GPGRS,064502.00,1,-4.1,-1.5,5.1,2.3,2.7,-3.3,-0.3,-3.5,,,,*62
$GPGRS,064502.00,1,-0.1,0.6,-0.9,-0.4,-0.4,0.2,0.4,0.1,0.0,-0.7,,*68
$GPGRS,064502.00,1,1.4,1.8,-0.0,-1.6,-0.2,-0.5,-0.3,1.2,-0.4,-2.0,,*6C
$GPGSV,5,1,20,30,85,201,50,09,21,102,41,14,27,164,43,11,14,230,40*7F
$GPGSV,5,2,20,13,30,285,44,05,46,300,47,07,55,060,47,20,59,242,48*71
$GPGSV,5,3,20,18,03,341,36,27,04,041,35,08,05,072,37,36,35,170,44*7F
$GPGSV,5,4,20,58,13,245,36,40,24,133,36,34,31,208,43,49,34,195,44*7A
$GPGSV,5,5,20,57,07,112,36,41,07,108,35,61,03,257,38*4B
$GLGSV,3,1,09,72,74,068,51,81,14,333,45,88,10,282,44,73,31,038,47*6B
$GLGSV,3,2,09,71,27,116,47,75,39,187,50,65,36,315,46,74,70,087,46*62
$GLGSV,3,3,09,82,01,015,*53
$GAGSV,3,1,11,03,62,298,47,31,16,037,39,13,19,318,39,08,12,284,39*63
$GAGSV,3,2,11,15,27,263,42,25,31,154,43,24,44,088,46,16,43,126,*6A
$GAGSV,3,3,11,05,59,086,47,09,08,098,36,34,09,214,38*5B
$GBGSV,6,1,22,22,70,136,52,46,16,045,,10,10,114,,58,12,039,*6C
$GBGSV,6,2,22,19,17,129,42,40,12,072,40,09,19,058,37,05,21,129,39*65
$GBGSV,6,3,22,07,14,080,38,26,42,182,,50,28,305,,45,50,190,50*66
$GBGSV,6,4,22,21,53,304,50,36,63,081,50,06,04,059,34,42,04,308,*62
$GBGSV,6,5,22,43,01,317,,28,05,328,,16,02,059,35,02,05,108,34*6B
$GBGSV,6,6,22,11,03,297,36,60,07,112,40*66
$GPGGA,064502.00,,,,,0,00,,,M,,M,,*4D
$PTNL,GGK,064502.00,010125,4742.1603335,N,01618.1000115,E,1,36,0.7,EHT751.2867,M*4B
$GPGGQ,064502.00,010125,4742.1603335,N,01618.1000115,E,1,36,1.007,708.0802,M*39
$GPGFA,064502.00,4.727,6.660,0.497,0.326,10.832,0.812,,VVV*38
$GPLLK,064502.00,010125,,M,,M,1,36,0.8,,M*03
$GNGMP,064502.00,,,,,DAAA,36,0.4,,,,*52
$GPGMP,064502.00,,,,,,08,,,,2.4,136*72
$GLGMP,064502.00,,,,,,08,,,,,*72
$GAGMP,064502.00,,,,,,10,,,,,*76
$GBGMP,064502.00,,,,,,10,,,,,*75
$PSSN,SNC,[0,283520000,2347]*4A
$GPZDA,064507.00,01,01,2025,,*63
$GPDTM,W84,,00.0000000,N,00.0000000,E,00.0000000,W84*5F
$PSSN,TFM,064507.00,,,,*6F
$GPRMC,064507.00,A,4742.1603322,N,01618.1000149,E,0.0,,010125,5.1,E,D*1C
$GPGLL,4742.1603322,N,01618.1000149,E,064507.00,A,D*6D
$GPGGA,064507.00,4742.1603322,N,01618.1000149,E,2,36,0.4,708.0834,M,43.2066,M,2.9,0136*4B
$GNGNS,064507.00,4742.1603322,N,01618.1000149,E,DAAA,36,0.4,708.0834,43.2066,,*58
$GPGNS,064507.00,,,,,,08,,,,2.9,136*7A
$GLGNS,064507.00,,,,,,08,,,,,*77
$GAGNS,064507.00,,,,,,10,,,,,*73
$GBGNS,064507.00,,,,,,10,,,,,*70
$GPLLQ,064507.00,010125,,M,,M,1,36,1.015,,M*11
$GPVTG,,T,,M,0.00,N,0.00,K,D*26
$GPHDT,,T*1B
$GPTHS,,V*0E
$GPROT,,V*08
$PSSN,HRP,064507.00,010125,,,,,,,00,0,,*61
$PTNL,AVR,064507.00,,Yaw,,Tilt,,,,0,,00*37
$GPGSA,A,3,05,07,09,11,13,14,20,30,,,,,0.7,0.4,0.6*3A
$GPGSA,A,3,65,71,72,73,74,75,81,88,,,,,0.7,0.4,0.6*3B
$GPGSA,A,3,03,05,08,09,13,15,24,25,31,34,,,0.7,0.4,0.6*32
$GPGSA,A,3,05,07,09,19,21,22,36,40,45,60,,,0.7,0.4,0.6*31
$GPGST,064507.00,1.844,0.506,0.331,10.977,0.500,0.339,0.816*67
$GPGBS,064507.00,3.117,2.220,5.595,72,0.0001,5.144,6.052*54
$GPGRS,064507.00,1,0.2,-0.2,-0.0,0.4,0.2,-0.2,0.2,-0.2,,,,*4A
$GPGRS,064507.00,1,-4.0,-0.7,5.1,2.2,2.6,-3.2,0.3,-4.1,,,,*4A
$GPGRS,064507.00,1,-0.3,0.8,-0.7,-0.9,-0.6,0.1,0.0,0.1,0.0,-0.6,,*66
$GPGRS,064507.00,1,1.4,1.8,-0.1,-1.8,-0.2,-0.4,-0.2,1.2,-0.6,-1.9,,*6E
$GPGSV,5,1,20,30,85,201,51,09,21,102,41,14,27,164,43,11,14,230,41*7F
$GPGSV,5,2,20,13,30,285,44,05,46,300,47,07,55,060,48,20,59,242,48*7E
$GPGSV,5,3,20,18,03,341,37,27,04,041,35,08,05,072,38,36,35,170,45*70
$GPGSV,5,4,20,58,13,245,36,40,24,133,36,34,31,208,44,49,34,195,44*7D
$GPGSV,5,5,20,57,07,112,36,41,07,108,35,61,03,257,38*4B
$GLGSV,3,1,09,72,74,069,51,81,14,333,45,88,10,282,44,73,31,038,47*6A
$GLGSV,3,2,09,71,27,116,48,75,39,187,49,65,36,315,46,74,70,087,47*64
$GLGSV,3,3,09,82,01,015,*53
$GAGSV,3,1,11,03,62,298,48,31,16,037,39,13,19,318,40,08,12,284,38*63
$GAGSV,3,2,11,15,27,263,42,25,31,154,43,24,44,088,46,16,43,126,*6A
$GAGSV,3,3,11,05,59,086,48,09,08,098,37,34,09,214,38*55
$GBGSV,6,1,22,22,70,136,52,46,16,045,,10,10,114,,58,12,039,*6C
$GBGSV,6,2,22,19,16,129,42,40,12,072,41,09,19,058,36,05,21,129,39*64
$GBGSV,6,3,22,07,14,080,38,26,42,182,,50,28,305,,45,50,190,50*66
$GBGSV,6,4,22,21,53,304,50,36,63,081,51,06,04,059,34,42,04,308,*63
$GBGSV,6,5,22,43,01,317,,28,05,328,,16,02,059,34,02,05,108,34*6A
$GBGSV,6,6,22,11,03,297,35,60,07,112,40*65
$GPGGA,064507.00,,,,,0,00,,,M,,M,,*48
$PTNL,GGK,064507.00,010125,4742.1603322,N,01618.1000149,E,1,36,0.7,EHT751.2899,M*40
$GPGGQ,064507.00,010125,4742.1603322,N,01618.1000149,E,1,36,1.015,708.0834,M*35
$GPGFA,064507.00,4.808,6.689,0.506,0.331,10.977,0.816,,VVV*33
$GPLLK,064507.00,010125,,M,,M,1,36,0.8,,M*06
$GNGMP,064507.00,,,,,DAAA,36,0.4,,,,*57
$GPGMP,064507.00,,,,,,08,,,,2.9,136*7A
$GLGMP,064507.00,,,,,,08,,,,,*77
$GAGMP,064507.00,,,,,,10,,,,,*73
$GBGMP,064507.00,,,,,,10,,,,,*70
$PSSN,SNC,[0,283525000,2347]*4F
$GPZDA,064512.00,01,01,2025,,*67
$GPDTM,W84,,00.0000000,N,00.0000000,E,00.0000000,W84*5F
$PSSN,TFM,064512.00,,,,*6B
$GPRMC,064512.00,A,4742.1603326,N,01618.1000166,E,0.0,,010125,5.1,E,D*11
$GPGLL,4742.1603326,N,01618.1000166,E,064512.00,A,D*60
$GPGGA,064512.00,4742.1603326,N,01618.1000166,E,2,36,0.4,708.0857,M,43.2066,M,3.4,0136*4F
$GNGNS,064512.00,4742.1603326,N,01618.1000166,E,DAAA,36,0.4,708.0857,43.2066,,*50
$GPGNS,064512.00,,,,,,08,,,,3.4,136*72
$GLGNS,064512.00,,,,,,08,,,,,*73
$GAGNS,064512.00,,,,,,10,,,,,*77
$GBGNS,064512.00,,,,,,10,,,,,*74
$GPLLQ,064512.00,010125,,M,,M,1,36,1.014,,M*14
$GPVTG,,T,,M,0.00,N,0.01,K,D*27
$GPHDT,,T*1B
$GPTHS,,V*0E
$GPROT,,V*08
$PSSN,HRP,064512.00,010125,,,,,,,00,0,,*65
$PTNL,AVR,064512.00,,Yaw,,Tilt,,,,0,,00*33
$GPGSA,A,3,05,07,09,11,13,14,20,30,,,,,0.7,0.4,0.6*3A
$GPGSA,A,3,65,71,72,73,74,75,81,88,,,,,0.7,0.4,0.6*3B
$GPGSA,A,3,03,05,08,09,13,15,24,25,31,34,,,0.7,0.4,0.6*32
$GPGSA,A,3,05,07,09,19,21,22,36,40,45,60,,,0.7,0.4,0.6*31
$GPGST,064512.00,1.793,0.511,0.336,10.653,0.506,0.343,0.809*6B
$GPGBS,064512.00,3.112,2.222,5.406,72,0.0001,5.275,6.053*5C
$GPGRS,064512.00,1,-0.3,-0.2,0.5,0.2,0.4,0.0,-0.0,0.0,,,,*65
$GPGRS,064512.00,1,-3.3,-0.3,5.3,2.4,2.5,-3.7,0.3,-3.2,,,,*48
$GPGRS,064512.00,1,-0.2,0.6,-0.7,-0.7,-0.4,-0.0,0.1,-0.0,-0.4,-0.3,,*4C
$GPGRS,064512.00,1,1.9,1.8,0.1,-2.0,-0.2,-0.3,-0.2,1.0,-0.1,-2.0,,*49
$GPGSV,5,1,20,30,85,201,51,09,21,102,41,14,27,164,44,11,14,230,41*78
$GPGSV,5,2,20,13,30,285,44,05,46,300,47,07,55,060,47,20,59,242,48*71
$GPGSV,5,3,20,18,03,341,37,27,04,041,36,08,05,072,37,36,35,170,45*7C
$GPGSV,5,4,20,58,13,245,37,40,24,133,36,34,31,208,44,49,34,195,44*7C
$GPGSV,5,5,20,57,07,112,36,41,07,108,35,61,03,257,38*4B
$GLGSV,3,1,09,72,74,069,51,81,14,333,45,88,10,282,44,73,31,038,46*6B
$GLGSV,3,2,09,71,27,116,48,75,39,187,50,65,36,315,46,74,70,086,46*6C
$GLGSV,3,3,09,82,01,015,*53
$GAGSV,3,1,11,03,62,298,48,31,16,037,39,13,19,318,39,08,12,284,39*6C
$GAGSV,3,2,11,15,27,263,42,25,31,154,44,24,44,088,46,16,43,126,*6D
$GAGSV,3,3,11,05,59,086,48,09,08,098,37,34,09,214,39*54
$GBGSV,6,1,22,22,70,136,52,46,16,045,,10,10,114,,58,12,039,*6C
$GBGSV,6,2,22,19,16,129,42,40,12,072,41,09,19,058,37,05,21,129,39*65
$GBGSV,6,3,22,07,14,080,38,26,42,182,,50,28,305,,45,50,190,50*66
$GBGSV,6,4,22,21,53,304,50,36,63,081,50,06,04,059,34,42,04,308,*62
$GBGSV,6,5,22,43,01,317,,28,05,328,,16,02,059,34,02,05,108,34*6A
$GBGSV,6,6,22,11,03,297,37,60,07,112,40*67
$GPGGA,064512.00,,,,,0,00,,,M,,M,,*4C
$PTNL,GGK,064512.00,010125,4742.1603326,N,01618.1000166,E,1,36,0.7,EHT751.2923,M*4D
$GPGGQ,064512.00,010125,4742.1603326,N,01618.1000166,E,1,36,1.014,708.0857,M*3C
$GPGFA,064512.00,4.857,6.631,0.511,0.336,10.653,0.809,,VVV*38
$GPLLK,064512.00,010125,,M,,M,1,36,0.8,,M*02
$GNGMP,064512.00,,,,,DAAA,36,0.4,,,,*53
$GPGMP,064512.00,,,,,,08,,,,3.4,136*72
$GLGMP,064512.00,,,,,,08,,,,,*73
$GAGMP,064512.00,,,,,,10,,,,,*77
$GBGMP,064512.00,,,,,,10,,,,,*74
$PSSN,SNC,[0,283530000,2347]*4B
$GPZDA,064517.00,01,01,2025,,*62
$GPDTM,W84,,00.0000000,N,00.0000000,E,00.0000000,W84*5F
$PSSN,TFM,064517.00,,,,*6E
$GPRMC,064517.00,A,4742.1603337,N,01618.1000159,E,0.0,,010125,5.1,E,D*18
$GPGLL,4742.1603337,N,01618.1000159,E,064517.00,A,D*69
$GPGGA,064517.00,4742.1603337,N,01618.1000159,E,2,36,0.4,708.0898,M,43.2066,M,1.4,0136*47
$GNGNS,064517.00,4742.1603337,N,01618.1000159,E,DAAA,36,0.4,708.0898,43.2066,,*5A
$GPGNS,064517.00,,,,,,08,,,,1.4,136*75
$GLGNS,064517.00,,,,,,08,,,,,*76
$GAGNS,064517.00,,,,,,10,,,,,*72
$GBGNS,064517.00,,,,,,10,,,,,*71
$GPLLQ,064517.00,010125,,M,,M,1,36,1.012,,M*17
$GPVTG,,T,,M,0.00,N,0.00,K,D*26
$GPHDT,,T*1B
$GPTHS,,V*0E
$GPROT,,V*08
$PSSN,HRP,064517.00,010125,,,,,,,00,0,,*60
$PTNL,AVR,064517.00,,Yaw,,Tilt,,,,0,,00*36
$GPGSA,A,3,05,07,09,11,13,14,20,30,,,,,0.7,0.4,0.6*3A
$GPGSA,A,3,65,71,72,73,74,75,81,88,,,,,0.7,0.4,0.6*3B
$GPGSA,A,3,03,05,08,09,13,15,24,25,31,34,,,0.7,0.4,0.6*32
$GPGSA,A,3,05,07,09,19,21,22,36,40,45,60,,,0.7,0.4,0.6*31
$GPGST,064517.00,1.843,0.507,0.333,10.357,0.502,0.340,0.810*60
$GPGBS,064517.00,3.045,2.153,5.386,72,0.0001,5.011,6.053*50
$GPGRS,064517.00,1,-0.1,-0.3,0.3,0.2,0.2,-0.3,0.0,0.1,,,,*61
$GPGRS,064517.00,1,-3.8,-0.6,5.0,1.9,2.7,-3.1,0.7,-4.1,,,,*4A
$GPGRS,064517.00,1,-0.2,0.7,-0.5,-0.2,-0.0,0.1,0.4,-0.3,-0.3,-0.3,,*66
$GPGRS,064517.00,1,1.7,2.4,-0.1,-2.3,-0.3,-0.5,-0.3,0.7,0.0,-2.1,,*4E
$GPGSV,5,1,20,30,85,201,51,09,21,102,40,14,27,164,44,11,14,230,40*78
$GPGSV,5,2,20,13,30,285,44,05,46,300,47,07,55,060,47,20,59,242,48*71
$GPGSV,5,3,20,18,03,341,38,27,04,041,35,08,05,072,37,36,35,170,45*70
$GPGSV,5,4,20,58,13,245,37,40,24,133,36,34,31,208,44,49,34,195,44*7C
$GPGSV,5,5,20,57,07,112,36,41,07,108,35,61,03,257,38*4B
$GLGSV,3,1,09,72,74,069,51,81,14,333,46,88,10,282,44,73,31,038,46*68
$GLGSV,3,2,09,71,27,116,48,75,39,187,50,65,36,315,47,74,70,086,46*6D
$GLGSV,3,3,09,82,01,015,*53
$GAGSV,3,1,11,03,62,298,48,31,16,037,38,13,19,318,40,08,12,284,38*62
$GAGSV,3,2,11,15,27,263,42,25,31,154,44,24,44,088,45,16,43,126,*6E
$GAGSV,3,3,11,05,59,086,48,09,08,098,37,34,09,214,39*54
$GBGSV,6,1,22,22,70,136,52,46,16,045,,10,10,114,,58,12,039,*6C
$GBGSV,6,2,22,19,16,129,42,40,12,072,41,09,19,058,37,05,21,129,39*65
$GBGSV,6,3,22,07,14,080,38,26,42,182,,50,28,305,,45,50,190,50*66
$GBGSV,6,4,22,21,53,304,50,36,63,081,50,06,04,059,35,42,04,308,*63
$GBGSV,6,5,22,43,01,317,,28,05,328,,16,02,059,34,02,05,108,34*6A
$GBGSV,6,6,22,11,03,297,36,60,07,112,40*66
$GPGGA,064517.00,,,,,0,00,,,M,,M,,*49
$PTNL,GGK,064517.00,010125,4742.1603337,N,01618.1000159,E,1,36,0.7,EHT751.2963,M*40
$GPGGQ,064517.00,010125,4742.1603337,N,01618.1000159,E,1,36,1.012,708.0898,M*30
$GPGFA,064517.00,4.822,6.643,0.507,0.333,10.357,0.810,,VVV*31
$GPLLK,064517.00,010125,,M,,M,1,36,0.8,,M*07
$GNGMP,064517.00,,,,,DAAA,36,0.4,,,,*56
$GPGMP,064517.00,,,,,,08,,,,1.4,136*75
$GLGMP,064517.00,,,,,,08,,,,,*76
$GAGMP,064517.00,,,,,,10,,,,,*72
$GBGMP,064517.00,,,,,,10,,,,,*71
$PSSN,SNC,[0,283535000,2347]*4E
$GPZDA,064522.00,01,01,2025,,*64
$GPDTM,W84,,00.0000000,N,00.0000000,E,00.0000000,W84*5F
$PSSN,TFM,064522.00,,,,*68
$GPRMC,064522.00,A,4742.1603340,N,01618.1000170,E,0.0,,010125,5.1,E,D*15
$GPGLL,4742.1603340,N,01618.1000170,E,064522.00,A,D*64
$GPGGA,064522.00,4742.1603340,N,01618.1000170,E,2,36,0.4,708.0857,M,43.2066,M,2.4,0136*4A
$GNGNS,064522.00,4742.1603340,N,01618.1000170,E,DAAA,36,0.4,708.0857,43.2066,,*54
$GPGNS,064522.00,,,,,,08,,,,2.4,136*70
$GLGNS,064522.00,,,,,,08,,,,,*70
$GAGNS,064522.00,,,,,,10,,,,,*74
$GBGNS,064522.00,,,,,,10,,,,,*77
$GPLLQ,064522.00,010125,,M,,M,1,36,1.010,,M*13
$GPVTG,,T,,M,0.00,N,0.01,K,D*27
$GPHDT,,T*1B
$GPTHS,,V*0E
$GPROT,,V*08
$PSSN,HRP,064522.00,010125,,,,,,,00,0,,*66
$PTNL,AVR,064522.00,,Yaw,,Tilt,,,,0,,00*30
$GPGSA,A,3,05,07,09,11,13,14,20,30,,,,,0.7,0.4,0.6*3A
$GPGSA,A,3,65,71,72,73,74,75,81,88,,,,,0.7,0.4,0.6*3B
$GPGSA,A,3,03,05,08,09,13,15,24,25,31,34,,,0.7,0.4,0.6*32
$GPGSA,A,3,05,07,09,19,21,22,36,40,45,60,,,0.7,0.4,0.6*31
$GPGST,064522.00,1.862,0.501,0.327,10.485,0.496,0.335,0.814*64
$GPGBS,064522.00,3.093,2.189,5.458,72,0.0001,5.184,6.055*55
$GPGRS,064522.00,1,-0.1,-0.1,0.3,0.0,0.4,-0.2,-0.0,-0.1,,,,*60
$GPGRS,064522.00,1,-3.8,-0.6,5.2,2.4,2.7,-3.5,1.0,-3.2,,,,*46
$GPGRS,064522.00,1,-0.1,0.8,-0.5,-0.4,0.0,0.7,0.2,-0.1,0.1,-0.3,,*6A
$GPGRS,064522.00,1,1.6,2.4,0.5,-2.5,0.0,-0.4,-0.1,0.7,-0.1,-2.1,,*67
$GPGSV,5,1,20,30,85,201,51,09,21,102,40,14,27,164,44,11,14,230,41*79
$GPGSV,5,2,20,13,30,285,44,05,46,300,47,07,55,060,47,20,59,241,48*72
$GPGSV,5,3,20,18,03,341,38,27,04,041,35,08,05,072,37,36,35,170,45*70
$GPGSV,5,4,20,58,13,245,36,40,24,133,36,34,31,208,44,49,34,195,44*7D
$GPGSV,5,5,20,57,07,112,36,41,07,108,35,61,03,257,38*4B
$GLGSV,3,1,09,72,74,069,51,81,14,333,46,88,10,282,43,73,31,038,47*6E
$GLGSV,3,2,09,71,27,116,48,75,39,187,50,65,36,315,46,74,70,086,46*6C
$GLGSV,3,3,09,82,01,015,*53
$GAGSV,3,1,11,03,62,298,48,31,16,037,38,13,19,318,40,08,12,284,39*63
$GAGSV,3,2,11,15,27,263,42,25,31,154,44,24,44,088,45,16,43,126,*6E
$GAGSV,3,3,11,05,59,086,48,09,08,098,37,34,09,214,39*54
$GBGSV,6,1,22,22,70,136,52,46,16,045,,10,10,114,,58,12,039,*6C
$GBGSV,6,2,22,19,16,129,42,40,12,072,41,09,19,058,38,05,21,129,39*6A
$GBGSV,6,3,22,07,14,080,38,26,42,182,,50,28,305,,45,51,190,50*67
$GBGSV,6,4,22,21,53,304,50,36,63,081,50,06,04,059,35,42,05,308,*62
$GBGSV,6,5,22,43,01,317,,28,05,328,,16,02,059,34,02,05,108,35*6B
$GBGSV,6,6,22,11,03,297,35,60,07,112,40*65
$GPGGA,064522.00,,,,,0,00,,,M,,M,,*4F
$PTNL,GGK,064522.00,010125,4742.1603340,N,01618.1000170,E,1,36,0.7,EHT751.2923,M*49
$GPGGQ,064522.00,010125,4742.1603340,N,01618.1000170,E,1,36,1.010,708.0857,M*3C
$GPGFA,064522.00,4.764,6.675,0.501,0.327,10.485,0.814,,VVV*30
$GPLLK,064522.00,010125,,M,,M,1,36,0.8,,M*01
$GNGMP,064522.00,,,,,DAAA,36,0.4,,,,*50
$GPGMP,064522.00,,,,,,08,,,,2.4,136*70
$GLGMP,064522.00,,,,,,08,,,,,*70
$GAGMP,064522.00,,,,,,10,,,,,*74
$GBGMP,064522.00,,,,,,10,,,,,*77
$PSSN,SNC,[0,283540000,2347]*4C
$GPZDA,064527.00,01,01,2025,,*61
$GPDTM,W84,,00.0000000,N,00.0000000,E,00.0000000,W84*5F
$PSSN,TFM,064527.00,,,,*6D
$GPRMC,064527.00,A,4742.1603320,N,01618.1000164,E,0.0,,010125,5.1,E,D*13
$GPGLL,4742.1603320,N,01618.1000164,E,064527.00,A,D*62
$GPGGA,064527.00,4742.1603320,N,01618.1000164,E,2,36,0.4,708.0910,M,43.2066,M,2.9,0136*43
$GNGNS,064527.00,4742.1603320,N,01618.1000164,E,DAAA,36,0.4,708.0910,43.2066,,*50
$GPGNS,064527.00,,,,,,08,,,,2.9,136*78
$GLGNS,064527.00,,,,,,08,,,,,*75
$GAGNS,064527.00,,,,,,10,,,,,*71
$GBGNS,064527.00,,,,,,10,,,,,*72
$GPLLQ,064527.00,010125,,M,,M,1,36,1.019,,M*1F
$GPVTG,,T,,M,0.00,N,0.01,K,D*27
$GPHDT,,T*1B
$GPTHS,,V*0E
$GPROT,,V*08
$PSSN,HRP,064527.00,010125,,,,,,,00,0,,*63
$PTNL,AVR,064527.00,,Yaw,,Tilt,,,,0,,00*35
$GPGSA,A,3,05,07,09,11,13,14,20,30,,,,,0.7,0.4,0.6*3A
$GPGSA,A,3,65,71,72,73,74,75,81,88,,,,,0.7,0.4,0.6*3B
$GPGSA,A,3,03,05,08,09,13,15,24,25,31,34,,,0.7,0.4,0.6*32
$GPGSA,A,3,05,07,09,19,21,22,36,40,45,60,,,0.7,0.4,0.6*31
$GPGST,064527.00,1.787,0.510,0.332,10.611,0.505,0.340,0.818*6B
$GPGBS,064527.00,3.124,2.232,5.588,72,0.0001,4.686,6.055*56
$GPGRS,064527.00,1,-0.5,0.1,0.1,0.4,0.6,-0.6,0.0,0.0,,,,*4D
$GPGRS,064527.00,1,-4.6,-1.3,4.7,2.3,2.1,-3.4,0.9,-2.1,,,,*40
$GPGRS,064527.00,1,-0.1,0.6,-0.7,-0.5,-0.2,0.5,0.4,-0.1,0.4,-0.3,,*4C
$GPGRS,064527.00,1,1.8,2.4,0.6,-2.3,-0.0,-0.4,-0.1,0.6,0.1,-1.9,,*63
$GPGSV,5,1,20,30,85,201,51,09,21,102,40,14,27,164,44,11,14,230,42*7A
$GPGSV,5,2,20,13,30,285,44,05,46,300,47,07,55,060,47,20,59,241,48*72
$GPGSV,5,3,20,18,03,341,37,27,04,041,36,08,05,072,37,36,35,170,45*7C
$GPGSV,5,4,20,58,13,245,37,40,24,133,36,34,31,208,44,49,34,195,45*7D
$GPGSV,5,5,20,57,07,112,37,41,07,108,35,61,03,257,38*4A
$GLGSV,3,1,09,72,74,069,51,81,14,333,46,88,10,282,44,73,31,038,46*68
$GLGSV,3,2,09,71,27,116,48,75,39,187,50,65,36,315,46,74,70,086,46*6C
$GLGSV,3,3,09,82,01,015,*53
$GAGSV,3,1,11,03,62,298,48,31,16,037,39,13,19,318,40,08,12,284,39*62
$GAGSV,3,2,11,15,27,263,42,25,31,154,44,24,44,088,46,16,43,126,*6D
$GAGSV,3,3,11,05,59,086,48,09,08,098,37,34,09,214,39*54
$GBGSV,6,1,22,22,70,136,52,46,16,045,,10,10,114,,58,12,039,*6C
$GBGSV,6,2,22,19,16,129,43,40,12,072,41,09,19,058,38,05,21,129,39*6B
$GBGSV,6,3,22,07,14,080,38,26,42,182,,50,28,305,,45,51,190,50*67
$GBGSV,6,4,22,21,53,304,50,36,63,081,50,06,04,059,35,42,05,308,*62
$GBGSV,6,5,22,43,01,317,,28,05,328,,16,02,059,34,02,05,108,35*6B
$GBGSV,6,6,22,11,03,297,35,60,07,112,40*65
$GPGGA,064527.00,,,,,0,00,,,M,,M,,*4A
$PTNL,GGK,064527.00,010125,4742.1603320,N,01618.1000164,E,1,36,0.7,EHT751.2976,M*4F
$GPGGQ,064527.00,010125,4742.1603320,N,01618.1000164,E,1,36,1.019,708.0910,M*31
$GPGFA,064527.00,4.845,6.706,0.510,0.332,10.611,0.818,,VVV*3B
$GPLLK,064527.00,010125,,M,,M,1,36,0.8,,M*04
$GNGMP,064527.00,,,,,DAAA,36,0.4,,,,*55
$GPGMP,064527.00,,,,,,08,,,,2.9,136*78
$GLGMP,064527.00,,,,,,08,,,,,*75
$GAGMP,064527.00,,,,,,10,,,,,*71
$GBGMP,064527.00,,,,,,10,,,,,*72
$PSSN,SNC,[0,283545000,2347]*49
$GPZDA,064532.00,01,01,2025,,*65
$GPDTM,W84,,00.0000000,N,00.0000000,E,00.0000000,W84*5F
$PSSN,TFM,064532.00,,,,*69
$GPRMC,064532.00,A,4742.1603284,N,01618.1000176,E,0.0,,010125,5.1,E,D*1B
$GPGLL,4742.1603284,N,01618.1000176,E,064532.00,A,D*6A
$GPGGA,064532.00,4742.1603284,N,01618.1000176,E,2,36,0.4,708.0898,M,43.2066,M,3.4,0136*46
$GNGNS,064532.00,4742.1603284,N,01618.1000176,E,DAAA,36,0.4,708.0898,43.2066,,*59
$GPGNS,064532.00,,,,,,08,,,,3.4,136*70
$GLGNS,064532.00,,,,,,08,,,,,*71
$GAGNS,064532.00,,,,,,10,,,,,*75
$GBGNS,064532.00,,,,,,10,,,,,*76
$GPLLQ,064532.00,010125,,M,,M,1,36,1.018,,M*1A
$GPVTG,,T,,M,0.00,N,0.00,K,D*26
$GPHDT,,T*1B
$GPTHS,,V*0E
$GPROT,,V*08
$PSSN,HRP,064532.00,010125,,,,,,,00,0,,*67
$PTNL,AVR,064532.00,,Yaw,,Tilt,,,,0,,00*31
$GPGSA,A,3,05,07,09,11,13,14,20,30,,,,,0.7,0.4,0.6*3A
$GPGSA,A,3,65,71,72,73,74,75,81,88,,,,,0.7,0.4,0.6*3B
$GPGSA,A,3,03,05,08,09,13,15,24,25,31,34,,,0.7,0.4,0.6*32
$GPGSA,A,3,05,07,09,19,21,22,36,40,45,60,,,0.7,0.4,0.6*31
$GPGST,064532.00,1.828,0.515,0.337,10.341,0.510,0.344,0.811*6C
$GPGBS,064532.00,3.116,2.237,5.402,13,0.0001,0.646,0.823*55
$GPGRS,064532.00,1,-0.2,-0.1,0.7,-0.0,0.6,-0.7,0.1,-0.1,,,,*60
$GPGRS,064532.00,1,-4.2,-1.8,4.6,1.8,2.5,-3.3,0.7,-3.1,,,,*4E
$GPGRS,064532.00,1,-0.2,0.6,-0.7,-0.6,-0.4,0.6,0.5,-0.2,0.7,-0.1,,*4E
$GPGRS,064532.00,1,1.7,2.6,0.9,-2.2,-0.1,-0.3,-0.0,0.5,-0.0,-2.0,,*46
$GPGSV,5,1,20,30,85,200,51,09,21,102,40,11,14,230,41,14,27,164,44*78
$GPGSV,5,2,20,13,30,285,44,05,46,300,47,07,55,059,47,20,59,241,48*78
$GPGSV,5,3,20,18,03,341,36,27,04,041,36,08,05,072,37,36,35,170,45*7D
$GPGSV,5,4,20,58,13,245,37,40,24,133,36,34,31,208,44,49,34,195,45*7D
$GPGSV,5,5,20,57,07,112,37,41,07,108,35,61,03,257,38*4A
$GLGSV,3,1,09,72,74,069,51,81,14,333,46,88,10,282,44,73,31,038,46*68
$GLGSV,3,2,09,71,27,116,47,75,39,187,50,65,36,315,46,74,70,086,46*63
$GLGSV,3,3,09,82,01,015,*53
$GAGSV,3,1,11,03,62,298,48,31,16,037,39,13,19,318,40,08,12,284,39*62
$GAGSV,3,2,11,15,27,263,43,25,31,154,44,24,44,088,46,16,43,126,*6C
$GAGSV,3,3,11,05,59,086,48,09,08,098,37,34,09,214,38*55
$GBGSV,6,1,22,22,70,136,52,46,16,045,,10,10,114,,58,12,039,*6C
$GBGSV,6,2,22,19,16,129,43,40,12,072,41,09,19,058,38,05,21,129,39*6B
$GBGSV,6,3,22,07,14,080,39,26,42,182,,50,29,305,,45,51,190,50*67
$GBGSV,6,4,22,21,53,304,50,36,63,080,50,06,04,059,36,42,05,308,*60
$GBGSV,6,5,22,43,01,317,,28,05,328,,16,02,059,34,02,05,108,35*6B
$GBGSV,6,6,22,11,03,297,35,60,07,112,40*65
$GPGGA,064532.00,,,,,0,00,,,M,,M,,*4E
$PTNL,GGK,064532.00,010125,4742.1603284,N,01618.1000176,E,1,36,0.7,EHT751.2964,M*44
$GPGGQ,064532.00,010125,4742.1603284,N,01618.1000176,E,1,36,1.018,708.0898,M*39
$GPGFA,064532.00,4.893,6.651,0.515,0.337,10.341,0.811,,VVV*3E
$GPLLK,064532.00,010125,,M,,M,1,36,0.8,,M*00
$GNGMP,064532.00,,,,,DAAA,36,0.4,,,,*51
$GPGMP,064532.00,,,,,,08,,,,3.4,136*70
$GLGMP,064532.00,,,,,,08,,,,,*71
$GAGMP,064532.00,,,,,,10,,,,,*75
$GBGMP,064532.00,,,,,,10,,,,,*76
$PSSN,SNC,[0,283550000,2347]*4D
$GPZDA,064537.00,01,01,2025,,*60
$GPDTM,W84,,00.0000000,N,00.0000000,E,00.0000000,W84*5F
$PSSN,TFM,064537.00,,,,*6C
$GPRMC,064537.00,A,4742.1603261,N,01618.1000135,E,0.0,,010125,5.1,E,D*12
$GPGLL,4742.1603261,N,01618.1000135,E,064537.00,A,D*63
$GPGGA,064537.00,4742.1603261,N,01618.1000135,E,2,36,0.4,708.0946,M,43.2066,M,1.4,0136*4F
$GNGNS,064537.00,4742.1603261,N,01618.1000135,E,DAAA,36,0.4,708.0946,43.2066,,*52
$GPGNS,064537.00,,,,,,08,,,,1.4,136*77
$GLGNS,064537.00,,,,,,08,,,,,*74
$GAGNS,064537.00,,,,,,10,,,,,*70
$GBGNS,064537.00,,,,,,10,,,,,*73
$GPLLQ,064537.00,010125,,M,,M,1,36,1.014,,M*13
$GPVTG,,T,,M,0.01,N,0.01,K,D*26
$GPHDT,,T*1B
$GPTHS,,V*0E
$GPROT,,V*08
$PSSN,HRP,064537.00,010125,,,,,,,00,0,,*62
$PTNL,AVR,064537.00,,Yaw,,Tilt,,,,0,,00*34
$GPGSA,A,3,05,07,09,11,13,14,20,30,,,,,0.7,0.4,0.6*3A
$GPGSA,A,3,65,71,72,73,74,75,81,88,,,,,0.7,0.4,0.6*3B
$GPGSA,A,3,03,05,08,09,13,15,24,25,31,34,,,0.7,0.4,0.6*32
$GPGSA,A,3,05,07,09,19,21,22,36,40,45,60,,,0.7,0.4,0.6*31
$GPGST,064537.00,1.827,0.508,0.334,10.006,0.504,0.340,0.812*6B
$GPGBS,064537.00,3.046,2.146,5.386,72,0.0001,4.999,6.055*5B
$GPGRS,064537.00,1,-0.3,0.2,0.7,-0.6,0.3,-0.3,-0.1,0.0,,,,*4C
$GPGRS,064537.00,1,-3.6,-1.9,5.0,1.8,2.1,-2.9,0.1,-3.5,,,,*43
$GPGRS,064537.00,1,-0.1,0.6,-0.6,-0.8,-0.4,0.5,0.2,-0.1,0.9,-0.2,,*4D
$GPGRS,064537.00,1,1.7,3.0,1.2,-2.1,-0.1,-0.4,-0.0,0.1,-0.4,-2.2,,*48
$GPGSV,5,1,20,30,85,200,51,09,21,102,41,11,13,230,41,14,27,164,45*7F
$GPGSV,5,2,20,13,30,285,44,05,46,300,47,07,54,059,47,20,59,241,48*79
$GPGSV,5,3,20,18,03,341,37,27,04,041,37,08,05,072,37,36,35,170,45*7D
$GPGSV,5,4,20,58,13,245,37,40,24,133,36,34,31,208,44,49,34,195,44*7C
$GPGSV,5,5,20,57,07,112,36,41,07,108,35,61,03,257,38*4B
$GLGSV,3,1,09,72,74,070,50,81,14,333,45,88,10,282,44,73,31,038,46*62
$GLGSV,3,2,09,71,27,116,47,75,39,187,50,65,36,316,46,74,70,086,46*60
$GLGSV,3,3,09,82,01,015,*53
$GAGSV,3,1,11,03,62,298,48,31,16,037,40,13,19,318,40,08,12,284,39*6C
$GAGSV,3,2,11,15,27,262,43,25,31,154,44,24,44,088,46,16,43,126,*6D
$GAGSV,3,3,11,05,59,086,48,09,08,098,37,34,08,214,38*54
$GBGSV,6,1,22,22,70,136,52,46,16,045,,10,10,114,,58,12,039,*6C
$GBGSV,6,2,22,19,16,129,43,40,12,072,41,09,19,058,38,05,21,129,39*6B
$GBGSV,6,3,22,07,14,080,39,26,42,182,,50,29,305,,45,51,190,50*67
$GBGSV,6,4,22,21,53,304,50,36,63,080,50,06,04,059,36,42,05,308,*60
$GBGSV,6,5,22,43,01,317,,28,05,328,,16,02,059,35,02,05,108,34*6B
$GBGSV,6,6,22,11,03,297,35,60,07,112,40*65
$GPGGA,064537.00,,,,,0,00,,,M,,M,,*4B
$PTNL,GGK,064537.00,010125,4742.1603261,N,01618.1000135,E,1,36,0.7,EHT751.3011,M*47
$GPGGQ,064537.00,010125,4742.1603261,N,01618.1000135,E,1,36,1.014,708.0946,M*3E
$GPGFA,064537.00,4.833,6.655,0.508,0.334,10.006,0.812,,VVV*39
$GPLLK,064537.00,010125,,M,,M,1,36,0.8,,M*05
$GNGMP,064537.00,,,,,DAAA,36,0.4,,,,*54
$GPGMP,064537.00,,,,,,08,,,,1.4,136*77
$GLGMP,064537.00,,,,,,08,,,,,*74
$GAGMP,064537.00,,,,,,10,,,,,*70
$GBGMP,064537.00,,,,,,10,,,,,*73
$PSSN,SNC,[0,283555000,2347]*48
$GPZDA,064542.00,01,01,2025,,*62
$GPDTM,W84,,00.0000000,N,00.0000000,E,00.0000000,W84*5F
$PSSN,TFM,064542.00,,,,*6E
$GPRMC,064542.00,A,4742.1603228,N,01618.1000100,E,0.0,,010125,5.1,E,D*1B
$GPGLL,4742.1603228,N,01618.1000100,E,064542.00,A,D*6A
$GPGGA,064542.00,4742.1603228,N,01618.1000100,E,2,36,0.4,708.0930,M,43.2066,M,2.4,0136*44
$GNGNS,064542.00,4742.1603228,N,01618.1000100,E,DAAA,36,0.4,708.0930,43.2066,,*5A
$GPGNS,064542.00,,,,,,08,,,,2.4,136*76
$GLGNS,064542.00,,,,,,08,,,,,*76
$GAGNS,064542.00,,,,,,10,,,,,*72
$GBGNS,064542.00,,,,,,10,,,,,*71
$GPLLQ,064542.00,010125,,M,,M,1,36,1.011,,M*14
$GPVTG,,T,,M,0.00,N,0.01,K,D*27
$GPHDT,,T*1B
$GPTHS,,V*0E
$GPROT,,V*08
$PSSN,HRP,064542.00,010125,,,,,,,00,0,,*60
$PTNL,AVR,064542.00,,Yaw,,Tilt,,,,0,,00*36
$GPGSA,A,3,05,07,09,11,13,14,20,30,,,,,0.7,0.4,0.6*3A
$GPGSA,A,3,65,71,72,73,74,75,81,88,,,,,0.7,0.4,0.6*3B
$GPGSA,A,3,03,05,08,09,13,15,24,25,31,34,,,0.7,0.4,0.6*32
$GPGSA,A,3,05,07,09,19,21,22,36,40,45,60,,,0.7,0.4,0.6*31
$GPGST,064542.00,1.946,0.501,0.328,10.425,0.496,0.335,0.815*61
$GPGBS,064542.00,3.093,2.181,5.458,72,0.0001,4.990,6.055*57
$GPGRS,064542.00,1,-0.1,0.2,0.5,-0.6,0.5,-0.3,0.0,-0.1,,,,*48
$GPGRS,064542.00,1,-3.6,-1.1,5.0,2.8,2.9,-3.2,-0.8,-3.7,,,,*6E
$GPGRS,064542.00,1,-0.0,0.7,-0.3,-0.9,-0.3,0.5,0.6,0.0,0.2,0.0,,*40
$GPGRS,064542.00,1,1.6,3.7,1.5,-2.0,-0.1,-0.4,0.1,0.1,-0.1,-2.0,,*61
$GPGSV,5,1,20,30,85,200,51,09,21,102,41,11,13,230,41,14,27,164,45*7F
$GPGSV,5,2,20,13,30,285,43,05,46,300,47,07,54,059,47,20,59,241,48*7E
$GPGSV,5,3,20,18,03,341,38,27,04,041,36,08,05,072,38,36,35,170,45*7C
$GPGSV,5,4,20,58,13,245,37,40,24,133,36,34,31,208,44,49,34,195,45*7D
$GPGSV,5,5,20,57,07,112,37,41,07,108,35,61,03,257,38*4A
$GLGSV,3,1,09,72,74,070,50,81,14,333,45,88,10,282,44,73,31,038,46*62
$GLGSV,3,2,09,71,27,116,47,75,39,187,50,65,36,316,47,74,70,086,46*61
$GLGSV,3,3,09,82,01,015,*53
$GAGSV,3,1,11,03,62,298,48,31,16,037,39,13,19,318,40,08,12,284,39*62
$GAGSV,3,2,11,15,27,262,42,25,31,154,44,24,44,088,46,16,43,126,*6C
$GAGSV,3,3,11,05,59,086,48,09,08,098,37,34,08,214,38*54
$GBGSV,6,1,22,22,70,136,52,46,16,045,,10,10,114,,58,12,039,*6C
$GBGSV,6,2,22,19,16,129,42,40,12,072,40,09,19,058,38,05,21,129,39*6B
$GBGSV,6,3,22,07,14,080,39,26,42,182,,50,29,306,,45,51,190,50*64
$GBGSV,6,4,22,21,53,304,50,36,63,080,50,06,04,059,36,42,05,308,*60
$GBGSV,6,5,22,43,01,317,,28,05,328,,16,02,059,35,02,05,108,35*6A
$GBGSV,6,6,22,11,03,297,35,60,07,112,40*65
$GPGGA,064542.00,,,,,0,00,,,M,,M,,*49
$PTNL,GGK,064542.00,010125,4742.1603228,N,01618.1000100,E,1,36,0.7,EHT751.2996,M*49
$GPGGQ,064542.00,010125,4742.1603228,N,01618.1000100,E,1,36,1.011,708.0930,M*33
$GPGFA,064542.00,4.759,6.680,0.501,0.328,10.425,0.815,,VVV*36
$GPLLK,064542.00,010125,,M,,M,1,36,0.8,,M*07
$GNGMP,064542.00,,,,,DAAA,36,0.4,,,,*56
$GPGMP,064542.00,,,,,,08,,,,2.4,136*76
$GLGMP,064542.00,,,,,,08,,,,,*76
$GAGMP,064542.00,,,,,,10,,,,,*72
$GBGMP,064542.00,,,,,,10,,,,,*71
$PSSN,SNC,[0,283560000,2347]*4E
$GPZDA,064547.00,01,01,2025,,*67
$GPDTM,W84,,00.0000000,N,00.0000000,E,00.0000000,W84*5F
$PSSN,TFM,064547.00,,,,*6B
$GPRMC,064547.00,A,4742.1603187,N,01618.1000097,E,0.0,,010125,5.1,E,D*17
$GPGLL,4742.1603187,N,01618.1000097,E,064547.00,A,D*66
$GPGGA,064547.00,4742.1603187,N,01618.1000097,E,2,36,0.4,708.0925,M,43.2066,M,2.9,0136*41
$GNGNS,064547.00,4742.1603187,N,01618.1000097,E,DAAA,36,0.4,708.0925,43.2066,,*52
$GPGNS,064547.00,,,,,,08,,,,2.9,136*7E
$GLGNS,064547.00,,,,,,08,,,,,*73
$GAGNS,064547.00,,,,,,10,,,,,*77
$GBGNS,064547.00,,,,,,10,,,,,*74
$GPLLQ,064547.00,010125,,M,,M,1,36,1.019,,M*19
$GPVTG,,T,,M,0.00,N,0.01,K,D*27
$GPHDT,,T*1B
$GPTHS,,V*0E
$GPROT,,V*08
$PSSN,HRP,064547.00,010125,,,,,,,00,0,,*65
$PTNL,AVR,064547.00,,Yaw,,Tilt,,,,0,,00*33
$GPGSA,A,3,05,07,09,11,13,14,20,30,,,,,0.7,0.4,0.6*3A
$GPGSA,A,3,65,71,72,73,74,75,81,88,,,,,0.7,0.4,0.6*3B
$GPGSA,A,3,03,05,08,09,13,15,24,25,31,34,,,0.7,0.4,0.6*32
$GPGSA,A,3,05,07,09,19,21,22,36,40,45,60,,,0.7,0.4,0.6*31
$GPGST,064547.00,1.905,0.509,0.332,10.577,0.504,0.340,0.818*63
$GPGBS,064547.00,3.124,2.224,5.588,13,0.0001,0.703,0.805*53
$GPGRS,064547.00,1,-0.1,0.1,0.3,-0.6,0.7,-0.6,0.1,-0.1,,,,*4E
$GPGRS,064547.00,1,-3.9,-0.9,5.0,2.2,3.0,-2.9,-0.5,-3.4,,,,*6B
$GPGRS,064547.00,1,0.0,0.8,-0.6,-0.3,-0.4,0.8,0.5,0.0,-0.2,0.1,,*4D
$GPGRS,064547.00,1,1.6,3.1,2.2,-2.1,-0.3,-0.4,-0.1,0.4,0.1,-2.0,,*60
$GPGSV,5,1,20,30,85,200,51,09,21,102,40,11,13,230,41,14,27,164,44*7F
$GPGSV,5,2,20,13,30,285,44,05,46,300,47,07,54,059,47,20,59,241,48*79
$GPGSV,5,3,20,18,03,341,39,27,04,041,36,08,05,072,38,36,35,170,45*7D
$GPGSV,5,4,20,58,13,245,37,40,24,133,36,34,31,208,44,49,34,195,45*7D
$GPGSV,5,5,20,57,07,112,37,41,07,108,35,61,03,257,38*4A
$GLGSV,3,1,09,72,74,070,50,81,14,333,44,88,10,282,44,73,31,038,46*63
$GLGSV,3,2,09,71,27,116,47,75,39,187,50,65,36,316,46,74,70,085,46*63
$GLGSV,3,3,09,82,01,015,*53
$GAGSV,3,1,11,03,62,298,48,31,16,037,39,13,19,318,40,08,12,284,40*6C
$GAGSV,3,2,11,15,27,262,42,25,31,154,45,24,44,088,46,16,43,126,*6D
$GAGSV,3,3,11,05,59,086,48,09,08,098,36,34,08,214,38*55
$GBGSV,6,1,22,22,70,136,52,46,16,045,,10,10,114,,58,12,039,*6C
$GBGSV,6,2,22,19,16,130,42,40,12,072,40,09,19,058,39,05,21,129,39*62
$GBGSV,6,3,22,07,14,080,39,26,42,182,,50,29,306,,45,51,190,50*64
$GBGSV,6,4,22,21,53,304,50,36,62,080,51,06,04,059,36,42,05,308,*60
$GBGSV,6,5,22,43,01,317,,28,05,328,,16,02,059,34,02,05,108,34*6A
$GBGSV,6,6,22,11,03,297,34,60,07,112,40*64
$GPGGA,064547.00,,,,,0,00,,,M,,M,,*4C
$PTNL,GGK,064547.00,010125,4742.1603187,N,01618.1000097,E,1,36,0.7,EHT751.2991,M*42
$GPGGQ,064547.00,010125,4742.1603187,N,01618.1000097,E,1,36,1.019,708.0925,M*33
$GPGFA,064547.00,4.840,6.710,0.509,0.332,10.577,0.818,,VVV*34
$GPLLK,064547.00,010125,,M,,M,1,36,0.8,,M*02
$GNGMP,064547.00,,,,,DAAA,36,0.4,,,,*53
$GPGMP,064547.00,,,,,,08,,,,2.9,136*7E
$GLGMP,064547.00,,,,,,08,,,,,*73
$GAGMP,064547.00,,,,,,10,,,,,*77
$GBGMP,064547.00,,,,,,10,,,,,*74
$PSSN,SNC,[0,283565000,2347]*4B
$GPZDA,064552.00,01,01,2025,,*63
$GPDTM,W84,,00.0000000,N,00.0000000,E,00.0000000,W84*5F
$PSSN,TFM,064552.00,,,,*6F
$GPRMC,064552.00,A,4742.1603145,N,01618.1000108,E,0.0,,010125,5.1,E,D*1A
$GPGLL,4742.1603145,N,01618.1000108,E,064552.00,A,D*6B
$GPGGA,064552.00,4742.1603145,N,01618.1000108,E,2,36,0.4,708.0905,M,43.2066,M,3.4,0136*42
$GNGNS,064552.00,4742.1603145,N,01618.1000108,E,DAAA,36,0.4,708.0905,43.2066,,*5D
$GPGNS,064552.00,,,,,,08,,,,3.4,136*76
$GLGNS,064552.00,,,,,,08,,,,,*77
$GAGNS,064552.00,,,,,,10,,,,,*73
$GBGNS,064552.00,,,,,,10,,,,,*70
$GPLLQ,064552.00,010125,,M,,M,1,36,1.018,,M*1C
$GPVTG,,T,,M,0.00,N,0.01,K,D*27
$GPHDT,,T*1B
$GPTHS,,V*0E
$GPROT,,V*08
$PSSN,HRP,064552.00,010125,,,,,,,00,0,,*61
$PTNL,AVR,064552.00,,Yaw,,Tilt,,,,0,,00*37
$GPGSA,A,3,05,07,09,11,13,14,20,30,,,,,0.7,0.4,0.6*3A
$GPGSA,A,3,65,71,72,73,74,75,81,88,,,,,0.7,0.4,0.6*3B
$GPGSA,A,3,03,05,08,09,13,15,24,25,31,34,,,0.7,0.4,0.6*32
$GPGSA,A,3,05,07,09,19,21,22,36,40,45,60,,,0.7,0.4,0.6*31
$GPGST,064552.00,1.802,0.514,0.337,10.268,0.510,0.344,0.812*6A
$GPGBS,064552.00,3.117,2.230,5.403,72,0.0001,5.104,6.055*58
$GPGRS,064552.00,1,0.1,0.0,0.2,-0.2,0.3,-0.4,0.1,-0.1,,,,*65
$GPGRS,064552.00,1,-4.3,-0.8,5.1,1.4,2.8,-2.8,0.0,-2.5,,,,*47
$GPGRS,064552.00,1,-0.0,0.9,-1.0,-0.1,-0.3,0.8,0.3,-0.1,-0.5,-0.0,,*66
$GPGRS,064552.00,1,1.7,2.3,1.9,-2.2,-0.0,-0.5,-0.1,0.8,0.1,-2.0,,*63
$GPGSV,5,1,20,30,86,200,51,09,21,102,40,11,13,230,41,14,27,164,43*7B
$GPGSV,5,2,20,13,30,285,44,05,46,300,47,07,54,059,48,20,59,241,49*77
$GPGSV,5,3,20,18,03,341,39,27,04,040,36,08,05,072,38,36,35,170,45*7C
$GPGSV,5,4,20,58,13,245,36,40,24,133,36,34,31,208,43,49,34,195,44*7A
$GPGSV,5,5,20,57,07,112,36,41,07,108,35,61,03,257,38*4B
$GLGSV,3,1,09,72,74,070,50,81,14,333,45,88,10,282,44,73,31,038,46*62
$GLGSV,3,2,09,71,27,116,47,75,39,187,50,65,36,316,46,74,70,085,47*62
$GLGSV,3,3,09,82,01,015,*53
$GAGSV,3,1,11,03,62,298,48,31,16,037,39,13,19,318,40,08,12,284,39*62
$GAGSV,3,2,11,15,26,262,42,25,31,154,45,24,44,088,46,16,43,126,*6C
$GAGSV,3,3,11,05,59,086,48,09,08,098,37,34,08,214,38*54
$GBGSV,6,1,22,22,70,136,52,46,16,045,,10,10,114,,58,12,039,*6C
$GBGSV,6,2,22,19,16,130,43,40,12,072,40,09,19,058,38,05,21,129,39*62
$GBGSV,6,3,22,07,14,080,39,26,42,182,,50,29,306,,45,51,190,50*64
$GBGSV,6,4,22,21,53,304,50,36,62,080,50,06,04,060,36,42,05,308,*6B
$GBGSV,6,5,22,43,01,317,,28,05,328,,16,02,059,34,02,05,108,34*6A
$GBGSV,6,6,22,11,03,297,33,60,07,112,40*63
$GPGGA,064552.00,,,,,0,00,,,M,,M,,*48
$PTNL,GGK,064552.00,010125,4742.1603145,N,01618.1000108,E,1,36,0.7,EHT751.2970,M*40
$GPGGQ,064552.00,010125,4742.1603145,N,01618.1000108,E,1,36,1.018,708.0905,M*3D
$GPGFA,064552.00,4.890,6.657,0.514,0.337,10.268,0.812,,VVV*35
$GPLLK,064552.00,010125,,M,,M,1,36,0.8,,M*06
$GNGMP,064552.00,,,,,DAAA,36,0.4,,,,*57
$GPGMP,064552.00,,,,,,08,,,,3.4,136*76
$GLGMP,064552.00,,,,,,08,,,,,*77
$GAGMP,064552.00,,,,,,10,,,,,*73
$GBGMP,064552.00,,,,,,10,,,,,*70
$PSSN,SNC,[0,283570000,2347]*4F
$GPZDA,064557.00,01,01,2025,,*66
$GPDTM,W84,,00.0000000,N,00.0000000,E,00.0000000,W84*5F
$PSSN,TFM,064557.00,,,,*6A
$GPRMC,064557.00,A,4742.1603108,N,01618.1000122,E,0.0,,010125,5.1,E,D*1E
$GPGLL,4742.1603108,N,01618.1000122,E,064557.00,A,D*6F
$GPGGA,064557.00,4742.1603108,N,01618.1000122,E,2,36,0.4,708.0929,M,43.2066,M,1.4,0136*4A
$GNGNS,064557.00,4742.1603108,N,01618.1000122,E,DAAA,36,0.4,708.0929,43.2066,,*57
$GPGNS,064557.00,,,,,,08,,,,1.4,136*71
$GLGNS,064557.00,,,,,,08,,,,,*72
$GAGNS,064557.00,,,,,,10,,,,,*76
$GBGNS,064557.00,,,,,,10,,,,,*75
$GPLLQ,064557.00,010125,,M,,M,1,36,1.015,,M*14
$GPVTG,,T,,M,0.01,N,0.01,K,D*26
$GPHDT,,T*1B
$GPTHS,,V*0E
$GPROT,,V*08
$PSSN,HRP,064557.00,010125,,,,,,,00,0,,*64
$PTNL,AVR,064557.00,,Yaw,,Tilt,,,,0,,00*32
$GPGSA,A,3,05,07,09,11,13,14,20,30,,,,,0.7,0.4,0.6*3A
$GPGSA,A,3,65,71,72,73,74,75,81,88,,,,,0.7,0.4,0.6*3B
$GPGSA,A,3,03,05,08,09,13,15,24,25,31,34,,,0.7,0.4,0.6*32
$GPGSA,A,3,05,07,09,19,21,22,36,40,45,60,,,0.7,0.4,0.6*31
$GPGST,064557.00,1.846,0.508,0.334,9.925,0.504,0.340,0.812*5A
$GPGBS,064557.00,3.046,2.138,5.387,72,0.0001,5.717,6.055*5C
$GPGRS,064557.00,1,-0.3,0.1,0.3,-0.1,0.5,-0.5,0.0,-0.0,,,,*4B
$GPGRS,064557.00,1,-3.8,0.2,5.7,2.0,2.6,-3.1,0.8,-2.7,,,,*64
$GPGRS,064557.00,1,-0.1,0.6,-1.1,-0.3,0.2,1.0,0.2,-0.1,-0.4,0.3,,*65
$GPGRS,064557.00,1,1.8,2.4,1.9,-2.0,0.1,-0.3,-0.1,0.8,-0.0,-1.8,,*61
$GPGSV,5,1,20,30,86,200,51,09,21,102,41,11,13,230,41,14,27,164,43*7A
$GPGSV,5,2,20,13,30,285,44,05,46,300,47,07,54,059,48,20,59,241,48*76
$GPGSV,5,3,20,18,03,341,38,27,04,040,37,08,05,072,38,36,35,170,45*7C
$GPGSV,5,4,20,58,13,245,37,40,24,133,36,34,31,208,44,49,34,195,44*7C
$GPGSV,5,5,20,57,07,112,36,41,07,108,35,61,03,257,38*4B
$GLGSV,3,1,09,72,74,070,50,81,14,333,45,88,10,282,44,73,31,038,46*62
$GLGSV,3,2,09,71,27,116,47,75,39,187,50,65,36,316,46,74,70,085,47*62
$GLGSV,3,3,09,82,01,015,*53
$GAGSV,3,1,11,03,62,298,48,31,16,037,39,13,19,318,40,08,12,284,39*62
$GAGSV,3,2,11,15,26,262,42,25,31,154,45,24,44,088,46,16,43,126,*6C
$GAGSV,3,3,11,05,59,086,48,09,08,098,36,34,08,214,38*55
$GBGSV,6,1,22,22,70,136,52,46,16,045,,10,10,114,,58,12,039,*6C
$GBGSV,6,2,22,19,16,130,43,40,12,072,40,09,19,058,38,05,21,129,39*62
$GBGSV,6,3,22,07,14,080,38,26,42,182,,50,29,306,,45,51,190,50*65
$GBGSV,6,4,22,21,53,304,50,36,62,080,51,06,04,060,36,42,05,308,*6A
$GBGSV,6,5,22,43,01,317,,28,05,328,,16,02,059,34,02,05,108,34*6A
$GBGSV,6,6,22,11,03,297,36,60,07,112,40*66
$GPGGA,064557.00,,,,,0,00,,,M,,M,,*4D
$PTNL,GGK,064557.00,010125,4742.1603108,N,01618.1000122,E,1,36,0.7,EHT751.2994,M*4E
$GPGGQ,064557.00,010125,4742.1603108,N,01618.1000122,E,1,36,1.015,708.0929,M*3A
$GPGFA,064557.00,4.830,6.661,0.508,0.334,9.925,0.812,,VVV*0B
$GPLLK,064557.00,010125,,M,,M,1,36,0.8,,M*03
$GNGMP,064557.00,,,,,DAAA,36,0.4,,,,*52
$GPGMP,064557.00,,,,,,08,,,,1.4,136*71
$GLGMP,064557.00,,,,,,08,,,,,*72
$GAGMP,064557.00,,,,,,10,,,,,*76
$GBGMP,064557.00,,,,,,10,,,,,*75
$PSSN,SNC,[0,283575000,2347]*4A
$GPZDA,064602.00,01,01,2025,,*65
$GPDTM,W84,,00.0000000,N,00.0000000,E,00.0000000,W84*5F
$PSSN,TFM,064602.00,,,,*69
$GPRMC,064602.00,A,4742.1603109,N,01618.1000100,E,0.0,,010125,5.1,E,D*1C
$GPGLL,4742.1603109,N,01618.1000100,E,064602.00,A,D*6D
$GPGGA,064602.00,4742.1603109,N,01618.1000100,E,2,36,0.4,708.0953,M,43.2066,M,2.4,0136*46
$GNGNS,064602.00,4742.1603109,N,01618.1000100,E,DAAA,36,0.4,708.0953,43.2066,,*58
$GPGNS,064602.00,,,,,,08,,,,2.4,136*71
$GLGNS,064602.00,,,,,,08,,,,,*71
$GAGNS,064602.00,,,,,,10,,,,,*75
$GBGNS,064602.00,,,,,,10,,,,,*76
$GPLLQ,064602.00,010125,,M,,M,1,36,1.011,,M*13
$GPVTG,,T,,M,0.00,N,0.01,K,D*27
$GPHDT,,T*1B
$GPTHS,,V*0E
$GPROT,,V*08
$PSSN,HRP,064602.00,010125,,,,,,,00,0,,*67
$PTNL,AVR,064602.00,,Yaw,,Tilt,,,,0,,00*31
$GPGSA,A,3,05,07,09,11,13,14,20,30,,,,,0.7,0.4,0.6*3A
$GPGSA,A,3,65,71,72,73,74,75,81,88,,,,,0.7,0.4,0.6*3B
$GPGSA,A,3,03,05,08,09,13,15,24,25,31,34,,,0.7,0.4,0.6*32
$GPGSA,A,3,05,07,09,19,21,22,36,40,45,60,,,0.7,0.4,0.6*31
$GPGST,064602.00,1.764,0.500,0.328,10.370,0.496,0.335,0.815*6E
$GPGBS,064602.00,3.094,2.173,5.458,09,0.0001,0.940,1.074*5B
$GPGRS,064602.00,1,-0.5,-0.1,0.9,-0.1,0.4,-0.1,0.0,-0.1,,,,*6D
$GPGRS,064602.00,1,-3.2,-0.5,5.3,2.2,2.9,-2.9,-0.4,-3.2,,,,*62
$GPGRS,064602.00,1,-0.0,0.7,-0.6,-0.8,-0.0,0.8,0.2,-0.4,-0.1,0.1,,*4F
$GPGRS,064602.00,1,1.7,2.1,1.6,-1.6,-0.0,-0.5,-0.1,0.8,0.1,-1.7,,*6B
$GPGSV,5,1,20,30,86,199,51,09,21,102,41,11,13,230,42,14,27,164,43*7A
$GPGSV,5,2,20,13,30,285,44,05,46,299,47,07,54,059,48,20,59,241,48*77
$GPGSV,5,3,20,18,03,341,38,27,04,040,37,08,05,072,38,36,35,170,45*7C
$GPGSV,5,4,20,58,13,245,36,40,24,133,36,34,31,208,43,49,34,195,44*7A
$GPGSV,5,5,20,57,07,112,36,41,07,108,35,61,03,257,38*4B
$GLGSV,3,1,09,72,74,070,51,81,14,333,44,88,10,281,45,73,31,038,46*60
$GLGSV,3,2,09,71,27,116,47,75,39,187,50,65,36,316,46,74,70,085,47*62
$GLGSV,3,3,09,82,01,015,*53
$GAGSV,3,1,11,03,62,298,48,31,16,037,39,13,19,318,40,08,12,284,39*62
$GAGSV,3,2,11,15,26,262,42,25,31,154,44,24,44,088,46,16,43,126,*6D
$GAGSV,3,3,11,05,59,086,48,09,08,098,36,34,08,214,38*55
$GBGSV,6,1,22,22,70,136,52,46,16,045,,10,10,114,,58,12,039,*6C
$GBGSV,6,2,22,19,16,130,43,40,13,072,40,09,19,058,38,05,21,129,39*63
$GBGSV,6,3,22,07,14,080,38,26,42,182,,50,29,306,,45,51,190,50*65
$GBGSV,6,4,22,21,53,304,50,36,62,080,50,06,04,060,35,42,05,308,*68
$GBGSV,6,5,22,43,01,317,,28,05,328,,16,02,059,35,02,05,108,34*6B
$GBGSV,6,6,22,11,03,297,34,60,07,112,40*64
$GPGGA,064602.00,,,,,0,00,,,M,,M,,*4E
$PTNL,GGK,064602.00,010125,4742.1603109,N,01618.1000100,E,1,36,0.7,EHT751.3019,M*41
$GPGGQ,064602.00,010125,4742.1603109,N,01618.1000100,E,1,36,1.011,708.0953,M*31
$GPGFA,064602.00,4.755,6.685,0.500,0.328,10.370,0.815,,VVV*3E
$GPLLK,064602.00,010125,,M,,M,1,36,0.8,,M*00
$GNGMP,064602.00,,,,,DAAA,36,0.4,,,,*51
$GPGMP,064602.00,,,,,,08,,,,2.4,136*71
$GLGMP,064602.00,,,,,,08,,,,,*71
$GAGMP,064602.00,,,,,,10,,,,,*75
$GBGMP,064602.00,,,,,,10,,,,,*76
$PSSN,SNC,[0,283580000,2347]*40
$GPZDA,064607.00,01,01,2025,,*60
$GPDTM,W84,,00.0000000,N,00.0000000,E,00.0000000,W84*5F
$PSSN,TFM,064607.00,,,,*6C
$GPRMC,064607.00,A,4742.1603109,N,01618.1000058,E,0.0,,010125,5.1,E,D*15
$GPGLL,4742.1603109,N,01618.1000058,E,064607.00,A,D*64
$GPGGA,064607.00,4742.1603109,N,01618.1000058,E,2,36,0.4,708.0986,M,43.2066,M,2.9,0136*4A
$GNGNS,064607.00,4742.1603109,N,01618.1000058,E,DAAA,36,0.4,708.0986,43.2066,,*59
$GPGNS,064607.00,,,,,,08,,,,2.9,136*79
$GLGNS,064607.00,,,,,,08,,,,,*74
$GAGNS,064607.00,,,,,,10,,,,,*70
$GBGNS,064607.00,,,,,,10,,,,,*73
$GPLLQ,064607.00,010125,,M,,M,1,36,1.020,,M*14
$GPVTG,,T,,M,0.01,N,0.01,K,D*26
$GPHDT,,T*1B
$GPTHS,,V*0E
$GPROT,,V*08
$PSSN,HRP,064607.00,010125,,,,,,,00,0,,*62
$PTNL,AVR,064607.00,,Yaw,,Tilt,,,,0,,00*34
$GPGSA,A,3,05,07,09,11,13,14,20,30,,,,,0.7,0.4,0.6*3A
$GPGSA,A,3,65,71,72,73,74,75,81,88,,,,,0.7,0.4,0.6*3B
$GPGSA,A,3,03,05,08,09,13,15,24,25,31,34,,,0.7,0.4,0.6*32
$GPGSA,A,3,05,07,09,19,21,22,36,40,45,60,,,0.7,0.4,0.6*31
$GPGST,064607.00,1.787,0.509,0.333,10.501,0.504,0.340,0.819*61
$GPGBS,064607.00,3.126,2.217,5.588,72,0.0001,5.386,6.055*56
$GPGRS,064607.00,1,-0.3,-0.4,0.7,0.0,0.6,0.0,-0.1,-0.1,,,,*4B
$GPGRS,064607.00,1,-3.7,-0.8,5.4,2.5,2.5,-3.4,0.1,-2.9,,,,*4D
$GPGRS,064607.00,1,-0.1,0.9,-0.4,-0.2,0.2,0.8,-0.0,-0.3,-0.0,-0.1,,*66
$GPGRS,064607.00,1,1.6,1.7,0.7,-1.7,0.1,-0.4,-0.3,0.4,-0.2,-2.1,,*63
$GPGSV,5,1,20,30,86,199,51,09,21,102,41,11,13,230,41,14,27,164,43*79
$GPGSV,5,2,20,13,30,285,44,05,46,299,47,07,54,059,48,20,59,241,48*77
$GPGSV,5,3,20,18,03,341,37,27,04,040,37,08,05,071,38,36,35,170,45*70
$GPGSV,5,4,20,58,13,245,37,40,24,133,36,34,31,208,43,49,34,195,44*7B
$GPGSV,5,5,20,57,07,112,36,41,07,108,35,61,03,257,38*4B
$GLGSV,3,1,09,72,74,071,51,81,14,333,45,88,10,281,45,73,31,038,46*60
$GLGSV,3,2,09,71,27,116,47,75,39,187,50,65,36,316,46,74,70,085,47*62
$GLGSV,3,3,09,82,01,015,*53
$GAGSV,3,1,11,03,62,298,48,31,16,037,38,13,19,318,40,08,12,284,39*63
$GAGSV,3,2,11,15,26,262,43,25,31,154,44,24,44,088,46,16,43,126,*6C
$GAGSV,3,3,11,05,59,086,48,09,08,098,36,34,08,214,38*55
$GBGSV,6,1,22,22,70,136,53,46,16,045,,10,10,114,,58,11,039,*6E
$GBGSV,6,2,22,19,16,130,43,40,13,072,40,09,19,058,38,05,21,129,39*63
$GBGSV,6,3,22,07,14,080,38,26,42,182,,50,29,306,,45,51,190,50*65
$GBGSV,6,4,22,21,53,304,50,36,62,080,50,06,04,060,35,42,05,308,*68
$GBGSV,6,5,22,43,01,317,,28,05,327,,16,02,059,35,02,05,108,35*65
$GBGSV,6,6,22,11,03,297,36,60,07,112,40*66
$GPGGA,064607.00,,,,,0,00,,,M,,M,,*4B
$PTNL,GGK,064607.00,010125,4742.1603109,N,01618.1000058,E,1,36,0.7,EHT751.3051,M*44
$GPGGQ,064607.00,010125,4742.1603109,N,01618.1000058,E,1,36,1.020,708.0986,M*32
$GPGFA,064607.00,4.837,6.716,0.509,0.333,10.501,0.819,,VVV*34
$GPLLK,064607.00,010125,,M,,M,1,36,0.8,,M*05
$GNGMP,064607.00,,,,,DAAA,36,0.4,,,,*54
$GPGMP,064607.00,,,,,,08,,,,2.9,136*79
$GLGMP,064607.00,,,,,,08,,,,,*74
$GAGMP,064607.00,,,,,,10,,,,,*70
$GBGMP,064607.00,,,,,,10,,,,,*73
$PSSN,SNC,[0,283585000,2347]*45
$GPZDA,064612.00,01,01,2025,,*64
$GPDTM,W84,,00.0000000,N,00.0000000,E,00.0000000,W84*5F
$PSSN,TFM,064612.00,,,,*68
$GPRMC,064612.00,A,4742.1603120,N,01618.1000071,E,0.0,,010125,5.1,E,D*11
$GPGLL,4742.1603120,N,01618.1000071,E,064612.00,A,D*60
$GPGGA,064612.00,4742.1603120,N,01618.1000071,E,2,36,0.4,708.1013,M,43.2066,M,3.4,0136*46
$GNGNS,064612.00,4742.1603120,N,01618.1000071,E,DAAA,36,0.4,708.1013,43.2066,,*59
$GPGNS,064612.00,,,,,,08,,,,3.4,136*71
$GLGNS,064612.00,,,,,,08,,,,,*70
$GAGNS,064612.00,,,,,,10,,,,,*74
$GBGNS,064612.00,,,,,,10,,,,,*77
$GPLLQ,064612.00,010125,,M,,M,1,36,1.017,,M*14
$GPVTG,,T,,M,0.00,N,0.01,K,D*27
$GPHDT,,T*1B
$GPTHS,,V*0E
$GPROT,,V*08
$PSSN,HRP,064612.00,010125,,,,,,,00,0,,*66
$PTNL,AVR,064612.00,,Yaw,,Tilt,,,,0,,00*30
$GPGSA,A,3,05,07,09,11,13,14,20,30,,,,,0.7,0.4,0.6*3A
$GPGSA,A,3,65,71,72,73,74,75,81,88,,,,,0.7,0.4,0.6*3B
$GPGSA,A,3,03,05,08,09,13,15,24,25,31,34,,,0.7,0.4,0.6*32
$GPGSA,A,3,05,07,09,19,21,22,36,40,45,60,,,0.7,0.4,0.6*31
$GPGST,064612.00,1.783,0.514,0.336,10.046,0.509,0.343,0.811*68
$GPGBS,064612.00,3.120,2.223,5.395,72,0.0001,5.327,6.055*52
$GPGRS,064612.00,1,-0.0,-0.3,-0.0,-0.1,0.5,0.1,0.2,-0.2,,,,*62
$GPGRS,064612.00,1,-3.7,-1.1,5.3,1.8,2.7,-3.1,1.0,-3.1,,,,*46
$GPGRS,064612.00,1,-0.1,0.9,-0.6,-0.5,-0.0,0.6,0.3,-0.3,-0.6,-0.3,,*6C
$GPGRS,064612.00,1,2.2,1.4,0.5,-1.8,0.0,-0.2,-0.3,-0.1,-0.3,-2.1,,*40
$GPGSV,5,1,20,30,86,199,51,09,21,102,41,11,13,230,41,14,27,164,43*79
$GPGSV,5,2,20,13,30,285,44,05,46,299,47,07,54,059,48,20,59,241,48*77
$GPGSV,5,3,20,18,03,341,37,27,04,040,37,08,05,071,38,36,35,170,44*71
$GPGSV,5,4,20,58,13,245,36,40,24,133,36,34,31,208,43,49,34,195,44*7A
$GPGSV,5,5,20,57,07,112,36,41,07,108,35,61,03,257,38*4B
$GLGSV,3,1,09,72,74,071,51,81,14,333,44,88,10,281,44,73,31,038,46*60
$GLGSV,3,2,09,71,27,116,47,75,39,188,50,65,36,316,46,74,70,085,47*6D
$GLGSV,3,3,09,82,01,015,30*50
$GAGSV,3,1,11,03,62,298,48,31,16,037,38,13,19,318,40,08,12,284,39*63
$GAGSV,3,2,11,15,26,262,42,25,31,154,44,24,44,088,46,16,44,126,*6A
$GAGSV,3,3,11,05,59,086,47,09,08,098,36,34,08,214,38*5A
$GBGSV,6,1,22,22,69,136,52,46,16,045,,10,10,114,,58,11,039,*67
$GBGSV,6,2,22,19,16,130,43,40,13,072,40,09,19,058,37,05,21,129,39*6C
$GBGSV,6,3,22,07,14,080,37,26,42,182,,50,29,306,,45,51,190,50*6A
$GBGSV,6,4,22,21,53,304,50,36,62,080,50,06,04,060,35,42,05,308,*68
$GBGSV,6,5,22,43,01,317,,28,05,327,,16,02,059,34,02,05,108,34*65
$GBGSV,6,6,22,11,03,297,36,60,07,112,40*66
$GPGGA,064612.00,,,,,0,00,,,M,,M,,*4F
$PTNL,GGK,064612.00,010125,4742.1603120,N,01618.1000071,E,1,36,0.7,EHT751.3078,M*4B
$GPGGQ,064612.00,010125,4742.1603120,N,01618.1000071,E,1,36,1.017,708.1013,M*36
$GPGFA,064612.00,4.883,6.646,0.514,0.336,10.046,0.811,,VVV*3C
$GPLLK,064612.00,010125,,M,,M,1,36,0.8,,M*01
$GNGMP,064612.00,,,,,DAAA,36,0.4,,,,*50
$GPGMP,064612.00,,,,,,08,,,,3.4,136*71
$GLGMP,064612.00,,,,,,08,,,,,*70
$GAGMP,064612.00,,,,,,10,,,,,*74
$GBGMP,064612.00,,,,,,10,,,,,*77
$PSSN,SNC,[0,283590000,2347]*41
$GPZDA,064617.00,01,01,2025,,*61
$GPDTM,W84,,00.0000000,N,00.0000000,E,00.0000000,W84*5F
$PSSN,TFM,064617.00,,,,*6D
$GPRMC,064617.00,A,4742.1603139,N,01618.1000114,E,0.0,,010125,5.1,E,D*1E
$GPGLL,4742.1603139,N,01618.1000114,E,064617.00,A,D*6F
$GPGGA,064617.00,4742.1603139,N,01618.1000114,E,2,36,0.4,708.1055,M,43.2066,M,1.4,0136*49
$GNGNS,064617.00,4742.1603139,N,01618.1000114,E,DAAA,36,0.4,708.1055,43.2066,,*54
$GPGNS,064617.00,,,,,,08,,,,1.4,136*76
$GLGNS,064617.00,,,,,,08,,,,,*75
$GAGNS,064617.00,,,,,,10,,,,,*71
$GBGNS,064617.00,,,,,,10,,,,,*72
$GPLLQ,064617.00,010125,,M,,M,1,36,1.013,,M*15
$GPVTG,,T,,M,0.00,N,0.00,K,D*26
$GPHDT,,T*1B
$GPTHS,,V*0E
$GPROT,,V*08
$PSSN,HRP,064617.00,010125,,,,,,,00,0,,*63
$PTNL,AVR,064617.00,,Yaw,,Tilt,,,,0,,00*35
$GPGSA,A,3,05,07,09,11,13,14,20,30,,,,,0.7,0.4,0.6*3A
$GPGSA,A,3,65,71,72,73,74,75,81,88,,,,,0.7,0.4,0.6*3B
$GPGSA,A,3,03,05,08,09,13,15,24,25,31,34,,,0.7,0.4,0.6*32
$GPGSA,A,3,05,07,09,19,21,22,36,40,45,60,,,0.7,0.4,0.6*31
$GPGST,064617.00,1.785,0.507,0.333,9.712,0.503,0.339,0.811*55
$GPGBS,064617.00,3.051,2.131,5.378,72,0.0001,4.978,6.055*52
$GPGRS,064617.00,1,-0.4,-0.3,-0.0,0.3,0.4,0.6,0.2,-0.2,,,,*4A
$GPGRS,064617.00,1,-4.0,-0.7,5.0,2.3,2.7,-3.4,1.0,-3.0,,,,*4B
$GPGRS,064617.00,1,-0.1,0.6,-0.5,-0.8,-0.3,0.2,0.3,-0.3,-0.4,-0.5,,*6B
$GPGRS,064617.00,1,1.9,1.1,0.5,-1.9,-0.0,-0.5,-0.3,-0.4,-0.2,-2.2,,*64
$GPGSV,5,1,20,30,86,199,51,09,21,102,42,11,13,230,41,14,27,164,43*7A
$GPGSV,5,2,20,13,30,285,44,05,46,299,47,07,54,059,48,20,59,241,48*77
$GPGSV,5,3,20,18,03,341,38,27,04,040,37,08,05,071,37,36,35,170,44*71
$GPGSV,5,4,20,58,13,245,36,40,24,133,36,34,31,208,43,49,34,195,44*7A
$GPGSV,5,5,20,57,07,112,36,41,07,108,35,61,03,257,38*4B
$GLGSV,3,1,09,72,74,071,50,81,14,333,45,88,10,281,45,73,31,038,46*61
$GLGSV,3,2,09,71,27,116,48,75,39,188,49,65,36,316,46,74,70,085,47*6A
$GLGSV,3,3,09,82,01,015,28*59
$GAGSV,3,1,11,03,62,298,48,31,16,037,38,13,19,317,40,08,12,284,39*6C
$GAGSV,3,2,11,15,26,262,42,25,31,154,43,24,44,087,46,16,44,126,*62
$GAGSV,3,3,11,05,59,086,47,09,08,098,36,34,08,214,38*5A
$GBGSV,6,1,22,22,69,136,52,46,16,045,,10,10,114,,58,11,039,*67
$GBGSV,6,2,22,19,16,130,43,40,13,072,40,09,19,058,37,05,21,129,39*6C
$GBGSV,6,3,22,07,14,080,37,26,42,182,,50,29,306,,45,51,190,50*6A
$GBGSV,6,4,22,21,53,304,50,36,62,080,50,06,04,060,35,42,05,308,*68
$GBGSV,6,5,22,43,01,317,,28,05,327,,16,02,059,34,02,05,108,34*65
$GBGSV,6,6,22,11,03,297,34,60,07,112,40*64
$GPGGA,064617.00,,,,,0,00,,,M,,M,,*4A
$PTNL,GGK,064617.00,010125,4742.1603139,N,01618.1000114,E,1,36,0.7,EHT751.3121,M*49
$GPGGQ,064617.00,010125,4742.1603139,N,01618.1000114,E,1,36,1.013,708.1055,M*3F
$GPGFA,064617.00,4.823,6.650,0.507,0.333,9.712,0.811,,VVV*0D
$GPLLK,064617.00,010125,,M,,M,1,36,0.8,,M*04
$GNGMP,064617.00,,,,,DAAA,36,0.4,,,,*55
$GPGMP,064617.00,,,,,,08,,,,1.4,136*76
$GLGMP,064617.00,,,,,,08,,,,,*75
$GAGMP,064617.00,,,,,,10,,,,,*71
$GBGMP,064617.00,,,,,,10,,,,,*72
$PSSN,SNC,[0,283595000,2347]*44
$GPZDA,064622.00,01,01,2025,,*67
$GPDTM,W84,,00.0000000,N,00.0000000,E,00.0000000,W84*5F
$PSSN,TFM,064622.00,,,,*6B
$GPRMC,064622.00,A,4742.1603174,N,01618.1000115,E,0.0,,010125,5.1,E,D*10
$GPGLL,4742.1603174,N,01618.1000115,E,064622.00,A,D*61
$GPGGA,064622.00,4742.1603174,N,01618.1000115,E,2,36,0.4,708.1082,M,43.2066,M,2.4,0136*4E
$GNGNS,064622.00,4742.1603174,N,01618.1000115,E,DAAA,36,0.4,708.1082,43.2066,,*50
$GPGNS,064622.00,,,,,,08,,,,2.4,136*73
$GLGNS,064622.00,,,,,,08,,,,,*73
$GAGNS,064622.00,,,,,,10,,,,,*77
$GBGNS,064622.00,,,,,,10,,,,,*74
$GPLLQ,064622.00,010125,,M,,M,1,36,1.009,,M*18
$GPVTG,,T,,M,0.00,N,0.01,K,D*27
$GPHDT,,T*1B
$GPTHS,,V*0E
$GPROT,,V*08
$PSSN,HRP,064622.00,010125,,,,,,,00,0,,*65
$PTNL,AVR,064622.00,,Yaw,,Tilt,,,,0,,00*33
$GPGSA,A,3,05,07,09,11,13,14,20,30,,,,,0.7,0.4,0.6*3A
$GPGSA,A,3,65,71,72,73,74,75,81,88,,,,,0.7,0.4,0.6*3B
$GPGSA,A,3,03,05,08,09,13,15,24,25,31,34,,,0.7,0.4,0.6*32
$GPGSA,A,3,05,07,09,19,21,22,36,40,45,60,,,0.7,0.4,0.6*31
