$GPZDA,162942.00,01,01,2025,,*69
$GPDTM,W84,,00.0000000,N,00.0000000,E,00.0000000,W84*5F
$PSSN,TFM,162942.00,,,,*65
$GPRMC,162942.00,A,4742.1606420,N,01618.1002116,E,0.0,,010125,5.1,E,D*1E
$GPGLL,4742.1606420,N,01618.1002116,E,162942.00,A,D*6F
$GPGGA,162942.00,4742.1606420,N,01618.1002116,E,2,35,0.5,706.6489,M,43.2066,M,3.1,0136*40
$GNGNS,162942.00,4742.1606420,N,01618.1002116,E,DAAA,35,0.5,706.6489,43.2066,,*5A
$GPGNS,162942.00,,,,,,09,,,,3.1,136*78
$GLGNS,162942.00,,,,,,07,,,,,*72
$GAGNS,162942.00,,,,,,06,,,,,*7E
$GBGNS,162942.00,,,,,,13,,,,,*79
$GPLLQ,162942.00,010125,,M,,M,1,35,1.390,,M*16
$GPVTG,,T,,M,0.01,N,0.01,K,D*26
$GPHDT,,T*1B
$GPTHS,,V*0E
$GPROT,,V*08
$PSSN,HRP,162942.00,010125,,,,,,,00,0,,*6B
$PTNL,AVR,162942.00,,Yaw,,Tilt,,,,0,,00*3D
$GPGSA,A,3,05,16,18,20,25,26,28,29,31,,,,0.9,0.5,0.7*30
$GPGSA,A,3,72,78,79,80,81,82,88,,,,,,0.9,0.5,0.7*36
$GPGSA,A,3,13,15,21,27,30,34,,,,,,,0.9,0.5,0.7*3D
$GPGSA,A,3,05,08,11,12,13,23,25,34,37,38,43,44,0.9,0.5,0.7*3C
$GPGSA,A,3,60,,,,,,,,,,,,0.9,0.5,0.7*3F
$GPGST,162942.00,1.722,0.541,0.391,2.540,0.541,0.391,1.220*59
$GPGBS,162942.00,3.371,2.001,10.397,16,0.0001,-2.237,1.969*44
$GPGRS,162942.00,1,0.1,-2.2,0.2,0.4,0.0,0.0,0.2,-0.3,0.0,,,*6C
$GPGRS,162942.00,1,6.9,-1.8,-1.2,-2.7,0.1,-0.1,-1.9,,,,,*4F
$GPGRS,162942.00,1,0.3,0.0,-0.9,-0.2,0.1,-0.2,,,,,,*62
$GPGRS,162942.00,1,0.5,0.5,1.8,1.0,-0.7,-0.1,-0.4,-0.6,-2.3,-1.2,0.6,-0.3*62
$GPGRS,162942.00,1,-0.9,,,,,,,,,,,*4E
$GPGSV,6,1,21,29,71,050,49,16,11,301,38,20,19,048,39,25,41,129,46*70
$GPGSV,6,2,21,05,25,084,43,18,48,185,48,26,41,301,45,28,43,233,47*7C
$GPGSV,6,3,21,31,45,272,48,12,05,122,33,04,04,325,38,11,05,038,37*75
$GPGSV,6,4,21,36,35,170,45,58,13,245,36,40,23,133,37,34,31,208,43*7D
$GPGSV,6,5,21,49,34,195,45,57,07,111,38,41,07,108,34,61,03,257,38*73
$GPGSV,6,6,21*7A
$GLGSV,2,1,08,81,87,334,52,88,31,040,47,78,25,148,47,82,39,223,49*66
$GLGSV,2,2,08,80,41,321,51,79,79,169,52,71,05,335,44,72,08,020,37*60
$GAGSV,2,1,08,27,88,101,49,13,27,194,43,30,34,121,44,34,36,049,44*6E
$GAGSV,2,2,08,21,35,302,44,15,67,131,49,04,04,337,37,19,07,284,31*6F
$GBGSV,6,1,22,11,83,212,49,37,11,317,40,44,15,057,42,05,21,129,38*69
$GBGSV,6,2,22,38,30,055,44,13,36,080,44,25,53,181,50,08,35,070,42*6B
$GBGSV,6,3,22,28,45,217,,12,39,055,45,23,56,288,50,31,43,067,*68
$GBGSV,6,4,22,43,59,232,50,34,69,062,50,24,06,151,,22,04,052,40*6F
$GBGSV,6,5,22,10,04,088,35,02,06,107,34,27,01,225,,19,01,005,37*67
$GBGSV,6,6,22,56,09,071,,60,10,109,38*63
$GPGGA,162942.00,,,,,0,00,,,M,,M,,*42
$PTNL,GGK,162942.00,010125,4742.1606420,N,01618.1002116,E,1,35,0.9,EHT749.8554,M*40
$GPGGQ,162942.00,010125,4742.1606420,N,01618.1002116,E,1,35,1.390,706.6489,M*38
$GPGFA,162942.00,5.144,10.001,0.541,0.391,2.540,1.220,,VVV*34
$GPLLK,162942.00,010125,,M,,M,1,35,1.0,,M*06
$GNGMP,162942.00,,,,,DAAA,35,0.5,,,,*5F
$GPGMP,162942.00,,,,,,09,,,,3.1,136*78
$GLGMP,162942.00,,,,,,07,,,,,*72
$GAGMP,162942.00,,,,,,06,,,,,*7E
$GBGMP,162942.00,,,,,,13,,,,,*79
$PSSN,SNC,[0,318600000,2347]*48
$GPZDA,162947.00,01,01,2025,,*6C
$GPDTM,W84,,00.0000000,N,00.0000000,E,00.0000000,W84*5F
$PSSN,TFM,162947.00,,,,*60
$GPRMC,162947.00,A,4742.1606417,N,01618.1002093,E,0.0,,010125,5.1,E,D*13
$GPGLL,4742.1606417,N,01618.1002093,E,162947.00,A,D*62
$GPGGA,162947.00,4742.1606417,N,01618.1002093,E,2,35,0.5,706.6485,M,43.2066,M,2.8,0136*49
$GNGNS,162947.00,4742.1606417,N,01618.1002093,E,DAAA,35,0.5,706.6485,43.2066,,*5B
$GPGNS,162947.00,,,,,,09,,,,2.8,136*75
$GLGNS,162947.00,,,,,,07,,,,,*77
$GAGNS,162947.00,,,,,,06,,,,,*7B
$GBGNS,162947.00,,,,,,13,,,,,*7C
$GPLLQ,162947.00,010125,,M,,M,1,35,1.390,,M*13
$GPVTG,,T,,M,0.01,N,0.01,K,D*26
$GPHDT,,T*1B
$GPTHS,,V*0E
$GPROT,,V*08
$PSSN,HRP,162947.00,010125,,,,,,,00,0,,*6E
$PTNL,AVR,162947.00,,Yaw,,Tilt,,,,0,,00*38
$GPGSA,A,3,05,16,18,20,25,26,28,29,31,,,,0.9,0.5,0.7*30
$GPGSA,A,3,72,78,79,80,81,82,88,,,,,,0.9,0.5,0.7*36
$GPGSA,A,3,13,15,21,27,30,34,,,,,,,0.9,0.5,0.7*3D
$GPGSA,A,3,05,08,11,12,13,23,25,34,37,38,43,44,0.9,0.5,0.7*3C
$GPGSA,A,3,60,,,,,,,,,,,,0.9,0.5,0.7*3F
$GPGST,162947.00,1.706,0.544,0.392,1.552,0.544,0.392,1.218*51
$GPGBS,162947.00,3.341,1.991,10.160,16,0.0001,-2.300,2.010*4A
$GPGRS,162947.00,1,0.1,-2.3,-0.0,1.2,-0.0,0.2,0.2,-0.3,0.4,,,*6B
$GPGRS,162947.00,1,6.3,-3.1,-1.1,-2.5,-0.2,0.1,-1.6,,,,,*46
$GPGRS,162947.00,1,0.3,0.1,-0.8,-0.3,0.2,-0.3,,,,,,*64
$GPGRS,162947.00,1,0.6,0.6,1.5,0.8,-0.7,-0.2,-0.7,-0.7,-2.5,-1.2,0.7,-0.3*65
$GPGRS,162947.00,1,-0.5,,,,,,,,,,,*47
$GPGSV,6,1,21,29,71,050,49,16,11,301,37,20,19,048,40,25,41,129,46*71
$GPGSV,6,2,21,05,25,084,44,18,48,185,48,26,41,301,46,28,43,233,47*78
$GPGSV,6,3,21,31,45,272,48,12,05,122,33,04,04,325,38,11,05,038,37*75
$GPGSV,6,4,21,36,35,170,45,58,13,245,37,40,23,133,37,34,31,208,43*7C
$GPGSV,6,5,21,49,34,195,44,57,07,111,37,41,07,108,35,61,03,257,38*7C
$GPGSV,6,6,21*7A
$GLGSV,2,1,08,81,87,335,52,88,31,040,48,78,25,148,48,82,39,223,50*6F
$GLGSV,2,2,08,80,41,321,51,79,79,169,52,71,05,335,44,72,08,020,38*6F
$GAGSV,2,1,08,27,88,102,49,13,27,194,43,30,34,121,44,34,36,049,44*6D
$GAGSV,2,2,08,21,35,302,43,15,67,131,48,04,04,337,36,19,07,284,31*68
$GBGSV,6,1,22,11,83,212,49,37,11,317,40,44,15,057,42,05,21,129,38*69
$GBGSV,6,2,22,38,30,055,44,13,36,080,44,25,53,181,50,08,35,070,42*6B
$GBGSV,6,3,22,28,45,217,,12,39,055,45,23,56,288,50,31,43,067,*68
$GBGSV,6,4,22,43,59,232,50,34,69,062,50,24,06,151,20,22,04,052,40*6D
$GBGSV,6,5,22,10,04,088,35,02,06,107,34,27,01,225,,19,01,005,37*67
$GBGSV,6,6,22,56,09,071,,60,10,109,38*63
$GPGGA,162947.00,,,,,0,00,,,M,,M,,*47
$PTNL,GGK,162947.00,010125,4742.1606417,N,01618.1002093,E,1,35,0.9,EHT749.8550,M*49
$GPGGQ,162947.00,010125,4742.1606417,N,01618.1002093,E,1,35,1.390,706.6485,M*39
$GPGFA,162947.00,5.169,9.987,0.544,0.392,1.552,1.218,,VVV*0C
$GPLLK,162947.00,010125,,M,,M,1,35,1.0,,M*03
$GNGMP,162947.00,,,,,DAAA,35,0.5,,,,*5A
$GPGMP,162947.00,,,,,,09,,,,2.8,136*75
$GLGMP,162947.00,,,,,,07,,,,,*77
$GAGMP,162947.00,,,,,,06,,,,,*7B
$GBGMP,162947.00,,,,,,13,,,,,*7C
$PSSN,SNC,[0,318605000,2347]*4D
$GPZDA,162952.00,01,01,2025,,*68
$GPDTM,W84,,00.0000000,N,00.0000000,E,00.0000000,W84*5F
$PSSN,TFM,162952.00,,,,*64
$GPRMC,162952.00,A,4742.1606411,N,01618.1002080,E,0.0,,010125,5.1,E,D*13
$GPGLL,4742.1606411,N,01618.1002080,E,162952.00,A,D*62
$GPGGA,162952.00,4742.1606411,N,01618.1002080,E,2,35,0.5,706.6488,M,43.2066,M,1.6,0136*49
$GNGNS,162952.00,4742.1606411,N,01618.1002080,E,DAAA,35,0.5,706.6488,43.2066,,*56
$GPGNS,162952.00,,,,,,09,,,,1.6,136*7C
$GLGNS,162952.00,,,,,,07,,,,,*73
$GAGNS,162952.00,,,,,,06,,,,,*7F
$GBGNS,162952.00,,,,,,13,,,,,*78
$GPLLQ,162952.00,010125,,M,,M,1,35,1.368,,M*10
$GPVTG,,T,,M,0.00,N,0.00,K,D*26
$GPHDT,,T*1B
$GPTHS,,V*0E
$GPROT,,V*08
$PSSN,HRP,162952.00,010125,,,,,,,00,0,,*6A
$PTNL,AVR,162952.00,,Yaw,,Tilt,,,,0,,00*3C
$GPGSA,A,3,05,16,18,20,25,26,28,29,31,,,,0.9,0.5,0.7*30
$GPGSA,A,3,72,78,79,80,81,82,88,,,,,,0.9,0.5,0.7*36
$GPGSA,A,3,13,15,21,27,30,34,,,,,,,0.9,0.5,0.7*3D
$GPGSA,A,3,05,08,11,12,13,23,25,34,37,38,43,44,0.9,0.5,0.7*3C
$GPGSA,A,3,60,,,,,,,,,,,,0.9,0.5,0.7*3F
$GPGST,162952.00,1.676,0.535,0.387,0.662,0.535,0.387,1.198*59
$GPGBS,162952.00,3.285,1.911,10.247,16,0.0001,-2.827,1.988*4C
$GPGRS,162952.00,1,-0.0,-2.8,-0.3,0.9,0.1,0.3,0.3,-0.0,0.2,,,*68
$GPGRS,162952.00,1,6.7,-2.6,-1.2,-2.2,0.2,0.3,-0.8,,,,,*64
$GPGRS,162952.00,1,0.4,0.2,-0.9,-0.2,0.5,-0.2,,,,,,*62
$GPGRS,162952.00,1,0.5,0.8,1.3,0.5,-0.3,-0.4,-0.6,-0.7,-1.8,-0.9,0.7,-0.1*62
$GPGRS,162952.00,1,-0.8,,,,,,,,,,,*4E
$GPGSV,6,1,21,29,71,050,49,16,11,301,38,20,19,048,40,25,41,129,46*7E
$GPGSV,6,2,21,05,25,084,44,18,48,185,48,26,41,301,46,28,43,233,46*79
$GPGSV,6,3,21,31,45,272,47,12,05,122,33,04,04,325,38,11,05,038,37*7A
$GPGSV,6,4,21,36,35,170,45,58,13,245,37,40,23,133,37,34,31,208,43*7C
$GPGSV,6,5,21,49,34,195,44,57,07,111,37,41,07,108,35,61,03,257,38*7C
$GPGSV,6,6,21*7A
$GLGSV,2,1,08,81,87,336,52,88,31,040,47,78,24,148,47,82,39,223,49*65
$GLGSV,2,2,08,80,41,321,51,79,79,169,52,71,05,335,44,72,08,020,37*60
$GAGSV,2,1,08,27,88,103,48,13,27,194,42,30,34,121,44,34,36,049,44*6C
$GAGSV,2,2,08,21,35,302,43,15,67,131,48,04,04,337,36,19,07,284,32*6B
$GBGSV,6,1,22,11,83,212,49,37,11,317,40,44,15,057,42,05,21,129,38*69
$GBGSV,6,2,22,38,30,055,44,13,36,080,44,25,53,181,51,08,35,070,42*6A
$GBGSV,6,3,22,28,45,217,,12,39,055,45,23,56,288,50,31,43,067,*68
$GBGSV,6,4,22,43,59,232,50,34,69,062,51,24,06,151,,22,04,052,40*6E
$GBGSV,6,5,22,10,04,088,35,02,06,107,34,27,01,225,,19,01,005,37*67
$GBGSV,6,6,22,56,09,072,,60,10,109,38*60
$GPGGA,162952.00,,,,,0,00,,,M,,M,,*43
$PTNL,GGK,162952.00,010125,4742.1606411,N,01618.1002080,E,1,35,0.9,EHT749.8553,M*4A
$GPGGQ,162952.00,010125,4742.1606411,N,01618.1002080,E,1,35,1.368,706.6488,M*33
$GPGFA,162952.00,5.082,9.825,0.535,0.387,0.662,1.198,,VVV*0D
$GPLLK,162952.00,010125,,M,,M,1,35,1.0,,M*07
$GNGMP,162952.00,,,,,DAAA,35,0.5,,,,*5E
$GPGMP,162952.00,,,,,,09,,,,1.6,136*7C
$GLGMP,162952.00,,,,,,07,,,,,*73
$GAGMP,162952.00,,,,,,06,,,,,*7F
$GBGMP,162952.00,,,,,,13,,,,,*78
$PSSN,SNC,[0,318610000,2347]*49
$GPZDA,162957.00,01,01,2025,,*6D
$GPDTM,W84,,00.0000000,N,00.0000000,E,00.0000000,W84*5F
$PSSN,TFM,162957.00,,,,*61
$GPRMC,162957.00,A,4742.1606408,N,01618.1002045,E,0.0,,010125,5.1,E,D*17
$GPGLL,4742.1606408,N,01618.1002045,E,162957.00,A,D*66
$GPGGA,162957.00,4742.1606408,N,01618.1002045,E,2,35,0.5,706.6437,M,43.2066,M,2.6,0136*4A
$GNGNS,162957.00,4742.1606408,N,01618.1002045,E,DAAA,35,0.5,706.6437,43.2066,,*56
$GPGNS,162957.00,,,,,,09,,,,2.6,136*7A
$GLGNS,162957.00,,,,,,07,,,,,*76
$GAGNS,162957.00,,,,,,06,,,,,*7A
$GBGNS,162957.00,,,,,,13,,,,,*7D
$GPLLQ,162957.00,010125,,M,,M,1,35,1.375,,M*19
$GPVTG,,T,,M,0.00,N,0.00,K,D*26
$GPHDT,,T*1B
$GPTHS,,V*0E
$GPROT,,V*08
$PSSN,HRP,162957.00,010125,,,,,,,00,0,,*6F
$PTNL,AVR,162957.00,,Yaw,,Tilt,,,,0,,00*39
$GPGSA,A,3,05,16,18,20,25,26,28,29,31,,,,0.9,0.5,0.7*30
$GPGSA,A,3,72,78,79,80,81,82,88,,,,,,0.9,0.5,0.7*36
$GPGSA,A,3,13,15,21,27,30,34,,,,,,,0.9,0.5,0.7*3D
$GPGSA,A,3,05,08,11,12,13,23,25,34,37,38,43,44,0.9,0.5,0.7*3C
$GPGSA,A,3,60,,,,,,,,,,,,0.9,0.5,0.7*3F
$GPGST,162957.00,1.633,0.532,0.388,1.715,0.532,0.388,1.208*57
$GPGBS,162957.00,3.305,1.929,10.343,16,0.0001,-2.744,1.991*4C
$GPGRS,162957.00,1,-0.1,-2.7,-0.4,0.7,0.3,0.0,0.2,-0.0,0.3,,,*6B
$GPGRS,162957.00,1,5.8,-3.4,-1.4,-2.9,0.1,0.5,-0.8,,,,,*66
$GPGRS,162957.00,1,0.3,0.2,-0.4,-0.0,0.6,-0.0,,,,,,*6E
$GPGRS,162957.00,1,0.4,1.3,1.5,1.2,-0.4,-0.1,-0.5,-0.4,-1.1,-0.5,0.8,0.3*4B
$GPGRS,162957.00,1,-0.3,,,,,,,,,,,*40
$GPGSV,6,1,21,29,71,050,49,16,11,301,39,20,19,048,40,25,41,129,45*7C
$GPGSV,6,2,21,05,25,084,43,18,48,185,48,26,41,301,46,28,43,233,47*7F
$GPGSV,6,3,21,31,45,272,47,12,05,122,32,04,04,325,37,11,05,038,36*75
$GPGSV,6,4,21,36,35,170,45,58,13,245,37,40,23,133,37,34,31,208,43*7C
$GPGSV,6,5,21,49,34,195,44,57,07,111,37,41,07,108,34,61,03,257,38*7D
$GPGSV,6,6,21*7A
$GLGSV,2,1,08,81,87,336,52,88,31,040,48,78,24,148,46,82,39,223,50*63
$GLGSV,2,2,08,80,42,321,50,79,79,169,52,71,05,335,44,72,08,020,37*62
$GAGSV,2,1,08,27,88,103,49,13,27,194,42,30,34,121,44,34,36,049,44*6D
$GAGSV,2,2,08,21,35,302,43,15,67,130,48,04,04,337,36,19,07,284,32*6A
$GBGSV,6,1,22,11,83,212,49,37,11,317,40,44,15,057,42,05,21,129,38*69
$GBGSV,6,2,22,38,30,055,44,13,36,080,44,25,53,181,51,08,35,070,42*6A
$GBGSV,6,3,22,28,45,217,,12,39,055,45,23,56,288,50,31,43,067,*68
$GBGSV,6,4,22,43,59,232,50,34,69,062,51,24,06,151,20,22,04,052,40*6C
$GBGSV,6,5,22,10,04,088,35,02,06,107,34,27,01,225,,19,01,005,37*67
$GBGSV,6,6,22,56,09,072,,60,10,109,38*60
$GPGGA,162957.00,,,,,0,00,,,M,,M,,*46
$PTNL,GGK,162957.00,010125,4742.1606408,N,01618.1002045,E,1,35,0.9,EHT749.8502,M*4A
$GPGGQ,162957.00,010125,4742.1606408,N,01618.1002045,E,1,35,1.375,706.6437,M*3F
$GPGFA,162957.00,5.055,9.903,0.532,0.388,1.715,1.208,,VVV*05
$GPLLK,162957.00,010125,,M,,M,1,35,1.0,,M*02
$GNGMP,162957.00,,,,,DAAA,35,0.5,,,,*5B
$GPGMP,162957.00,,,,,,09,,,,2.6,136*7A
$GLGMP,162957.00,,,,,,07,,,,,*76
$GAGMP,162957.00,,,,,,06,,,,,*7A
$GBGMP,162957.00,,,,,,13,,,,,*7D
$PSSN,SNC,[0,318615000,2347]*4C
$GPZDA,163002.00,01,01,2025,,*65
$GPDTM,W84,,00.0000000,N,00.0000000,E,00.0000000,W84*5F
$PSSN,TFM,163002.00,,,,*69
$GPRMC,163002.00,A,4742.1606406,N,01618.1002052,E,0.0,,010125,5.1,E,D*17
$GPGLL,4742.1606406,N,01618.1002052,E,163002.00,A,D*66
$GPGGA,163002.00,4742.1606406,N,01618.1002052,E,2,35,0.5,706.6384,M,43.2066,M,3.1,0136*43
$GNGNS,163002.00,4742.1606406,N,01618.1002052,E,DAAA,35,0.5,706.6384,43.2066,,*59
$GPGNS,163002.00,,,,,,09,,,,3.1,136*74
$GLGNS,163002.00,,,,,,07,,,,,*7E
$GAGNS,163002.00,,,,,,06,,,,,*72
$GBGNS,163002.00,,,,,,13,,,,,*75
$GPLLQ,163002.00,010125,,M,,M,1,35,1.390,,M*1A
$GPVTG,,T,,M,0.00,N,0.01,K,D*27
$GPHDT,,T*1B
$GPTHS,,V*0E
$GPROT,,V*08
$PSSN,HRP,163002.00,010125,,,,,,,00,0,,*67
$PTNL,AVR,163002.00,,Yaw,,Tilt,,,,0,,00*31
$GPGSA,A,3,05,16,18,20,25,26,28,29,31,,,,0.9,0.5,0.7*30
$GPGSA,A,3,72,78,79,80,81,82,88,,,,,,0.9,0.5,0.7*36
$GPGSA,A,3,13,15,21,27,30,34,,,,,,,0.9,0.5,0.7*3D
$GPGSA,A,3,05,08,11,12,13,23,25,34,37,38,43,44,0.9,0.5,0.7*3C
$GPGSA,A,3,60,,,,,,,,,,,,0.9,0.5,0.7*3F
$GPGST,163002.00,1.726,0.539,0.391,1.776,0.538,0.391,1.220*54
$GPGBS,163002.00,3.330,1.963,10.467,16,0.0001,-2.195,1.997*41
$GPGRS,163002.00,1,-0.7,-2.2,0.0,0.7,-0.2,0.1,0.3,0.1,0.5,,,*4F
$GPGRS,163002.00,1,7.0,-2.8,-1.2,-2.8,-0.0,0.6,-0.6,,,,,*4F
$GPGRS,163002.00,1,1.0,0.0,0.0,-0.1,0.5,0.1,,,,,,*61
$GPGRS,163002.00,1,0.5,1.1,1.6,1.3,-0.4,0.3,-0.6,-0.6,-1.4,-0.1,0.8,0.2*6C
$GPGRS,163002.00,1,-0.8,,,,,,,,,,,*43
$GPGSV,6,1,21,29,71,050,49,16,11,301,38,20,19,048,40,25,41,129,45*7D
$GPGSV,6,2,21,05,25,084,43,18,48,185,48,26,41,301,46,28,43,233,47*7F
$GPGSV,6,3,21,31,45,272,48,12,05,122,32,04,04,325,37,11,05,038,37*7B
$GPGSV,6,4,21,36,35,170,45,58,13,245,36,40,23,133,36,34,31,208,43*7C
$GPGSV,6,5,21,49,34,195,44,57,07,111,37,41,07,108,35,61,03,257,38*7C
$GPGSV,6,6,21*7A
$GLGSV,2,1,08,81,87,337,52,88,31,040,48,78,24,148,47,82,39,223,49*6B
$GLGSV,2,2,08,80,42,321,50,79,78,169,52,71,05,335,44,72,08,020,38*6C
$GAGSV,2,1,08,27,88,104,49,13,27,194,43,30,34,121,45,34,36,049,44*6A
$GAGSV,2,2,08,21,35,302,43,15,67,130,48,04,04,337,36,19,07,284,31*69
$GBGSV,6,1,22,11,83,212,49,37,11,317,40,44,15,057,41,05,21,129,38*6A
$GBGSV,6,2,22,38,30,055,44,13,36,080,44,25,53,181,50,08,35,070,42*6B
$GBGSV,6,3,22,28,45,217,,12,39,055,45,23,56,288,50,31,43,067,*68
$GBGSV,6,4,22,43,59,233,50,34,69,062,50,24,06,151,19,22,04,052,40*66
$GBGSV,6,5,22,10,04,088,34,02,06,107,34,27,01,225,,19,01,005,36*67
$GBGSV,6,6,22,56,09,072,,60,10,109,38*60
$GPGGA,163002.00,,,,,0,00,,,M,,M,,*4E
$PTNL,GGK,163002.00,010125,4742.1606406,N,01618.1002052,E,1,35,0.9,EHT749.8450,M*4C
$GPGGQ,163002.00,010125,4742.1606406,N,01618.1002052,E,1,35,1.390,706.6384,M*3B
$GPGFA,163002.00,5.120,10.008,0.539,0.391,1.776,1.220,,VVV*38
$GPLLK,163002.00,010125,,M,,M,1,35,1.0,,M*0A
$GNGMP,163002.00,,,,,DAAA,35,0.5,,,,*53
$GPGMP,163002.00,,,,,,09,,,,3.1,136*74
$GLGMP,163002.00,,,,,,07,,,,,*7E
$GAGMP,163002.00,,,,,,06,,,,,*72
$GBGMP,163002.00,,,,,,13,,,,,*75
$PSSN,SNC,[0,318620000,2347]*4A
$GPZDA,163007.00,01,01,2025,,*60
$GPDTM,W84,,00.0000000,N,00.0000000,E,00.0000000,W84*5F
$PSSN,TFM,163007.00,,,,*6C
$GPRMC,163007.00,A,4742.1606405,N,01618.1002086,E,0.0,,010125,5.1,E,D*18
$GPGLL,4742.1606405,N,01618.1002086,E,163007.00,A,D*69
$GPGGA,163007.00,4742.1606405,N,01618.1002086,E,2,35,0.5,706.6345,M,43.2066,M,2.8,0136*49
$GNGNS,163007.00,4742.1606405,N,01618.1002086,E,DAAA,35,0.5,706.6345,43.2066,,*5B
$GPGNS,163007.00,,,,,,09,,,,2.8,136*79
$GLGNS,163007.00,,,,,,07,,,,,*7B
$GAGNS,163007.00,,,,,,06,,,,,*77
$GBGNS,163007.00,,,,,,13,,,,,*70
$GPLLQ,163007.00,010125,,M,,M,1,35,1.391,,M*1E
$GPVTG,,T,,M,0.01,N,0.01,K,D*26
$GPHDT,,T*1B
$GPTHS,,V*0E
$GPROT,,V*08
$PSSN,HRP,163007.00,010125,,,,,,,00,0,,*62
$PTNL,AVR,163007.00,,Yaw,,Tilt,,,,0,,00*34
$GPGSA,A,3,05,16,18,20,25,26,28,29,31,,,,0.9,0.5,0.7*30
$GPGSA,A,3,72,78,79,80,81,82,88,,,,,,0.9,0.5,0.7*36
$GPGSA,A,3,13,15,21,27,30,34,,,,,,,0.9,0.5,0.7*3D
$GPGSA,A,3,05,08,11,12,13,23,25,34,37,38,43,44,0.9,0.5,0.7*3C
$GPGSA,A,3,60,,,,,,,,,,,,0.9,0.5,0.7*3F
$GPGST,163007.00,1.852,0.543,0.392,1.392,0.543,0.392,1.219*58
$GPGBS,163007.00,3.321,1.990,10.165,16,0.0001,-2.378,2.003*49
$GPGRS,163007.00,1,-0.3,-2.4,0.0,0.3,-0.3,-0.1,0.5,-0.2,0.9,,,*44
$GPGRS,163007.00,1,7.7,-3.2,-1.0,-2.7,-0.0,0.2,-0.8,,,,,*41
$GPGRS,163007.00,1,0.8,0.1,-0.5,-0.1,0.2,0.0,,,,,,*42
$GPGRS,163007.00,1,0.5,0.2,1.4,1.0,-0.8,-0.0,-0.7,-0.7,-1.4,-0.3,1.0,0.3*42
$GPGRS,163007.00,1,-0.7,,,,,,,,,,,*49
$GPGSV,6,1,21,29,71,051,49,16,11,301,37,20,19,048,40,25,41,129,45*73
$GPGSV,6,2,21,05,25,084,44,18,48,185,48,26,41,301,46,28,43,233,46*79
$GPGSV,6,3,21,31,45,272,48,12,05,122,31,04,04,325,37,11,05,038,37*78
$GPGSV,6,4,21,36,35,170,45,58,13,245,37,40,23,133,37,34,31,208,43*7C
$GPGSV,6,5,21,49,34,195,44,57,07,111,37,41,07,108,35,61,03,257,38*7C
$GPGSV,6,6,21*7A
$GLGSV,2,1,08,81,87,338,52,88,31,040,48,78,24,148,46,82,39,223,50*6D
$GLGSV,2,2,08,80,42,321,50,79,78,169,52,71,05,335,43,72,08,020,38*6B
$GAGSV,2,1,08,27,88,104,48,13,27,194,43,30,34,121,45,34,36,049,44*6B
$GAGSV,2,2,08,21,36,302,43,15,67,130,48,04,04,337,36,19,07,284,31*6A
$GBGSV,6,1,22,11,83,212,49,37,11,317,40,44,15,057,41,05,21,129,38*6A
$GBGSV,6,2,22,38,30,055,44,13,36,080,44,25,53,181,51,08,35,070,42*6A
$GBGSV,6,3,22,28,45,217,,12,39,055,45,23,56,288,50,31,43,067,*68
$GBGSV,6,4,22,43,59,233,50,34,69,062,50,24,06,151,19,22,04,052,40*66
$GBGSV,6,5,22,10,04,088,34,02,06,107,34,27,01,225,,19,01,005,36*67
$GBGSV,6,6,22,56,09,072,,60,10,109,38*60
$GPGGA,163007.00,,,,,0,00,,,M,,M,,*4B
$PTNL,GGK,163007.00,010125,4742.1606405,N,01618.1002086,E,1,35,0.9,EHT749.8411,M*46
$GPGGQ,163007.00,010125,4742.1606405,N,01618.1002086,E,1,35,1.391,706.6345,M*38
$GPGFA,163007.00,5.165,9.999,0.543,0.392,1.392,1.219,,VVV*0F
$GPLLK,163007.00,010125,,M,,M,1,35,1.0,,M*0F
$GNGMP,163007.00,,,,,DAAA,35,0.5,,,,*56
$GPGMP,163007.00,,,,,,09,,,,2.8,136*79
$GLGMP,163007.00,,,,,,07,,,,,*7B
$GAGMP,163007.00,,,,,,06,,,,,*77
$GBGMP,163007.00,,,,,,13,,,,,*70
$PSSN,SNC,[0,318625000,2347]*4F
$GPZDA,163012.00,01,01,2025,,*64
$GPDTM,W84,,00.0000000,N,00.0000000,E,00.0000000,W84*5F
$PSSN,TFM,163012.00,,,,*68
$GPRMC,163012.00,A,4742.1606418,N,01618.1002091,E,0.0,,010125,5.1,E,D*16
$GPGLL,4742.1606418,N,01618.1002091,E,163012.00,A,D*67
$GPGGA,163012.00,4742.1606418,N,01618.1002091,E,2,35,0.5,706.6322,M,43.2066,M,1.6,0136*4B
$GNGNS,163012.00,4742.1606418,N,01618.1002091,E,DAAA,35,0.5,706.6322,43.2066,,*54
$GPGNS,163012.00,,,,,,09,,,,1.6,136*70
$GLGNS,163012.00,,,,,,07,,,,,*7F
$GAGNS,163012.00,,,,,,06,,,,,*73
$GBGNS,163012.00,,,,,,13,,,,,*74
$GPLLQ,163012.00,010125,,M,,M,1,35,1.372,,M*17
$GPVTG,,T,,M,0.00,N,0.01,K,D*27
$GPHDT,,T*1B
$GPTHS,,V*0E
$GPROT,,V*08
$PSSN,HRP,163012.00,010125,,,,,,,00,0,,*66
$PTNL,AVR,163012.00,,Yaw,,Tilt,,,,0,,00*30
$GPGSA,A,3,05,16,18,20,25,26,28,29,31,,,,0.9,0.5,0.7*30
$GPGSA,A,3,72,78,79,80,81,82,88,,,,,,0.9,0.5,0.7*36
$GPGSA,A,3,13,15,21,27,30,34,,,,,,,0.9,0.5,0.7*3D
$GPGSA,A,3,05,08,11,12,13,23,25,34,37,38,43,44,0.9,0.5,0.7*3C
$GPGSA,A,3,60,,,,,,,,,,,,0.9,0.5,0.7*3F
$GPGST,163012.00,1.639,0.535,0.388,0.734,0.535,0.388,1.202*5C
$GPGBS,163012.00,3.264,1.911,10.251,16,0.0001,-2.276,1.981*4F
$GPGRS,163012.00,1,-0.5,-2.3,-0.1,0.6,0.1,-0.0,0.4,-0.1,0.5,,,*48
$GPGRS,163012.00,1,6.6,-3.2,-0.6,-1.9,0.8,0.0,0.3,,,,,*4E
$GPGRS,163012.00,1,0.8,0.1,-0.3,-0.3,0.3,-0.1,,,,,,*6F
$GPGRS,163012.00,1,0.5,0.0,1.9,0.9,-0.7,-0.2,-0.5,-0.6,-1.5,-0.5,0.9,0.3*40
$GPGRS,163012.00,1,-0.5,,,,,,,,,,,*4F
$GPGSV,6,1,21,29,71,051,49,16,11,301,38,20,19,048,40,25,41,129,45*7C
$GPGSV,6,2,21,05,25,084,44,18,48,185,48,26,41,301,46,28,43,233,47*78
$GPGSV,6,3,21,31,45,272,48,12,05,122,31,04,04,325,37,11,05,038,36*79
$GPGSV,6,4,21,36,35,170,45,58,13,245,37,40,23,133,36,34,31,208,43*7D
$GPGSV,6,5,21,49,34,195,44,57,07,111,37,41,07,108,34,61,03,257,39*7C
$GPGSV,6,6,21*7A
$GLGSV,2,1,08,81,87,338,52,88,31,040,48,78,24,148,46,82,39,223,50*6D
$GLGSV,2,2,08,80,42,321,50,79,78,169,52,71,05,335,44,72,08,020,38*6C
$GAGSV,2,1,08,27,88,105,48,13,27,194,43,30,34,121,45,34,36,049,44*6A
$GAGSV,2,2,08,21,36,302,44,15,67,130,48,04,04,337,37,19,07,284,31*6C
$GBGSV,6,1,22,11,83,212,49,37,11,317,40,44,15,057,41,05,21,129,38*6A
$GBGSV,6,2,22,38,30,055,44,13,36,080,44,25,53,181,51,08,35,070,42*6A
$GBGSV,6,3,22,28,45,217,,12,39,055,44,23,56,288,50,31,43,067,*69
$GBGSV,6,4,22,43,59,233,50,34,69,062,50,24,06,151,19,22,04,052,39*68
$GBGSV,6,5,22,10,04,088,34,02,06,107,33,27,01,225,,19,01,005,36*60
$GBGSV,6,6,22,56,09,072,,60,10,109,38*60
$GPGGA,163012.00,,,,,0,00,,,M,,M,,*4F
$PTNL,GGK,163012.00,010125,4742.1606418,N,01618.1002091,E,1,35,0.9,EHT749.8388,M*4F
$GPGGQ,163012.00,010125,4742.1606418,N,01618.1002091,E,1,35,1.372,706.6322,M*3A
$GPGFA,163012.00,5.089,9.858,0.535,0.388,0.734,1.202,,VVV*0D
$GPLLK,163012.00,010125,,M,,M,1,35,1.0,,M*0B
$GNGMP,163012.00,,,,,DAAA,35,0.5,,,,*52
$GPGMP,163012.00,,,,,,09,,,,1.6,136*70
$GLGMP,163012.00,,,,,,07,,,,,*7F
$GAGMP,163012.00,,,,,,06,,,,,*73
$GBGMP,163012.00,,,,,,13,,,,,*74
$PSSN,SNC,[0,318630000,2347]*4B
$GPZDA,163017.00,01,01,2025,,*61
$GPDTM,W84,,00.0000000,N,00.0000000,E,00.0000000,W84*5F
$PSSN,TFM,163017.00,,,,*6D
$GPRMC,163017.00,A,4742.1606459,N,01618.1002105,E,0.0,,010125,5.1,E,D*1A
$GPGLL,4742.1606459,N,01618.1002105,E,163017.00,A,D*6B
$GPGGA,163017.00,4742.1606459,N,01618.1002105,E,2,35,0.5,706.6298,M,43.2066,M,2.6,0136*44
$GNGNS,163017.00,4742.1606459,N,01618.1002105,E,DAAA,35,0.5,706.6298,43.2066,,*58
$GPGNS,163017.00,,,,,,09,,,,2.6,136*76
$GLGNS,163017.00,,,,,,07,,,,,*7A
$GAGNS,163017.00,,,,,,06,,,,,*76
$GBGNS,163017.00,,,,,,13,,,,,*71
$GPLLQ,163017.00,010125,,M,,M,1,35,1.377,,M*17
$GPVTG,,T,,M,0.01,N,0.02,K,D*25
$GPHDT,,T*1B
$GPTHS,,V*0E
$GPROT,,V*08
$PSSN,HRP,163017.00,010125,,,,,,,00,0,,*63
$PTNL,AVR,163017.00,,Yaw,,Tilt,,,,0,,00*35
$GPGSA,A,3,05,16,18,20,25,26,28,29,31,,,,0.9,0.5,0.7*30
$GPGSA,A,3,72,78,79,80,81,82,88,,,,,,0.9,0.5,0.7*36
$GPGSA,A,3,13,15,21,27,30,34,,,,,,,0.9,0.5,0.7*3D
$GPGSA,A,3,05,08,11,12,13,23,25,34,37,38,43,44,0.9,0.5,0.7*3C
$GPGSA,A,3,60,,,,,,,,,,,,0.9,0.5,0.7*3F
$GPGST,163017.00,1.743,0.531,0.388,1.571,0.531,0.388,1.209*5C
$GPGBS,163017.00,3.283,1.929,10.347,16,0.0001,-2.384,1.985*46
$GPGRS,163017.00,1,-0.6,-2.4,0.2,0.1,0.4,-0.0,0.8,-0.3,0.3,,,*6D
$GPGRS,163017.00,1,7.2,-3.1,-1.0,-1.7,0.7,-0.0,-0.0,,,,,*48
$GPGRS,163017.00,1,0.5,0.1,-0.5,-0.4,0.0,-0.3,,,,,,*67
$GPGRS,163017.00,1,0.1,1.0,1.7,0.5,-0.7,-0.2,-0.7,-0.7,-2.0,-0.6,0.7,0.1*48
$GPGRS,163017.00,1,-1.2,,,,,,,,,,,*4C
$GPGSV,6,1,21,29,71,051,49,16,11,301,38,20,19,048,40,25,41,129,45*7C
$GPGSV,6,2,21,05,25,084,44,18,48,185,48,26,41,301,46,28,43,233,47*78
$GPGSV,6,3,21,31,45,272,48,12,05,122,31,04,04,325,38,11,05,038,36*76
$GPGSV,6,4,21,36,35,170,45,58,13,245,37,40,23,133,37,34,31,208,43*7C
$GPGSV,6,5,21,49,34,195,45,57,07,111,37,41,07,108,35,61,03,257,38*7D
$GPGSV,6,6,21*7A
$GLGSV,2,1,08,81,87,339,52,88,31,040,48,78,24,148,47,82,39,223,49*65
$GLGSV,2,2,08,80,42,321,51,79,78,169,52,71,05,335,42,72,08,020,38*6B
$GAGSV,2,1,08,27,88,105,48,13,27,194,43,30,34,121,44,34,36,049,44*6B
$GAGSV,2,2,08,21,36,302,44,15,67,130,48,04,04,337,37,19,07,284,32*6F
$GBGSV,6,1,22,11,83,212,49,37,11,317,40,44,15,057,41,05,21,129,38*6A
$GBGSV,6,2,22,38,30,055,44,13,36,080,44,25,53,181,51,08,35,070,42*6A
$GBGSV,6,3,22,28,45,217,,12,39,055,44,23,56,288,50,31,43,067,*69
$GBGSV,6,4,22,43,59,233,50,34,69,062,50,24,06,151,21,22,04,052,40*6D
$GBGSV,6,5,22,10,04,088,34,02,06,107,34,27,01,225,,19,01,005,35*64
$GBGSV,6,6,22,56,09,072,,60,10,109,38*60
$GPGGA,163017.00,,,,,0,00,,,M,,M,,*4A
$PTNL,GGK,163017.00,010125,4742.1606459,N,01618.1002105,E,1,35,0.9,EHT749.8363,M*46
$GPGGQ,163017.00,010125,4742.1606459,N,01618.1002105,E,1,35,1.377,706.6298,M*33
$GPGFA,163017.00,5.051,9.916,0.531,0.388,1.571,1.209,,VVV*0B
$GPLLK,163017.00,010125,,M,,M,1,35,1.0,,M*0E
$GNGMP,163017.00,,,,,DAAA,35,0.5,,,,*57
$GPGMP,163017.00,,,,,,09,,,,2.6,136*76
$GLGMP,163017.00,,,,,,07,,,,,*7A
$GAGMP,163017.00,,,,,,06,,,,,*76
$GBGMP,163017.00,,,,,,13,,,,,*71
$PSSN,SNC,[0,318635000,2347]*4E
$GPZDA,163022.00,01,01,2025,,*67
$GPDTM,W84,,00.0000000,N,00.0000000,E,00.0000000,W84*5F
$PSSN,TFM,163022.00,,,,*6B
$GPRMC,163022.00,A,4742.1606478,N,01618.1002124,E,0.0,,010125,5.1,E,D*1C
$GPGLL,4742.1606478,N,01618.1002124,E,163022.00,A,D*6D
$GPGGA,163022.00,4742.1606478,N,01618.1002124,E,2,35,0.5,706.6260,M,43.2066,M,3.1,0136*43
$GNGNS,163022.00,4742.1606478,N,01618.1002124,E,DAAA,35,0.5,706.6260,43.2066,,*59
$GPGNS,163022.00,,,,,,09,,,,3.1,136*76
$GLGNS,163022.00,,,,,,07,,,,,*7C
$GAGNS,163022.00,,,,,,06,,,,,*70
$GBGNS,163022.00,,,,,,13,,,,,*77
$GPLLQ,163022.00,010125,,M,,M,1,35,1.391,,M*19
$GPVTG,,T,,M,0.00,N,0.01,K,D*27
$GPHDT,,T*1B
$GPTHS,,V*0E
$GPROT,,V*08
$PSSN,HRP,163022.00,010125,,,,,,,00,0,,*65
$PTNL,AVR,163022.00,,Yaw,,Tilt,,,,0,,00*33
$GPGSA,A,3,05,16,18,20,25,26,28,29,31,,,,0.9,0.5,0.7*30
$GPGSA,A,3,72,78,79,80,81,82,88,,,,,,0.9,0.5,0.7*36
$GPGSA,A,3,13,15,21,27,30,34,,,,,,,0.9,0.5,0.7*3D
$GPGSA,A,3,05,08,11,12,13,23,25,34,37,38,43,44,0.9,0.5,0.7*3C
$GPGSA,A,3,60,,,,,,,,,,,,0.9,0.5,0.7*3F
$GPGST,163022.00,1.686,0.538,0.391,1.627,0.538,0.391,1.222*5B
$GPGBS,163022.00,3.308,1.963,10.472,16,0.0001,-2.619,1.991*49
$GPGRS,163022.00,1,-0.7,-2.6,0.1,0.4,0.0,-0.3,0.4,-0.1,0.7,,,*63
$GPGRS,163022.00,1,6.9,-3.0,-1.2,-1.6,0.9,-0.2,-0.3,,,,,*49
$GPGRS,163022.00,1,0.4,0.1,-0.5,-0.1,0.1,-0.6,,,,,,*61
$GPGRS,163022.00,1,0.4,1.8,1.4,0.6,-0.3,-0.1,-0.3,-0.5,-1.4,-0.0,0.6,-0.0*6E
$GPGRS,163022.00,1,-0.8,,,,,,,,,,,*41
$GPGSV,6,1,21,29,70,051,49,16,11,301,38,20,19,048,40,25,41,129,46*7E
$GPGSV,6,2,21,05,25,084,44,18,48,185,48,26,41,301,45,28,43,232,47*7A
$GPGSV,6,3,21,31,45,272,48,12,05,122,31,04,04,325,38,11,05,038,36*76
$GPGSV,6,4,21,36,35,170,45,58,13,245,36,40,23,133,36,34,31,208,43*7C
$GPGSV,6,5,21,49,34,195,44,57,07,111,37,41,07,108,35,61,03,257,38*7C
$GPGSV,6,6,21*7A
$GLGSV,2,1,08,81,87,340,52,88,31,040,48,78,24,148,47,82,39,223,49*6B
$GLGSV,2,2,08,80,42,321,50,79,78,169,52,71,05,335,42,72,08,020,37*65
$GAGSV,2,1,08,27,88,106,48,13,27,194,43,30,34,121,44,34,36,049,44*68
$GAGSV,2,2,08,21,36,302,43,15,67,130,48,04,04,337,36,19,07,284,31*6A
$GBGSV,6,1,22,11,83,212,49,37,11,317,40,44,15,057,41,05,21,129,38*6A
$GBGSV,6,2,22,38,30,055,44,13,36,080,44,25,53,180,51,08,35,070,42*6B
$GBGSV,6,3,22,28,46,217,,12,39,055,44,23,56,288,50,31,43,067,*6A
$GBGSV,6,4,22,43,59,233,50,34,69,062,50,24,06,151,19,22,04,052,40*66
$GBGSV,6,5,22,10,04,088,34,02,06,107,34,27,01,225,,19,01,005,35*64
$GBGSV,6,6,22,56,09,072,,60,10,109,38*60
$GPGGA,163022.00,,,,,0,00,,,M,,M,,*4C
$PTNL,GGK,163022.00,010125,4742.1606478,N,01618.1002124,E,1,35,0.9,EHT749.8325,M*42
$GPGGQ,163022.00,010125,4742.1606478,N,01618.1002124,E,1,35,1.391,706.6260,M*3A
$GPGFA,163022.00,5.116,10.021,0.538,0.391,1.627,1.222,,VVV*32
$GPLLK,163022.00,010125,,M,,M,1,35,1.0,,M*08
$GNGMP,163022.00,,,,,DAAA,35,0.5,,,,*51
$GPGMP,163022.00,,,,,,09,,,,3.1,136*76
$GLGMP,163022.00,,,,,,07,,,,,*7C
$GAGMP,163022.00,,,,,,06,,,,,*70
$GBGMP,163022.00,,,,,,13,,,,,*77
$PSSN,SNC,[0,318640000,2347]*4C
$GPZDA,163027.00,01,01,2025,,*62
$GPDTM,W84,,00.0000000,N,00.0000000,E,00.0000000,W84*5F
$PSSN,TFM,163027.00,,,,*6E
$GPRMC,163027.00,A,4742.1606506,N,01618.1002150,E,0.0,,010125,5.1,E,D*12
$GPGLL,4742.1606506,N,01618.1002150,E,163027.00,A,D*63
$GPGGA,163027.00,4742.1606506,N,01618.1002150,E,2,35,0.5,706.6214,M,43.2066,M,2.8,0136*46
$GNGNS,163027.00,4742.1606506,N,01618.1002150,E,DAAA,35,0.5,706.6214,43.2066,,*54
$GPGNS,163027.00,,,,,,09,,,,2.8,136*7B
$GLGNS,163027.00,,,,,,07,,,,,*79
$GAGNS,163027.00,,,,,,06,,,,,*75
$GBGNS,163027.00,,,,,,13,,,,,*72
$GPLLQ,163027.00,010125,,M,,M,1,35,1.388,,M*14
$GPVTG,,T,,M,0.00,N,0.01,K,D*27
$GPHDT,,T*1B
$GPTHS,,V*0E
$GPROT,,V*08
$PSSN,HRP,163027.00,010125,,,,,,,00,0,,*60
$PTNL,AVR,163027.00,,Yaw,,Tilt,,,,0,,00*36
$GPGSA,A,3,05,16,18,20,25,26,28,29,31,,,,0.9,0.5,0.7*30
$GPGSA,A,3,72,78,79,80,81,82,88,,,,,,0.9,0.5,0.7*36
$GPGSA,A,3,13,15,21,27,30,34,,,,,,,0.9,0.5,0.7*3D
$GPGSA,A,3,05,08,11,12,13,23,25,34,37,38,43,44,0.9,0.5,0.7*3C
$GPGSA,A,3,60,,,,,,,,,,,,0.9,0.5,0.7*3F
$GPGST,163027.00,1.667,0.541,0.391,0.746,0.541,0.391,1.217*50
$GPGBS,163027.00,3.280,1.958,10.188,16,0.0001,-2.229,1.998*4B
$GPGRS,163027.00,1,-0.7,-2.2,0.1,0.3,0.0,-0.4,0.5,-0.1,0.7,,,*63
$GPGRS,163027.00,1,7.0,-2.2,-1.1,-2.4,0.7,0.2,-0.4,,,,,*61
$GPGRS,163027.00,1,0.3,-0.1,-0.6,-0.1,0.3,-0.1,,,,,,*48
$GPGRS,163027.00,1,0.5,1.8,1.2,1.4,-0.4,-0.1,-0.4,-0.6,-1.0,-0.1,0.6,-0.1*68
$GPGRS,163027.00,1,-0.8,,,,,,,,,,,*44
$GPGSV,6,1,21,29,70,051,49,16,11,301,38,20,19,048,39,25,41,129,46*70
$GPGSV,6,2,21,05,25,084,44,18,48,185,48,26,41,301,45,28,43,232,47*7A
$GPGSV,6,3,21,31,45,272,48,12,05,122,31,04,04,325,37,11,05,038,36*79
$GPGSV,6,4,21,36,35,170,45,58,13,245,37,40,23,133,37,34,31,208,43*7C
$GPGSV,6,5,21,49,34,195,45,57,07,111,37,41,07,108,35,61,03,257,38*7D
$GPGSV,6,6,21*7A
$GLGSV,2,1,08,81,87,340,52,88,31,040,48,78,24,148,48,82,39,223,50*6C
$GLGSV,2,2,08,80,42,321,51,79,78,169,52,71,05,335,43,72,08,020,38*6A
$GAGSV,2,1,08,27,88,106,48,13,27,194,43,34,36,049,44,30,34,121,44*68
$GAGSV,2,2,08,21,36,302,43,15,67,130,48,19,07,284,30,04,04,337,36*6B
$GBGSV,6,1,22,11,83,212,49,37,11,317,40,44,15,057,41,05,21,129,38*6A
$GBGSV,6,2,22,38,30,055,44,13,36,080,44,25,53,180,50,08,35,070,42*6A
$GBGSV,6,3,22,28,46,217,,12,39,055,44,23,56,287,50,31,43,067,*65
$GBGSV,6,4,22,43,59,233,50,34,69,061,50,24,06,151,20,22,04,052,40*6F
$GBGSV,6,5,22,10,04,088,34,02,06,107,34,27,01,225,,19,01,005,34*65
$GBGSV,6,6,22,56,09,072,,60,10,109,38*60
$GPGGA,163027.00,,,,,0,00,,,M,,M,,*49
$PTNL,GGK,163027.00,010125,4742.1606506,N,01618.1002150,E,1,35,0.9,EHT749.8279,M*44
$GPGGQ,163027.00,010125,4742.1606506,N,01618.1002150,E,1,35,1.388,706.6214,M*3F
$GPGFA,163027.00,5.142,9.977,0.541,0.391,0.746,1.217,,VVV*0B
$GPLLK,163027.00,010125,,M,,M,1,35,1.0,,M*0D
$GNGMP,163027.00,,,,,DAAA,35,0.5,,,,*54
$GPGMP,163027.00,,,,,,09,,,,2.8,136*7B
$GLGMP,163027.00,,,,,,07,,,,,*79
$GAGMP,163027.00,,,,,,06,,,,,*75
$GBGMP,163027.00,,,,,,13,,,,,*72
$PSSN,SNC,[0,318645000,2347]*49
$GPZDA,163032.00,01,01,2025,,*66
$GPDTM,W84,,00.0000000,N,00.0000000,E,00.0000000,W84*5F
$PSSN,TFM,163032.00,,,,*6A
$GPRMC,163032.00,A,4742.1606523,N,01618.1002154,E,0.0,,010125,5.1,E,D*15
$GPGLL,4742.1606523,N,01618.1002154,E,163032.00,A,D*64
$GPGGA,163032.00,4742.1606523,N,01618.1002154,E,2,35,0.5,706.6212,M,43.2066,M,1.6,0136*4A
$GNGNS,163032.00,4742.1606523,N,01618.1002154,E,DAAA,35,0.5,706.6212,43.2066,,*55
$GPGNS,163032.00,,,,,,09,,,,1.6,136*72
$GLGNS,163032.00,,,,,,07,,,,,*7D
$GAGNS,163032.00,,,,,,06,,,,,*71
$GBGNS,163032.00,,,,,,13,,,,,*76
$GPLLQ,163032.00,010125,,M,,M,1,35,1.373,,M*14
$GPVTG,,T,,M,0.00,N,0.00,K,D*26
$GPHDT,,T*1B
$GPTHS,,V*0E
$GPROT,,V*08
$PSSN,HRP,163032.00,010125,,,,,,,00,0,,*64
$PTNL,AVR,163032.00,,Yaw,,Tilt,,,,0,,00*32
$GPGSA,A,3,05,16,18,20,25,26,28,29,31,,,,0.9,0.5,0.7*30
$GPGSA,A,3,72,78,79,80,81,82,88,,,,,,0.9,0.5,0.7*36
$GPGSA,A,3,13,15,21,27,30,34,,,,,,,0.9,0.5,0.7*3D
$GPGSA,A,3,05,08,11,12,13,23,25,34,37,38,43,44,0.9,0.5,0.7*3C
$GPGSA,A,3,60,,,,,,,,,,,,0.9,0.5,0.7*3F
$GPGST,163032.00,1.609,0.535,0.388,0.552,0.535,0.388,1.204*59
$GPGBS,163032.00,3.262,1.940,10.235,72,0.0001,6.988,6.844*63
$GPGRS,163032.00,1,-0.5,-1.6,-0.1,0.6,0.0,-0.3,0.6,-0.2,0.5,,,*4F
$GPGRS,163032.00,1,7.0,-2.2,-1.0,-2.0,1.1,-0.1,-0.5,,,,,*48
$GPGRS,163032.00,1,0.2,-0.1,-0.7,-0.1,0.4,0.0,,,,,,*67
$GPGRS,163032.00,1,0.7,1.3,1.0,1.0,-0.5,-0.0,-0.6,-0.8,-1.2,-0.1,0.6,0.2*43
$GPGRS,163032.00,1,-0.9,,,,,,,,,,,*41
$GPGSV,6,1,21,29,70,051,49,16,11,301,38,20,19,048,39,25,41,129,46*70
$GPGSV,6,2,21,05,25,084,43,18,48,185,48,26,41,301,45,28,43,232,47*7D
$GPGSV,6,3,21,31,45,272,48,12,04,122,30,04,04,325,38,11,05,038,36*76
$GPGSV,6,4,21,36,35,170,45,58,13,245,37,40,23,133,37,34,31,208,43*7C
$GPGSV,6,5,21,49,34,195,45,57,07,111,38,41,07,108,35,61,03,257,38*72
$GPGSV,6,6,21*7A
$GLGSV,2,1,08,81,87,341,52,88,31,040,48,78,24,148,48,82,39,223,50*6D
$GLGSV,2,2,08,80,42,321,51,79,78,169,52,71,05,335,44,72,08,020,38*6D
$GAGSV,2,1,08,27,88,107,48,13,28,194,42,34,36,049,44,30,33,121,44*60
$GAGSV,2,2,08,21,36,302,43,15,67,130,48,19,07,284,31,04,04,337,36*6A
$GBGSV,6,1,22,11,83,212,49,37,11,317,40,44,14,057,41,05,21,129,38*6B
$GBGSV,6,2,22,38,30,055,44,13,36,080,43,25,53,180,50,08,35,070,42*6D
$GBGSV,6,3,22,28,46,217,,12,39,055,44,23,56,287,50,31,43,067,*65
$GBGSV,6,4,22,43,59,233,50,34,69,061,50,24,06,151,21,22,04,052,40*6E
$GBGSV,6,5,22,10,04,088,34,02,06,107,33,27,01,225,,19,01,005,35*63
$GBGSV,6,6,22,56,09,072,,60,10,109,38*60
$GPGGA,163032.00,,,,,0,00,,,M,,M,,*4D
$PTNL,GGK,163032.00,010125,4742.1606523,N,01618.1002154,E,1,35,0.9,EHT749.8277,M*4D
$GPGGQ,163032.00,010125,4742.1606523,N,01618.1002154,E,1,35,1.373,706.6212,M*3A
$GPGFA,163032.00,5.084,9.869,0.535,0.388,0.552,1.204,,VVV*04
$GPLLK,163032.00,010125,,M,,M,1,35,1.0,,M*09
$GNGMP,163032.00,,,,,DAAA,35,0.5,,,,*50
$GPGMP,163032.00,,,,,,09,,,,1.6,136*72
$GLGMP,163032.00,,,,,,07,,,,,*7D
$GAGMP,163032.00,,,,,,06,,,,,*71
$GBGMP,163032.00,,,,,,13,,,,,*76
$PSSN,SNC,[0,318650000,2347]*4D
$GPZDA,163037.00,01,01,2025,,*63
$GPDTM,W84,,00.0000000,N,00.0000000,E,00.0000000,W84*5F
$PSSN,TFM,163037.00,,,,*6F
$GPRMC,163037.00,A,4742.1606540,N,01618.1002187,E,0.0,,010125,5.1,E,D*1B
$GPGLL,4742.1606540,N,01618.1002187,E,163037.00,A,D*6A
$GPGGA,163037.00,4742.1606540,N,01618.1002187,E,2,35,0.5,706.6224,M,43.2066,M,2.6,0136*42
$GNGNS,163037.00,4742.1606540,N,01618.1002187,E,DAAA,35,0.5,706.6224,43.2066,,*5E
$GPGNS,163037.00,,,,,,09,,,,2.6,136*74
$GLGNS,163037.00,,,,,,07,,,,,*78
$GAGNS,163037.00,,,,,,06,,,,,*74
$GBGNS,163037.00,,,,,,13,,,,,*73
$GPLLQ,163037.00,010125,,M,,M,1,35,1.383,,M*1E
$GPVTG,,T,,M,0.01,N,0.01,K,D*26
$GPHDT,,T*1B
$GPTHS,,V*0E
$GPROT,,V*08
$PSSN,HRP,163037.00,010125,,,,,,,00,0,,*61
$PTNL,AVR,163037.00,,Yaw,,Tilt,,,,0,,00*37
$GPGSA,A,3,05,16,18,20,25,26,28,29,31,,,,0.9,0.5,0.7*30
$GPGSA,A,3,72,78,79,80,81,82,88,,,,,,0.9,0.5,0.7*36
$GPGSA,A,3,13,15,21,27,30,34,,,,,,,0.9,0.5,0.7*3D
$GPGSA,A,3,05,08,11,12,13,23,25,34,37,38,43,44,0.9,0.5,0.7*3C
$GPGSA,A,3,60,,,,,,,,,,,,0.9,0.5,0.7*3F
$GPGST,163037.00,1.513,0.533,0.388,1.912,0.533,0.389,1.215*5C
$GPGBS,163037.00,3.281,1.959,10.332,72,0.0001,6.467,6.848*65
$GPGRS,163037.00,1,-0.7,-1.4,0.1,0.7,-0.3,0.1,0.3,-0.2,0.5,,,*62
$GPGRS,163037.00,1,6.5,-2.9,-0.6,-1.4,0.9,-0.0,-0.3,,,,,*4C
$GPGRS,163037.00,1,0.5,0.2,-0.2,-0.1,-0.1,-0.2,,,,,,*49
$GPGRS,163037.00,1,0.3,1.0,1.3,0.1,-0.3,-0.3,-0.6,-0.7,-1.0,-0.3,0.7,0.1*4A
$GPGRS,163037.00,1,-0.9,,,,,,,,,,,*44
$GPGSV,6,1,21,29,70,051,49,16,11,301,38,20,19,048,40,25,41,129,46*7E
$GPGSV,6,2,21,05,25,084,43,18,48,185,48,26,41,301,46,28,42,232,47*7F
$GPGSV,6,3,21,31,45,271,48,12,04,122,31,04,04,325,37,11,05,038,36*7B
$GPGSV,6,4,21,36,35,170,45,58,13,245,37,40,23,133,36,34,31,208,43*7D
$GPGSV,6,5,21,49,34,195,45,57,07,111,37,41,07,108,34,61,03,257,39*7D
$GPGSV,6,6,21*7A
$GLGSV,2,1,08,81,87,342,52,88,31,040,47,78,24,148,48,82,39,223,50*61
$GLGSV,2,2,08,80,42,321,51,79,78,169,52,71,05,335,43,72,08,020,37*65
$GAGSV,2,1,08,27,88,108,48,13,28,194,43,34,35,048,44,30,33,121,43*6B
$GAGSV,2,2,08,21,36,302,43,15,67,130,48,19,07,284,31,04,04,337,36*6A
$GBGSV,6,1,22,11,83,212,49,37,11,317,40,44,14,057,42,05,21,129,38*68
$GBGSV,6,2,22,38,30,055,44,13,36,080,44,25,53,180,50,08,35,070,42*6A
$GBGSV,6,3,22,28,46,217,,12,39,055,44,23,56,287,50,31,43,067,*65
$GBGSV,6,4,22,43,59,233,50,34,69,061,50,24,06,151,20,22,04,052,40*6F
$GBGSV,6,5,22,10,04,088,35,02,06,107,33,27,01,225,,19,01,005,36*61
$GBGSV,6,6,22,56,09,072,,60,10,109,38*60
$GPGGA,163037.00,,,,,0,00,,,M,,M,,*48
$PTNL,GGK,163037.00,010125,4742.1606540,N,01618.1002187,E,1,35,0.9,EHT749.8289,M*42
$GPGGQ,163037.00,010125,4742.1606540,N,01618.1002187,E,1,35,1.383,706.6224,M*3E
$GPGFA,163037.00,5.067,9.967,0.533,0.388,1.912,1.215,,VVV*0C
$GPLLK,163037.00,010125,,M,,M,1,35,1.0,,M*0C
$GNGMP,163037.00,,,,,DAAA,35,0.5,,,,*55
$GPGMP,163037.00,,,,,,09,,,,2.6,136*74
$GLGMP,163037.00,,,,,,07,,,,,*78
$GAGMP,163037.00,,,,,,06,,,,,*74
$GBGMP,163037.00,,,,,,13,,,,,*73
$PSSN,SNC,[0,318655000,2347]*48
$GPZDA,163042.00,01,01,2025,,*61
$GPDTM,W84,,00.0000000,N,00.0000000,E,00.0000000,W84*5F
$PSSN,TFM,163042.00,,,,*6D
$GPRMC,163042.00,A,4742.1606518,N,01618.1002212,E,0.0,,010125,5.1,E,D*1B
$GPGLL,4742.1606518,N,01618.1002212,E,163042.00,A,D*6A
$GPGGA,163042.00,4742.1606518,N,01618.1002212,E,2,35,0.5,706.6175,M,43.2066,M,3.1,0136*43
$GNGNS,163042.00,4742.1606518,N,01618.1002212,E,DAAA,35,0.5,706.6175,43.2066,,*59
$GPGNS,163042.00,,,,,,09,,,,3.1,136*70
$GLGNS,163042.00,,,,,,07,,,,,*7A
$GAGNS,163042.00,,,,,,06,,,,,*76
$GBGNS,163042.00,,,,,,13,,,,,*71
$GPLLQ,163042.00,010125,,M,,M,1,35,1.397,,M*19
$GPVTG,,T,,M,0.00,N,0.01,K,D*27
$GPHDT,,T*1B
$GPTHS,,V*0E
$GPROT,,V*08
$PSSN,HRP,163042.00,010125,,,,,,,00,0,,*63
$PTNL,AVR,163042.00,,Yaw,,Tilt,,,,0,,00*35
$GPGSA,A,3,05,16,18,20,25,26,28,29,31,,,,0.9,0.5,0.7*30
$GPGSA,A,3,72,78,79,80,81,82,88,,,,,,0.9,0.5,0.7*36
$GPGSA,A,3,13,15,21,27,30,34,,,,,,,0.9,0.5,0.7*3D
$GPGSA,A,3,05,08,11,12,13,23,25,34,37,38,43,44,0.9,0.5,0.7*3C
$GPGSA,A,3,60,,,,,,,,,,,,0.9,0.5,0.7*3F
$GPGST,163042.00,1.429,0.540,0.392,1.967,0.540,0.392,1.228*5B
$GPGBS,163042.00,3.306,1.992,10.457,72,0.0001,6.121,6.846*63
$GPGRS,163042.00,1,-0.1,-1.0,-0.2,0.7,-0.2,0.1,0.1,-0.1,0.3,,,*4A
$GPGRS,163042.00,1,6.1,-2.9,-0.6,-1.5,0.8,0.1,-0.2,,,,,*67
$GPGRS,163042.00,1,0.5,0.3,-0.4,-0.2,0.2,0.0,,,,,,*4E
$GPGRS,163042.00,1,0.3,0.0,1.2,0.5,0.1,-0.5,-0.6,-0.6,-1.3,-0.4,0.8,0.2*6C
$GPGRS,163042.00,1,-0.5,,,,,,,,,,,*4A
$GPGSV,6,1,21,29,70,051,49,16,11,301,39,20,19,048,40,25,41,129,46*7F
$GPGSV,6,2,21,05,25,084,43,18,48,185,48,26,41,301,46,28,42,232,47*7F
$GPGSV,6,3,21,31,45,271,48,12,04,122,30,04,04,325,37,11,05,038,36*7A
$GPGSV,6,4,21,36,35,170,45,58,13,245,37,40,23,133,37,34,31,208,43*7C
$GPGSV,6,5,21,49,34,195,45,57,07,111,37,41,07,108,35,61,03,257,39*7C
$GPGSV,6,6,21*7A
$GLGSV,2,1,08,81,87,342,52,88,31,040,48,78,24,148,47,82,39,223,50*61
$GLGSV,2,2,08,80,42,321,51,79,78,169,52,71,05,335,43,72,08,020,37*65
$GAGSV,2,1,08,27,88,108,48,13,28,194,43,34,35,048,44,30,33,121,43*6B
$GAGSV,2,2,08,21,36,302,44,15,67,130,48,19,07,284,31,04,04,337,36*6D
$GBGSV,6,1,22,11,83,212,49,37,11,317,40,44,14,057,41,05,21,129,38*6B
$GBGSV,6,2,22,38,30,054,44,13,36,080,44,25,53,180,50,08,35,070,42*6B
$GBGSV,6,3,22,28,46,217,,12,38,055,44,23,56,287,50,31,43,067,*64
$GBGSV,6,4,22,43,59,233,50,34,69,061,50,24,06,151,,22,04,052,40*6D
$GBGSV,6,5,22,10,04,088,35,02,06,107,33,27,01,225,,19,01,005,36*61
$GBGSV,6,6,22,56,09,072,,60,10,109,38*60
$GPGGA,163042.00,,,,,0,00,,,M,,M,,*4A
$PTNL,GGK,163042.00,010125,4742.1606518,N,01618.1002212,E,1,35,0.9,EHT749.8240,M*47
$GPGGQ,163042.00,010125,4742.1606518,N,01618.1002212,E,1,35,1.397,706.6175,M*3C
$GPGFA,163042.00,5.132,10.070,0.540,0.392,1.967,1.228,,VVV*3B
$GPLLK,163042.00,010125,,M,,M,1,35,1.0,,M*0E
$GNGMP,163042.00,,,,,DAAA,35,0.5,,,,*57
$GPGMP,163042.00,,,,,,09,,,,3.1,136*70
$GLGMP,163042.00,,,,,,07,,,,,*7A
$GAGMP,163042.00,,,,,,06,,,,,*76
$GBGMP,163042.00,,,,,,13,,,,,*71
$PSSN,SNC,[0,318660000,2347]*4E
$GPZDA,163047.00,01,01,2025,,*64
$GPDTM,W84,,00.0000000,N,00.0000000,E,00.0000000,W84*5F
$PSSN,TFM,163047.00,,,,*68
$GPRMC,163047.00,A,4742.1606512,N,01618.1002181,E,0.0,,010125,5.1,E,D*1D
$GPGLL,4742.1606512,N,01618.1002181,E,163047.00,A,D*6C
$GPGGA,163047.00,4742.1606512,N,01618.1002181,E,2,35,0.5,706.6220,M,43.2066,M,2.8,0136*4E
$GNGNS,163047.00,4742.1606512,N,01618.1002181,E,DAAA,35,0.5,706.6220,43.2066,,*5C
$GPGNS,163047.00,,,,,,09,,,,2.8,136*7D
$GLGNS,163047.00,,,,,,07,,,,,*7F
$GAGNS,163047.00,,,,,,06,,,,,*73
$GBGNS,163047.00,,,,,,13,,,,,*74
$GPLLQ,163047.00,010125,,M,,M,1,35,1.394,,M*1F
$GPVTG,,T,,M,0.00,N,0.00,K,D*26
$GPHDT,,T*1B
$GPTHS,,V*0E
$GPROT,,V*08
$PSSN,HRP,163047.00,010125,,,,,,,00,0,,*66
$PTNL,AVR,163047.00,,Yaw,,Tilt,,,,0,,00*30
$GPGSA,A,3,05,16,18,20,25,26,28,29,31,,,,0.9,0.5,0.7*30
$GPGSA,A,3,72,78,79,80,81,82,88,,,,,,0.9,0.5,0.7*36
$GPGSA,A,3,13,15,21,27,30,34,,,,,,,0.9,0.5,0.7*3D
$GPGSA,A,3,05,08,11,12,13,23,25,34,37,38,43,44,0.9,0.5,0.7*3C
$GPGSA,A,3,60,,,,,,,,,,,,0.9,0.5,0.7*3F
$GPGST,163047.00,1.617,0.542,0.391,1.064,0.542,0.392,1.223*53
$GPGBS,163047.00,3.278,1.987,10.172,16,0.0001,-1.933,1.992*44
$GPGRS,163047.00,1,0.3,-1.9,-0.3,0.8,0.1,-0.1,0.2,-0.1,0.2,,,*66
$GPGRS,163047.00,1,6.4,-3.3,-0.8,-2.6,1.1,0.3,-0.0,,,,,*6A
$GPGRS,163047.00,1,0.5,0.0,-0.8,-0.4,0.2,-0.2,,,,,,*6D
$GPGRS,163047.00,1,0.5,-0.2,1.1,0.8,0.1,-0.3,-0.4,-0.7,-1.5,-0.7,0.7,-0.0*6E
$GPGRS,163047.00,1,-0.8,,,,,,,,,,,*42
$GPGSV,6,1,21,29,70,051,49,16,11,301,39,20,19,048,41,25,41,129,46*7E
$GPGSV,6,2,21,05,25,084,43,18,48,185,48,26,41,301,46,28,42,232,47*7F
$GPGSV,6,3,21,31,45,271,48,12,04,122,29,04,04,325,38,11,04,038,36*7C
$GPGSV,6,4,21,36,35,170,45,58,13,245,37,40,23,133,37,34,31,208,43*7C
$GPGSV,6,5,21,49,34,195,45,57,07,111,37,41,07,108,35,61,03,257,39*7C
$GPGSV,6,6,21*7A
$GLGSV,2,1,08,81,87,343,52,88,30,040,48,78,24,148,47,82,39,223,50*61
$GLGSV,2,2,08,80,42,321,51,79,78,169,52,71,05,335,43,72,08,020,38*6A
$GAGSV,2,1,08,27,88,108,48,13,28,194,43,34,35,048,44,30,33,121,44*6C
$GAGSV,2,2,08,21,36,302,44,15,67,130,48,19,07,284,32,04,04,337,36*6E
$GBGSV,6,1,22,11,84,212,49,37,11,317,41,44,14,057,41,05,21,129,38*6D
$GBGSV,6,2,22,38,30,054,44,13,36,080,44,25,53,180,50,08,35,070,41*68
$GBGSV,6,3,22,28,46,217,,12,38,055,45,23,56,287,50,31,43,067,*65
$GBGSV,6,4,22,43,59,233,50,34,69,061,50,24,06,151,22,22,04,052,40*6D
$GBGSV,6,5,22,10,04,088,35,02,06,107,34,27,01,225,,19,01,005,36*66
$GBGSV,6,6,22,56,09,072,,60,10,109,38*60
$GPGGA,163047.00,,,,,0,00,,,M,,M,,*4F
$PTNL,GGK,163047.00,010125,4742.1606512,N,01618.1002181,E,1,35,0.9,EHT749.8286,M*4B
$GPGGQ,163047.00,010125,4742.1606512,N,01618.1002181,E,1,35,1.394,706.6220,M*3A
$GPGFA,163047.00,5.157,10.025,0.542,0.391,1.064,1.223,,VVV*3D
$GPLLK,163047.00,010125,,M,,M,1,35,1.0,,M*0B
$GNGMP,163047.00,,,,,DAAA,35,0.5,,,,*52
$GPGMP,163047.00,,,,,,09,,,,2.8,136*7D
$GLGMP,163047.00,,,,,,07,,,,,*7F
$GAGMP,163047.00,,,,,,06,,,,,*73
$GBGMP,163047.00,,,,,,13,,,,,*74
$PSSN,SNC,[0,318665000,2347]*4B
$GPZDA,163052.00,01,01,2025,,*60
$GPDTM,W84,,00.0000000,N,00.0000000,E,00.0000000,W84*5F
$PSSN,TFM,163052.00,,,,*6C
$GPRMC,163052.00,A,4742.1606518,N,01618.1002177,E,0.0,,010125,5.1,E,D*1A
$GPGLL,4742.1606518,N,01618.1002177,E,163052.00,A,D*6B
$GPGGA,163052.00,4742.1606518,N,01618.1002177,E,2,35,0.5,706.6205,M,43.2066,M,1.6,0136*43
$GNGNS,163052.00,4742.1606518,N,01618.1002177,E,DAAA,35,0.5,706.6205,43.2066,,*5C
$GPGNS,163052.00,,,,,,09,,,,1.6,136*74
$GLGNS,163052.00,,,,,,07,,,,,*7B
$GAGNS,163052.00,,,,,,06,,,,,*77
$GBGNS,163052.00,,,,,,13,,,,,*70
$GPLLQ,163052.00,010125,,M,,M,1,35,1.371,,M*10
$GPVTG,,T,,M,0.00,N,0.01,K,D*27
$GPHDT,,T*1B
$GPTHS,,V*0E
$GPROT,,V*08
$PSSN,HRP,163052.00,010125,,,,,,,00,0,,*62
$PTNL,AVR,163052.00,,Yaw,,Tilt,,,,0,,00*34
$GPGSA,A,3,05,16,18,20,25,26,28,29,31,,,,0.9,0.5,0.7*30
$GPGSA,A,3,72,78,79,80,81,82,88,,,,,,0.9,0.5,0.7*36
$GPGSA,A,3,13,15,21,27,30,34,,,,,,,0.9,0.5,0.7*3D
$GPGSA,A,3,05,08,11,12,13,23,25,34,37,38,43,44,0.9,0.5,0.7*3C
$GPGSA,A,3,60,,,,,,,,,,,,0.9,0.5,0.7*3F
$GPGST,163052.00,1.753,0.533,0.387,0.157,0.533,0.387,1.203*57
$GPGBS,163052.00,3.221,1.909,10.255,16,0.0001,-2.722,1.969*45
$GPGRS,163052.00,1,-0.1,-2.7,-0.2,0.8,-0.4,-0.1,0.6,-0.1,0.6,,,*69
$GPGRS,163052.00,1,7.1,-3.3,-0.9,-2.2,0.8,-0.1,-0.2,,,,,*4A
$GPGRS,163052.00,1,0.2,-0.0,-0.8,-0.3,0.3,-0.3,,,,,,*44
$GPGRS,163052.00,1,0.4,-0.3,1.3,1.1,-0.0,-0.1,-0.5,-0.7,-1.5,-0.7,0.8,-0.1*41
$GPGRS,163052.00,1,-0.9,,,,,,,,,,,*47
$GPGSV,6,1,21,29,70,051,49,16,11,301,39,20,19,048,40,25,41,129,46*7F
$GPGSV,6,2,21,05,25,083,43,18,48,185,48,26,41,301,46,28,42,232,48*77
$GPGSV,6,3,21,31,45,271,48,12,04,122,28,04,04,325,37,11,04,038,37*73
$GPGSV,6,4,21,36,35,170,45,58,13,245,36,40,23,133,37,34,31,208,43*7D
$GPGSV,6,5,21,49,34,195,44,57,07,111,37,41,07,108,35,61,03,257,38*7C
$GPGSV,6,6,21*7A
$GLGSV,2,1,08,81,87,343,51,88,30,040,47,78,24,148,47,82,39,223,49*65
$GLGSV,2,2,08,80,42,321,51,79,78,169,52,71,05,335,44,72,08,020,38*6D
$GAGSV,2,1,08,27,88,109,48,13,28,194,43,34,35,048,44,30,33,121,44*6D
$GAGSV,2,2,08,21,36,302,44,15,67,130,49,19,07,284,32,04,04,337,36*6F
$GBGSV,6,1,22,11,84,212,49,37,11,317,40,44,14,057,41,05,21,129,38*6C
$GBGSV,6,2,22,38,30,054,44,13,36,080,44,25,52,180,50,08,35,070,41*69
$GBGSV,6,3,22,12,38,055,45,28,46,217,,23,56,287,50,31,43,067,*65
$GBGSV,6,4,22,43,59,233,50,34,68,061,50,22,05,052,40,24,06,151,20*6F
$GBGSV,6,5,22,10,04,088,36,02,06,107,34,27,01,225,,19,01,005,35*66
$GBGSV,6,6,22,56,09,072,,60,10,109,38*60
$GPGGA,163052.00,,,,,0,00,,,M,,M,,*4B
$PTNL,GGK,163052.00,010125,4742.1606518,N,01618.1002177,E,1,35,0.9,EHT749.8271,M*44
$GPGGQ,163052.00,010125,4742.1606518,N,01618.1002177,E,1,35,1.371,706.6205,M*31
$GPGFA,163052.00,5.070,9.862,0.533,0.387,0.157,1.203,,VVV*0D
$GPLLK,163052.00,010125,,M,,M,1,35,1.0,,M*0F
$GNGMP,163052.00,,,,,DAAA,35,0.5,,,,*56
$GPGMP,163052.00,,,,,,09,,,,1.6,136*74
$GLGMP,163052.00,,,,,,07,,,,,*7B
$GAGMP,163052.00,,,,,,06,,,,,*77
$GBGMP,163052.00,,,,,,13,,,,,*70
$PSSN,SNC,[0,318670000,2347]*4F
$GPZDA,163057.00,01,01,2025,,*65
$GPDTM,W84,,00.0000000,N,00.0000000,E,00.0000000,W84*5F
$PSSN,TFM,163057.00,,,,*69
$GPRMC,163057.00,A,4742.1606520,N,01618.1002182,E,0.0,,010125,5.1,E,D*1E
$GPGLL,4742.1606520,N,01618.1002182,E,163057.00,A,D*6F
$GPGGA,163057.00,4742.1606520,N,01618.1002182,E,2,35,0.5,706.6174,M,43.2066,M,2.6,0136*41
$GNGNS,163057.00,4742.1606520,N,01618.1002182,E,DAAA,35,0.5,706.6174,43.2066,,*5D
$GPGNS,163057.00,,,,,,09,,,,2.6,136*72
$GLGNS,163057.00,,,,,,07,,,,,*7E
$GAGNS,163057.00,,,,,,06,,,,,*72
$GBGNS,163057.00,,,,,,13,,,,,*75
$GPLLQ,163057.00,010125,,M,,M,1,35,1.384,,M*1F
$GPVTG,,T,,M,0.00,N,0.00,K,D*26
$GPHDT,,T*1B
$GPTHS,,V*0E
$GPROT,,V*08
$PSSN,HRP,163057.00,010125,,,,,,,00,0,,*67
$PTNL,AVR,163057.00,,Yaw,,Tilt,,,,0,,00*31
$GPGSA,A,3,05,16,18,20,25,26,28,29,31,,,,0.9,0.5,0.7*30
$GPGSA,A,3,72,78,79,80,81,82,88,,,,,,0.9,0.5,0.7*36
$GPGSA,A,3,13,15,21,27,30,34,,,,,,,0.9,0.5,0.7*3D
$GPGSA,A,3,05,08,11,12,13,23,25,34,37,38,43,44,0.9,0.5,0.7*3C
$GPGSA,A,3,60,,,,,,,,,,,,0.9,0.5,0.7*3F
$GPGST,163057.00,1.682,0.533,0.388,1.753,0.533,0.389,1.217*58
$GPGBS,163057.00,3.260,1.958,10.333,16,0.0001,-2.306,1.973*49
$GPGRS,163057.00,1,-0.0,-2.3,-0.0,0.2,0.0,-0.4,0.3,-0.1,0.6,,,*48
$GPGRS,163057.00,1,6.9,-3.2,-0.8,-1.9,0.8,-0.2,-0.6,,,,,*49
$GPGRS,163057.00,1,0.3,0.0,-0.8,-0.3,0.1,-0.2,,,,,,*6E
$GPGRS,163057.00,1,0.3,0.1,1.7,1.2,-0.5,-0.1,-0.4,-0.5,-1.4,-0.6,0.6,0.3*4C
$GPGRS,163057.00,1,-0.8,,,,,,,,,,,*43
$GPGSV,6,1,21,29,70,051,49,16,11,301,39,20,19,048,40,25,41,129,45*7C
$GPGSV,6,2,21,05,25,083,44,18,48,185,48,26,41,301,46,28,42,232,47*7F
$GPGSV,6,3,21,31,45,271,48,12,04,122,28,04,04,325,37,11,04,038,37*73
$GPGSV,6,4,21,36,35,170,45,58,13,245,37,40,23,133,36,34,31,208,43*7D
$GPGSV,6,5,21,49,34,195,44,57,07,111,37,41,07,108,35,61,03,257,38*7C
$GPGSV,6,6,21*7A
$GLGSV,2,1,08,81,87,344,52,88,30,040,47,78,24,148,47,82,39,223,50*69
$GLGSV,2,2,08,80,42,321,51,79,78,169,52,71,04,335,43,72,08,020,39*6A
$GAGSV,2,1,08,27,88,109,49,13,28,194,43,34,35,048,45,30,33,121,44*6D
$GAGSV,2,2,08,21,36,302,44,15,67,130,49,19,07,284,32,04,04,337,36*6F
$GBGSV,6,1,22,11,84,212,49,37,11,317,41,44,14,057,41,05,21,129,38*6D
$GBGSV,6,2,22,38,30,054,44,13,36,080,44,25,52,180,50,08,36,070,41*6A
$GBGSV,6,3,22,12,38,055,45,28,46,217,,23,56,287,50,31,43,067,*65
$GBGSV,6,4,22,43,59,233,50,34,68,061,51,22,05,052,39,24,06,151,*62
$GBGSV,6,5,22,10,04,088,35,02,06,107,34,27,01,225,,19,01,005,35*65
$GBGSV,6,6,22,56,09,072,,60,10,109,38*60
$GPGGA,163057.00,,,,,0,00,,,M,,M,,*4E
$PTNL,GGK,163057.00,010125,4742.1606520,N,01618.1002182,E,1,35,0.9,EHT749.8240,M*42
$GPGGQ,163057.00,010125,4742.1606520,N,01618.1002182,E,1,35,1.384,706.6174,M*3A
$GPGFA,163057.00,5.064,9.981,0.533,0.388,1.753,1.217,,VVV*08
$GPLLK,163057.00,010125,,M,,M,1,35,1.0,,M*0A
$GNGMP,163057.00,,,,,DAAA,35,0.5,,,,*53
$GPGMP,163057.00,,,,,,09,,,,2.6,136*72
$GLGMP,163057.00,,,,,,07,,,,,*7E
$GAGMP,163057.00,,,,,,06,,,,,*72
$GBGMP,163057.00,,,,,,13,,,,,*75
$PSSN,SNC,[0,318675000,2347]*4A
$GPZDA,163102.00,01,01,2025,,*64
$GPDTM,W84,,00.0000000,N,00.0000000,E,00.0000000,W84*5F
$PSSN,TFM,163102.00,,,,*68
$GPRMC,163102.00,A,4742.1606539,N,01618.1002178,E,0.0,,010125,5.1,E,D*12
$GPGLL,4742.1606539,N,01618.1002178,E,163102.00,A,D*63
$GPGGA,163102.00,4742.1606539,N,01618.1002178,E,2,35,0.5,706.6160,M,43.2066,M,3.1,0136*4E
$GNGNS,163102.00,4742.1606539,N,01618.1002178,E,DAAA,35,0.5,706.6160,43.2066,,*54
$GPGNS,163102.00,,,,,,09,,,,3.1,136*75
$GLGNS,163102.00,,,,,,07,,,,,*7F
$GAGNS,163102.00,,,,,,06,,,,,*73
$GBGNS,163102.00,,,,,,13,,,,,*74
$GPLLQ,163102.00,010125,,M,,M,1,35,1.386,,M*1C
$GPVTG,,T,,M,0.01,N,0.01,K,D*26
$GPHDT,,T*1B
$GPTHS,,V*0E
$GPROT,,V*08
$PSSN,HRP,163102.00,010125,,,,,,,00,0,,*66
$PTNL,AVR,163102.00,,Yaw,,Tilt,,,,0,,00*30
$GPGSA,A,3,05,16,18,20,25,26,28,29,31,,,,0.9,0.5,0.7*30
$GPGSA,A,3,72,78,79,80,81,82,88,,,,,,0.9,0.5,0.7*36
$GPGSA,A,3,13,15,21,27,30,34,,,,,,,0.9,0.5,0.7*3D
$GPGSA,A,3,05,08,11,12,13,23,25,34,37,38,43,44,0.9,0.5,0.7*3C
$GPGSA,A,3,60,,,,,,,,,,,,0.9,0.5,0.7*3F
$GPGST,163102.00,1.793,0.531,0.385,4.435,0.530,0.386,1.222*5B
$GPGBS,163102.00,3.140,1.892,10.403,72,0.0001,7.557,6.845*61
$GPGRS,163102.00,1,-0.4,-2.1,0.0,0.7,0.3,-0.2,0.0,-0.2,0.6,,,*62
$GPGRS,163102.00,1,7.6,-3.4,-1.0,-1.8,1.0,0.0,-0.4,,,,,*6C
$GPGRS,163102.00,1,0.3,-0.1,-0.5,-0.3,0.0,-0.4,,,,,,*49
$GPGRS,163102.00,1,0.3,1.1,1.4,1.0,-0.4,-0.2,-0.4,-0.7,-1.7,-0.5,0.8,0.5*45
$GPGRS,163102.00,1,-0.9,,,,,,,,,,,*43
$GPGSV,6,1,21,29,70,051,49,16,11,302,38,20,19,047,40,25,41,129,45*71
$GPGSV,6,2,21,05,25,083,43,18,48,185,48,26,41,301,46,28,42,232,47*78
$GPGSV,6,3,21,31,45,271,48,12,04,122,27,04,04,325,37,11,04,038,37*7C
$GPGSV,6,4,21,36,35,170,45,58,13,245,37,40,23,133,37,34,31,208,43*7C
$GPGSV,6,5,21,49,34,195,45,57,07,111,38,41,07,108,34,61,03,257,39*72
$GPGSV,6,6,21*7A
$GLGSV,2,1,08,81,87,344,52,88,30,040,47,78,24,148,47,82,39,223,50*69
$GLGSV,2,2,08,80,42,321,51,79,78,169,52,71,04,335,44,72,09,020,38*6D
$GAGSV,2,1,08,27,88,110,49,13,28,194,43,34,35,048,44,30,33,121,44*64
$GAGSV,2,2,08,21,36,302,44,15,67,130,48,19,07,284,32,04,04,337,36*6E
$GBGSV,6,1,22,11,84,212,49,37,11,317,40,44,14,057,41,05,21,129,38*6C
$GBGSV,6,2,22,38,30,054,44,13,36,080,44,25,52,180,51,08,36,070,42*68
$GBGSV,6,3,22,12,38,055,44,28,46,217,,23,56,287,50,31,43,066,*65
$GBGSV,6,4,22,43,59,233,50,34,68,061,50,22,05,052,40,24,06,151,*6D
$GBGSV,6,5,22,10,04,088,35,02,06,107,34,27,01,225,,19,01,005,35*65
$GBGSV,6,6,22,56,09,072,,60,10,109,38*60
$GPGGA,163102.00,,,,,0,00,,,M,,M,,*4F
$PTNL,GGK,163102.00,010125,4742.1606539,N,01618.1002178,E,1,35,0.9,EHT749.8226,M*4E
$GPGGQ,163102.00,010125,4742.1606539,N,01618.1002178,E,1,35,1.386,706.6160,M*31
$GPGFA,163102.00,5.046,10.017,0.531,0.385,4.435,1.222,,VVV*38
$GPLLK,163102.00,010125,,M,,M,1,35,1.0,,M*0B
$GNGMP,163102.00,,,,,DAAA,35,0.5,,,,*52
$GPGMP,163102.00,,,,,,09,,,,3.1,136*75
$GLGMP,163102.00,,,,,,07,,,,,*7F
$GAGMP,163102.00,,,,,,06,,,,,*73
$GBGMP,163102.00,,,,,,13,,,,,*74
$PSSN,SNC,[0,318680000,2347]*40
$GPZDA,163107.00,01,01,2025,,*61
$GPDTM,W84,,00.0000000,N,00.0000000,E,00.0000000,W84*5F
$PSSN,TFM,163107.00,,,,*6D
$GPRMC,163107.00,A,4742.1606544,N,01618.1002175,E,0.0,,010125,5.1,E,D*10
$GPGLL,4742.1606544,N,01618.1002175,E,163107.00,A,D*61
$GPGGA,163107.00,4742.1606544,N,01618.1002175,E,2,35,0.5,706.6122,M,43.2066,M,2.8,0136*42
$GNGNS,163107.00,4742.1606544,N,01618.1002175,E,DAAA,35,0.5,706.6122,43.2066,,*50
$GPGNS,163107.00,,,,,,09,,,,2.8,136*78
$GLGNS,163107.00,,,,,,07,,,,,*7A
$GAGNS,163107.00,,,,,,06,,,,,*76
$GBGNS,163107.00,,,,,,13,,,,,*71
$GPLLQ,163107.00,010125,,M,,M,1,35,1.382,,M*1D
$GPVTG,,T,,M,0.00,N,0.00,K,D*26
$GPHDT,,T*1B
$GPTHS,,V*0E
$GPROT,,V*08
$PSSN,HRP,163107.00,010125,,,,,,,00,0,,*63
$PTNL,AVR,163107.00,,Yaw,,Tilt,,,,0,,00*35
$GPGSA,A,3,05,16,18,20,25,26,28,29,31,,,,0.9,0.5,0.7*30
$GPGSA,A,3,72,78,79,80,81,82,88,,,,,,0.9,0.5,0.7*36
$GPGSA,A,3,13,15,21,27,30,34,,,,,,,0.9,0.5,0.7*3D
$GPGSA,A,3,05,08,11,12,13,23,25,34,37,38,43,44,0.9,0.5,0.7*3C
$GPGSA,A,3,60,,,,,,,,,,,,0.9,0.5,0.7*3F
$GPGST,163107.00,1.788,0.532,0.385,2.955,0.531,0.386,1.216*5C
$GPGBS,163107.00,3.130,1.896,10.105,72,0.0001,7.958,6.823*67
$GPGRS,163107.00,1,-0.4,-2.0,0.1,0.2,0.3,0.3,0.1,-0.1,0.3,,,*49
$GPGRS,163107.00,1,8.0,-2.8,-0.6,-2.0,1.3,-0.4,0.4,,,,,*66
$GPGRS,163107.00,1,0.2,0.0,-0.6,-0.2,0.1,-0.3,,,,,,*65
$GPGRS,163107.00,1,0.2,0.9,1.2,0.3,-0.6,-0.1,-0.5,-0.9,-1.4,-0.7,0.7,0.5*4C
$GPGRS,163107.00,1,-0.6,,,,,,,,,,,*49
$GPGSV,6,1,21,29,70,051,49,16,11,302,37,20,19,047,41,25,41,129,46*7C
$GPGSV,6,2,21,05,25,083,43,18,48,185,48,26,41,301,46,28,42,232,47*78
$GPGSV,6,3,21,31,45,271,48,12,04,122,25,04,04,325,36,11,04,038,37*7F
$GPGSV,6,4,21,36,35,170,45,58,13,245,37,40,23,133,37,34,31,208,43*7C
$GPGSV,6,5,21,49,34,195,45,57,07,111,37,41,07,108,34,61,03,257,39*7D
$GPGSV,6,6,21*7A
$GLGSV,2,1,08,81,87,345,52,88,30,040,48,78,24,148,47,82,39,223,50*67
$GLGSV,2,2,08,80,42,321,51,79,78,169,52,71,04,335,43,72,09,020,37*65
$GAGSV,2,1,08,27,88,110,48,13,28,194,43,34,35,048,44,30,33,121,44*65
$GAGSV,2,2,08,21,36,302,44,15,67,129,48,19,07,284,31,04,04,337,37*64
$GBGSV,6,1,22,11,84,212,49,37,11,317,40,44,14,057,41,05,21,129,38*6C
$GBGSV,6,2,22,38,30,054,44,13,36,080,44,25,52,180,51,08,36,070,42*68
$GBGSV,6,3,22,12,38,055,44,28,46,217,,23,56,287,50,31,43,066,*65
$GBGSV,6,4,22,43,59,233,50,34,68,061,51,22,05,052,40,24,06,151,*6C
$GBGSV,6,5,22,10,04,088,35,02,06,107,34,27,01,225,,19,01,005,35*65
$GBGSV,6,6,22,56,09,072,,60,10,109,38*60
$GPGGA,163107.00,,,,,0,00,,,M,,M,,*4A
$PTNL,GGK,163107.00,010125,4742.1606544,N,01618.1002175,E,1,35,0.9,EHT749.8188,M*4B
$GPGGQ,163107.00,010125,4742.1606544,N,01618.1002175,E,1,35,1.382,706.6122,M*31
$GPGFA,163107.00,5.056,9.970,0.532,0.385,2.955,1.216,,VVV*05
$GPLLK,163107.00,010125,,M,,M,1,35,1.0,,M*0E
$GNGMP,163107.00,,,,,DAAA,35,0.5,,,,*57
$GPGMP,163107.00,,,,,,09,,,,2.8,136*78
$GLGMP,163107.00,,,,,,07,,,,,*7A
$GAGMP,163107.00,,,,,,06,,,,,*76
$GBGMP,163107.00,,,,,,13,,,,,*71
$PSSN,SNC,[0,318685000,2347]*45
$GPZDA,163112.00,01,01,2025,,*65
$GPDTM,W84,,00.0000000,N,00.0000000,E,00.0000000,W84*5F
$PSSN,TFM,163112.00,,,,*69
$GPRMC,163112.00,A,4742.1606573,N,01618.1002171,E,0.0,,010125,5.1,E,D*14
$GPGLL,4742.1606573,N,01618.1002171,E,163112.00,A,D*65
$GPGGA,163112.00,4742.1606573,N,01618.1002171,E,2,35,0.5,706.6085,M,43.2066,M,1.6,0136*47
$GNGNS,163112.00,4742.1606573,N,01618.1002171,E,DAAA,35,0.5,706.6085,43.2066,,*58
$GPGNS,163112.00,,,,,,09,,,,1.6,136*71
$GLGNS,163112.00,,,,,,07,,,,,*7E
$GAGNS,163112.00,,,,,,06,,,,,*72
$GBGNS,163112.00,,,,,,13,,,,,*75
$GPLLQ,163112.00,010125,,M,,M,1,35,1.359,,M*1F
$GPVTG,,T,,M,0.01,N,0.01,K,D*26
$GPHDT,,T*1B
$GPTHS,,V*0E
$GPROT,,V*08
$PSSN,HRP,163112.00,010125,,,,,,,00,0,,*67
$PTNL,AVR,163112.00,,Yaw,,Tilt,,,,0,,00*31
$GPGSA,A,3,05,16,18,20,25,26,28,29,31,,,,0.9,0.5,0.7*30
$GPGSA,A,3,72,78,79,80,81,82,88,,,,,,0.9,0.5,0.7*36
$GPGSA,A,3,13,15,21,27,30,34,,,,,,,0.9,0.5,0.7*3D
$GPGSA,A,3,05,08,11,12,13,23,25,34,37,38,43,44,0.9,0.5,0.7*3C
$GPGSA,A,3,60,,,,,,,,,,,,0.9,0.5,0.7*3F
$GPGST,163112.00,1.506,0.522,0.381,2.135,0.522,0.381,1.195*5A
$GPGBS,163112.00,3.062,1.852,10.193,72,0.0001,6.013,6.823*65
$GPGRS,163112.00,1,-0.1,-1.7,0.0,0.2,0.1,-0.4,0.5,-0.3,0.6,,,*66
$GPGRS,163112.00,1,6.0,-2.6,-1.0,-2.5,0.9,-0.1,0.9,,,,,*63
$GPGRS,163112.00,1,0.2,-0.0,-0.9,-0.5,-0.0,-0.5,,,,,,*6E
$GPGRS,163112.00,1,0.2,0.3,0.9,0.6,-0.6,-0.5,-0.6,-0.9,-1.1,-1.1,0.3,0.1*48
$GPGRS,163112.00,1,-1.1,,,,,,,,,,,*4B
$GPGSV,6,1,21,29,70,051,49,16,11,302,38,20,19,047,42,25,41,129,46*70
$GPGSV,6,2,21,05,25,083,44,18,48,185,48,26,41,301,46,28,42,232,47*7F
$GPGSV,6,3,21,31,45,271,47,12,04,122,24,04,04,325,36,11,04,038,38*7E
$GPGSV,6,4,21,36,35,170,45,58,13,245,36,40,23,133,37,34,31,208,43*7D
$GPGSV,6,5,21,49,34,195,45,57,07,111,37,41,07,108,35,61,03,257,39*7C
$GPGSV,6,6,21*7A
$GLGSV,2,1,08,81,87,345,52,88,30,040,48,78,24,148,48,82,39,223,49*60
$GLGSV,2,2,08,80,42,321,51,79,78,169,52,71,04,335,43,72,09,020,37*65
$GAGSV,2,1,08,27,88,111,48,13,28,194,43,34,35,048,45,30,33,121,44*65
$GAGSV,2,2,08,21,36,302,44,15,67,129,48,19,07,284,31,04,04,337,36*65
$GBGSV,6,1,22,11,84,212,49,37,11,317,41,44,14,057,41,05,21,129,38*6D
$GBGSV,6,2,22,38,30,054,44,13,36,080,44,25,52,180,51,08,36,070,42*68
$GBGSV,6,3,22,12,38,055,45,28,46,217,,23,56,287,50,31,43,066,*64
$GBGSV,6,4,22,43,59,233,50,34,68,061,51,22,05,052,40,24,06,151,*6C
$GBGSV,6,5,22,10,04,088,36,02,06,107,34,27,01,225,,19,01,005,35*66
$GBGSV,6,6,22,56,09,072,,60,10,109,38*60
$GPGGA,163112.00,,,,,0,00,,,M,,M,,*4E
$PTNL,GGK,163112.00,010125,4742.1606573,N,01618.1002171,E,1,35,0.9,EHT749.8150,M*4A
$GPGGQ,163112.00,010125,4742.1606573,N,01618.1002171,E,1,35,1.359,706.6085,M*3F
$GPGFA,163112.00,4.966,9.802,0.522,0.381,2.135,1.195,,VVV*0D
$GPLLK,163112.00,010125,,M,,M,1,35,1.0,,M*0A
$GNGMP,163112.00,,,,,DAAA,35,0.5,,,,*53
$GPGMP,163112.00,,,,,,09,,,,1.6,136*71
$GLGMP,163112.00,,,,,,07,,,,,*7E
$GAGMP,163112.00,,,,,,06,,,,,*72
$GBGMP,163112.00,,,,,,13,,,,,*75
$PSSN,SNC,[0,318690000,2347]*41
$GPZDA,163117.00,01,01,2025,,*60
$GPDTM,W84,,00.0000000,N,00.0000000,E,00.0000000,W84*5F
$PSSN,TFM,163117.00,,,,*6C
$GPRMC,163117.00,A,4742.1606595,N,01618.1002164,E,0.0,,010125,5.1,E,D*1D
$GPGLL,4742.1606595,N,01618.1002164,E,163117.00,A,D*6C
$GPGGA,163117.00,4742.1606595,N,01618.1002164,E,2,35,0.5,706.6084,M,43.2066,M,2.6,0136*4C
$GNGNS,163117.00,4742.1606595,N,01618.1002164,E,DAAA,35,0.5,706.6084,43.2066,,*50
$GPGNS,163117.00,,,,,,09,,,,2.6,136*77
$GLGNS,163117.00,,,,,,07,,,,,*7B
$GAGNS,163117.00,,,,,,06,,,,,*77
$GBGNS,163117.00,,,,,,13,,,,,*70
$GPLLQ,163117.00,010125,,M,,M,1,35,1.366,,M*16
$GPVTG,,T,,M,0.00,N,0.01,K,D*27
$GPHDT,,T*1B
$GPTHS,,V*0E
$GPROT,,V*08
$PSSN,HRP,163117.00,010125,,,,,,,00,0,,*62
$PTNL,AVR,163117.00,,Yaw,,Tilt,,,,0,,00*34
$GPGSA,A,3,05,16,18,20,25,26,28,29,31,,,,0.9,0.5,0.7*30
$GPGSA,A,3,72,78,79,80,81,82,88,,,,,,0.9,0.5,0.7*36
$GPGSA,A,3,13,15,21,27,30,34,,,,,,,0.9,0.5,0.7*3D
$GPGSA,A,3,05,08,11,12,13,23,25,34,37,38,43,44,0.9,0.5,0.7*3C
$GPGSA,A,3,60,,,,,,,,,,,,0.9,0.5,0.7*3F
$GPGST,163117.00,1.358,0.519,0.381,3.451,0.519,0.381,1.205*5E
$GPGBS,163117.00,3.081,1.863,10.290,16,0.0001,-1.546,1.969*4A
$GPGRS,163117.00,1,0.0,-1.5,-0.1,0.9,0.0,-0.4,0.3,-0.2,0.4,,,*6E
$GPGRS,163117.00,1,5.2,-3.1,-1.0,-1.7,0.7,-0.3,0.2,,,,,*67
$GPGRS,163117.00,1,0.2,-0.1,-0.6,-0.5,0.4,-0.3,,,,,,*4A
$GPGRS,163117.00,1,0.3,0.5,1.0,1.1,-0.4,-0.4,-0.7,-0.7,-0.7,-0.9,0.6,0.3*41
$GPGRS,163117.00,1,-0.8,,,,,,,,,,,*46
$GPGSV,6,1,21,29,70,051,49,16,11,302,39,20,19,047,42,25,41,129,46*71
$GPGSV,6,2,21,05,25,083,43,18,48,185,48,26,41,301,46,28,42,232,47*78
$GPGSV,6,3,21,31,45,271,47,12,04,122,23,04,04,325,37,11,04,038,38*78
$GPGSV,6,4,21,36,35,170,45,58,13,245,37,40,23,133,37,34,31,208,43*7C
$GPGSV,6,5,21,49,34,195,45,57,07,111,37,41,07,108,35,61,03,257,39*7C
$GPGSV,6,6,21*7A
$GLGSV,2,1,08,81,86,346,52,88,30,040,48,78,24,148,47,82,39,223,50*65
$GLGSV,2,2,08,80,42,321,51,79,78,169,52,71,04,334,42,72,09,020,38*6A
$GAGSV,2,1,08,27,88,111,49,13,28,194,43,34,35,048,45,30,33,121,44*64
$GAGSV,2,2,08,21,36,302,44,15,67,129,48,19,07,284,32,04,04,337,37*67
$GBGSV,6,1,22,11,84,212,49,37,11,317,41,44,14,057,41,05,21,129,38*6D
$GBGSV,6,2,22,38,30,054,44,13,36,080,44,25,52,180,51,08,36,070,42*68
$GBGSV,6,3,22,12,38,055,44,28,46,217,,23,56,287,50,31,43,066,*65
$GBGSV,6,4,22,43,59,233,50,34,68,061,51,22,05,052,39,24,06,151,*62
$GBGSV,6,5,22,10,04,088,35,02,06,107,34,27,01,225,,19,01,005,35*65
$GBGSV,6,6,22,56,09,072,,60,10,109,38*60
$GPGGA,163117.00,,,,,0,00,,,M,,M,,*4B
$PTNL,GGK,163117.00,010125,4742.1606595,N,01618.1002164,E,1,35,0.9,EHT749.8150,M*43
$GPGGQ,163117.00,010125,4742.1606595,N,01618.1002164,E,1,35,1.366,706.6084,M*3B
$GPGFA,163117.00,4.939,9.880,0.519,0.381,3.451,1.205,,VVV*0C
$GPLLK,163117.00,010125,,M,,M,1,35,1.0,,M*0F
$GNGMP,163117.00,,,,,DAAA,35,0.5,,,,*56
$GPGMP,163117.00,,,,,,09,,,,2.6,136*77
$GLGMP,163117.00,,,,,,07,,,,,*7B
$GAGMP,163117.00,,,,,,06,,,,,*77
$GBGMP,163117.00,,,,,,13,,,,,*70
$PSSN,SNC,[0,318695000,2347]*44
$GPZDA,163122.00,01,01,2025,,*66
$GPDTM,W84,,00.0000000,N,00.0000000,E,00.0000000,W84*5F
$PSSN,TFM,163122.00,,,,*6A
$GPRMC,163122.00,A,4742.1606604,N,01618.1002168,E,0.0,,010125,5.1,E,D*1C
$GPGLL,4742.1606604,N,01618.1002168,E,163122.00,A,D*6D
$GPGGA,163122.00,4742.1606604,N,01618.1002168,E,2,35,0.5,706.6149,M,43.2066,M,3.1,0136*4B
$GNGNS,163122.00,4742.1606604,N,01618.1002168,E,DAAA,35,0.5,706.6149,43.2066,,*51
$GPGNS,163122.00,,,,,,09,,,,3.1,136*77
$GLGNS,163122.00,,,,,,07,,,,,*7D
$GAGNS,163122.00,,,,,,06,,,,,*71
$GBGNS,163122.00,,,,,,13,,,,,*76
