$GPZDA,144442.00,01,01,2025,,*60
$GPDTM,W84,,00.0000000,N,00.0000000,E,00.0000000,W84*5F
$PSSN,TFM,144442.00,,,,*6C
$GPRMC,144442.00,A,4742.1599557,N,01618.1012643,E,0.0,,010125,5.1,E,D*15
$GPGLL,4742.1599557,N,01618.1012643,E,144442.00,A,D*64
$GPGGA,144442.00,4742.1599557,N,01618.1012643,E,2,40,0.4,708.0917,M,43.2065,M,2.8,0136*41
$GNGNS,144442.00,4742.1599557,N,01618.1012643,E,DAAA,40,0.4,708.0917,43.2065,,*53
$GPGNS,144442.00,,,,,,09,,,,2.8,136*79
$GLGNS,144442.00,,,,,,07,,,,,*7B
$GAGNS,144442.00,,,,,,09,,,,,*78
$GBGNS,144442.00,,,,,,15,,,,,*76
$GPLLQ,144442.00,010125,,M,,M,1,40,1.547,,M*11
$GPVTG,,T,,M,0.00,N,0.01,K,D*27
$GPHDT,,T*1B
$GPTHS,,V*0E
$GPROT,,V*08
$PSSN,HRP,144442.00,010125,,,,,,,00,0,,*62
$PTNL,AVR,144442.00,,Yaw,,Tilt,,,,0,,00*34
$GPGSA,A,3,06,11,12,20,25,28,29,31,32,,,,0.7,0.4,0.6*35
$GPGSA,A,3,69,77,78,79,81,87,88,,,,,,0.7,0.4,0.6*3F
$GPGSA,A,3,02,07,15,19,27,29,30,34,36,,,,0.7,0.4,0.6*31
$GPGSA,A,3,05,08,10,11,12,13,23,24,25,34,35,38,0.7,0.4,0.6*30
$GPGSA,A,3,43,44,60,,,,,,,,,,0.7,0.4,0.6*36
$GPGST,144442.00,1.990,0.861,0.458,349.874,0.852,0.475,1.200*5C
$GPGBS,144442.00,4.367,3.072,8.385,77,0.0001,-6.652,6.592*79
$GPGRS,144442.00,1,-0.9,0.1,0.3,2.3,-0.1,0.1,0.2,1.1,-0.9,,,*4F
$GPGRS,144442.00,1,1.7,-6.7,-0.1,2.1,4.7,-3.6,0.2,,,,,*4F
$GPGRS,144442.00,1,1.1,-1.1,0.9,-1.3,-0.7,1.2,-0.1,0.1,-0.8,,,*49
$GPGRS,144442.00,1,0.9,0.8,0.2,2.6,-0.2,1.1,2.4,-1.2,-1.3,0.5,-2.8,-0.1*6C
$GPGRS,144442.00,1,-0.2,-0.7,-1.2,,,,,,,,,*48
$GPGSV,5,1,20,25,83,026,50,31,19,315,41,32,17,252,43,06,13,034,38*77
$GPGSV,5,2,20,28,43,301,46,11,37,065,46,12,45,092,47,29,60,228,49*76
$GPGSV,5,3,20,20,09,091,38,24,08,159,28,18,00,187,,36,35,170,45*7F
$GPGSV,5,4,20,58,13,245,36,40,23,133,37,34,31,208,44,49,34,195,45*7A
$GPGSV,5,5,20,57,04,114,38,41,07,108,35,61,03,257,38*40
$GLGSV,2,1,08,78,74,081,52,70,12,338,33,87,26,033,44,77,17,120,38*65
$GLGSV,2,2,08,81,30,190,49,79,43,317,50,88,72,112,52,69,10,278,43*6F
$GAGSV,3,1,10,30,66,080,48,15,27,160,42,07,12,219,40,19,16,318,35*65
$GAGSV,3,2,10,02,15,097,40,36,22,039,41,29,26,272,42,34,47,097,47*69
$GAGSV,3,3,10,27,55,294,48,21,05,283,36*65
$GBGSV,6,1,24,25,72,289,51,43,16,211,42,23,20,305,43,56,20,056,*6B
$GBGSV,6,2,24,05,20,130,38,10,14,070,37,11,36,198,46,13,13,093,39*67
$GBGSV,6,3,24,08,15,085,38,38,16,071,41,24,48,134,49,31,33,087,*61
$GBGSV,6,4,24,34,60,185,51,44,52,064,49,12,71,108,49,07,01,069,35*60
$GBGSV,6,5,24,32,02,308,39,02,05,108,34,35,09,044,40,20,09,312,*65
$GBGSV,6,6,24,28,03,203,,26,00,130,,19,00,355,,60,09,110,39*6D
$GPGGA,144442.00,,,,,0,00,,,M,,M,,*4B
$PTNL,GGK,144442.00,010125,4742.1599557,N,01618.1012643,E,1,40,0.7,EHT751.2982,M*43
$GPGGQ,144442.00,010125,4742.1599557,N,01618.1012643,E,1,40,1.547,708.0917,M*3F
$GPGFA,144442.00,8.187,9.843,0.861,0.458,349.874,1.200,,VVV*00
$GPLLK,144442.00,010125,,M,,M,1,40,0.8,,M*04
$GNGMP,144442.00,,,,,DAAA,40,0.4,,,,*55
$GPGMP,144442.00,,,,,,09,,,,2.8,136*79
$GLGMP,144442.00,,,,,,07,,,,,*7B
$GAGMP,144442.00,,,,,,09,,,,,*78
$GBGMP,144442.00,,,,,,15,,,,,*76
$PSSN,SNC,[0,312300000,2347]*47
$GPZDA,144447.00,01,01,2025,,*65
$GPDTM,W84,,00.0000000,N,00.0000000,E,00.0000000,W84*5F
$PSSN,TFM,144447.00,,,,*69
$GPRMC,144447.00,A,4742.1599568,N,01618.1012655,E,0.0,,010125,5.1,E,D*1B
$GPGLL,4742.1599568,N,01618.1012655,E,144447.00,A,D*6A
$GPGGA,144447.00,4742.1599568,N,01618.1012655,E,2,40,0.4,708.0889,M,43.2065,M,1.8,0136*4A
$GNGNS,144447.00,4742.1599568,N,01618.1012655,E,DAAA,40,0.4,708.0889,43.2065,,*5B
$GPGNS,144447.00,,,,,,09,,,,1.8,136*7F
$GLGNS,144447.00,,,,,,07,,,,,*7E
$GAGNS,144447.00,,,,,,09,,,,,*7D
$GBGNS,144447.00,,,,,,15,,,,,*73
$GPLLQ,144447.00,010125,,M,,M,1,40,1.546,,M*15
$GPVTG,,T,,M,0.01,N,0.02,K,D*25
$GPHDT,,T*1B
$GPTHS,,V*0E
$GPROT,,V*08
$PSSN,HRP,144447.00,010125,,,,,,,00,0,,*67
$PTNL,AVR,144447.00,,Yaw,,Tilt,,,,0,,00*31
$GPGSA,A,3,06,11,12,20,25,28,29,31,32,,,,0.7,0.4,0.6*35
$GPGSA,A,3,69,77,78,79,81,87,88,,,,,,0.7,0.4,0.6*3F
$GPGSA,A,3,02,07,15,19,27,29,30,34,36,,,,0.7,0.4,0.6*31
$GPGSA,A,3,05,08,10,11,12,13,23,24,25,34,35,38,0.7,0.4,0.6*30
$GPGSA,A,3,43,44,60,,,,,,,,,,0.7,0.4,0.6*36
$GPGST,144447.00,1.859,0.857,0.454,350.074,0.848,0.471,1.204*5F
$GPGBS,144447.00,4.359,3.068,8.302,81,0.0001,5.342,6.386*55
$GPGRS,144447.00,1,-0.6,0.1,0.1,2.2,-0.2,-0.0,0.3,1.2,-0.8,,,*6A
$GPGRS,144447.00,1,1.1,-4.8,-0.2,1.9,5.3,-4.1,-0.0,,,,,*63
$GPGRS,144447.00,1,1.1,-1.1,0.8,-1.6,-0.8,0.8,-0.1,0.2,-0.2,,,*45
$GPGRS,144447.00,1,0.7,1.7,-0.4,2.3,-0.1,0.6,1.9,-1.2,-1.2,0.2,-2.8,-0.3*48
$GPGRS,144447.00,1,-0.5,-1.1,-1.2,,,,,,,,,*4D
$GPGSV,5,1,20,25,83,026,50,31,19,315,43,32,17,252,43,06,13,034,39*74
$GPGSV,5,2,20,28,43,301,45,11,37,065,46,12,45,092,47,29,60,228,49*75
$GPGSV,5,3,20,20,09,091,38,24,08,159,29,18,00,187,,36,35,170,45*7E
$GPGSV,5,4,20,58,13,245,37,40,23,133,37,34,31,208,43,49,34,195,45*7C
$GPGSV,5,5,20,57,04,114,38,41,07,108,35,61,03,257,38*40
$GLGSV,2,1,08,78,74,081,52,70,12,338,33,87,26,033,44,77,17,120,39*64
$GLGSV,2,2,08,81,31,190,49,79,43,317,51,88,72,112,52,69,10,278,43*6F
$GAGSV,3,1,10,30,66,080,48,15,27,160,43,07,12,219,40,19,16,318,35*64
$GAGSV,3,2,10,02,14,097,40,36,22,039,41,29,26,272,42,34,47,097,47*68
$GAGSV,3,3,10,27,55,294,47,21,05,283,36*6A
$GBGSV,6,1,24,25,72,289,51,43,16,211,42,23,20,305,43,56,20,056,*6B
$GBGSV,6,2,24,05,20,130,38,10,14,070,37,11,36,198,46,13,13,093,39*67
$GBGSV,6,3,24,08,15,085,38,38,16,071,42,24,48,134,49,31,33,087,*62
$GBGSV,6,4,24,34,60,185,51,44,52,064,49,12,71,107,49,07,01,069,35*6F
$GBGSV,6,5,24,32,02,308,39,02,05,108,34,35,09,044,40,20,08,312,*64
$GBGSV,6,6,24,28,03,203,,26,00,130,,19,00,355,,60,09,110,39*6D
$GPGGA,144447.00,,,,,0,00,,,M,,M,,*4E
$PTNL,GGK,144447.00,010125,4742.1599568,N,01618.1012655,E,1,40,0.7,EHT751.2954,M*46
$GPGGQ,144447.00,010125,4742.1599568,N,01618.1012655,E,1,40,1.546,708.0889,M*36
$GPGFA,144447.00,8.151,9.875,0.857,0.454,350.074,1.204,,VVV*06
$GPLLK,144447.00,010125,,M,,M,1,40,0.8,,M*01
$GNGMP,144447.00,,,,,DAAA,40,0.4,,,,*50
$GPGMP,144447.00,,,,,,09,,,,1.8,136*7F
$GLGMP,144447.00,,,,,,07,,,,,*7E
$GAGMP,144447.00,,,,,,09,,,,,*7D
$GBGMP,144447.00,,,,,,15,,,,,*73
$PSSN,SNC,[0,312305000,2347]*42
$GPZDA,144452.00,01,01,2025,,*61
$GPDTM,W84,,00.0000000,N,00.0000000,E,00.0000000,W84*5F
$PSSN,TFM,144452.00,,,,*6D
$GPRMC,144452.00,A,4742.1599590,N,01618.1012653,E,0.0,,010125,5.1,E,D*1E
$GPGLL,4742.1599590,N,01618.1012653,E,144452.00,A,D*6F
$GPGGA,144452.00,4742.1599590,N,01618.1012653,E,2,39,0.4,708.0889,M,43.2065,M,2.3,0136*49
$GNGNS,144452.00,4742.1599590,N,01618.1012653,E,DAAA,39,0.4,708.0889,43.2065,,*50
$GPGNS,144452.00,,,,,,09,,,,2.3,136*73
$GLGNS,144452.00,,,,,,07,,,,,*7A
$GAGNS,144452.00,,,,,,08,,,,,*78
$GBGNS,144452.00,,,,,,15,,,,,*77
$GPLLQ,144452.00,010125,,M,,M,1,39,1.573,,M*19
$GPVTG,,T,,M,0.01,N,0.01,K,D*26
$GPHDT,,T*1B
$GPTHS,,V*0E
$GPROT,,V*08
$PSSN,HRP,144452.00,010125,,,,,,,00,0,,*63
$PTNL,AVR,144452.00,,Yaw,,Tilt,,,,0,,00*35
$GPGSA,A,3,06,11,12,20,25,28,29,31,32,,,,0.7,0.4,0.6*35
$GPGSA,A,3,69,77,78,79,81,87,88,,,,,,0.7,0.4,0.6*3F
$GPGSA,A,3,02,07,15,27,29,30,34,36,,,,,0.7,0.4,0.6*39
$GPGSA,A,3,05,08,10,11,12,13,23,24,25,34,35,38,0.7,0.4,0.6*30
$GPGSA,A,3,43,44,60,,,,,,,,,,0.7,0.4,0.6*36
$GPGST,144452.00,1.909,0.873,0.458,350.663,0.864,0.474,1.226*5E
$GPGBS,144452.00,4.708,3.140,8.444,81,0.0001,4.778,6.385*50
$GPGRS,144452.00,1,-0.2,0.1,0.2,2.9,-0.5,-0.2,0.5,0.9,-0.6,,,*65
$GPGRS,144452.00,1,1.8,-4.7,-0.3,2.3,4.8,-4.0,-0.3,,,,,*61
$GPGRS,144452.00,1,1.4,-1.3,1.0,-0.9,1.1,-0.3,0.2,-0.2,,,,*40
$GPGRS,144452.00,1,0.9,2.3,0.2,2.4,0.2,1.2,2.0,-1.3,-1.5,0.2,-2.7,0.2*6D
$GPGRS,144452.00,1,-0.7,-0.9,-1.1,,,,,,,,,*41
$GPGSV,5,1,20,25,83,027,49,31,19,315,41,32,17,252,43,06,13,034,39*7F
$GPGSV,5,2,20,28,43,301,45,11,37,065,45,12,45,092,47,29,60,229,49*77
$GPGSV,5,3,20,20,09,091,38,24,08,159,29,18,00,187,,36,35,170,45*7E
$GPGSV,5,4,20,58,13,245,36,40,23,133,37,34,31,208,43,49,34,195,45*7D
$GPGSV,5,5,20,57,04,114,38,41,07,108,35,61,03,257,38*40
$GLGSV,2,1,08,78,74,081,52,70,12,338,33,87,26,033,44,77,17,120,39*64
$GLGSV,2,2,08,81,31,190,48,79,43,317,51,88,72,111,52,69,10,278,43*6D
$GAGSV,3,1,10,30,66,080,48,15,27,160,43,07,12,219,39,19,16,318,34*6B
$GAGSV,3,2,10,02,14,097,39,36,22,039,40,29,26,272,42,34,47,097,47*67
$GAGSV,3,3,10,27,55,294,47,21,05,283,36*6A
$GBGSV,6,1,24,25,72,289,51,43,16,211,42,23,20,305,43,56,20,056,*6B
$GBGSV,6,2,24,05,20,130,38,10,14,070,37,11,36,198,46,13,13,093,39*67
$GBGSV,6,3,24,08,15,085,38,38,16,071,42,24,48,134,49,31,33,087,*62
$GBGSV,6,4,24,34,60,185,51,44,52,064,49,12,71,107,49,07,01,069,35*6F
$GBGSV,6,5,24,32,02,308,38,02,05,108,34,35,09,044,40,20,08,312,*65
$GBGSV,6,6,24,28,03,203,,26,00,130,,19,00,355,,60,09,110,39*6D
$GPGGA,144452.00,,,,,0,00,,,M,,M,,*4A
$PTNL,GGK,144452.00,010125,4742.1599590,N,01618.1012653,E,1,39,0.7,EHT751.2954,M*4D
$GPGGQ,144452.00,010125,4742.1599590,N,01618.1012653,E,1,39,1.573,708.0889,M*3B
$GPGFA,144452.00,8.296,10.053,0.873,0.458,350.663,1.226,,VVV*34
$GPLLK,144452.00,010125,,M,,M,1,39,0.8,,M*0B
$GNGMP,144452.00,,,,,DAAA,39,0.4,,,,*5A
$GPGMP,144452.00,,,,,,09,,,,2.3,136*73
$GLGMP,144452.00,,,,,,07,,,,,*7A
$GAGMP,144452.00,,,,,,08,,,,,*78
$GBGMP,144452.00,,,,,,15,,,,,*77
$PSSN,SNC,[0,312310000,2347]*46
$GPZDA,144457.00,01,01,2025,,*64
$GPDTM,W84,,00.0000000,N,00.0000000,E,00.0000000,W84*5F
$PSSN,TFM,144457.00,,,,*68
$GPRMC,144457.00,A,4742.1599617,N,01618.1012643,E,0.0,,010125,5.1,E,D*16
$GPGLL,4742.1599617,N,01618.1012643,E,144457.00,A,D*67
$GPGGA,144457.00,4742.1599617,N,01618.1012643,E,2,39,0.4,708.0906,M,43.2065,M,3.3,0136*46
$GNGNS,144457.00,4742.1599617,N,01618.1012643,E,DAAA,39,0.4,708.0906,43.2065,,*5E
$GPGNS,144457.00,,,,,,09,,,,3.3,136*77
$GLGNS,144457.00,,,,,,07,,,,,*7F
$GAGNS,144457.00,,,,,,08,,,,,*7D
$GBGNS,144457.00,,,,,,15,,,,,*72
$GPLLQ,144457.00,010125,,M,,M,1,39,1.572,,M*1D
$GPVTG,,T,,M,0.00,N,0.01,K,D*27
$GPHDT,,T*1B
$GPTHS,,V*0E
$GPROT,,V*08
$PSSN,HRP,144457.00,010125,,,,,,,00,0,,*66
$PTNL,AVR,144457.00,,Yaw,,Tilt,,,,0,,00*30
$GPGSA,A,3,06,11,12,20,25,28,29,31,32,,,,0.7,0.4,0.6*35
$GPGSA,A,3,69,77,78,79,81,87,88,,,,,,0.7,0.4,0.6*3F
$GPGSA,A,3,02,07,15,27,29,30,34,36,,,,,0.7,0.4,0.6*39
$GPGSA,A,3,05,08,10,11,12,13,23,24,25,34,35,38,0.7,0.4,0.6*30
$GPGSA,A,3,43,44,60,,,,,,,,,,0.7,0.4,0.6*36
$GPGST,144457.00,1.759,0.877,0.462,350.614,0.868,0.478,1.221*5A
$GPGBS,144457.00,4.714,3.160,8.458,81,0.0001,4.127,6.385*5B
$GPGRS,144457.00,1,-0.3,0.1,0.3,2.6,-0.4,-0.0,0.2,0.2,-0.8,,,*6E
$GPGRS,144457.00,1,2.7,-3.4,-0.3,2.1,4.1,-3.3,-0.0,,,,,*60
$GPGRS,144457.00,1,1.4,-1.2,0.8,-0.6,0.9,-0.3,0.1,-0.2,,,,*48
$GPGRS,144457.00,1,0.9,2.3,0.4,2.8,0.2,1.5,2.1,-1.2,-1.4,0.2,-2.9,-0.1*44
$GPGRS,144457.00,1,-0.1,-0.8,-1.0,,,,,,,,,*42
$GPGSV,5,1,20,25,83,027,50,31,19,315,40,32,17,252,42,06,13,034,39*77
$GPGSV,5,2,20,28,43,301,45,11,37,065,45,12,45,092,47,29,60,229,49*77
$GPGSV,5,3,20,20,09,091,38,24,08,159,28,18,00,187,,36,35,170,46*7C
$GPGSV,5,4,20,58,13,245,36,40,23,133,37,34,31,208,43,49,34,195,45*7D
$GPGSV,5,5,20,57,04,114,38,41,07,108,34,61,03,257,38*41
$GLGSV,2,1,08,78,74,081,52,70,12,338,35,87,26,033,44,77,17,120,39*62
$GLGSV,2,2,08,81,31,190,48,79,43,317,51,88,72,111,52,69,10,278,44*6A
$GAGSV,3,1,10,30,66,081,48,15,27,160,43,07,12,219,39,19,16,318,34*6A
$GAGSV,3,2,10,02,14,097,39,36,22,039,40,29,25,272,42,34,47,097,46*65
$GAGSV,3,3,10,27,55,294,47,21,05,283,36*6A
$GBGSV,6,1,24,25,72,289,51,43,16,211,42,23,20,305,43,56,20,056,*6B
$GBGSV,6,2,24,05,20,130,38,10,14,070,37,11,36,198,46,13,14,093,39*60
$GBGSV,6,3,24,08,15,085,38,38,16,071,42,24,48,134,49,31,33,087,*62
$GBGSV,6,4,24,34,60,185,51,44,52,064,49,12,71,107,49,07,01,069,34*6E
$GBGSV,6,5,24,32,02,308,38,02,05,108,33,35,09,044,40,20,08,312,*62
$GBGSV,6,6,24,28,03,203,,26,00,130,,19,00,355,,60,09,110,39*6D
$GPGGA,144457.00,,,,,0,00,,,M,,M,,*4F
$PTNL,GGK,144457.00,010125,4742.1599617,N,01618.1012643,E,1,39,0.7,EHT751.2971,M*42
$GPGGQ,144457.00,010125,4742.1599617,N,01618.1012643,E,1,39,1.572,708.0906,M*34
$GPGFA,144457.00,8.335,10.010,0.877,0.462,350.614,1.221,,VVV*34
$GPLLK,144457.00,010125,,M,,M,1,39,0.8,,M*0E
$GNGMP,144457.00,,,,,DAAA,39,0.4,,,,*5F
$GPGMP,144457.00,,,,,,09,,,,3.3,136*77
$GLGMP,144457.00,,,,,,07,,,,,*7F
$GAGMP,144457.00,,,,,,08,,,,,*7D
$GBGMP,144457.00,,,,,,15,,,,,*72
$PSSN,SNC,[0,312315000,2347]*43
$GPZDA,144502.00,01,01,2025,,*65
$GPDTM,W84,,00.0000000,N,00.0000000,E,00.0000000,W84*5F
$PSSN,TFM,144502.00,,,,*69
$GPRMC,144502.00,A,4742.1599623,N,01618.1012626,E,0.0,,010125,5.1,E,D*13
$GPGLL,4742.1599623,N,01618.1012626,E,144502.00,A,D*62
$GPGGA,144502.00,4742.1599623,N,01618.1012626,E,2,39,0.4,708.0902,M,43.2065,M,2.8,0136*4D
$GNGNS,144502.00,4742.1599623,N,01618.1012626,E,DAAA,39,0.4,708.0902,43.2065,,*5F
$GPGNS,144502.00,,,,,,09,,,,2.8,136*7C
$GLGNS,144502.00,,,,,,07,,,,,*7E
$GAGNS,144502.00,,,,,,08,,,,,*7C
$GBGNS,144502.00,,,,,,15,,,,,*73
$GPLLQ,144502.00,010125,,M,,M,1,39,1.580,,M*11
$GPVTG,,T,,M,0.00,N,0.00,K,D*26
$GPHDT,,T*1B
$GPTHS,,V*0E
$GPROT,,V*08
$PSSN,HRP,144502.00,010125,,,,,,,00,0,,*67
$PTNL,AVR,144502.00,,Yaw,,Tilt,,,,0,,00*31
$GPGSA,A,3,06,11,12,20,25,28,29,31,32,,,,0.7,0.4,0.6*35
$GPGSA,A,3,69,77,78,79,81,87,88,,,,,,0.7,0.4,0.6*3F
$GPGSA,A,3,02,07,15,27,29,30,34,36,,,,,0.7,0.4,0.6*39
$GPGSA,A,3,05,08,10,11,12,13,23,24,25,34,35,38,0.7,0.4,0.6*30
$GPGSA,A,3,43,44,60,,,,,,,,,,0.7,0.4,0.6*36
$GPGST,144502.00,1.893,0.881,0.463,350.764,0.873,0.478,1.228*5F
$GPGBS,144502.00,4.653,3.128,8.514,77,0.0001,-5.395,6.615*7F
$GPGRS,144502.00,1,-0.3,0.2,0.1,2.8,-0.1,0.2,0.1,0.7,-0.9,,,*4D
$GPGRS,144502.00,1,2.0,-5.4,-0.2,1.8,4.5,-3.7,-0.1,,,,,*6A
$GPGRS,144502.00,1,1.3,-1.3,0.5,-0.6,0.8,-0.1,-0.0,-0.2,,,,*6D
$GPGRS,144502.00,1,1.2,2.4,0.8,2.3,-0.1,1.4,1.9,-1.1,-1.2,-0.1,-2.7,-0.2*4D
$GPGRS,144502.00,1,-0.5,-0.6,-0.6,,,,,,,,,*4E
$GPGSV,5,1,20,25,83,027,50,31,19,315,41,32,17,252,43,06,13,034,38*76
$GPGSV,5,2,20,28,43,301,46,11,37,065,45,12,45,092,48,29,60,229,49*7B
$GPGSV,5,3,20,20,09,091,38,24,08,159,29,18,00,187,,36,35,170,46*7D
$GPGSV,5,4,20,58,13,245,37,40,23,133,37,34,31,208,44,49,34,195,45*7B
$GPGSV,5,5,20,57,04,114,38,41,07,108,35,61,03,257,39*41
$GLGSV,2,1,08,78,74,081,52,70,12,338,35,87,26,033,44,77,17,120,39*62
$GLGSV,2,2,08,81,31,190,48,79,43,317,51,88,72,111,52,69,10,277,43*62
$GAGSV,3,1,10,30,66,081,48,15,27,160,42,07,12,219,38,19,16,318,35*6B
$GAGSV,3,2,10,02,14,097,39,36,22,039,40,29,25,272,42,34,47,097,47*64
$GAGSV,3,3,10,27,55,294,47,21,05,283,36*6A
$GBGSV,6,1,24,25,72,289,51,43,16,211,42,23,20,305,43,56,20,056,*6B
$GBGSV,6,2,24,05,20,130,38,10,14,070,37,11,36,198,46,13,14,093,39*60
$GBGSV,6,3,24,08,15,085,38,38,16,071,42,24,48,134,49,31,33,087,*62
$GBGSV,6,4,24,34,60,185,51,44,52,064,49,12,71,107,49,07,01,069,34*6E
$GBGSV,6,5,24,32,02,308,38,02,05,108,34,35,09,044,40,20,08,311,*66
$GBGSV,6,6,24,28,03,203,,26,00,130,,19,00,355,,60,09,110,39*6D
$GPGGA,144502.00,,,,,0,00,,,M,,M,,*4E
$PTNL,GGK,144502.00,010125,4742.1599623,N,01618.1012626,E,1,39,0.7,EHT751.2968,M*4F
$GPGGQ,144502.00,010125,4742.1599623,N,01618.1012626,E,1,39,1.580,708.0902,M*38
$GPGFA,144502.00,8.381,10.066,0.881,0.463,350.764,1.228,,VVV*3C
$GPLLK,144502.00,010125,,M,,M,1,39,0.8,,M*0F
$GNGMP,144502.00,,,,,DAAA,39,0.4,,,,*5E
$GPGMP,144502.00,,,,,,09,,,,2.8,136*7C
$GLGMP,144502.00,,,,,,07,,,,,*7E
$GAGMP,144502.00,,,,,,08,,,,,*7C
$GBGMP,144502.00,,,,,,15,,,,,*73
$PSSN,SNC,[0,312320000,2347]*45
$GPZDA,144507.00,01,01,2025,,*60
$GPDTM,W84,,00.0000000,N,00.0000000,E,00.0000000,W84*5F
$PSSN,TFM,144507.00,,,,*6C
$GPRMC,144507.00,A,4742.1599616,N,01618.1012653,E,0.0,,010125,5.1,E,D*12
$GPGLL,4742.1599616,N,01618.1012653,E,144507.00,A,D*63
$GPGGA,144507.00,4742.1599616,N,01618.1012653,E,2,40,0.4,708.0894,M,43.2065,M,1.8,0136*4F
$GNGNS,144507.00,4742.1599616,N,01618.1012653,E,DAAA,40,0.4,708.0894,43.2065,,*5E
$GPGNS,144507.00,,,,,,09,,,,1.8,136*7A
$GLGNS,144507.00,,,,,,07,,,,,*7B
$GAGNS,144507.00,,,,,,09,,,,,*78
$GBGNS,144507.00,,,,,,15,,,,,*76
$GPLLQ,144507.00,010125,,M,,M,1,40,1.577,,M*12
$GPVTG,,T,,M,0.01,N,0.01,K,D*26
$GPHDT,,T*1B
$GPTHS,,V*0E
$GPROT,,V*08
$PSSN,HRP,144507.00,010125,,,,,,,00,0,,*62
$PTNL,AVR,144507.00,,Yaw,,Tilt,,,,0,,00*34
$GPGSA,A,3,06,11,12,20,25,28,29,31,32,,,,0.7,0.4,0.6*35
$GPGSA,A,3,69,77,78,79,81,87,88,,,,,,0.7,0.4,0.6*3F
$GPGSA,A,3,02,07,15,19,27,29,30,34,36,,,,0.7,0.4,0.6*31
$GPGSA,A,3,05,08,10,11,12,13,23,24,25,34,35,38,0.7,0.4,0.6*30
$GPGSA,A,3,43,44,60,,,,,,,,,,0.7,0.4,0.6*36
$GPGST,144507.00,1.857,0.872,0.458,351.155,0.865,0.472,1.231*56
$GPGBS,144507.00,4.590,3.104,8.421,77,0.0001,-5.160,6.619*7B
$GPGRS,144507.00,1,-1.3,-0.1,0.0,2.5,-0.2,0.2,0.2,1.8,-0.9,,,*65
$GPGRS,144507.00,1,0.6,-5.2,-0.3,1.3,4.5,-3.5,-0.1,,,,,*65
$GPGRS,144507.00,1,1.4,-1.0,0.4,-0.8,-0.7,0.9,-0.3,0.2,-0.3,,,*4A
$GPGRS,144507.00,1,1.2,2.6,0.1,2.7,-0.4,1.2,1.4,-1.2,-1.2,-0.2,-3.0,-0.7*4A
$GPGRS,144507.00,1,-1.4,-1.1,-0.9,,,,,,,,,*42
$GPGSV,5,1,20,25,83,028,50,31,19,315,41,32,17,252,42,06,13,034,38*78
$GPGSV,5,2,20,28,44,301,46,11,37,065,45,12,44,092,48,29,60,229,48*7C
$GPGSV,5,3,20,20,09,091,38,24,08,159,28,18,00,187,,36,35,170,46*7C
$GPGSV,5,4,20,58,13,245,37,40,23,133,37,34,31,208,43,49,34,195,45*7C
$GPGSV,5,5,20,57,04,114,38,41,07,108,35,61,03,257,39*41
$GLGSV,2,1,08,78,74,082,52,70,12,338,34,87,26,033,44,77,17,120,39*60
$GLGSV,2,2,08,81,31,190,49,79,43,317,51,88,72,111,52,69,10,277,43*63
$GAGSV,3,1,10,30,66,081,49,15,27,160,42,07,12,219,38,19,16,318,36*69
$GAGSV,3,2,10,02,14,097,39,36,22,039,40,29,25,272,42,34,47,097,47*64
$GAGSV,3,3,10,27,55,294,47,21,05,283,36*6A
$GBGSV,6,1,24,25,72,289,51,43,16,211,41,23,20,305,42,56,20,056,*69
$GBGSV,6,2,24,05,20,130,38,10,14,070,36,11,36,199,46,13,14,093,39*60
$GBGSV,6,3,24,08,15,085,38,38,16,071,42,24,48,134,49,31,33,087,*62
$GBGSV,6,4,24,34,60,185,51,44,52,064,49,12,71,107,49,07,01,069,34*6E
$GBGSV,6,5,24,32,02,308,37,02,05,108,34,35,09,044,40,20,08,311,*69
$GBGSV,6,6,24,28,03,203,,26,00,130,,19,00,355,,60,09,110,39*6D
$GPGGA,144507.00,,,,,0,00,,,M,,M,,*4B
$PTNL,GGK,144507.00,010125,4742.1599616,N,01618.1012653,E,1,40,0.7,EHT751.2959,M*42
$GPGGQ,144507.00,010125,4742.1599616,N,01618.1012653,E,1,40,1.577,708.0894,M*31
$GPGFA,144507.00,8.293,10.097,0.872,0.458,351.155,1.231,,VVV*3C
$GPLLK,144507.00,010125,,M,,M,1,40,0.8,,M*04
$GNGMP,144507.00,,,,,DAAA,40,0.4,,,,*55
$GPGMP,144507.00,,,,,,09,,,,1.8,136*7A
$GLGMP,144507.00,,,,,,07,,,,,*7B
$GAGMP,144507.00,,,,,,09,,,,,*78
$GBGMP,144507.00,,,,,,15,,,,,*76
$PSSN,SNC,[0,312325000,2347]*40
$GPZDA,144512.00,01,01,2025,,*64
$GPDTM,W84,,00.0000000,N,00.0000000,E,00.0000000,W84*5F
$PSSN,TFM,144512.00,,,,*68
$GPRMC,144512.00,A,4742.1599631,N,01618.1012641,E,0.0,,010125,5.1,E,D*10
$GPGLL,4742.1599631,N,01618.1012641,E,144512.00,A,D*61
$GPGGA,144512.00,4742.1599631,N,01618.1012641,E,2,40,0.4,708.0869,M,43.2065,M,2.3,0136*47
$GNGNS,144512.00,4742.1599631,N,01618.1012641,E,DAAA,40,0.4,708.0869,43.2065,,*5E
$GPGNS,144512.00,,,,,,09,,,,2.3,136*76
$GLGNS,144512.00,,,,,,07,,,,,*7F
$GAGNS,144512.00,,,,,,09,,,,,*7C
$GBGNS,144512.00,,,,,,15,,,,,*72
$GPLLQ,144512.00,010125,,M,,M,1,40,1.569,,M*19
$GPVTG,,T,,M,0.00,N,0.01,K,D*27
$GPHDT,,T*1B
$GPTHS,,V*0E
$GPROT,,V*08
$PSSN,HRP,144512.00,010125,,,,,,,00,0,,*66
$PTNL,AVR,144512.00,,Yaw,,Tilt,,,,0,,00*30
$GPGSA,A,3,06,11,12,20,25,28,29,31,32,,,,0.7,0.4,0.6*35
$GPGSA,A,3,69,77,78,79,81,87,88,,,,,,0.7,0.4,0.6*3F
$GPGSA,A,3,02,07,15,19,27,29,30,34,36,,,,0.7,0.4,0.6*31
$GPGSA,A,3,05,08,10,11,12,13,23,24,25,34,35,38,0.7,0.4,0.6*30
$GPGSA,A,3,43,44,60,,,,,,,,,,0.7,0.4,0.6*36
$GPGST,144512.00,1.875,0.867,0.458,351.001,0.860,0.472,1.224*57
$GPGBS,144512.00,4.644,3.120,8.405,81,0.0001,4.844,6.383*59
$GPGRS,144512.00,1,-0.7,0.2,0.1,3.0,-0.1,-0.2,0.2,1.7,-0.9,,,*6E
$GPGRS,144512.00,1,1.8,-5.0,0.1,1.9,4.8,-3.4,0.0,,,,,*69
$GPGRS,144512.00,1,1.7,-0.8,0.7,-1.1,-0.5,0.9,-0.3,0.1,-0.1,,,*4C
$GPGRS,144512.00,1,1.1,1.9,-0.0,2.8,0.1,1.1,2.1,-1.2,-1.1,0.2,-2.2,-0.9*6C
$GPGRS,144512.00,1,-0.7,-0.9,-1.1,,,,,,,,,*44
$GPGSV,5,1,20,25,83,028,49,31,19,315,41,32,17,252,42,06,13,034,38*70
$GPGSV,5,2,20,28,44,301,46,11,37,065,45,12,44,092,47,29,60,229,49*72
$GPGSV,5,3,20,20,09,091,38,24,08,159,28,18,00,187,,36,35,170,46*7C
$GPGSV,5,4,20,58,13,245,37,40,23,133,37,34,31,208,44,49,34,195,45*7B
$GPGSV,5,5,20,57,04,114,38,41,07,108,35,61,03,257,38*40
$GLGSV,2,1,08,78,74,082,52,70,12,338,34,87,26,033,44,77,17,120,38*61
$GLGSV,2,2,08,81,31,190,49,79,43,317,51,88,72,111,52,69,10,277,43*63
$GAGSV,3,1,10,30,66,081,49,15,27,160,42,07,12,219,38,19,16,318,35*6A
$GAGSV,3,2,10,02,14,097,39,36,22,039,40,29,25,272,42,34,47,096,47*65
$GAGSV,3,3,10,27,55,294,47,21,05,283,36*6A
$GBGSV,6,1,24,25,72,289,52,43,16,211,41,23,20,305,43,56,20,056,*6B
$GBGSV,6,2,24,05,20,130,38,10,14,070,36,11,36,199,46,13,14,093,39*60
$GBGSV,6,3,24,08,15,085,38,38,16,071,42,24,48,134,49,31,33,087,*62
$GBGSV,6,4,24,34,60,185,51,44,52,064,49,12,71,107,49,07,01,069,35*6F
$GBGSV,6,5,24,32,02,307,37,02,05,108,34,35,09,044,40,20,08,311,*66
$GBGSV,6,6,24,28,03,203,,26,00,130,,19,00,355,,60,09,110,39*6D
$GPGGA,144512.00,,,,,0,00,,,M,,M,,*4F
$PTNL,GGK,144512.00,010125,4742.1599631,N,01618.1012641,E,1,40,0.7,EHT751.2934,M*4B
$GPGGQ,144512.00,010125,4742.1599631,N,01618.1012641,E,1,40,1.569,708.0869,M*3E
$GPGFA,144512.00,8.247,10.040,0.867,0.458,351.001,1.224,,VVV*3B
$GPLLK,144512.00,010125,,M,,M,1,40,0.8,,M*00
$GNGMP,144512.00,,,,,DAAA,40,0.4,,,,*51
$GPGMP,144512.00,,,,,,09,,,,2.3,136*76
$GLGMP,144512.00,,,,,,07,,,,,*7F
$GAGMP,144512.00,,,,,,09,,,,,*7C
$GBGMP,144512.00,,,,,,15,,,,,*72
$PSSN,SNC,[0,312330000,2347]*44
$GPZDA,144517.00,01,01,2025,,*61
$GPDTM,W84,,00.0000000,N,00.0000000,E,00.0000000,W84*5F
$PSSN,TFM,144517.00,,,,*6D
$GPRMC,144517.00,A,4742.1599637,N,01618.1012642,E,0.0,,010125,5.1,E,D*10
$GPGLL,4742.1599637,N,01618.1012642,E,144517.00,A,D*61
$GPGGA,144517.00,4742.1599637,N,01618.1012642,E,2,40,0.4,708.0882,M,43.2065,M,3.3,0136*43
$GNGNS,144517.00,4742.1599637,N,01618.1012642,E,DAAA,40,0.4,708.0882,43.2065,,*5B
$GPGNS,144517.00,,,,,,09,,,,3.3,136*72
$GLGNS,144517.00,,,,,,07,,,,,*7A
$GAGNS,144517.00,,,,,,09,,,,,*79
$GBGNS,144517.00,,,,,,15,,,,,*77
$GPLLQ,144517.00,010125,,M,,M,1,40,1.568,,M*1D
$GPVTG,,T,,M,0.01,N,0.01,K,D*26
$GPHDT,,T*1B
$GPTHS,,V*0E
$GPROT,,V*08
$PSSN,HRP,144517.00,010125,,,,,,,00,0,,*63
$PTNL,AVR,144517.00,,Yaw,,Tilt,,,,0,,00*35
$GPGSA,A,3,06,11,12,20,25,28,29,31,32,,,,0.7,0.4,0.6*35
$GPGSA,A,3,69,77,78,79,81,87,88,,,,,,0.7,0.4,0.6*3F
$GPGSA,A,3,02,07,15,19,27,29,30,34,36,,,,0.7,0.4,0.6*31
$GPGSA,A,3,05,08,10,11,12,13,23,24,25,34,35,38,0.7,0.4,0.6*30
$GPGSA,A,3,43,44,60,,,,,,,,,,0.7,0.4,0.6*36
$GPGST,144517.00,1.884,0.874,0.462,350.752,0.866,0.477,1.217*54
$GPGBS,144517.00,4.629,3.138,8.410,77,0.0001,-5.584,6.621*73
$GPGRS,144517.00,1,-0.8,0.2,0.2,2.4,-0.3,-0.2,0.4,1.3,-0.7,,,*6C
$GPGRS,144517.00,1,1.5,-5.6,0.2,2.1,4.9,-4.0,0.0,,,,,*6D
$GPGRS,144517.00,1,1.4,-0.9,1.0,-1.2,-0.6,0.9,-0.3,-0.1,-0.1,,,*60
$GPGRS,144517.00,1,0.8,1.4,-0.2,2.0,-0.1,0.9,1.7,-1.2,-1.3,0.1,-2.8,-0.9*4C
$GPGRS,144517.00,1,0.2,-0.7,-1.1,,,,,,,,,*67
$GPGSV,5,1,20,25,83,028,49,31,19,315,41,32,17,252,42,06,13,034,38*70
$GPGSV,5,2,20,28,44,301,46,11,37,065,45,12,44,092,47,29,60,229,49*72
$GPGSV,5,3,20,20,09,091,37,24,08,159,28,18,00,187,,36,35,170,46*73
$GPGSV,5,4,20,58,13,245,37,40,23,133,37,34,31,208,44,49,34,195,45*7B
$GPGSV,5,5,20,57,04,114,38,41,07,108,35,61,03,257,39*41
$GLGSV,2,1,08,78,74,082,53,70,12,338,35,87,26,033,44,77,16,120,39*61
$GLGSV,2,2,08,81,31,190,49,79,43,317,51,88,72,111,52,69,10,277,42*62
$GAGSV,3,1,10,30,66,081,49,15,27,160,43,07,12,219,38,19,16,318,35*6B
$GAGSV,3,2,10,02,14,097,39,36,22,039,40,29,25,272,42,34,47,096,47*65
$GAGSV,3,3,10,27,55,294,47,21,05,283,36*6A
$GBGSV,6,1,24,25,72,289,52,43,16,211,42,23,20,305,43,56,20,056,*68
$GBGSV,6,2,24,05,20,130,38,10,14,070,36,11,36,199,46,13,14,093,39*60
$GBGSV,6,3,24,08,15,085,37,38,16,071,42,24,48,134,50,31,33,087,*65
$GBGSV,6,4,24,34,60,185,51,44,52,064,49,12,71,107,49,07,01,069,35*6F
$GBGSV,6,5,24,32,02,307,38,02,05,108,34,35,09,044,39,20,08,311,*67
$GBGSV,6,6,24,28,03,203,,26,00,130,,19,00,355,,60,09,110,39*6D
$GPGGA,144517.00,,,,,0,00,,,M,,M,,*4A
$PTNL,GGK,144517.00,010125,4742.1599637,N,01618.1012642,E,1,40,0.7,EHT751.2947,M*4F
$GPGGQ,144517.00,010125,4742.1599637,N,01618.1012642,E,1,40,1.568,708.0882,M*3A
$GPGFA,144517.00,8.307,9.980,0.874,0.462,350.752,1.217,,VVV*0D
$GPLLK,144517.00,010125,,M,,M,1,40,0.8,,M*05
$GNGMP,144517.00,,,,,DAAA,40,0.4,,,,*54
$GPGMP,144517.00,,,,,,09,,,,3.3,136*72
$GLGMP,144517.00,,,,,,07,,,,,*7A
$GAGMP,144517.00,,,,,,09,,,,,*79
$GBGMP,144517.00,,,,,,15,,,,,*77
$PSSN,SNC,[0,312335000,2347]*41
$GPZDA,144522.00,01,01,2025,,*67
$GPDTM,W84,,00.0000000,N,00.0000000,E,00.0000000,W84*5F
$PSSN,TFM,144522.00,,,,*6B
$GPRMC,144522.00,A,4742.1599661,N,01618.1012638,E,0.0,,010125,5.1,E,D*18
$GPGLL,4742.1599661,N,01618.1012638,E,144522.00,A,D*69
$GPGGA,144522.00,4742.1599661,N,01618.1012638,E,2,39,0.4,708.0888,M,43.2065,M,2.8,0136*45
$GNGNS,144522.00,4742.1599661,N,01618.1012638,E,DAAA,39,0.4,708.0888,43.2065,,*57
$GPGNS,144522.00,,,,,,09,,,,2.8,136*7E
$GLGNS,144522.00,,,,,,07,,,,,*7C
$GAGNS,144522.00,,,,,,08,,,,,*7E
$GBGNS,144522.00,,,,,,15,,,,,*71
$GPLLQ,144522.00,010125,,M,,M,1,39,1.577,,M*1B
$GPVTG,,T,,M,0.00,N,0.01,K,D*27
$GPHDT,,T*1B
$GPTHS,,V*0E
$GPROT,,V*08
$PSSN,HRP,144522.00,010125,,,,,,,00,0,,*65
$PTNL,AVR,144522.00,,Yaw,,Tilt,,,,0,,00*33
$GPGSA,A,3,06,11,12,20,25,28,29,31,32,,,,0.7,0.4,0.6*35
$GPGSA,A,3,69,77,78,79,81,87,88,,,,,,0.7,0.4,0.6*3F
$GPGSA,A,3,02,07,15,27,29,30,34,36,,,,,0.7,0.4,0.6*39
$GPGSA,A,3,05,08,10,11,12,13,23,24,25,34,35,38,0.7,0.4,0.6*30
$GPGSA,A,3,43,44,60,,,,,,,,,,0.7,0.4,0.6*36
$GPGST,144522.00,1.789,0.881,0.462,350.796,0.873,0.478,1.224*59
$GPGBS,144522.00,4.616,3.129,8.470,77,0.0001,-5.060,6.622*73
$GPGRS,144522.00,1,-0.9,0.5,-0.1,1.9,-0.3,-0.0,0.2,0.6,-0.0,,,*4B
$GPGRS,144522.00,1,1.4,-5.1,-0.2,1.7,4.7,-3.7,-0.2,,,,,*64
$GPGRS,144522.00,1,1.7,-1.4,0.9,-0.8,0.7,-0.3,0.1,-0.2,,,,*4F
$GPGRS,144522.00,1,0.8,1.4,-0.7,1.3,0.1,0.8,1.5,-1.0,-1.3,0.1,-3.2,-0.9*68
$GPGRS,144522.00,1,0.4,-0.8,-1.3,,,,,,,,,*6A
$GPGSV,5,1,20,25,83,029,50,31,19,315,42,32,17,251,43,06,13,034,38*78
$GPGSV,5,2,20,28,44,301,46,11,37,065,45,12,44,092,48,29,60,229,49*7D
$GPGSV,5,3,20,20,09,091,37,24,08,159,28,18,01,187,,36,35,170,46*72
$GPGSV,5,4,20,58,13,245,37,40,23,133,37,34,31,208,43,49,34,195,45*7C
$GPGSV,5,5,20,57,04,114,38,41,07,108,35,61,03,257,38*40
$GLGSV,2,1,08,78,74,082,52,70,12,338,34,87,26,033,44,77,16,120,38*60
$GLGSV,2,2,08,81,31,190,49,79,43,317,50,88,72,111,52,69,10,277,44*65
$GAGSV,3,1,10,30,66,081,49,15,27,160,43,07,12,219,38,19,16,318,35*6B
$GAGSV,3,2,10,02,14,097,39,36,22,039,40,29,25,272,42,34,47,096,47*65
$GAGSV,3,3,10,27,55,294,47,21,05,283,35*69
$GBGSV,6,1,24,25,72,289,52,43,16,211,42,23,20,305,42,56,20,056,*69
$GBGSV,6,2,24,05,20,130,38,10,14,070,36,11,36,199,46,13,14,093,39*60
$GBGSV,6,3,24,08,15,085,37,38,16,071,41,24,48,134,49,31,33,087,*6E
$GBGSV,6,4,24,34,60,185,51,44,52,063,49,12,71,107,49,07,01,069,35*68
$GBGSV,6,5,24,32,02,307,37,02,05,108,34,35,09,044,39,20,08,311,*68
$GBGSV,6,6,24,28,03,203,,26,00,130,,19,00,355,,60,09,110,39*6D
$GPGGA,144522.00,,,,,0,00,,,M,,M,,*4C
$PTNL,GGK,144522.00,010125,4742.1599661,N,01618.1012638,E,1,39,0.7,EHT751.2953,M*4C
$GPGGQ,144522.00,010125,4742.1599661,N,01618.1012638,E,1,39,1.577,708.0888,M*38
$GPGFA,144522.00,8.377,10.036,0.881,0.462,350.796,1.224,,VVV*32
$GPLLK,144522.00,010125,,M,,M,1,39,0.8,,M*0D
$GNGMP,144522.00,,,,,DAAA,39,0.4,,,,*5C
$GPGMP,144522.00,,,,,,09,,,,2.8,136*7E
$GLGMP,144522.00,,,,,,07,,,,,*7C
$GAGMP,144522.00,,,,,,08,,,,,*7E
$GBGMP,144522.00,,,,,,15,,,,,*71
$PSSN,SNC,[0,312340000,2347]*43
$GPZDA,144527.00,01,01,2025,,*62
$GPDTM,W84,,00.0000000,N,00.0000000,E,00.0000000,W84*5F
$PSSN,TFM,144527.00,,,,*6E
$GPRMC,144527.00,A,4742.1599668,N,01618.1012659,E,0.0,,010125,5.1,E,D*13
$GPGLL,4742.1599668,N,01618.1012659,E,144527.00,A,D*62
$GPGGA,144527.00,4742.1599668,N,01618.1012659,E,2,40,0.4,708.0865,M,43.2065,M,1.8,0136*40
$GNGNS,144527.00,4742.1599668,N,01618.1012659,E,DAAA,40,0.4,708.0865,43.2065,,*51
$GPGNS,144527.00,,,,,,09,,,,1.8,136*78
$GLGNS,144527.00,,,,,,07,,,,,*79
$GAGNS,144527.00,,,,,,09,,,,,*7A
$GBGNS,144527.00,,,,,,15,,,,,*74
$GPLLQ,144527.00,010125,,M,,M,1,40,1.574,,M*13
$GPVTG,,T,,M,0.00,N,0.01,K,D*27
$GPHDT,,T*1B
$GPTHS,,V*0E
$GPROT,,V*08
$PSSN,HRP,144527.00,010125,,,,,,,00,0,,*60
$PTNL,AVR,144527.00,,Yaw,,Tilt,,,,0,,00*36
$GPGSA,A,3,06,11,12,20,25,28,29,31,32,,,,0.7,0.4,0.6*35
$GPGSA,A,3,69,77,78,79,81,87,88,,,,,,0.7,0.4,0.6*3F
$GPGSA,A,3,02,07,15,19,27,29,30,34,36,,,,0.7,0.4,0.6*31
$GPGSA,A,3,05,08,10,11,12,13,23,24,25,34,35,38,0.7,0.4,0.6*30
$GPGSA,A,3,43,44,60,,,,,,,,,,0.7,0.4,0.6*36
$GPGST,144527.00,1.843,0.872,0.458,351.186,0.864,0.472,1.228*56
$GPGBS,144527.00,4.554,3.104,8.374,81,0.0001,5.061,6.382*55
$GPGRS,144527.00,1,-1.1,-0.2,0.3,2.2,-0.3,0.1,0.2,0.6,-0.7,,,*61
$GPGRS,144527.00,1,3.7,-4.3,-0.5,1.3,5.1,-2.5,-0.5,,,,,*63
$GPGRS,144527.00,1,1.5,-1.6,0.6,-1.3,-0.9,0.8,-0.1,-0.2,-0.3,,,*67
$GPGRS,144527.00,1,1.2,1.3,0.1,2.2,0.1,0.8,1.9,-1.3,-1.3,0.1,-3.3,-1.2*4C
$GPGRS,144527.00,1,-0.2,-1.1,-1.0,,,,,,,,,*4F
$GPGSV,5,1,20,25,83,029,49,31,19,315,42,32,17,251,43,06,13,034,39*71
$GPGSV,5,2,20,28,44,301,46,11,37,065,46,12,44,092,47,29,60,229,49*71
$GPGSV,5,3,20,20,09,091,37,24,08,159,27,18,01,187,,36,35,170,46*7D
$GPGSV,5,4,20,58,13,245,37,40,23,133,37,34,31,208,44,49,34,195,45*7B
$GPGSV,5,5,20,57,04,114,38,41,07,108,35,61,03,257,38*40
$GLGSV,2,1,08,78,74,082,52,70,12,338,34,87,26,033,45,77,16,120,39*60
$GLGSV,2,2,08,81,31,190,49,79,43,317,51,88,72,110,52,69,10,277,44*65
$GAGSV,3,1,10,30,66,081,49,15,27,160,43,07,12,219,39,19,16,318,35*6A
$GAGSV,3,2,10,02,14,097,39,36,22,039,40,29,25,272,42,34,47,096,46*64
$GAGSV,3,3,10,27,55,294,47,21,05,283,36*6A
$GBGSV,6,1,24,25,72,289,51,43,16,211,42,05,20,130,38,56,20,056,*67
$GBGSV,6,2,24,23,20,305,42,10,14,070,36,11,36,199,46,13,14,093,39*6D
$GBGSV,6,3,24,08,15,085,37,38,16,071,41,24,48,134,49,31,33,087,*6E
$GBGSV,6,4,24,34,60,185,51,44,52,063,49,12,71,107,49,28,03,203,*6F
$GBGSV,6,5,24,32,02,307,38,02,05,108,34,35,09,044,39,20,08,311,*67
$GBGSV,6,6,24,07,01,069,34,26,00,130,,19,00,355,,60,09,110,39*6B
$GPGGA,144527.00,,,,,0,00,,,M,,M,,*49
$PTNL,GGK,144527.00,010125,4742.1599668,N,01618.1012659,E,1,40,0.7,EHT751.2931,M*4D
$GPGGQ,144527.00,010125,4742.1599668,N,01618.1012659,E,1,40,1.574,708.0865,M*3D
$GPGFA,144527.00,8.290,10.068,0.872,0.458,351.186,1.228,,VVV*3B
$GPLLK,144527.00,010125,,M,,M,1,40,0.8,,M*06
$GNGMP,144527.00,,,,,DAAA,40,0.4,,,,*57
$GPGMP,144527.00,,,,,,09,,,,1.8,136*78
$GLGMP,144527.00,,,,,,07,,,,,*79
$GAGMP,144527.00,,,,,,09,,,,,*7A
$GBGMP,144527.00,,,,,,15,,,,,*74
$PSSN,SNC,[0,312345000,2347]*46
$GPZDA,144532.00,01,01,2025,,*66
$GPDTM,W84,,00.0000000,N,00.0000000,E,00.0000000,W84*5F
$PSSN,TFM,144532.00,,,,*6A
$GPRMC,144532.00,A,4742.1599685,N,01618.1012658,E,0.0,,010125,5.1,E,D*15
$GPGLL,4742.1599685,N,01618.1012658,E,144532.00,A,D*64
$GPGGA,144532.00,4742.1599685,N,01618.1012658,E,2,40,0.4,708.0832,M,43.2065,M,2.3,0136*4C
$GNGNS,144532.00,4742.1599685,N,01618.1012658,E,DAAA,40,0.4,708.0832,43.2065,,*55
$GPGNS,144532.00,,,,,,09,,,,2.3,136*74
$GLGNS,144532.00,,,,,,07,,,,,*7D
$GAGNS,144532.00,,,,,,09,,,,,*7E
$GBGNS,144532.00,,,,,,15,,,,,*70
$GPLLQ,144532.00,010125,,M,,M,1,40,1.566,,M*14
$GPVTG,,T,,M,0.00,N,0.01,K,D*27
$GPHDT,,T*1B
$GPTHS,,V*0E
$GPROT,,V*08
$PSSN,HRP,144532.00,010125,,,,,,,00,0,,*64
$PTNL,AVR,144532.00,,Yaw,,Tilt,,,,0,,00*32
$GPGSA,A,3,06,11,12,20,25,28,29,31,32,,,,0.7,0.4,0.6*35
$GPGSA,A,3,69,77,78,79,81,87,88,,,,,,0.7,0.4,0.6*3F
$GPGSA,A,3,02,07,15,19,27,29,30,34,36,,,,0.7,0.4,0.6*31
$GPGSA,A,3,05,08,10,11,12,13,23,24,25,34,35,38,0.7,0.4,0.6*30
$GPGSA,A,3,43,44,60,,,,,,,,,,0.7,0.4,0.6*36
$GPGST,144532.00,1.894,0.867,0.458,351.034,0.859,0.472,1.221*53
$GPGBS,144532.00,4.607,3.120,8.360,77,0.0001,-4.950,6.626*72
$GPGRS,144532.00,1,-0.2,0.0,0.1,2.7,-0.0,0.0,0.1,0.8,-0.8,,,*4F
$GPGRS,144532.00,1,3.0,-4.9,-0.4,2.0,4.3,-3.0,-0.2,,,,,*6B
$GPGRS,144532.00,1,1.1,-1.8,0.6,-1.7,-0.6,1.1,-0.1,0.2,-0.1,,,*45
$GPGRS,144532.00,1,1.2,1.3,-0.5,3.0,-0.5,1.0,2.4,-1.3,-1.4,-0.0,-3.0,-1.3*65
$GPGRS,144532.00,1,-0.7,-0.9,-1.1,,,,,,,,,*46
$GPGSV,5,1,20,25,83,029,50,31,19,315,42,32,17,251,43,06,13,034,39*79
$GPGSV,5,2,20,28,44,301,46,11,37,065,46,12,44,093,47,29,60,229,49*70
$GPGSV,5,3,20,20,09,091,38,24,08,159,28,18,01,187,,36,35,170,46*7D
$GPGSV,5,4,20,58,13,245,36,40,23,133,37,34,31,208,43,49,34,195,45*7D
$GPGSV,5,5,20,57,04,114,38,41,07,108,35,61,03,257,38*40
$GLGSV,2,1,08,78,74,082,52,70,12,338,34,87,26,032,45,77,16,120,39*61
$GLGSV,2,2,08,81,31,190,49,79,43,317,51,88,72,110,52,69,10,277,44*65
$GAGSV,3,1,10,30,66,081,49,15,27,160,42,07,12,219,39,19,16,318,35*6B
$GAGSV,3,2,10,02,14,097,38,36,22,039,40,29,25,272,42,34,47,096,47*64
$GAGSV,3,3,10,27,55,294,47,21,05,283,36*6A
$GBGSV,6,1,24,25,72,289,51,43,16,211,42,05,20,130,38,56,20,056,*67
$GBGSV,6,2,24,23,20,305,42,10,14,070,36,11,36,199,46,13,14,093,39*6D
$GBGSV,6,3,24,08,15,085,37,38,17,071,41,24,48,134,49,31,33,086,*6E
$GBGSV,6,4,24,34,60,185,51,44,52,063,49,12,71,106,49,28,03,203,*6E
$GBGSV,6,5,24,32,02,307,39,02,05,108,34,35,09,044,39,20,08,311,*66
$GBGSV,6,6,24,07,01,069,35,26,00,130,,19,00,355,,60,09,110,39*6A
$GPGGA,144532.00,,,,,0,00,,,M,,M,,*4D
$PTNL,GGK,144532.00,010125,4742.1599685,N,01618.1012658,E,1,40,0.7,EHT751.2898,M*49
$GPGGQ,144532.00,010125,4742.1599685,N,01618.1012658,E,1,40,1.566,708.0832,M*3A
$GPGFA,144532.00,8.244,10.009,0.867,0.458,351.034,1.221,,VVV*34
$GPLLK,144532.00,010125,,M,,M,1,40,0.8,,M*02
$GNGMP,144532.00,,,,,DAAA,40,0.4,,,,*53
$GPGMP,144532.00,,,,,,09,,,,2.3,136*74
$GLGMP,144532.00,,,,,,07,,,,,*7D
$GAGMP,144532.00,,,,,,09,,,,,*7E
$GBGMP,144532.00,,,,,,15,,,,,*70
$PSSN,SNC,[0,312350000,2347]*42
$GPZDA,144537.00,01,01,2025,,*63
$GPDTM,W84,,00.0000000,N,00.0000000,E,00.0000000,W84*5F
$PSSN,TFM,144537.00,,,,*6F
$GPRMC,144537.00,A,4742.1599689,N,01618.1012663,E,0.0,,010125,5.1,E,D*14
$GPGLL,4742.1599689,N,01618.1012663,E,144537.00,A,D*65
$GPGGA,144537.00,4742.1599689,N,01618.1012663,E,2,40,0.4,708.0855,M,43.2065,M,3.3,0136*4D
$GNGNS,144537.00,4742.1599689,N,01618.1012663,E,DAAA,40,0.4,708.0855,43.2065,,*55
$GPGNS,144537.00,,,,,,09,,,,3.3,136*70
$GLGNS,144537.00,,,,,,07,,,,,*78
$GAGNS,144537.00,,,,,,09,,,,,*7B
$GBGNS,144537.00,,,,,,15,,,,,*75
$GPLLQ,144537.00,010125,,M,,M,1,40,1.564,,M*13
$GPVTG,,T,,M,0.00,N,0.01,K,D*27
$GPHDT,,T*1B
$GPTHS,,V*0E
$GPROT,,V*08
$PSSN,HRP,144537.00,010125,,,,,,,00,0,,*61
$PTNL,AVR,144537.00,,Yaw,,Tilt,,,,0,,00*37
$GPGSA,A,3,06,11,12,20,25,28,29,31,32,,,,0.7,0.4,0.6*35
$GPGSA,A,3,69,77,78,79,81,87,88,,,,,,0.7,0.4,0.6*3F
$GPGSA,A,3,02,07,15,19,27,29,30,34,36,,,,0.7,0.4,0.6*31
$GPGSA,A,3,05,08,10,11,12,13,23,24,25,34,35,38,0.7,0.4,0.6*30
$GPGSA,A,3,43,44,60,,,,,,,,,,0.7,0.4,0.6*36
$GPGST,144537.00,1.750,0.871,0.462,350.930,0.863,0.476,1.214*58
$GPGBS,144537.00,4.603,3.140,8.372,81,0.0001,4.525,6.381*54
$GPGRS,144537.00,1,-0.9,0.1,-0.0,2.4,-0.1,0.0,0.1,1.4,-0.5,,,*6E
$GPGRS,144537.00,1,1.4,-3.7,0.0,1.6,4.5,-3.8,0.0,,,,,*6C
$GPGRS,144537.00,1,1.0,-1.6,0.7,-1.6,-0.6,1.0,-0.2,0.2,-0.0,,,*4C
$GPGRS,144537.00,1,1.1,0.3,-0.3,2.7,0.1,0.5,2.5,-1.1,-1.4,0.2,-3.0,-1.3*63
$GPGRS,144537.00,1,-0.5,-0.8,-1.0,,,,,,,,,*41
$GPGSV,5,1,20,25,83,030,50,31,19,315,42,32,17,251,43,06,13,034,39*71
$GPGSV,5,2,20,28,44,301,46,11,37,065,46,12,44,093,47,29,60,229,49*70
$GPGSV,5,3,20,20,09,091,38,24,08,159,28,18,01,187,,36,35,170,46*7D
$GPGSV,5,4,20,58,13,245,36,40,23,133,37,34,31,208,43,49,34,195,45*7D
$GPGSV,5,5,20,57,04,114,38,41,07,108,35,61,03,257,38*40
$GLGSV,2,1,08,78,74,083,52,70,12,338,33,87,26,032,44,77,16,120,40*68
$GLGSV,2,2,08,81,31,190,49,79,43,317,51,88,72,110,52,69,10,277,43*62
$GAGSV,3,1,10,30,66,081,49,15,28,160,42,07,11,219,39,19,16,318,36*64
$GAGSV,3,2,10,02,14,097,38,36,21,039,40,29,25,272,42,34,47,096,47*67
$GAGSV,3,3,10,27,55,294,47,21,05,283,37*6B
$GBGSV,6,1,23,25,72,289,51,43,16,211,42,05,20,130,38,56,20,056,*60
$GBGSV,6,2,23,23,20,305,43,10,14,070,36,11,36,199,46,13,14,093,38*6A
$GBGSV,6,3,23,08,15,085,36,38,17,071,41,24,47,134,49,31,33,086,*67
$GBGSV,6,4,23,34,60,185,51,44,52,063,49,12,71,106,49,32,02,307,39*6C
$GBGSV,6,5,23,02,05,108,34,35,09,044,39,20,08,311,,07,01,069,34*62
$GBGSV,6,6,23,28,03,203,,19,00,355,,60,09,110,39*5C
$GPGGA,144537.00,,,,,0,00,,,M,,M,,*48
$PTNL,GGK,144537.00,010125,4742.1599689,N,01618.1012663,E,1,40,0.7,EHT751.2920,M*4A
$GPGGQ,144537.00,010125,4742.1599689,N,01618.1012663,E,1,40,1.564,708.0855,M*38
$GPGFA,144537.00,8.283,9.959,0.871,0.462,350.930,1.214,,VVV*0A
$GPLLK,144537.00,010125,,M,,M,1,40,0.8,,M*07
$GNGMP,144537.00,,,,,DAAA,40,0.4,,,,*56
$GPGMP,144537.00,,,,,,09,,,,3.3,136*70
$GLGMP,144537.00,,,,,,07,,,,,*78
$GAGMP,144537.00,,,,,,09,,,,,*7B
$GBGMP,144537.00,,,,,,15,,,,,*75
$PSSN,SNC,[0,312355000,2347]*47
$GPZDA,144542.00,01,01,2025,,*61
$GPDTM,W84,,00.0000000,N,00.0000000,E,00.0000000,W84*5F
$PSSN,TFM,144542.00,,,,*6D
$GPRMC,144542.00,A,4742.1599695,N,01618.1012683,E,0.0,,010125,5.1,E,D*15
$GPGLL,4742.1599695,N,01618.1012683,E,144542.00,A,D*64
$GPGGA,144542.00,4742.1599695,N,01618.1012683,E,2,40,0.4,708.0832,M,43.2065,M,2.8,0136*47
$GNGNS,144542.00,4742.1599695,N,01618.1012683,E,DAAA,40,0.4,708.0832,43.2065,,*55
$GPGNS,144542.00,,,,,,09,,,,2.8,136*78
$GLGNS,144542.00,,,,,,07,,,,,*7A
$GAGNS,144542.00,,,,,,09,,,,,*79
$GBGNS,144542.00,,,,,,15,,,,,*77
$GPLLQ,144542.00,010125,,M,,M,1,40,1.572,,M*16
$GPVTG,,T,,M,0.01,N,0.01,K,D*26
$GPHDT,,T*1B
$GPTHS,,V*0E
$GPROT,,V*08
$PSSN,HRP,144542.00,010125,,,,,,,00,0,,*63
$PTNL,AVR,144542.00,,Yaw,,Tilt,,,,0,,00*35
$GPGSA,A,3,06,11,12,20,25,28,29,31,32,,,,0.7,0.4,0.6*35
$GPGSA,A,3,69,77,78,79,81,87,88,,,,,,0.7,0.4,0.6*3F
$GPGSA,A,3,02,07,15,19,27,29,30,34,36,,,,0.7,0.4,0.6*31
$GPGSA,A,3,05,08,10,11,12,13,23,24,25,34,35,38,0.7,0.4,0.6*30
$GPGSA,A,3,43,44,60,,,,,,,,,,0.7,0.4,0.6*36
$GPGST,144542.00,1.900,0.876,0.462,351.083,0.868,0.476,1.221*5B
$GPGBS,144542.00,4.543,3.108,8.431,81,0.0001,5.524,6.380*5C
$GPGRS,144542.00,1,-1.3,-0.2,0.3,2.8,-0.3,0.0,0.3,1.2,-0.6,,,*6E
$GPGRS,144542.00,1,1.9,-4.3,0.0,1.6,5.5,-3.5,0.3,,,,,*6F
$GPGRS,144542.00,1,1.3,-1.3,0.8,-1.3,-0.4,1.4,-0.4,0.3,-0.1,,,*42
$GPGRS,144542.00,1,1.3,0.5,0.5,2.5,0.1,0.5,2.6,-1.3,-1.3,0.4,-3.1,-1.2*4C
$GPGRS,144542.00,1,0.0,-0.7,-0.9,,,,,,,,,*6C
$GPGSV,5,1,20,25,83,030,50,31,19,315,42,32,17,251,42,06,13,034,39*70
$GPGSV,5,2,20,28,44,301,46,11,37,065,46,12,44,093,48,29,60,229,49*7F
$GPGSV,5,3,20,20,09,091,38,24,08,159,28,18,01,187,,36,35,170,46*7D
$GPGSV,5,4,20,58,13,245,37,40,23,133,37,34,31,208,43,49,34,195,45*7C
$GPGSV,5,5,20,57,04,114,38,41,07,108,35,61,03,257,38*40
$GLGSV,2,1,08,78,74,083,52,70,12,338,34,87,26,032,44,77,16,120,40*6F
$GLGSV,2,2,08,81,31,190,49,79,43,317,51,88,72,110,52,69,10,277,43*62
$GAGSV,3,1,10,30,66,081,49,15,28,160,42,07,11,219,39,19,16,318,35*67
$GAGSV,3,2,10,02,14,097,38,36,21,039,39,29,25,271,42,34,47,096,47*6A
$GAGSV,3,3,10,27,55,294,47,21,05,283,36*6A
$GBGSV,6,1,23,25,72,289,51,43,16,211,42,05,20,130,38,56,20,056,*60
$GBGSV,6,2,23,23,20,305,43,10,14,070,37,11,36,199,46,13,14,093,38*6B
$GBGSV,6,3,23,08,15,085,36,38,17,071,41,24,47,134,49,31,33,086,*67
$GBGSV,6,4,23,34,60,185,51,44,52,063,49,12,71,106,49,32,02,307,38*6D
$GBGSV,6,5,23,02,05,108,34,35,09,044,40,20,08,311,,07,01,069,34*6C
$GBGSV,6,6,23,28,03,203,,19,00,355,,60,09,110,39*5C
$GPGGA,144542.00,,,,,0,00,,,M,,M,,*4A
$PTNL,GGK,144542.00,010125,4742.1599695,N,01618.1012683,E,1,40,0.7,EHT751.2898,M*49
$GPGGQ,144542.00,010125,4742.1599695,N,01618.1012683,E,1,40,1.572,708.0832,M*3F
$GPGFA,144542.00,8.328,10.016,0.876,0.462,351.083,1.221,,VVV*33
$GPLLK,144542.00,010125,,M,,M,1,40,0.8,,M*05
$GNGMP,144542.00,,,,,DAAA,40,0.4,,,,*54
$GPGMP,144542.00,,,,,,09,,,,2.8,136*78
$GLGMP,144542.00,,,,,,07,,,,,*7A
$GAGMP,144542.00,,,,,,09,,,,,*79
$GBGMP,144542.00,,,,,,15,,,,,*77
$PSSN,SNC,[0,312360000,2347]*41
$GPZDA,144547.00,01,01,2025,,*64
$GPDTM,W84,,00.0000000,N,00.0000000,E,00.0000000,W84*5F
$PSSN,TFM,144547.00,,,,*68
$GPRMC,144547.00,A,4742.1599717,N,01618.1012698,E,0.0,,010125,5.1,E,D*11
$GPGLL,4742.1599717,N,01618.1012698,E,144547.00,A,D*60
$GPGGA,144547.00,4742.1599717,N,01618.1012698,E,2,40,0.4,708.0820,M,43.2065,M,1.8,0136*43
$GNGNS,144547.00,4742.1599717,N,01618.1012698,E,DAAA,40,0.4,708.0820,43.2065,,*52
$GPGNS,144547.00,,,,,,09,,,,1.8,136*7E
$GLGNS,144547.00,,,,,,07,,,,,*7F
$GAGNS,144547.00,,,,,,09,,,,,*7C
$GBGNS,144547.00,,,,,,15,,,,,*72
$GPLLQ,144547.00,010125,,M,,M,1,40,1.574,,M*15
$GPVTG,,T,,M,0.01,N,0.01,K,D*26
$GPHDT,,T*1B
$GPTHS,,V*0E
$GPROT,,V*08
$PSSN,HRP,144547.00,010125,,,,,,,00,0,,*66
$PTNL,AVR,144547.00,,Yaw,,Tilt,,,,0,,00*30
$GPGSA,A,3,06,11,12,20,25,28,29,31,32,,,,0.7,0.4,0.6*35
$GPGSA,A,3,69,77,78,79,81,87,88,,,,,,0.7,0.4,0.6*3F
$GPGSA,A,3,02,07,15,21,27,29,30,34,36,,,,0.7,0.4,0.6*3A
$GPGSA,A,3,05,08,10,11,12,13,23,24,25,34,35,38,0.7,0.4,0.6*30
$GPGSA,A,3,43,44,60,,,,,,,,,,0.7,0.4,0.6*36
$GPGST,144547.00,2.341,0.877,0.458,351.129,0.869,0.472,1.224*5B
$GPGBS,144547.00,4.573,3.119,8.318,77,0.0001,-4.714,6.630*7C
$GPGRS,144547.00,1,-1.1,-0.2,0.1,2.4,-0.2,0.0,0.4,1.4,-0.9,,,*68
$GPGRS,144547.00,1,2.0,-4.7,-0.3,2.1,4.4,-3.6,-0.1,,,,,*62
$GPGRS,144547.00,1,1.4,-1.1,1.1,8.1,-0.6,1.0,-0.4,0.1,0.2,,,*46
$GPGRS,144547.00,1,1.4,1.3,0.9,2.7,-0.0,0.6,2.3,-1.2,-1.3,0.3,-3.6,-1.2*6C
$GPGRS,144547.00,1,0.1,-1.0,-0.9,,,,,,,,,*6E
$GPGSV,5,1,20,25,83,030,50,31,19,315,43,32,17,251,43,06,13,034,39*70
$GPGSV,5,2,20,28,44,301,46,11,37,065,46,12,44,093,48,29,60,229,49*7F
$GPGSV,5,3,20,20,09,091,39,24,08,159,28,18,01,187,,36,35,170,46*7C
$GPGSV,5,4,20,58,13,245,37,40,23,133,37,34,31,208,43,49,34,195,45*7C
$GPGSV,5,5,20,57,04,114,38,41,07,108,35,61,03,257,38*40
$GLGSV,2,1,08,78,74,083,52,70,12,338,34,87,26,032,44,77,16,120,39*61
$GLGSV,2,2,08,81,31,190,49,79,43,317,51,88,72,110,52,69,10,277,44*65
$GAGSV,3,1,10,30,66,081,48,15,28,160,43,07,11,219,39,19,16,318,35*67
$GAGSV,3,2,10,02,14,097,38,36,21,039,39,29,25,271,42,34,47,096,47*6A
$GAGSV,3,3,10,27,55,294,47,21,05,283,36*6A
$GBGSV,6,1,23,25,72,289,52,43,16,211,43,23,20,305,43,56,20,056,*6E
$GBGSV,6,2,23,05,20,130,38,10,14,070,37,11,36,199,47,13,14,093,39*67
$GBGSV,6,3,23,08,15,085,37,38,17,071,41,24,47,134,49,31,33,086,*66
$GBGSV,6,4,23,34,60,185,51,44,52,063,49,12,71,106,49,32,02,307,39*6C
$GBGSV,6,5,23,02,05,108,34,35,09,044,40,20,08,311,,07,01,069,34*6C
$GBGSV,6,6,23,28,03,203,,19,00,355,,60,09,110,39*5C
$GPGGA,144547.00,,,,,0,00,,,M,,M,,*4F
$PTNL,GGK,144547.00,010125,4742.1599717,N,01618.1012698,E,1,40,0.7,EHT751.2885,M*41
$GPGGQ,144547.00,010125,4742.1599717,N,01618.1012698,E,1,40,1.574,708.0820,M*3E
$GPGFA,144547.00,8.336,10.037,0.877,0.458,351.129,1.224,,VVV*36
$GPLLK,144547.00,010125,,M,,M,1,40,0.8,,M*00
$GNGMP,144547.00,,,,,DAAA,40,0.4,,,,*51
$GPGMP,144547.00,,,,,,09,,,,1.8,136*7E
$GLGMP,144547.00,,,,,,07,,,,,*7F
$GAGMP,144547.00,,,,,,09,,,,,*7C
$GBGMP,144547.00,,,,,,15,,,,,*72
$PSSN,SNC,[0,312365000,2347]*44
$GPZDA,144552.00,01,01,2025,,*60
$GPDTM,W84,,00.0000000,N,00.0000000,E,00.0000000,W84*5F
$PSSN,TFM,144552.00,,,,*6C
$GPRMC,144552.00,A,4742.1599731,N,01618.1012717,E,0.0,,010125,5.1,E,D*17
$GPGLL,4742.1599731,N,01618.1012717,E,144552.00,A,D*66
$GPGGA,144552.00,4742.1599731,N,01618.1012717,E,2,41,0.4,708.0806,M,43.2065,M,2.3,0136*48
$GNGNS,144552.00,4742.1599731,N,01618.1012717,E,DAAA,41,0.4,708.0806,43.2065,,*51
$GPGNS,144552.00,,,,,,09,,,,2.3,136*72
$GLGNS,144552.00,,,,,,07,,,,,*7B
$GAGNS,144552.00,,,,,,10,,,,,*70
$GBGNS,144552.00,,,,,,15,,,,,*76
$GPLLQ,144552.00,010125,,M,,M,1,41,1.563,,M*16
$GPVTG,,T,,M,0.00,N,0.01,K,D*27
$GPHDT,,T*1B
$GPTHS,,V*0E
$GPROT,,V*08
$PSSN,HRP,144552.00,010125,,,,,,,00,0,,*62
$PTNL,AVR,144552.00,,Yaw,,Tilt,,,,0,,00*34
$GPGSA,A,3,06,11,12,20,25,28,29,31,32,,,,0.7,0.4,0.6*35
$GPGSA,A,3,69,77,78,79,81,87,88,,,,,,0.7,0.4,0.6*3F
$GPGSA,A,3,02,07,15,19,21,27,29,30,34,36,,,0.7,0.4,0.6*32
$GPGSA,A,3,05,08,10,11,12,13,23,24,25,34,35,38,0.7,0.4,0.6*30
$GPGSA,A,3,43,44,60,,,,,,,,,,0.7,0.4,0.6*36
$GPGST,144552.00,2.259,0.867,0.457,351.165,0.860,0.471,1.217*5B
$GPGBS,144552.00,4.579,3.114,8.304,81,0.0001,4.463,6.379*5D
$GPGRS,144552.00,1,-1.1,0.0,-0.0,2.4,-0.4,0.3,0.2,1.5,-0.1,,,*65
$GPGRS,144552.00,1,2.4,-4.5,0.1,1.4,4.5,-3.8,-0.4,,,,,*43
$GPGRS,144552.00,1,1.4,-1.2,0.9,-2.0,7.8,-0.5,1.2,-0.5,-0.0,0.1,,*60
$GPGRS,144552.00,1,0.6,1.0,0.4,2.4,0.1,0.5,1.9,-1.4,-1.2,0.0,-3.7,-1.1*46
$GPGRS,144552.00,1,-0.6,-0.9,-0.6,,,,,,,,,*47
$GPGSV,5,1,20,25,83,031,50,31,19,315,43,32,17,251,43,06,13,034,39*71
$GPGSV,5,2,20,28,44,301,47,11,37,065,46,12,44,093,47,29,60,229,49*71
$GPGSV,5,3,20,20,09,091,38,24,07,159,28,18,01,187,,36,35,170,45*71
$GPGSV,5,4,20,58,13,245,37,40,23,133,37,34,31,208,44,49,34,195,45*7B
$GPGSV,5,5,20,57,04,114,38,41,07,108,35,61,03,257,38*40
$GLGSV,2,1,08,78,74,083,52,70,12,338,34,87,26,032,44,77,16,120,39*61
$GLGSV,2,2,08,81,31,190,49,79,43,317,50,88,72,110,52,69,10,277,44*64
$GAGSV,3,1,10,30,66,081,48,15,28,160,43,07,11,219,39,19,16,318,35*67
$GAGSV,3,2,10,02,14,097,39,36,21,039,40,29,25,271,43,34,47,096,47*64
$GAGSV,3,3,10,27,55,294,47,21,05,283,36*6A
$GBGSV,6,1,23,25,72,288,52,43,16,211,42,23,20,305,43,56,20,056,*6E
$GBGSV,6,2,23,05,20,130,38,10,14,070,37,11,36,199,46,13,14,093,39*66
$GBGSV,6,3,23,08,15,085,37,38,17,071,41,24,47,134,49,31,33,086,*66
$GBGSV,6,4,23,34,60,184,51,44,52,063,49,12,71,106,49,32,02,307,37*63
$GBGSV,6,5,23,02,05,108,34,35,09,044,40,20,08,311,,07,01,069,34*6C
$GBGSV,6,6,23,28,03,203,,19,00,355,,60,09,110,39*5C
$GPGGA,144552.00,,,,,0,00,,,M,,M,,*4B
$PTNL,GGK,144552.00,010125,4742.1599731,N,01618.1012717,E,1,41,0.7,EHT751.2872,M*4E
$GPGGQ,144552.00,010125,4742.1599731,N,01618.1012717,E,1,41,1.563,708.0806,M*3B
$GPGFA,144552.00,8.244,9.979,0.867,0.457,351.165,1.217,,VVV*0B
$GPLLK,144552.00,010125,,M,,M,1,41,0.8,,M*05
$GNGMP,144552.00,,,,,DAAA,41,0.4,,,,*54
$GPGMP,144552.00,,,,,,09,,,,2.3,136*72
$GLGMP,144552.00,,,,,,07,,,,,*7B
$GAGMP,144552.00,,,,,,10,,,,,*70
$GBGMP,144552.00,,,,,,15,,,,,*76
$PSSN,SNC,[0,312370000,2347]*40
$GPZDA,144557.00,01,01,2025,,*65
$GPDTM,W84,,00.0000000,N,00.0000000,E,00.0000000,W84*5F
$PSSN,TFM,144557.00,,,,*69
$GPRMC,144557.00,A,4742.1599739,N,01618.1012749,E,0.0,,010125,5.1,E,D*11
$GPGLL,4742.1599739,N,01618.1012749,E,144557.00,A,D*60
$GPGGA,144557.00,4742.1599739,N,01618.1012749,E,2,41,0.4,708.0804,M,43.2065,M,3.3,0136*4D
$GNGNS,144557.00,4742.1599739,N,01618.1012749,E,DAAA,41,0.4,708.0804,43.2065,,*55
$GPGNS,144557.00,,,,,,09,,,,3.3,136*76
$GLGNS,144557.00,,,,,,07,,,,,*7E
$GAGNS,144557.00,,,,,,10,,,,,*75
$GBGNS,144557.00,,,,,,15,,,,,*73
$GPLLQ,144557.00,010125,,M,,M,1,41,1.559,,M*1A
$GPVTG,,T,,M,0.01,N,0.01,K,D*26
$GPHDT,,T*1B
$GPTHS,,V*0E
$GPROT,,V*08
$PSSN,HRP,144557.00,010125,,,,,,,00,0,,*67
$PTNL,AVR,144557.00,,Yaw,,Tilt,,,,0,,00*31
$GPGSA,A,3,06,11,12,20,25,28,29,31,32,,,,0.7,0.4,0.6*35
$GPGSA,A,3,69,77,78,79,81,87,88,,,,,,0.7,0.4,0.6*3F
$GPGSA,A,3,02,07,15,19,21,27,29,30,34,36,,,0.7,0.4,0.6*32
$GPGSA,A,3,05,08,10,11,12,13,23,24,25,34,35,38,0.7,0.4,0.6*30
$GPGSA,A,3,43,44,60,,,,,,,,,,0.7,0.4,0.6*36
$GPGST,144557.00,1.957,0.871,0.460,351.175,0.863,0.474,1.208*52
$GPGBS,144557.00,4.572,3.116,8.276,81,0.0001,4.991,6.379*55
$GPGRS,144557.00,1,-0.9,-0.1,0.1,2.3,-0.1,0.3,0.1,0.7,-0.5,,,*6F
$GPGRS,144557.00,1,2.7,-4.5,0.0,1.7,5.0,-3.2,0.2,,,,,*62
$GPGRS,144557.00,1,1.8,-1.2,0.4,-1.7,-4.0,-0.4,0.9,-0.3,0.2,0.3,,*66
$GPGRS,144557.00,1,1.2,1.6,1.3,1.8,0.2,1.0,1.9,-1.1,-1.2,0.2,-3.6,-1.0*49
$GPGRS,144557.00,1,-1.2,-1.0,-0.8,,,,,,,,,*41
$GPGSV,5,1,20,25,83,031,50,31,20,315,42,32,17,251,43,06,13,034,39*7A
$GPGSV,5,2,20,28,44,301,46,11,37,065,46,12,44,093,48,29,60,229,49*7F
$GPGSV,5,3,20,20,09,091,38,24,07,159,28,18,01,187,,36,35,170,46*72
$GPGSV,5,4,20,58,13,245,37,40,23,133,37,34,31,208,43,49,34,195,45*7C
$GPGSV,5,5,20,57,04,114,38,41,07,108,35,61,03,257,38*40
$GLGSV,2,1,08,78,74,083,52,70,12,338,34,87,26,032,44,77,16,120,39*61
$GLGSV,2,2,08,81,31,190,49,79,44,317,51,88,72,109,52,69,10,277,44*6A
$GAGSV,3,1,10,30,66,081,48,15,28,160,42,07,11,219,40,19,16,318,36*6B
$GAGSV,3,2,10,02,14,097,39,36,21,039,40,29,25,271,42,34,47,096,47*65
$GAGSV,3,3,10,27,55,294,47,21,05,283,36*6A
$GBGSV,6,1,23,25,72,288,51,43,16,211,42,05,20,130,38,56,20,056,*61
$GBGSV,6,2,23,23,20,305,43,10,14,070,37,11,36,199,46,13,14,093,39*6A
$GBGSV,6,3,23,08,15,085,37,38,17,071,41,24,47,134,49,31,33,086,*66
$GBGSV,6,4,23,34,60,184,51,44,52,063,49,12,71,106,49,32,02,307,37*63
$GBGSV,6,5,23,02,05,108,34,35,09,044,40,20,08,311,,07,01,069,33*6B
$GBGSV,6,6,23,28,03,203,,19,00,355,,60,09,110,39*5C
$GPGGA,144557.00,,,,,0,00,,,M,,M,,*4E
$PTNL,GGK,144557.00,010125,4742.1599739,N,01618.1012749,E,1,41,0.7,EHT751.2869,M*42
$GPGGQ,144557.00,010125,4742.1599739,N,01618.1012749,E,1,41,1.559,708.0804,M*36
$GPGFA,144557.00,8.277,9.907,0.871,0.460,351.175,1.208,,VVV*0B
$GPLLK,144557.00,010125,,M,,M,1,41,0.8,,M*00
$GNGMP,144557.00,,,,,DAAA,41,0.4,,,,*51
$GPGMP,144557.00,,,,,,09,,,,3.3,136*76
$GLGMP,144557.00,,,,,,07,,,,,*7E
$GAGMP,144557.00,,,,,,10,,,,,*75
$GBGMP,144557.00,,,,,,15,,,,,*73
$PSSN,SNC,[0,312375000,2347]*45
$GPZDA,144602.00,01,01,2025,,*66
$GPDTM,W84,,00.0000000,N,00.0000000,E,00.0000000,W84*5F
$PSSN,TFM,144602.00,,,,*6A
$GPRMC,144602.00,A,4742.1599762,N,01618.1012765,E,0.0,,010125,5.1,E,D*12
$GPGLL,4742.1599762,N,01618.1012765,E,144602.00,A,D*63
$GPGGA,144602.00,4742.1599762,N,01618.1012765,E,2,41,0.4,708.0816,M,43.2065,M,2.8,0136*47
$GNGNS,144602.00,4742.1599762,N,01618.1012765,E,DAAA,41,0.4,708.0816,43.2065,,*55
$GPGNS,144602.00,,,,,,09,,,,2.8,136*7F
$GLGNS,144602.00,,,,,,07,,,,,*7D
$GAGNS,144602.00,,,,,,10,,,,,*76
$GBGNS,144602.00,,,,,,15,,,,,*70
$GPLLQ,144602.00,010125,,M,,M,1,41,1.568,,M*1B
$GPVTG,,T,,M,0.00,N,0.00,K,D*26
$GPHDT,,T*1B
$GPTHS,,V*0E
$GPROT,,V*08
$PSSN,HRP,144602.00,010125,,,,,,,00,0,,*64
$PTNL,AVR,144602.00,,Yaw,,Tilt,,,,0,,00*32
$GPGSA,A,3,06,11,12,20,25,28,29,31,32,,,,0.7,0.4,0.6*35
$GPGSA,A,3,69,77,78,79,81,87,88,,,,,,0.7,0.4,0.6*3F
$GPGSA,A,3,02,07,15,19,21,27,29,30,34,36,,,0.7,0.4,0.6*32
$GPGSA,A,3,05,08,10,11,12,13,23,24,25,34,35,38,0.7,0.4,0.6*30
$GPGSA,A,3,43,44,60,,,,,,,,,,0.7,0.4,0.6*36
$GPGST,144602.00,1.958,0.877,0.461,351.411,0.870,0.474,1.215*50
$GPGBS,144602.00,4.511,3.083,8.342,81,0.0001,4.864,6.378*52
$GPGRS,144602.00,1,-1.1,-0.1,0.3,1.9,-0.3,-0.2,0.6,0.8,-1.2,,,*4E
$GPGRS,144602.00,1,1.8,-4.7,-0.1,1.7,4.9,-3.8,0.2,,,,,*41
$GPGRS,144602.00,1,1.6,-1.2,0.4,-0.8,-3.6,-0.5,1.0,-0.1,0.1,0.3,,*6C
$GPGRS,144602.00,1,1.2,2.0,1.4,2.1,-0.4,1.2,2.1,-1.3,-1.4,0.3,-3.5,-1.2*64
$GPGRS,144602.00,1,-1.0,-1.0,-0.9,,,,,,,,,*41
$GPGSV,6,1,21,25,83,031,50,31,20,315,42,32,17,251,43,06,13,034,39*78
$GPGSV,6,2,21,28,44,301,46,11,37,065,45,12,44,093,48,29,60,229,49*7E
$GPGSV,6,3,21,20,09,091,38,26,00,289,,24,07,159,28,18,01,187,*70
$GPGSV,6,4,21,36,35,170,46,58,13,245,37,40,23,133,37,34,31,208,44*78
$GPGSV,6,5,21,49,34,195,45,57,04,114,38,41,07,108,35,61,03,257,39*75
$GPGSV,6,6,21*7A
$GLGSV,2,1,08,78,74,083,52,70,12,338,32,87,25,032,44,77,16,120,38*65
$GLGSV,2,2,08,81,31,190,48,79,44,317,51,88,72,109,52,69,10,277,43*6C
$GAGSV,3,1,10,30,66,081,49,15,28,160,42,07,11,219,40,19,16,318,36*6A
$GAGSV,3,2,10,02,14,097,40,36,21,039,40,29,25,271,43,34,47,096,47*6A
$GAGSV,3,3,10,27,56,294,48,21,05,283,36*66
$GBGSV,6,1,23,25,72,288,51,43,16,211,41,05,20,130,38,56,20,056,*62
$GBGSV,6,2,23,23,20,305,43,10,14,070,37,11,36,199,46,13,14,093,39*6A
$GBGSV,6,3,23,08,15,085,38,38,17,071,41,24,47,134,49,31,33,086,*69
$GBGSV,6,4,23,34,60,184,51,44,52,063,49,12,71,106,49,32,02,307,37*63
$GBGSV,6,5,23,02,05,108,34,35,09,044,40,20,08,311,,07,01,069,33*6B
$GBGSV,6,6,23,28,04,203,,19,00,355,,60,09,110,39*5B
$GPGGA,144602.00,,,,,0,00,,,M,,M,,*4D
$PTNL,GGK,144602.00,010125,4742.1599762,N,01618.1012765,E,1,41,0.7,EHT751.2882,M*44
$GPGGQ,144602.00,010125,4742.1599762,N,01618.1012765,E,1,41,1.568,708.0816,M*34
$GPGFA,144602.00,8.335,9.963,0.877,0.461,351.411,1.215,,VVV*01
$GPLLK,144602.00,010125,,M,,M,1,41,0.8,,M*03
$GNGMP,144602.00,,,,,DAAA,41,0.4,,,,*52
$GPGMP,144602.00,,,,,,09,,,,2.8,136*7F
$GLGMP,144602.00,,,,,,07,,,,,*7D
$GAGMP,144602.00,,,,,,10,,,,,*76
$GBGMP,144602.00,,,,,,15,,,,,*70
$PSSN,SNC,[0,312380000,2347]*4F
$GPZDA,144607.00,01,01,2025,,*63
$GPDTM,W84,,00.0000000,N,00.0000000,E,00.0000000,W84*5F
$PSSN,TFM,144607.00,,,,*6F
$GPRMC,144607.00,A,4742.1599777,N,01618.1012759,E,0.0,,010125,5.1,E,D*1C
$GPGLL,4742.1599777,N,01618.1012759,E,144607.00,A,D*6D
$GPGGA,144607.00,4742.1599777,N,01618.1012759,E,2,41,0.4,708.0750,M,43.2065,M,1.8,0136*47
$GNGNS,144607.00,4742.1599777,N,01618.1012759,E,DAAA,41,0.4,708.0750,43.2065,,*56
$GPGNS,144607.00,,,,,,09,,,,1.8,136*79
$GLGNS,144607.00,,,,,,07,,,,,*78
$GAGNS,144607.00,,,,,,10,,,,,*73
$GBGNS,144607.00,,,,,,15,,,,,*75
$GPLLQ,144607.00,010125,,M,,M,1,41,1.586,,M*1E
$GPVTG,,T,,M,0.00,N,0.01,K,D*27
$GPHDT,,T*1B
$GPTHS,,V*0E
$GPROT,,V*08
$PSSN,HRP,144607.00,010125,,,,,,,00,0,,*61
$PTNL,AVR,144607.00,,Yaw,,Tilt,,,,0,,00*37
$GPGSA,A,3,06,11,12,20,25,28,29,31,32,,,,0.7,0.4,0.6*35
$GPGSA,A,3,69,77,78,79,81,87,88,,,,,,0.7,0.4,0.6*3F
$GPGSA,A,3,02,07,15,19,21,27,29,30,34,36,,,0.7,0.4,0.6*32
$GPGSA,A,3,05,08,10,11,12,13,23,24,25,34,35,38,0.7,0.4,0.6*30
$GPGSA,A,3,43,44,60,,,,,,,,,,0.7,0.4,0.6*36
$GPGST,144607.00,1.964,0.897,0.465,349.914,0.887,0.484,1.222*52
$GPGBS,144607.00,4.463,3.195,8.306,77,0.0001,-5.141,6.638*7F
$GPGRS,144607.00,1,-1.4,0.0,0.2,2.3,-0.0,0.1,0.3,1.0,-0.6,,,*4E
$GPGRS,144607.00,1,1.7,-5.1,-0.1,1.7,4.1,-4.4,-0.4,,,,,*64
$GPGRS,144607.00,1,1.5,-1.3,0.6,-1.2,-3.2,-0.5,1.0,0.0,0.2,0.1,,*4B
$GPGRS,144607.00,1,1.3,1.7,0.6,2.5,-0.3,0.9,2.0,-1.3,-1.2,0.3,-3.7,-1.1*68
$GPGRS,144607.00,1,-0.0,-1.2,-0.7,,,,,,,,,*49
$GPGSV,6,1,21,25,83,032,49,31,20,315,42,32,17,251,43,06,13,034,38*72
$GPGSV,6,2,21,28,44,300,46,11,37,065,46,12,44,093,47,29,60,229,49*73
$GPGSV,6,3,21,20,09,091,38,26,00,289,,24,07,159,27,18,01,187,*7F
$GPGSV,6,4,21,36,35,170,46,58,13,245,37,40,23,133,37,34,31,208,43*7F
$GPGSV,6,5,21,49,34,195,45,57,04,114,38,41,07,108,35,61,03,257,38*74
$GPGSV,6,6,21*7A
$GLGSV,2,1,08,78,74,083,52,70,12,338,34,87,25,032,44,77,16,120,39*62
$GLGSV,2,2,08,81,31,190,49,79,44,317,51,88,72,109,52,69,09,277,44*62
$GAGSV,3,1,10,30,66,081,48,15,28,160,43,07,11,219,39,19,16,318,36*64
$GAGSV,3,2,10,02,14,097,40,36,21,039,40,29,25,271,42,34,47,096,47*6B
$GAGSV,3,3,10,27,56,294,47,21,05,283,36*69
$GBGSV,6,1,23,25,73,288,51,43,17,211,41,05,20,130,38,56,20,056,*62
$GBGSV,6,2,23,23,20,305,42,10,14,070,37,11,36,199,46,13,14,093,39*6B
$GBGSV,6,3,23,08,15,085,38,38,17,071,41,24,47,134,49,31,33,086,*69
$GBGSV,6,4,23,34,60,184,51,44,52,063,49,12,71,106,49,32,02,307,37*63
$GBGSV,6,5,23,02,05,108,33,35,09,044,40,20,08,311,,07,01,069,34*6B
$GBGSV,6,6,23,28,04,203,,19,00,355,,60,09,110,39*5B
$GPGGA,144607.00,,,,,0,00,,,M,,M,,*48
$PTNL,GGK,144607.00,010125,4742.1599777,N,01618.1012759,E,1,41,0.7,EHT751.2816,M*47
$GPGGQ,144607.00,010125,4742.1599777,N,01618.1012759,E,1,41,1.586,708.0750,M*37
$GPGFA,144607.00,8.531,10.018,0.897,0.465,349.914,1.222,,VVV*34
$GPLLK,144607.00,010125,,M,,M,1,41,0.8,,M*06
$GNGMP,144607.00,,,,,DAAA,41,0.4,,,,*57
$GPGMP,144607.00,,,,,,09,,,,1.8,136*79
$GLGMP,144607.00,,,,,,07,,,,,*78
$GAGMP,144607.00,,,,,,10,,,,,*73
$GBGMP,144607.00,,,,,,15,,,,,*75
$PSSN,SNC,[0,312385000,2347]*4A
$GPZDA,144612.00,01,01,2025,,*67
$GPDTM,W84,,00.0000000,N,00.0000000,E,00.0000000,W84*5F
$PSSN,TFM,144612.00,,,,*6B
$GPRMC,144612.00,A,4742.1599788,N,01618.1012780,E,0.0,,010125,5.1,E,D*1C
$GPGLL,4742.1599788,N,01618.1012780,E,144612.00,A,D*6D
$GPGGA,144612.00,4742.1599788,N,01618.1012780,E,2,41,0.4,708.0715,M,43.2065,M,2.3,0136*4E
$GNGNS,144612.00,4742.1599788,N,01618.1012780,E,DAAA,41,0.4,708.0715,43.2065,,*57
$GPGNS,144612.00,,,,,,09,,,,2.3,136*75
$GLGNS,144612.00,,,,,,07,,,,,*7C
$GAGNS,144612.00,,,,,,10,,,,,*77
$GBGNS,144612.00,,,,,,15,,,,,*71
$GPLLQ,144612.00,010125,,M,,M,1,41,1.580,,M*1C
$GPVTG,,T,,M,0.01,N,0.01,K,D*26
$GPHDT,,T*1B
$GPTHS,,V*0E
$GPROT,,V*08
$PSSN,HRP,144612.00,010125,,,,,,,00,0,,*65
$PTNL,AVR,144612.00,,Yaw,,Tilt,,,,0,,00*33
$GPGSA,A,3,06,11,12,20,25,28,29,31,32,,,,0.7,0.4,0.6*35
$GPGSA,A,3,69,77,78,79,81,87,88,,,,,,0.7,0.4,0.6*3F
$GPGSA,A,3,02,07,15,19,21,27,29,30,34,36,,,0.7,0.4,0.6*32
$GPGSA,A,3,05,08,10,11,12,13,23,24,25,34,35,38,0.7,0.4,0.6*30
$GPGSA,A,3,43,44,60,,,,,,,,,,0.7,0.4,0.6*36
$GPGST,144612.00,2.053,0.894,0.465,349.774,0.884,0.484,1.216*57
$GPGBS,144612.00,4.495,3.212,8.294,06,0.0001,-1.910,2.383*7B
$GPGRS,144612.00,1,-1.9,0.0,-0.0,2.6,-0.2,0.2,0.3,1.0,-0.4,,,*6E
$GPGRS,144612.00,1,2.3,-4.5,-0.1,2.1,4.5,-4.5,-0.1,,,,,*67
$GPGRS,144612.00,1,1.1,-1.6,0.8,-1.0,-3.8,-0.7,0.8,-0.1,0.3,-0.3,,*41
$GPGRS,144612.00,1,1.1,1.8,-0.0,2.6,0.1,0.8,2.3,-1.3,-1.1,0.3,-4.1,-0.8*6E
$GPGRS,144612.00,1,0.6,-1.0,-0.8,,,,,,,,,*6B
$GPGSV,6,1,21,25,83,032,50,31,20,315,42,32,17,251,43,06,13,034,38*7A
$GPGSV,6,2,21,28,44,300,46,11,37,065,46,12,44,093,47,29,60,229,49*73
$GPGSV,6,3,21,20,09,091,37,26,00,289,,24,07,159,27,18,01,187,*70
$GPGSV,6,4,21,36,35,170,46,58,13,245,36,40,23,133,37,34,31,208,44*79
$GPGSV,6,5,21,49,34,195,45,57,04,114,38,41,07,108,35,61,03,257,38*74
$GPGSV,6,6,21*7A
$GLGSV,2,1,08,78,74,084,52,70,12,338,34,87,25,032,44,77,16,120,39*65
$GLGSV,2,2,08,81,31,190,49,79,44,317,51,88,72,109,52,69,09,277,44*62
$GAGSV,3,1,10,30,66,081,48,15,28,160,43,07,11,219,39,19,16,318,35*67
$GAGSV,3,2,10,02,14,097,39,36,21,039,40,29,25,271,42,34,47,096,47*65
$GAGSV,3,3,10,27,56,294,47,21,05,283,36*69
$GBGSV,6,1,23,25,73,288,51,43,17,211,42,05,20,130,38,56,20,056,*61
$GBGSV,6,2,23,23,20,305,43,10,14,070,37,11,36,199,46,13,14,093,38*6B
$GBGSV,6,3,23,08,15,085,38,38,17,071,41,24,47,134,49,31,33,086,*69
$GBGSV,6,4,23,34,60,184,51,44,52,063,49,12,71,106,49,32,02,307,38*6C
$GBGSV,6,5,23,02,05,108,34,35,09,044,40,20,08,311,,07,01,069,34*6C
$GBGSV,6,6,23,28,04,203,,19,00,355,,60,09,110,39*5B
$GPGGA,144612.00,,,,,0,00,,,M,,M,,*4C
$PTNL,GGK,144612.00,010125,4742.1599788,N,01618.1012780,E,1,41,0.7,EHT751.2780,M*47
$GPGGQ,144612.00,010125,4742.1599788,N,01618.1012780,E,1,41,1.580,708.0715,M*30
$GPGFA,144612.00,8.501,9.974,0.894,0.465,349.774,1.216,,VVV*04
$GPLLK,144612.00,010125,,M,,M,1,41,0.8,,M*02
$GNGMP,144612.00,,,,,DAAA,41,0.4,,,,*53
$GPGMP,144612.00,,,,,,09,,,,2.3,136*75
$GLGMP,144612.00,,,,,,07,,,,,*7C
$GAGMP,144612.00,,,,,,10,,,,,*77
$GBGMP,144612.00,,,,,,15,,,,,*71
$PSSN,SNC,[0,312390000,2347]*4E
$GPZDA,144617.00,01,01,2025,,*62
$GPDTM,W84,,00.0000000,N,00.0000000,E,00.0000000,W84*5F
$PSSN,TFM,144617.00,,,,*6E
$GPRMC,144617.00,A,4742.1599812,N,01618.1012774,E,0.0,,010125,5.1,E,D*1E
$GPGLL,4742.1599812,N,01618.1012774,E,144617.00,A,D*6F
$GPGGA,144617.00,4742.1599812,N,01618.1012774,E,2,41,0.4,708.0696,M,43.2065,M,3.3,0136*47
$GNGNS,144617.00,4742.1599812,N,01618.1012774,E,DAAA,41,0.4,708.0696,43.2065,,*5F
$GPGNS,144617.00,,,,,,09,,,,3.3,136*71
$GLGNS,144617.00,,,,,,07,,,,,*79
$GAGNS,144617.00,,,,,,10,,,,,*72
$GBGNS,144617.00,,,,,,15,,,,,*74
$GPLLQ,144617.00,010125,,M,,M,1,41,1.578,,M*1E
$GPVTG,,T,,M,0.01,N,0.01,K,D*26
$GPHDT,,T*1B
$GPTHS,,V*0E
$GPROT,,V*08
$PSSN,HRP,144617.00,010125,,,,,,,00,0,,*60
$PTNL,AVR,144617.00,,Yaw,,Tilt,,,,0,,00*36
$GPGSA,A,3,06,11,12,20,25,28,29,31,32,,,,0.7,0.4,0.6*35
$GPGSA,A,3,69,77,78,79,81,87,88,,,,,,0.7,0.4,0.6*3F
$GPGSA,A,3,02,07,15,19,21,27,29,30,34,36,,,0.7,0.4,0.6*32
$GPGSA,A,3,05,08,10,11,12,13,23,24,25,34,35,38,0.7,0.4,0.6*30
$GPGSA,A,3,43,44,60,,,,,,,,,,0.7,0.4,0.6*36
$GPGST,144617.00,2.027,0.898,0.469,349.710,0.887,0.488,1.210*5A
$GPGBS,144617.00,4.491,3.229,8.306,81,0.0001,5.272,6.377*5E
$GPGRS,144617.00,1,-1.2,0.1,0.1,1.9,0.0,0.1,0.1,1.3,-0.7,,,*6F
$GPGRS,144617.00,1,1.9,-4.9,-0.4,1.4,5.3,-3.8,0.2,,,,,*47
$GPGRS,144617.00,1,1.6,-1.8,0.9,-1.1,-3.5,-0.8,1.1,-0.1,0.1,0.0,,*6B
$GPGRS,144617.00,1,1.6,1.8,0.1,2.1,0.2,0.6,2.5,-1.4,-1.3,0.2,-3.9,-1.0*4E
$GPGRS,144617.00,1,-0.1,-0.8,-0.9,,,,,,,,,*4C
$GPGSV,6,1,21,25,83,032,50,31,20,315,43,32,17,251,43,06,13,034,38*7B
$GPGSV,6,2,21,28,44,300,46,11,37,064,45,12,44,093,47,29,60,229,49*71
$GPGSV,6,3,21,20,09,091,37,26,00,289,,24,07,159,27,18,01,187,*70
$GPGSV,6,4,21,36,35,170,46,58,13,245,36,40,23,133,37,34,31,208,43*7E
$GPGSV,6,5,21,49,34,195,45,57,04,114,38,41,07,108,35,61,03,257,38*74
$GPGSV,6,6,21*7A
$GLGSV,2,1,08,78,73,084,52,70,12,338,35,87,25,032,44,77,16,120,39*63
$GLGSV,2,2,08,81,31,190,50,79,44,317,51,88,72,109,52,69,09,277,42*6C
$GAGSV,3,1,10,30,66,081,49,15,28,160,43,07,11,219,38,19,16,318,35*67
$GAGSV,3,2,10,02,14,097,40,36,21,039,40,29,25,271,42,34,47,096,47*6B
$GAGSV,3,3,10,27,56,294,47,21,05,283,36*69
$GBGSV,6,1,23,25,73,288,51,43,17,211,41,05,20,130,38,56,20,056,*62
$GBGSV,6,2,23,23,20,305,43,10,14,070,36,11,36,199,46,13,14,093,39*6B
$GBGSV,6,3,23,08,15,085,38,38,17,071,41,24,47,134,49,31,33,086,*69
