$GPZDA,034442.00,01,01,2025,,*66
$GPDTM,W84,,00.0000000,N,00.0000000,E,00.0000000,W84*5F
$PSSN,TFM,034442.00,,,,*6A
$GPRMC,034442.00,A,4742.1603801,N,01618.1002327,E,0.0,,010125,5.1,E,D*1B
$GPGLL,4742.1603801,N,01618.1002327,E,034442.00,A,D*6A
$GPGGA,034442.00,4742.1603801,N,01618.1002327,E,2,41,0.4,708.4555,M,43.2066,M,2.8,0136*43
$GNGNS,034442.00,4742.1603801,N,01618.1002327,E,DAAA,41,0.4,708.4555,43.2066,,*51
$GPGNS,034442.00,,,,,,11,,,,2.8,136*76
$GLGNS,034442.00,,,,,,08,,,,,*72
$GAGNS,034442.00,,,,,,09,,,,,*7E
$GBGNS,034442.00,,,,,,13,,,,,*76
$GPLLQ,034442.00,010125,,M,,M,1,41,0.792,,M*1D
$GPVTG,,T,,M,0.00,N,0.00,K,D*26
$GPHDT,,T*1B
$GPTHS,,V*0E
$GPROT,,V*08
$PSSN,HRP,034442.00,010125,,,,,,,00,0,,*64
$PTNL,AVR,034442.00,,Yaw,,Tilt,,,,0,,00*32
$GPGSA,A,3,03,04,06,07,09,11,16,19,20,26,31,,0.7,0.4,0.6*33
$GPGSA,A,3,70,71,72,79,80,85,86,87,,,,,0.7,0.4,0.6*39
$GPGSA,A,3,03,04,05,06,09,15,31,34,36,,,,0.7,0.4,0.6*3E
$GPGSA,A,3,02,05,06,09,16,19,20,22,35,37,39,44,0.7,0.4,0.6*3A
$GPGSA,A,3,60,,,,,,,,,,,,0.7,0.4,0.6*31
$GPGST,034442.00,1.839,0.403,0.314,4.874,0.403,0.314,0.605*5D
$GPGBS,034442.00,3.169,1.766,3.602,72,0.0001,6.846,6.237*5E
$GPGRS,034442.00,1,0.6,-0.1,-0.2,-0.4,-0.0,0.1,1.4,-0.4,0.4,-1.1,-0.2,*4F
$GPGRS,034442.00,1,-1.9,1.5,6.8,0.7,-2.0,2.7,-2.9,-4.5,,,,*43
$GPGRS,034442.00,1,-0.8,-0.8,0.1,0.1,0.2,0.1,0.1,-0.1,0.4,,,*4F
$GPGRS,034442.00,1,1.0,2.8,0.2,0.5,-0.8,-0.7,1.1,-0.1,-0.6,-0.8,-0.6,0.0*41
$GPGRS,034442.00,1,-1.7,,,,,,,,,,,*4E
$GPGSV,6,1,21,09,81,288,51,26,13,054,38,07,33,181,46,11,28,312,44*70
$GPGSV,6,2,21,03,34,112,45,06,55,274,48,04,64,056,47,19,08,244,39*7C
$GPGSV,6,3,21,20,07,303,38,16,09,084,38,30,03,200,,31,09,037,40*71
$GPGSV,6,4,21,36,35,170,45,58,13,245,38,40,24,132,36,34,31,208,43*74
$GPGSV,6,5,21,49,34,195,45,57,08,111,38,41,07,108,35,61,03,257,38*7D
$GPGSV,6,6,21*7A
$GLGSV,3,1,09,71,59,307,52,79,17,025,45,72,16,273,46,85,15,199,45*66
$GLGSV,3,2,09,73,18,140,,80,35,081,49,87,33,319,46,70,52,051,41*68
$GLGSV,3,3,09,86,48,254,51*59
$GAGSV,3,1,12,09,62,057,48,15,15,323,39,23,11,047,,04,12,063,38*69
$GAGSV,3,2,12,36,45,189,47,34,56,282,48,06,37,062,45,05,60,250,48*62
$GAGSV,3,3,12,18,03,236,,31,09,095,38,11,04,162,,03,09,245,38*69
$GBGSV,5,1,20,19,77,033,51,05,23,128,40,39,14,039,41,12,21,314,*6C
$GBGSV,5,2,20,36,12,164,,37,24,053,44,44,28,288,45,16,24,043,41*65
$GBGSV,5,3,20,58,29,105,,06,26,045,40,46,35,115,,35,26,236,45*6F
$GBGSV,5,4,20,20,31,084,48,22,39,282,48,09,39,054,43,21,39,273,*6C
$GBGSV,5,5,20,48,53,079,,34,05,335,,02,07,106,35,60,08,111,40*65
$GPGGA,034442.00,,,,,0,00,,,M,,M,,*4D
$PTNL,GGK,034442.00,010125,4742.1603801,N,01618.1002327,E,1,41,0.7,EHT751.6621,M*4E
$GPGGQ,034442.00,010125,4742.1603801,N,01618.1002327,E,1,41,0.792,708.4555,M*35
$GPGFA,034442.00,3.835,4.964,0.403,0.314,4.874,0.605,,VVV*09
$GPLLK,034442.00,010125,,M,,M,1,41,0.8,,M*03
$GNGMP,034442.00,,,,,DAAA,41,0.4,,,,*52
$GPGMP,034442.00,,,,,,11,,,,2.8,136*76
$GLGMP,034442.00,,,,,,08,,,,,*72
$GAGMP,034442.00,,,,,,09,,,,,*7E
$GBGMP,034442.00,,,,,,13,,,,,*76
$PSSN,SNC,[0,272700000,2347]*44
$GPZDA,034447.00,01,01,2025,,*63
$GPDTM,W84,,00.0000000,N,00.0000000,E,00.0000000,W84*5F
$PSSN,TFM,034447.00,,,,*6F
$GPRMC,034447.00,A,4742.1603789,N,01618.1002314,E,0.0,,010125,5.1,E,D*11
$GPGLL,4742.1603789,N,01618.1002314,E,034447.00,A,D*60
$GPGGA,034447.00,4742.1603789,N,01618.1002314,E,2,40,0.4,708.4568,M,43.2066,M,1.6,0136*4B
$GNGNS,034447.00,4742.1603789,N,01618.1002314,E,DAAA,40,0.4,708.4568,43.2066,,*54
$GPGNS,034447.00,,,,,,11,,,,1.6,136*7E
$GLGNS,034447.00,,,,,,08,,,,,*77
$GAGNS,034447.00,,,,,,09,,,,,*7B
$GBGNS,034447.00,,,,,,12,,,,,*72
$GPLLQ,034447.00,010125,,M,,M,1,40,0.785,,M*1F
$GPVTG,,T,,M,0.01,N,0.01,K,D*26
$GPHDT,,T*1B
$GPTHS,,V*0E
$GPROT,,V*08
$PSSN,HRP,034447.00,010125,,,,,,,00,0,,*61
$PTNL,AVR,034447.00,,Yaw,,Tilt,,,,0,,00*37
$GPGSA,A,3,03,04,06,07,09,11,16,19,20,26,31,,0.7,0.4,0.6*33
$GPGSA,A,3,70,71,72,79,80,85,86,87,,,,,0.7,0.4,0.6*39
$GPGSA,A,3,03,04,05,06,09,15,31,34,36,,,,0.7,0.4,0.6*3E
$GPGSA,A,3,05,06,09,16,19,20,22,35,37,39,44,60,0.7,0.4,0.6*3E
$GPGST,034447.00,1.789,0.400,0.311,4.981,0.400,0.311,0.600*52
$GPGBS,034447.00,3.107,1.738,3.507,72,0.0001,6.527,6.237*54
$GPGRS,034447.00,1,0.5,-0.0,0.1,-0.5,-0.2,0.1,0.5,-0.0,0.2,-0.6,-0.1,*62
$GPGRS,034447.00,1,-1.4,1.5,6.5,1.0,-2.1,3.3,-3.0,-4.2,,,,*4B
$GPGRS,034447.00,1,-0.6,-0.7,0.1,-0.0,-0.0,0.3,0.3,-0.0,0.2,,,*4F
$GPGRS,034447.00,1,2.7,0.1,0.1,-0.2,-0.7,1.0,-0.1,-0.9,-0.7,-0.7,-0.1,-1.8*4F
$GPGSV,6,1,21,09,82,288,51,26,13,054,38,07,33,181,47,11,28,312,44*72
$GPGSV,6,2,21,03,33,112,45,06,55,274,48,04,64,056,47,19,08,244,39*7B
$GPGSV,6,3,21,20,07,303,38,16,09,084,39,30,03,200,,31,09,037,40*70
$GPGSV,6,4,21,36,35,170,45,58,13,245,37,40,24,132,37,34,31,208,43*7A
$GPGSV,6,5,21,49,34,195,45,57,08,111,38,41,07,108,35,61,03,257,38*7D
$GPGSV,6,6,21*7A
$GLGSV,3,1,09,71,59,307,52,79,17,025,46,72,16,273,46,85,15,199,45*65
$GLGSV,3,2,09,73,18,140,,80,35,081,49,87,33,319,46,70,52,051,41*68
$GLGSV,3,3,09,86,48,254,51*59
$GAGSV,3,1,12,09,61,057,48,15,15,323,39,23,11,047,,04,12,063,38*6A
$GAGSV,3,2,12,36,45,189,47,34,56,282,48,06,37,062,45,05,60,250,48*62
$GAGSV,3,3,12,18,03,236,,31,09,095,38,11,04,162,,03,10,245,38*61
$GBGSV,5,1,20,19,77,034,51,05,23,128,40,39,14,039,41,12,21,314,*6B
$GBGSV,5,2,20,36,12,164,,37,24,052,44,44,28,288,45,16,24,043,41*64
$GBGSV,5,3,20,58,29,105,,06,26,045,40,20,31,084,47,46,35,115,*64
$GBGSV,5,4,20,35,26,236,45,22,39,282,48,09,39,054,42,21,39,273,*69
$GBGSV,5,5,20,48,53,079,,34,05,335,,02,07,106,35,60,08,111,40*65
$GPGGA,034447.00,,,,,0,00,,,M,,M,,*48
$PTNL,GGK,034447.00,010125,4742.1603789,N,01618.1002314,E,1,40,0.7,EHT751.6633,M*46
$GPGGQ,034447.00,010125,4742.1603789,N,01618.1002314,E,1,40,0.785,708.4568,M*36
$GPGFA,034447.00,3.805,4.917,0.400,0.311,4.981,0.600,,VVV*03
$GPLLK,034447.00,010125,,M,,M,1,40,0.8,,M*07
$GNGMP,034447.00,,,,,DAAA,40,0.4,,,,*56
$GPGMP,034447.00,,,,,,11,,,,1.6,136*7E
$GLGMP,034447.00,,,,,,08,,,,,*77
$GAGMP,034447.00,,,,,,09,,,,,*7B
$GBGMP,034447.00,,,,,,12,,,,,*72
$PSSN,SNC,[0,272705000,2347]*41
$GPZDA,034452.00,01,01,2025,,*67
$GPDTM,W84,,00.0000000,N,00.0000000,E,00.0000000,W84*5F
$PSSN,TFM,034452.00,,,,*6B
$GPRMC,034452.00,A,4742.1603783,N,01618.1002284,E,0.0,,010125,5.1,E,D*17
$GPGLL,4742.1603783,N,01618.1002284,E,034452.00,A,D*66
$GPGGA,034452.00,4742.1603783,N,01618.1002284,E,2,41,0.4,708.4594,M,43.2066,M,2.3,0136*49
$GNGNS,034452.00,4742.1603783,N,01618.1002284,E,DAAA,41,0.4,708.4594,43.2066,,*50
$GPGNS,034452.00,,,,,,11,,,,2.3,136*7C
$GLGNS,034452.00,,,,,,08,,,,,*73
$GAGNS,034452.00,,,,,,09,,,,,*7F
$GBGNS,034452.00,,,,,,13,,,,,*77
$GPLLQ,034452.00,010125,,M,,M,1,41,0.773,,M*13
$GPVTG,,T,,M,0.00,N,0.01,K,D*27
$GPHDT,,T*1B
$GPTHS,,V*0E
$GPROT,,V*08
$PSSN,HRP,034452.00,010125,,,,,,,00,0,,*65
$PTNL,AVR,034452.00,,Yaw,,Tilt,,,,0,,00*33
$GPGSA,A,3,03,04,06,07,09,11,16,19,20,26,31,,0.7,0.4,0.6*33
$GPGSA,A,3,70,71,72,79,80,85,86,87,,,,,0.7,0.4,0.6*39
$GPGSA,A,3,03,04,05,06,09,15,31,34,36,,,,0.7,0.4,0.6*3E
$GPGSA,A,3,02,05,06,09,16,19,20,22,35,37,39,44,0.7,0.4,0.6*3A
$GPGSA,A,3,60,,,,,,,,,,,,0.7,0.4,0.6*31
$GPGST,034452.00,1.833,0.394,0.306,6.019,0.393,0.307,0.590*5E
$GPGBS,034452.00,3.124,1.745,3.535,72,0.0001,7.070,6.236*5D
$GPGRS,034452.00,1,0.1,0.1,-0.3,-0.0,0.1,0.3,0.7,-0.4,0.2,-1.2,-0.1,*4B
$GPGRS,034452.00,1,-1.6,1.3,7.1,0.9,-2.3,2.9,-2.9,-4.7,,,,*42
$GPGRS,034452.00,1,-0.8,-0.6,0.2,0.0,0.2,0.4,0.2,0.1,0.2,,,*6F
$GPGRS,034452.00,1,0.6,2.2,0.4,0.0,0.2,-0.7,1.1,-0.1,-0.8,-0.7,-0.9,0.1*66
$GPGRS,034452.00,1,-1.7,,,,,,,,,,,*4F
$GPGSV,6,1,21,09,82,289,51,26,13,054,38,07,33,181,46,11,28,312,44*72
$GPGSV,6,2,21,03,33,112,44,06,55,274,48,04,64,056,47,19,08,244,40*74
$GPGSV,6,3,21,20,07,303,39,16,09,084,38,30,03,200,,31,09,037,40*70
$GPGSV,6,4,21,36,35,170,45,58,13,245,38,40,24,132,36,34,31,208,44*73
$GPGSV,6,5,21,49,34,195,45,57,08,111,37,41,07,108,35,61,03,257,38*72
$GPGSV,6,6,21*7A
$GLGSV,3,1,09,71,59,307,52,79,17,025,45,72,16,273,47,85,15,199,45*67
$GLGSV,3,2,09,73,18,140,,80,35,081,50,87,34,319,46,70,52,052,41*64
$GLGSV,3,3,09,86,48,254,51*59
$GAGSV,3,1,12,09,61,057,48,15,15,323,39,23,11,047,,04,12,063,38*6A
$GAGSV,3,2,12,36,45,189,47,34,56,282,48,06,37,062,45,05,60,250,48*62
$GAGSV,3,3,12,18,03,236,,31,09,095,38,11,04,162,,03,10,245,38*61
$GBGSV,5,1,20,19,77,034,51,05,23,128,40,39,14,039,41,12,21,314,*6B
$GBGSV,5,2,20,36,12,164,,37,24,052,44,44,28,288,45,16,24,043,41*64
$GBGSV,5,3,20,58,29,105,,06,26,045,40,20,31,084,47,46,35,115,*64
$GBGSV,5,4,20,35,26,236,45,22,39,282,48,09,39,054,42,21,39,273,*69
$GBGSV,5,5,20,48,52,079,,34,05,335,,02,07,106,35,60,08,111,40*64
$GPGGA,034452.00,,,,,0,00,,,M,,M,,*4C
$PTNL,GGK,034452.00,010125,4742.1603783,N,01618.1002284,E,1,41,0.7,EHT751.6659,M*4D
$GPGGQ,034452.00,010125,4742.1603783,N,01618.1002284,E,1,41,0.773,708.4594,M*3B
$GPGFA,034452.00,3.742,4.840,0.394,0.306,6.019,0.590,,VVV*04
$GPLLK,034452.00,010125,,M,,M,1,41,0.8,,M*02
$GNGMP,034452.00,,,,,DAAA,41,0.4,,,,*53
$GPGMP,034452.00,,,,,,11,,,,2.3,136*7C
$GLGMP,034452.00,,,,,,08,,,,,*73
$GAGMP,034452.00,,,,,,09,,,,,*7F
$GBGMP,034452.00,,,,,,13,,,,,*77
$PSSN,SNC,[0,272710000,2347]*45
$GPZDA,034457.00,01,01,2025,,*62
$GPDTM,W84,,00.0000000,N,00.0000000,E,00.0000000,W84*5F
$PSSN,TFM,034457.00,,,,*6E
$GPRMC,034457.00,A,4742.1603787,N,01618.1002294,E,0.0,,010125,5.1,E,D*17
$GPGLL,4742.1603787,N,01618.1002294,E,034457.00,A,D*66
$GPGGA,034457.00,4742.1603787,N,01618.1002294,E,2,41,0.4,708.4594,M,43.2066,M,3.3,0136*48
$GNGNS,034457.00,4742.1603787,N,01618.1002294,E,DAAA,41,0.4,708.4594,43.2066,,*50
$GPGNS,034457.00,,,,,,11,,,,3.3,136*78
$GLGNS,034457.00,,,,,,08,,,,,*76
$GAGNS,034457.00,,,,,,09,,,,,*7A
$GBGNS,034457.00,,,,,,13,,,,,*72
$GPLLQ,034457.00,010125,,M,,M,1,41,0.783,,M*19
$GPVTG,,T,,M,0.00,N,0.01,K,D*27
$GPHDT,,T*1B
$GPTHS,,V*0E
$GPROT,,V*08
$PSSN,HRP,034457.00,010125,,,,,,,00,0,,*60
$PTNL,AVR,034457.00,,Yaw,,Tilt,,,,0,,00*36
$GPGSA,A,3,03,04,06,07,09,11,16,19,20,26,31,,0.7,0.4,0.6*33
$GPGSA,A,3,70,71,72,79,80,85,86,87,,,,,0.7,0.4,0.6*39
$GPGSA,A,3,03,04,05,06,09,15,31,34,36,,,,0.7,0.4,0.6*3E
$GPGSA,A,3,02,05,06,09,16,19,20,22,35,37,39,44,0.7,0.4,0.6*3A
$GPGSA,A,3,60,,,,,,,,,,,,0.7,0.4,0.6*31
$GPGST,034457.00,1.930,0.398,0.310,5.555,0.397,0.311,0.599*56
$GPGBS,034457.00,3.159,1.764,3.587,72,0.0001,7.967,6.236*57
$GPGRS,034457.00,1,0.5,0.1,-0.3,-0.3,0.1,-0.1,1.2,0.4,0.1,-0.8,-0.5,*43
$GPGRS,034457.00,1,-2.0,1.2,8.0,0.3,-1.8,2.7,-2.7,-4.4,,,,*4C
$GPGRS,034457.00,1,-1.1,-0.7,0.1,-0.0,0.3,0.4,0.5,-0.0,0.2,,,*67
$GPGRS,034457.00,1,0.7,2.6,0.5,0.6,-0.1,-0.7,1.2,-0.1,-1.1,-1.0,-0.8,-0.4*6B
$GPGRS,034457.00,1,-1.7,,,,,,,,,,,*4A
$GPGSV,6,1,21,09,82,289,51,26,13,054,39,07,33,181,46,11,28,312,44*73
$GPGSV,6,2,21,03,33,112,45,06,55,274,48,04,64,056,48,19,08,244,40*7A
$GPGSV,6,3,21,20,07,303,38,16,09,084,38,30,03,200,,31,09,037,39*7F
$GPGSV,6,4,21,36,35,170,45,58,13,245,38,40,24,132,36,34,31,208,44*73
$GPGSV,6,5,21,49,34,195,45,57,08,111,38,41,07,108,35,61,03,257,38*7D
$GPGSV,6,6,21*7A
$GLGSV,3,1,09,71,59,307,52,79,17,025,45,72,16,273,47,85,15,199,45*67
$GLGSV,3,2,09,73,18,140,,80,35,081,49,87,34,319,46,70,52,052,41*6C
$GLGSV,3,3,09,86,48,254,51*59
$GAGSV,3,1,12,09,61,057,48,15,15,323,38,23,11,047,,04,12,063,38*6B
$GAGSV,3,2,12,36,45,189,47,34,56,282,48,06,37,062,45,05,60,250,48*62
$GAGSV,3,3,12,18,03,236,,31,09,095,38,11,04,162,,03,10,245,38*61
$GBGSV,5,1,20,19,77,034,52,05,23,128,40,39,14,039,41,12,21,314,*68
$GBGSV,5,2,20,36,12,164,,37,24,052,44,44,28,288,45,16,24,043,41*64
$GBGSV,5,3,20,58,29,105,,06,26,045,40,20,31,084,47,46,35,115,*64
$GBGSV,5,4,20,35,26,236,46,22,39,282,48,09,39,054,43,21,39,273,*6B
$GBGSV,5,5,20,48,52,079,,34,05,335,,02,07,106,35,60,08,111,40*64
$GPGGA,034457.00,,,,,0,00,,,M,,M,,*49
$PTNL,GGK,034457.00,010125,4742.1603787,N,01618.1002294,E,1,41,0.7,EHT751.6659,M*4D
$GPGGQ,034457.00,010125,4742.1603787,N,01618.1002294,E,1,41,0.783,708.4594,M*34
$GPGFA,034457.00,3.786,4.908,0.398,0.310,5.555,0.599,,VVV*08
$GPLLK,034457.00,010125,,M,,M,1,41,0.8,,M*07
$GNGMP,034457.00,,,,,DAAA,41,0.4,,,,*56
$GPGMP,034457.00,,,,,,11,,,,3.3,136*78
$GLGMP,034457.00,,,,,,08,,,,,*76
$GAGMP,034457.00,,,,,,09,,,,,*7A
$GBGMP,034457.00,,,,,,13,,,,,*72
$PSSN,SNC,[0,272715000,2347]*40
$GPZDA,034502.00,01,01,2025,,*63
$GPDTM,W84,,00.0000000,N,00.0000000,E,00.0000000,W84*5F
$PSSN,TFM,034502.00,,,,*6F
$GPRMC,034502.00,A,4742.1603811,N,01618.1002265,E,0.0,,010125,5.1,E,D*18
$GPGLL,4742.1603811,N,01618.1002265,E,034502.00,A,D*69
$GPGGA,034502.00,4742.1603811,N,01618.1002265,E,2,41,0.4,708.4606,M,43.2066,M,2.8,0136*45
$GNGNS,034502.00,4742.1603811,N,01618.1002265,E,DAAA,41,0.4,708.4606,43.2066,,*57
$GPGNS,034502.00,,,,,,11,,,,2.8,136*73
$GLGNS,034502.00,,,,,,08,,,,,*77
$GAGNS,034502.00,,,,,,09,,,,,*7B
$GBGNS,034502.00,,,,,,13,,,,,*73
$GPLLQ,034502.00,010125,,M,,M,1,41,0.792,,M*18
$GPVTG,,T,,M,0.00,N,0.00,K,D*26
$GPHDT,,T*1B
$GPTHS,,V*0E
$GPROT,,V*08
$PSSN,HRP,034502.00,010125,,,,,,,00,0,,*61
$PTNL,AVR,034502.00,,Yaw,,Tilt,,,,0,,00*37
$GPGSA,A,3,03,04,06,07,09,11,16,19,20,26,31,,0.7,0.4,0.6*33
$GPGSA,A,3,70,71,72,79,80,85,86,87,,,,,0.7,0.4,0.6*39
$GPGSA,A,3,03,04,05,06,09,15,31,34,36,,,,0.7,0.4,0.6*3E
$GPGSA,A,3,02,05,06,09,16,19,20,22,35,37,39,44,0.7,0.4,0.6*3A
$GPGSA,A,3,60,,,,,,,,,,,,0.7,0.4,0.6*31
$GPGST,034502.00,1.826,0.403,0.314,4.854,0.403,0.314,0.606*57
$GPGBS,034502.00,3.164,1.762,3.608,72,0.0001,7.121,6.236*50
$GPGRS,034502.00,1,0.6,0.1,-0.3,0.0,-0.0,-0.3,0.8,0.0,0.7,-0.8,-0.7,*4A
$GPGRS,034502.00,1,-1.7,1.0,7.1,1.1,-2.6,2.2,-2.8,-4.2,,,,*47
$GPGRS,034502.00,1,-0.5,-0.7,-0.0,-0.0,0.1,0.5,0.3,0.0,0.1,,,*64
$GPGRS,034502.00,1,0.7,2.6,0.7,0.3,-0.2,-0.6,0.9,-0.4,-1.0,-1.5,-0.9,-0.2*63
$GPGRS,034502.00,1,-1.8,,,,,,,,,,,*44
$GPGSV,6,1,21,09,82,289,51,26,13,054,39,07,33,181,46,11,28,312,44*73
$GPGSV,6,2,21,03,33,112,45,06,55,274,48,04,64,056,48,19,08,244,40*7A
$GPGSV,6,3,21,20,07,303,38,16,09,084,39,30,03,200,,31,09,037,39*7E
$GPGSV,6,4,21,36,35,170,45,58,13,245,38,40,24,132,36,34,31,208,43*74
$GPGSV,6,5,21,49,34,195,45,57,08,111,38,41,07,108,35,61,03,257,38*7D
$GPGSV,6,6,21*7A
$GLGSV,3,1,09,71,59,307,52,79,17,025,45,72,16,273,47,85,15,199,45*67
$GLGSV,3,2,09,73,18,140,,80,35,081,50,87,34,319,47,70,52,052,41*65
$GLGSV,3,3,09,86,48,254,50*58
$GAGSV,3,1,12,09,61,057,47,15,15,323,39,23,11,047,,04,12,063,38*65
$GAGSV,3,2,12,36,45,189,46,34,56,282,48,06,37,062,45,05,60,250,48*63
$GAGSV,3,3,12,18,03,236,,31,09,095,38,11,04,162,,03,10,245,38*61
$GBGSV,5,1,20,19,77,034,51,05,23,128,40,39,14,039,41,12,21,314,*6B
$GBGSV,5,2,20,36,12,164,,37,24,052,44,44,28,288,45,16,24,043,41*64
$GBGSV,5,3,20,58,29,105,,06,26,045,40,46,35,115,,35,26,236,46*6C
$GBGSV,5,4,20,20,31,085,47,22,39,282,48,09,39,054,43,21,39,273,*62
$GBGSV,5,5,20,48,52,079,,34,05,335,,02,07,106,35,60,08,111,40*64
$GPGGA,034502.00,,,,,0,00,,,M,,M,,*48
$PTNL,GGK,034502.00,010125,4742.1603811,N,01618.1002265,E,1,41,0.7,EHT751.6671,M*48
$GPGGQ,034502.00,010125,4742.1603811,N,01618.1002265,E,1,41,0.792,708.4606,M*33
$GPGFA,034502.00,3.833,4.966,0.403,0.314,4.854,0.606,,VVV*09
$GPLLK,034502.00,010125,,M,,M,1,41,0.8,,M*06
$GNGMP,034502.00,,,,,DAAA,41,0.4,,,,*57
$GPGMP,034502.00,,,,,,11,,,,2.8,136*73
$GLGMP,034502.00,,,,,,08,,,,,*77
$GAGMP,034502.00,,,,,,09,,,,,*7B
$GBGMP,034502.00,,,,,,13,,,,,*73
$PSSN,SNC,[0,272720000,2347]*46
$GPZDA,034507.00,01,01,2025,,*66
$GPDTM,W84,,00.0000000,N,00.0000000,E,00.0000000,W84*5F
$PSSN,TFM,034507.00,,,,*6A
$GPRMC,034507.00,A,4742.1603846,N,01618.1002271,E,0.0,,010125,5.1,E,D*1A
$GPGLL,4742.1603846,N,01618.1002271,E,034507.00,A,D*6B
$GPGGA,034507.00,4742.1603846,N,01618.1002271,E,2,41,0.4,708.4623,M,43.2066,M,1.6,0136*4D
$GNGNS,034507.00,4742.1603846,N,01618.1002271,E,DAAA,41,0.4,708.4623,43.2066,,*52
$GPGNS,034507.00,,,,,,11,,,,1.6,136*7B
$GLGNS,034507.00,,,,,,08,,,,,*72
$GAGNS,034507.00,,,,,,09,,,,,*7E
$GBGNS,034507.00,,,,,,13,,,,,*76
$GPLLQ,034507.00,010125,,M,,M,1,41,0.784,,M*1A
$GPVTG,,T,,M,0.00,N,0.01,K,D*27
$GPHDT,,T*1B
$GPTHS,,V*0E
$GPROT,,V*08
$PSSN,HRP,034507.00,010125,,,,,,,00,0,,*64
$PTNL,AVR,034507.00,,Yaw,,Tilt,,,,0,,00*32
$GPGSA,A,3,03,04,06,07,09,11,16,19,20,26,31,,0.7,0.4,0.6*33
$GPGSA,A,3,70,71,72,79,80,85,86,87,,,,,0.7,0.4,0.6*39
$GPGSA,A,3,03,04,05,06,09,15,31,34,36,,,,0.7,0.4,0.6*3E
$GPGSA,A,3,02,05,06,09,16,19,20,22,35,37,39,44,0.7,0.4,0.6*3A
$GPGSA,A,3,60,,,,,,,,,,,,0.7,0.4,0.6*31
$GPGST,034507.00,1.845,0.400,0.310,5.082,0.399,0.311,0.599*56
$GPGBS,034507.00,3.101,1.731,3.508,72,0.0001,7.244,6.235*50
$GPGRS,034507.00,1,0.1,-0.3,-0.2,0.2,0.1,-0.1,1.2,-0.0,0.7,-0.7,-0.5,*61
$GPGRS,034507.00,1,-1.6,1.3,7.2,1.5,-1.9,2.2,-3.5,-4.2,,,,*47
$GPGRS,034507.00,1,-0.6,-0.5,0.2,0.2,0.2,0.8,0.6,0.2,0.2,,,*6A
$GPGRS,034507.00,1,1.0,2.1,0.7,0.8,-0.2,-0.6,1.1,-0.3,-0.9,-1.2,-0.9,-0.1*6E
$GPGRS,034507.00,1,-1.6,,,,,,,,,,,*4F
$GPGSV,6,1,21,09,82,289,51,26,13,054,39,07,33,181,46,11,28,312,44*73
$GPGSV,6,2,21,03,33,112,45,06,55,273,48,04,64,056,47,19,08,244,39*7C
$GPGSV,6,3,21,20,07,303,38,16,09,084,39,30,03,200,,31,09,037,39*7E
$GPGSV,6,4,21,36,35,170,45,58,13,245,38,40,24,132,37,34,31,208,43*75
$GPGSV,6,5,21,49,34,195,45,57,08,111,37,41,07,108,35,61,03,257,38*72
$GPGSV,6,6,21*7A
$GLGSV,3,1,09,71,59,307,52,79,17,025,45,72,16,273,47,85,15,199,45*67
$GLGSV,3,2,09,73,18,140,,80,35,081,50,87,34,319,48,70,52,052,41*6A
$GLGSV,3,3,09,86,48,253,51*5E
$GAGSV,3,1,12,09,61,057,48,15,15,323,39,23,11,047,,04,12,063,38*6A
$GAGSV,3,2,12,36,45,189,46,34,56,282,47,06,37,062,45,05,60,250,48*6C
$GAGSV,3,3,12,18,03,236,,31,09,095,38,11,04,162,,03,10,245,38*61
$GBGSV,5,1,20,19,77,034,51,05,23,128,40,39,14,039,41,12,21,314,*6B
$GBGSV,5,2,20,36,12,164,,37,24,052,44,44,28,288,45,16,24,043,41*64
$GBGSV,5,3,20,58,29,105,,06,26,045,40,20,31,085,48,35,26,235,46*6F
$GBGSV,5,4,20,46,35,115,,22,39,282,48,09,39,054,43,21,39,273,*6D
$GBGSV,5,5,20,48,52,079,,34,05,335,,02,07,106,35,60,08,111,40*64
$GPGGA,034507.00,,,,,0,00,,,M,,M,,*4D
$PTNL,GGK,034507.00,010125,4742.1603846,N,01618.1002271,E,1,41,0.7,EHT751.6689,M*4D
$GPGGQ,034507.00,010125,4742.1603846,N,01618.1002271,E,1,41,0.784,708.4623,M*31
$GPGFA,034507.00,3.801,4.914,0.400,0.310,5.082,0.599,,VVV*08
$GPLLK,034507.00,010125,,M,,M,1,41,0.8,,M*03
$GNGMP,034507.00,,,,,DAAA,41,0.4,,,,*52
$GPGMP,034507.00,,,,,,11,,,,1.6,136*7B
$GLGMP,034507.00,,,,,,08,,,,,*72
$GAGMP,034507.00,,,,,,09,,,,,*7E
$GBGMP,034507.00,,,,,,13,,,,,*76
$PSSN,SNC,[0,272725000,2347]*43
$GPZDA,034512.00,01,01,2025,,*62
$GPDTM,W84,,00.0000000,N,00.0000000,E,00.0000000,W84*5F
$PSSN,TFM,034512.00,,,,*6E
$GPRMC,034512.00,A,4742.1603867,N,01618.1002277,E,0.0,,010125,5.1,E,D*1B
$GPGLL,4742.1603867,N,01618.1002277,E,034512.00,A,D*6A
$GPGGA,034512.00,4742.1603867,N,01618.1002277,E,2,41,0.4,708.4663,M,43.2066,M,2.3,0136*4E
$GNGNS,034512.00,4742.1603867,N,01618.1002277,E,DAAA,41,0.4,708.4663,43.2066,,*57
$GPGNS,034512.00,,,,,,11,,,,2.3,136*79
$GLGNS,034512.00,,,,,,08,,,,,*76
$GAGNS,034512.00,,,,,,09,,,,,*7A
$GBGNS,034512.00,,,,,,13,,,,,*72
$GPLLQ,034512.00,010125,,M,,M,1,41,0.775,,M*10
$GPVTG,,T,,M,0.00,N,0.01,K,D*27
$GPHDT,,T*1B
$GPTHS,,V*0E
$GPROT,,V*08
$PSSN,HRP,034512.00,010125,,,,,,,00,0,,*60
$PTNL,AVR,034512.00,,Yaw,,Tilt,,,,0,,00*36
$GPGSA,A,3,03,04,06,07,09,11,16,19,20,26,31,,0.7,0.4,0.6*33
$GPGSA,A,3,70,71,72,79,80,85,86,87,,,,,0.7,0.4,0.6*39
$GPGSA,A,3,03,04,05,06,09,15,31,34,36,,,,0.7,0.4,0.6*3E
$GPGSA,A,3,02,05,06,09,16,19,20,22,35,37,39,44,0.7,0.4,0.6*3A
$GPGSA,A,3,60,,,,,,,,,,,,0.7,0.4,0.6*31
$GPGST,034512.00,1.769,0.395,0.306,6.535,0.394,0.308,0.592*5B
$GPGBS,034512.00,3.133,1.749,3.554,72,0.0001,7.380,6.235*5A
$GPGRS,034512.00,1,0.4,0.0,-0.2,0.1,0.2,-0.2,0.7,-0.2,0.5,-0.9,-0.3,*41
$GPGRS,034512.00,1,-2.1,1.2,7.4,0.7,-2.1,1.4,-2.7,-3.9,,,,*42
$GPGRS,034512.00,1,-0.7,-0.5,0.1,0.0,0.4,0.5,0.5,-0.1,0.1,,,*4B
$GPGRS,034512.00,1,0.8,2.2,0.2,0.6,0.0,-0.8,1.2,0.1,-0.5,-1.2,-1.1,-0.0*62
$GPGRS,034512.00,1,-1.6,,,,,,,,,,,*4B
$GPGSV,6,1,21,09,82,290,51,26,13,054,39,07,33,181,46,11,28,312,44*7B
$GPGSV,6,2,21,03,33,112,45,06,55,273,48,04,64,056,47,19,08,244,40*72
$GPGSV,6,3,21,20,07,303,38,16,09,084,38,30,03,200,,31,09,037,39*7F
$GPGSV,6,4,21,36,35,170,45,58,13,245,38,40,24,132,36,34,31,208,43*74
$GPGSV,6,5,21,49,34,195,45,57,08,111,38,41,07,108,35,61,03,257,38*7D
$GPGSV,6,6,21*7A
$GLGSV,3,1,09,71,59,307,52,79,17,025,45,72,16,273,47,85,15,199,44*66
$GLGSV,3,2,09,73,18,140,,80,35,081,49,87,34,319,47,70,52,052,41*6D
$GLGSV,3,3,09,86,48,253,51*5E
$GAGSV,3,1,12,09,61,057,48,15,15,323,39,23,11,047,,04,12,063,38*6A
$GAGSV,3,2,12,36,45,189,46,34,56,282,48,06,37,062,45,05,60,250,48*63
$GAGSV,3,3,12,18,03,236,,31,09,095,38,11,04,162,,03,10,245,38*61
$GBGSV,5,1,20,19,77,034,52,05,23,128,40,39,14,039,41,12,21,314,*68
$GBGSV,5,2,20,36,12,164,,37,24,052,44,44,28,288,45,16,24,043,41*64
$GBGSV,5,3,20,58,29,105,,06,26,045,40,20,31,085,48,35,26,235,46*6F
$GBGSV,5,4,20,46,35,115,,22,39,282,48,09,39,054,43,21,39,273,*6D
$GBGSV,5,5,20,48,52,079,,34,05,335,,02,07,106,36,60,08,111,40*67
$GPGGA,034512.00,,,,,0,00,,,M,,M,,*49
$PTNL,GGK,034512.00,010125,4742.1603867,N,01618.1002277,E,1,41,0.7,EHT751.6728,M*46
$GPGGQ,034512.00,010125,4742.1603867,N,01618.1002277,E,1,41,0.775,708.4663,M*3A
$GPGFA,034512.00,3.752,4.857,0.395,0.306,6.535,0.592,,VVV*0E
$GPLLK,034512.00,010125,,M,,M,1,41,0.8,,M*07
$GNGMP,034512.00,,,,,DAAA,41,0.4,,,,*56
$GPGMP,034512.00,,,,,,11,,,,2.3,136*79
$GLGMP,034512.00,,,,,,08,,,,,*76
$GAGMP,034512.00,,,,,,09,,,,,*7A
$GBGMP,034512.00,,,,,,13,,,,,*72
$PSSN,SNC,[0,272730000,2347]*47
$GPZDA,034517.00,01,01,2025,,*67
$GPDTM,W84,,00.0000000,N,00.0000000,E,00.0000000,W84*5F
$PSSN,TFM,034517.00,,,,*6B
$GPRMC,034517.00,A,4742.1603896,N,01618.1002243,E,0.0,,010125,5.1,E,D*17
$GPGLL,4742.1603896,N,01618.1002243,E,034517.00,A,D*66
$GPGGA,034517.00,4742.1603896,N,01618.1002243,E,2,41,0.4,708.4664,M,43.2066,M,3.3,0136*44
$GNGNS,034517.00,4742.1603896,N,01618.1002243,E,DAAA,41,0.4,708.4664,43.2066,,*5C
$GPGNS,034517.00,,,,,,11,,,,3.3,136*7D
$GLGNS,034517.00,,,,,,08,,,,,*73
$GAGNS,034517.00,,,,,,09,,,,,*7F
$GBGNS,034517.00,,,,,,13,,,,,*77
$GPLLQ,034517.00,010125,,M,,M,1,41,0.786,,M*19
$GPVTG,,T,,M,0.00,N,0.00,K,D*26
$GPHDT,,T*1B
$GPTHS,,V*0E
$GPROT,,V*08
$PSSN,HRP,034517.00,010125,,,,,,,00,0,,*65
$PTNL,AVR,034517.00,,Yaw,,Tilt,,,,0,,00*33
$GPGSA,A,3,03,04,06,07,09,11,16,19,20,26,31,,0.7,0.4,0.6*33
$GPGSA,A,3,70,71,72,79,80,85,86,87,,,,,0.7,0.4,0.6*39
$GPGSA,A,3,03,04,05,06,09,15,31,34,36,,,,0.7,0.4,0.6*3E
$GPGSA,A,3,02,05,06,09,16,19,20,22,35,37,39,44,0.7,0.4,0.6*3A
$GPGSA,A,3,60,,,,,,,,,,,,0.7,0.4,0.6*31
$GPGST,034517.00,1.783,0.399,0.310,6.061,0.399,0.312,0.601*5A
$GPGBS,034517.00,3.168,1.767,3.607,72,0.0001,6.805,6.235*5F
$GPGRS,034517.00,1,0.7,-0.2,-0.3,0.1,0.2,-0.1,1.1,-0.4,0.3,-1.0,-0.1,*67
$GPGRS,034517.00,1,-1.8,1.3,6.8,0.9,-2.5,2.2,-2.7,-4.3,,,,*43
$GPGRS,034517.00,1,-0.4,-0.8,0.2,-0.1,0.2,0.5,0.2,-0.3,0.1,,,*6C
$GPGRS,034517.00,1,0.2,2.6,-0.1,0.5,-0.4,-0.8,1.1,-0.2,-0.9,-1.0,-1.1,0.1*62
$GPGRS,034517.00,1,-1.6,,,,,,,,,,,*4E
$GPGSV,6,1,21,09,82,290,51,26,13,054,39,07,33,181,46,11,28,312,43*7C
$GPGSV,6,2,21,03,33,112,45,06,55,273,48,04,64,056,47,19,08,244,38*7D
$GPGSV,6,3,21,20,07,303,37,16,09,084,38,30,03,200,,31,09,037,39*70
$GPGSV,6,4,21,36,35,170,45,58,13,245,38,40,24,132,36,34,31,208,43*74
$GPGSV,6,5,21,49,34,195,45,57,08,111,38,41,07,108,35,61,03,257,38*7D
$GPGSV,6,6,21*7A
$GLGSV,3,1,09,71,59,308,52,79,17,025,45,72,16,273,46,85,15,199,44*68
$GLGSV,3,2,09,73,18,140,,80,35,081,49,87,34,319,47,70,52,052,41*6D
$GLGSV,3,3,09,86,48,253,51*5E
$GAGSV,3,1,12,09,61,057,47,15,15,323,39,23,11,047,,04,12,063,38*65
$GAGSV,3,2,12,36,45,189,46,34,56,282,48,06,37,062,45,05,60,250,48*63
$GAGSV,3,3,12,18,03,236,,31,10,095,39,11,04,162,,03,10,245,38*68
$GBGSV,5,1,20,19,77,034,52,05,23,128,40,39,14,039,41,12,22,314,*6B
$GBGSV,5,2,20,36,12,164,,37,24,052,44,44,28,288,45,16,24,043,41*64
$GBGSV,5,3,20,58,29,105,,06,26,045,40,20,31,085,48,35,26,235,46*6F
$GBGSV,5,4,20,46,35,115,,22,39,282,48,09,39,054,43,21,39,273,*6D
$GBGSV,5,5,20,48,52,079,,34,05,335,,02,07,106,35,60,08,111,40*64
$GPGGA,034517.00,,,,,0,00,,,M,,M,,*4C
$PTNL,GGK,034517.00,010125,4742.1603896,N,01618.1002243,E,1,41,0.7,EHT751.6730,M*43
$GPGGQ,034517.00,010125,4742.1603896,N,01618.1002243,E,1,41,0.786,708.4664,M*3D
$GPGFA,034517.00,3.798,4.928,0.399,0.310,6.061,0.601,,VVV*02
$GPLLK,034517.00,010125,,M,,M,1,41,0.8,,M*02
$GNGMP,034517.00,,,,,DAAA,41,0.4,,,,*53
$GPGMP,034517.00,,,,,,11,,,,3.3,136*7D
$GLGMP,034517.00,,,,,,08,,,,,*73
$GAGMP,034517.00,,,,,,09,,,,,*7F
$GBGMP,034517.00,,,,,,13,,,,,*77
$PSSN,SNC,[0,272735000,2347]*42
$GPZDA,034522.00,01,01,2025,,*61
$GPDTM,W84,,00.0000000,N,00.0000000,E,00.0000000,W84*5F
$PSSN,TFM,034522.00,,,,*6D
$GPRMC,034522.00,A,4742.1603913,N,01618.1002222,E,0.0,,010125,5.1,E,D*1A
$GPGLL,4742.1603913,N,01618.1002222,E,034522.00,A,D*6B
$GPGGA,034522.00,4742.1603913,N,01618.1002222,E,2,41,0.4,708.4681,M,43.2066,M,2.8,0136*48
$GNGNS,034522.00,4742.1603913,N,01618.1002222,E,DAAA,41,0.4,708.4681,43.2066,,*5A
$GPGNS,034522.00,,,,,,11,,,,2.8,136*71
$GLGNS,034522.00,,,,,,08,,,,,*75
$GAGNS,034522.00,,,,,,09,,,,,*79
$GBGNS,034522.00,,,,,,13,,,,,*71
$GPLLQ,034522.00,010125,,M,,M,1,41,0.796,,M*1E
$GPVTG,,T,,M,0.00,N,0.01,K,D*27
$GPHDT,,T*1B
$GPTHS,,V*0E
$GPROT,,V*08
$PSSN,HRP,034522.00,010125,,,,,,,00,0,,*63
$PTNL,AVR,034522.00,,Yaw,,Tilt,,,,0,,00*35
$GPGSA,A,3,03,04,06,07,09,11,16,19,20,26,31,,0.7,0.4,0.6*33
$GPGSA,A,3,70,71,72,79,80,85,86,87,,,,,0.7,0.4,0.6*39
$GPGSA,A,3,03,04,05,06,09,15,31,34,36,,,,0.7,0.4,0.6*3E
$GPGSA,A,3,02,05,06,09,16,19,20,22,35,37,39,44,0.7,0.4,0.6*3A
$GPGSA,A,3,60,,,,,,,,,,,,0.7,0.4,0.6*31
$GPGST,034522.00,1.812,0.405,0.316,4.838,0.404,0.317,0.608*56
$GPGBS,034522.00,3.188,1.757,3.625,72,0.0001,6.209,6.235*52
$GPGRS,034522.00,1,0.1,-0.2,-0.1,-0.1,0.1,-0.0,1.0,0.4,0.5,-1.0,-0.1,*60
$GPGRS,034522.00,1,-1.7,1.4,6.2,0.4,-2.2,2.7,-3.2,-4.8,,,,*47
$GPGRS,034522.00,1,-0.7,-0.6,0.3,-0.2,-0.0,0.4,0.4,-0.1,0.3,,,*4D
$GPGRS,034522.00,1,0.1,2.8,0.2,0.4,-0.4,-0.8,1.0,-0.3,-0.8,-1.4,-1.6,-0.2*6A
$GPGRS,034522.00,1,-1.8,,,,,,,,,,,*46
$GPGSV,6,1,21,09,82,290,51,26,13,054,39,07,34,181,47,11,28,312,43*7A
$GPGSV,6,2,21,03,33,112,45,06,55,273,48,04,64,056,47,19,08,244,39*7C
$GPGSV,6,3,21,20,07,303,38,16,09,084,38,30,03,200,,31,09,037,39*7F
$GPGSV,6,4,21,36,35,170,45,58,13,245,38,40,24,132,36,34,31,208,43*74
$GPGSV,6,5,21,49,34,195,45,57,08,111,37,41,07,108,35,61,03,257,38*72
$GPGSV,6,6,21*7A
$GLGSV,3,1,09,71,59,308,52,79,17,025,46,72,16,273,46,85,15,199,45*6A
$GLGSV,3,2,09,73,18,140,,80,35,081,49,87,34,318,47,70,52,052,41*6C
$GLGSV,3,3,09,86,48,253,51*5E
$GAGSV,3,1,12,09,61,057,47,15,15,323,38,23,11,047,,04,12,063,38*64
$GAGSV,3,2,12,36,45,189,47,34,56,282,48,06,37,062,45,05,60,250,48*62
$GAGSV,3,3,12,18,03,236,,31,10,095,39,11,04,162,,03,10,245,38*68
$GBGSV,5,1,20,19,77,035,51,05,23,128,40,39,14,039,41,12,22,314,*69
$GBGSV,5,2,20,36,12,164,,37,24,052,44,44,28,288,45,16,24,043,41*64
$GBGSV,5,3,20,58,29,105,,06,26,045,40,20,31,085,48,35,26,235,46*6F
$GBGSV,5,4,20,46,35,115,,22,39,282,48,09,39,054,42,21,39,273,*6C
$GBGSV,5,5,20,48,52,079,,34,05,335,,02,07,106,35,60,08,111,40*64
$GPGGA,034522.00,,,,,0,00,,,M,,M,,*4A
$PTNL,GGK,034522.00,010125,4742.1603913,N,01618.1002222,E,1,41,0.7,EHT751.6746,M*4F
$GPGGQ,034522.00,010125,4742.1603913,N,01618.1002222,E,1,41,0.796,708.4681,M*3A
$GPGFA,034522.00,3.848,4.988,0.405,0.316,4.838,0.608,,VVV*07
$GPLLK,034522.00,010125,,M,,M,1,41,0.8,,M*04
$GNGMP,034522.00,,,,,DAAA,41,0.4,,,,*55
$GPGMP,034522.00,,,,,,11,,,,2.8,136*71
$GLGMP,034522.00,,,,,,08,,,,,*75
$GAGMP,034522.00,,,,,,09,,,,,*79
$GBGMP,034522.00,,,,,,13,,,,,*71
$PSSN,SNC,[0,272740000,2347]*40
$GPZDA,034527.00,01,01,2025,,*64
$GPDTM,W84,,00.0000000,N,00.0000000,E,00.0000000,W84*5F
$PSSN,TFM,034527.00,,,,*68
$GPRMC,034527.00,A,4742.1603929,N,01618.1002262,E,0.0,,010125,5.1,E,D*12
$GPGLL,4742.1603929,N,01618.1002262,E,034527.00,A,D*63
$GPGGA,034527.00,4742.1603929,N,01618.1002262,E,2,41,0.4,708.4756,M,43.2066,M,1.6,0136*46
$GNGNS,034527.00,4742.1603929,N,01618.1002262,E,DAAA,41,0.4,708.4756,43.2066,,*59
$GPGNS,034527.00,,,,,,11,,,,1.6,136*79
$GLGNS,034527.00,,,,,,08,,,,,*70
$GAGNS,034527.00,,,,,,09,,,,,*7C
$GBGNS,034527.00,,,,,,13,,,,,*74
$GPLLQ,034527.00,010125,,M,,M,1,41,0.788,,M*14
$GPVTG,,T,,M,0.00,N,0.01,K,D*27
$GPHDT,,T*1B
$GPTHS,,V*0E
$GPROT,,V*08
$PSSN,HRP,034527.00,010125,,,,,,,00,0,,*66
$PTNL,AVR,034527.00,,Yaw,,Tilt,,,,0,,00*30
$GPGSA,A,3,03,04,06,07,09,11,16,19,20,26,31,,0.7,0.4,0.6*33
$GPGSA,A,3,70,71,72,79,80,85,86,87,,,,,0.7,0.4,0.6*39
$GPGSA,A,3,03,04,05,06,09,15,31,34,36,,,,0.7,0.4,0.6*3E
$GPGSA,A,3,02,05,06,09,16,19,20,22,35,37,39,44,0.7,0.4,0.6*3A
$GPGSA,A,3,60,,,,,,,,,,,,0.7,0.4,0.6*31
$GPGST,034527.00,1.794,0.401,0.312,5.028,0.401,0.313,0.602*51
$GPGBS,034527.00,3.123,1.726,3.525,72,0.0001,6.153,6.235*5F
$GPGRS,034527.00,1,0.0,-0.3,-0.2,-0.3,0.2,-0.0,0.6,1.1,1.2,-0.4,-0.4,*62
$GPGRS,034527.00,1,-1.7,1.3,6.2,0.9,-2.6,2.3,-3.0,-4.7,,,,*45
$GPGRS,034527.00,1,-0.8,-0.5,0.1,-0.1,0.2,0.2,0.4,0.2,0.2,,,*43
$GPGRS,034527.00,1,0.6,2.7,0.5,0.4,-0.4,-0.9,1.3,-0.2,-0.8,-1.1,-1.5,-0.2*65
$GPGRS,034527.00,1,-1.8,,,,,,,,,,,*43
$GPGSV,6,1,21,09,82,290,51,26,13,054,39,07,34,181,47,11,28,312,44*7D
$GPGSV,6,2,21,03,33,112,45,06,55,273,48,04,64,056,47,19,08,244,40*72
$GPGSV,6,3,21,20,07,303,38,16,09,084,37,30,03,200,,31,09,037,39*70
$GPGSV,6,4,21,36,35,170,45,58,13,245,38,40,24,132,36,34,31,208,43*74
$GPGSV,6,5,21,49,34,195,45,57,08,111,37,41,07,108,35,61,03,257,38*72
$GPGSV,6,6,21*7A
$GLGSV,3,1,09,71,59,308,53,79,17,025,45,72,16,273,46,85,15,199,45*68
$GLGSV,3,2,09,73,18,140,,80,35,081,50,87,34,318,47,70,52,052,41*64
$GLGSV,3,3,09,86,48,253,51*5E
$GAGSV,3,1,12,09,61,057,47,15,15,323,38,23,11,047,,04,12,063,38*64
$GAGSV,3,2,12,36,45,189,46,34,56,282,48,06,37,062,45,05,60,250,48*63
$GAGSV,3,3,12,18,03,236,,31,10,095,38,11,04,162,,03,10,245,38*69
$GBGSV,5,1,20,19,77,035,51,05,23,128,40,39,14,039,42,12,22,314,*6A
$GBGSV,5,2,20,36,12,164,,37,24,052,43,44,28,288,45,16,24,043,41*63
$GBGSV,5,3,20,58,29,105,,06,26,045,40,20,31,085,48,35,26,235,46*6F
$GBGSV,5,4,20,46,35,115,,22,39,282,48,09,39,054,42,21,39,273,*6C
$GBGSV,5,5,20,48,52,079,,34,05,335,,02,07,106,35,60,08,111,40*64
$GPGGA,034527.00,,,,,0,00,,,M,,M,,*4F
$PTNL,GGK,034527.00,010125,4742.1603929,N,01618.1002262,E,1,41,0.7,EHT751.6822,M*4A
$GPGGQ,034527.00,010125,4742.1603929,N,01618.1002262,E,1,41,0.788,708.4756,M*36
$GPGFA,034527.00,3.814,4.934,0.401,0.312,5.028,0.602,,VVV*0E
$GPLLK,034527.00,010125,,M,,M,1,41,0.8,,M*01
$GNGMP,034527.00,,,,,DAAA,41,0.4,,,,*50
$GPGMP,034527.00,,,,,,11,,,,1.6,136*79
$GLGMP,034527.00,,,,,,08,,,,,*70
$GAGMP,034527.00,,,,,,09,,,,,*7C
$GBGMP,034527.00,,,,,,13,,,,,*74
$PSSN,SNC,[0,272745000,2347]*45
$GPZDA,034532.00,01,01,2025,,*60
$GPDTM,W84,,00.0000000,N,00.0000000,E,00.0000000,W84*5F
$PSSN,TFM,034532.00,,,,*6C
$GPRMC,034532.00,A,4742.1603924,N,01618.1002299,E,0.0,,010125,5.1,E,D*1F
$GPGLL,4742.1603924,N,01618.1002299,E,034532.00,A,D*6E
$GPGGA,034532.00,4742.1603924,N,01618.1002299,E,2,41,0.4,708.4776,M,43.2066,M,2.3,0136*4F
$GNGNS,034532.00,4742.1603924,N,01618.1002299,E,DAAA,41,0.4,708.4776,43.2066,,*56
$GPGNS,034532.00,,,,,,11,,,,2.3,136*7B
$GLGNS,034532.00,,,,,,08,,,,,*74
$GAGNS,034532.00,,,,,,09,,,,,*78
$GBGNS,034532.00,,,,,,13,,,,,*70
$GPLLQ,034532.00,010125,,M,,M,1,41,0.776,,M*11
$GPVTG,,T,,M,0.01,N,0.01,K,D*26
$GPHDT,,T*1B
$GPTHS,,V*0E
$GPROT,,V*08
$PSSN,HRP,034532.00,010125,,,,,,,00,0,,*62
$PTNL,AVR,034532.00,,Yaw,,Tilt,,,,0,,00*34
$GPGSA,A,3,03,04,06,07,09,11,16,19,20,26,31,,0.7,0.4,0.6*33
$GPGSA,A,3,70,71,72,79,80,85,86,87,,,,,0.7,0.4,0.6*39
$GPGSA,A,3,03,04,05,06,09,15,31,34,36,,,,0.7,0.4,0.6*3E
$GPGSA,A,3,02,05,06,09,16,19,20,22,35,37,39,44,0.7,0.4,0.6*3A
$GPGSA,A,3,60,,,,,,,,,,,,0.7,0.4,0.6*31
$GPGST,034532.00,1.855,0.395,0.308,5.978,0.394,0.309,0.593*51
$GPGBS,034532.00,3.144,1.737,3.559,72,0.0001,7.075,6.234*54
$GPGRS,034532.00,1,0.0,-0.1,0.1,-0.2,0.1,0.1,0.7,0.1,1.0,-1.0,-0.5,*62
$GPGRS,034532.00,1,-2.0,1.3,7.1,1.0,-2.7,2.0,-3.2,-4.5,,,,*4D
$GPGRS,034532.00,1,-0.6,-0.8,-0.0,-0.2,0.2,0.5,0.0,0.2,0.2,,,*68
$GPGRS,034532.00,1,0.4,2.4,0.2,0.4,-0.6,-0.8,1.4,-0.5,-1.0,-0.3,-1.5,0.0*41
$GPGRS,034532.00,1,-1.6,,,,,,,,,,,*49
$GPGSV,6,1,21,09,82,290,51,26,13,054,39,07,34,181,46,11,28,312,44*7C
$GPGSV,6,2,21,03,33,113,45,06,55,273,48,04,64,056,47,19,08,244,39*7D
$GPGSV,6,3,21,20,08,303,38,16,09,084,38,30,03,200,,31,09,037,39*70
$GPGSV,6,4,21,36,35,170,45,58,13,245,38,40,24,132,36,34,31,208,43*74
$GPGSV,6,5,21,49,34,195,45,57,08,111,38,41,07,108,35,61,03,257,38*7D
$GPGSV,6,6,21*7A
$GLGSV,3,1,09,71,59,308,53,79,17,025,45,72,16,273,46,85,15,199,44*69
$GLGSV,3,2,09,73,18,139,,80,35,081,49,87,34,318,47,70,52,052,41*62
$GLGSV,3,3,09,86,48,253,51*5E
$GAGSV,3,1,12,09,61,057,47,15,15,323,39,23,11,046,,04,12,063,38*64
$GAGSV,3,2,12,36,45,189,46,34,56,282,48,06,37,062,45,05,61,250,48*62
$GAGSV,3,3,12,18,03,236,,31,10,095,38,11,04,162,,03,10,245,38*69
$GBGSV,5,1,20,19,77,035,51,05,23,128,40,39,14,039,41,12,22,314,*69
$GBGSV,5,2,20,36,12,164,,37,24,052,43,44,28,288,45,16,24,043,41*63
$GBGSV,5,3,20,58,29,105,,06,26,045,40,20,31,085,47,35,26,235,46*60
$GBGSV,5,4,20,46,35,115,,22,39,282,48,09,39,054,42,21,39,273,*6C
$GBGSV,5,5,20,48,52,079,,34,05,335,,02,07,106,35,60,08,111,40*64
$GPGGA,034532.00,,,,,0,00,,,M,,M,,*4B
$PTNL,GGK,034532.00,010125,4742.1603924,N,01618.1002299,E,1,41,0.7,EHT751.6841,M*42
$GPGGQ,034532.00,010125,4742.1603924,N,01618.1002299,E,1,41,0.776,708.4776,M*38
$GPGFA,034532.00,3.753,4.862,0.395,0.308,5.978,0.593,,VVV*02
$GPLLK,034532.00,010125,,M,,M,1,41,0.8,,M*05
$GNGMP,034532.00,,,,,DAAA,41,0.4,,,,*54
$GPGMP,034532.00,,,,,,11,,,,2.3,136*7B
$GLGMP,034532.00,,,,,,08,,,,,*74
$GAGMP,034532.00,,,,,,09,,,,,*78
$GBGMP,034532.00,,,,,,13,,,,,*70
$PSSN,SNC,[0,272750000,2347]*41
$GPZDA,034537.00,01,01,2025,,*65
$GPDTM,W84,,00.0000000,N,00.0000000,E,00.0000000,W84*5F
$PSSN,TFM,034537.00,,,,*69
$GPRMC,034537.00,A,4742.1603928,N,01618.1002329,E,0.0,,010125,5.1,E,D*1C
$GPGLL,4742.1603928,N,01618.1002329,E,034537.00,A,D*6D
$GPGGA,034537.00,4742.1603928,N,01618.1002329,E,2,41,0.4,708.4768,M,43.2066,M,3.3,0136*42
$GNGNS,034537.00,4742.1603928,N,01618.1002329,E,DAAA,41,0.4,708.4768,43.2066,,*5A
$GPGNS,034537.00,,,,,,11,,,,3.3,136*7F
$GLGNS,034537.00,,,,,,08,,,,,*71
$GAGNS,034537.00,,,,,,09,,,,,*7D
$GBGNS,034537.00,,,,,,13,,,,,*75
$GPLLQ,034537.00,010125,,M,,M,1,41,0.787,,M*1A
$GPVTG,,T,,M,0.00,N,0.01,K,D*27
$GPHDT,,T*1B
$GPTHS,,V*0E
$GPROT,,V*08
$PSSN,HRP,034537.00,010125,,,,,,,00,0,,*67
$PTNL,AVR,034537.00,,Yaw,,Tilt,,,,0,,00*31
$GPGSA,A,3,03,04,06,07,09,11,16,19,20,26,31,,0.7,0.4,0.6*33
$GPGSA,A,3,70,71,72,79,80,85,86,87,,,,,0.7,0.4,0.6*39
$GPGSA,A,3,03,04,05,06,09,15,31,34,36,,,,0.7,0.4,0.6*3E
$GPGSA,A,3,02,05,06,09,16,19,20,22,35,37,39,44,0.7,0.4,0.6*3A
$GPGSA,A,3,60,,,,,,,,,,,,0.7,0.4,0.6*31
$GPGST,034537.00,1.876,0.400,0.312,5.516,0.399,0.313,0.601*5F
$GPGBS,034537.00,3.179,1.754,3.611,72,0.0001,6.996,6.234*50
$GPGRS,034537.00,1,0.2,-0.2,-0.1,-0.5,0.2,0.3,0.6,0.0,0.4,-1.2,-0.6,*49
$GPGRS,034537.00,1,-0.9,1.0,7.0,1.1,-2.2,2.4,-3.5,-4.8,,,,*4B
$GPGRS,034537.00,1,-0.6,-1.0,0.1,0.0,0.3,0.7,0.4,0.2,0.3,,,*61
$GPGRS,034537.00,1,1.1,2.7,0.4,0.6,-0.3,-0.7,1.5,-0.4,-0.3,-0.2,-1.2,-0.1*65
$GPGRS,034537.00,1,-1.8,,,,,,,,,,,*42
$GPGSV,6,1,21,09,82,291,51,26,13,054,39,07,34,181,45,11,28,312,44*7E
$GPGSV,6,2,21,03,33,113,44,06,55,273,48,04,64,056,48,19,08,244,40*7D
$GPGSV,6,3,21,20,08,303,38,16,09,084,39,30,03,200,,31,09,037,39*71
$GPGSV,6,4,21,36,35,170,45,58,13,245,38,40,24,132,36,34,31,208,43*74
$GPGSV,6,5,21,49,34,195,45,57,08,111,38,41,07,108,35,61,03,257,38*7D
$GPGSV,6,6,21*7A
$GLGSV,3,1,09,71,59,308,53,79,17,025,46,72,16,273,46,85,15,199,44*6A
$GLGSV,3,2,09,73,18,139,,80,36,081,50,87,34,318,46,70,52,052,41*68
$GLGSV,3,3,09,86,48,253,51*5E
$GAGSV,3,1,12,09,61,057,47,15,15,323,39,23,11,046,,04,12,063,38*64
$GAGSV,3,2,12,36,45,189,46,34,56,281,48,06,36,062,45,05,61,250,48*60
$GAGSV,3,3,12,18,03,236,,31,10,095,38,11,04,162,,03,10,245,38*69
$GBGSV,5,1,20,19,77,035,52,05,23,128,40,39,14,039,42,12,22,314,*69
$GBGSV,5,2,20,36,12,164,,37,24,052,43,44,28,288,46,16,24,043,41*60
$GBGSV,5,3,20,58,29,105,,06,26,045,40,20,31,085,46,35,26,235,46*61
$GBGSV,5,4,20,46,36,115,,22,39,282,48,09,39,054,42,21,39,273,*6F
$GBGSV,5,5,20,48,52,079,,34,05,335,,02,07,106,36,60,08,111,40*67
$GPGGA,034537.00,,,,,0,00,,,M,,M,,*4E
$PTNL,GGK,034537.00,010125,4742.1603928,N,01618.1002329,E,1,41,0.7,EHT751.6834,M*43
$GPGGQ,034537.00,010125,4742.1603928,N,01618.1002329,E,1,41,0.787,708.4768,M*3A
$GPGFA,034537.00,3.799,4.931,0.400,0.312,5.516,0.601,,VVV*0A
$GPLLK,034537.00,010125,,M,,M,1,41,0.8,,M*00
$GNGMP,034537.00,,,,,DAAA,41,0.4,,,,*51
$GPGMP,034537.00,,,,,,11,,,,3.3,136*7F
$GLGMP,034537.00,,,,,,08,,,,,*71
$GAGMP,034537.00,,,,,,09,,,,,*7D
$GBGMP,034537.00,,,,,,13,,,,,*75
$PSSN,SNC,[0,272755000,2347]*44
$GPZDA,034542.00,01,01,2025,,*67
$GPDTM,W84,,00.0000000,N,00.0000000,E,00.0000000,W84*5F
$PSSN,TFM,034542.00,,,,*6B
$GPRMC,034542.00,A,4742.1603942,N,01618.1002349,E,0.0,,010125,5.1,E,D*14
$GPGLL,4742.1603942,N,01618.1002349,E,034542.00,A,D*65
$GPGGA,034542.00,4742.1603942,N,01618.1002349,E,2,41,0.4,708.4759,M,43.2066,M,2.8,0136*42
$GNGNS,034542.00,4742.1603942,N,01618.1002349,E,DAAA,41,0.4,708.4759,43.2066,,*50
$GPGNS,034542.00,,,,,,11,,,,2.8,136*77
$GLGNS,034542.00,,,,,,08,,,,,*73
$GAGNS,034542.00,,,,,,09,,,,,*7F
$GBGNS,034542.00,,,,,,13,,,,,*77
$GPLLQ,034542.00,010125,,M,,M,1,41,0.796,,M*18
$GPVTG,,T,,M,0.00,N,0.00,K,D*26
$GPHDT,,T*1B
$GPTHS,,V*0E
$GPROT,,V*08
$PSSN,HRP,034542.00,010125,,,,,,,00,0,,*65
$PTNL,AVR,034542.00,,Yaw,,Tilt,,,,0,,00*33
$GPGSA,A,3,03,04,06,07,09,11,16,19,20,26,31,,0.7,0.4,0.6*33
$GPGSA,A,3,70,71,72,79,80,85,86,87,,,,,0.7,0.4,0.6*39
$GPGSA,A,3,03,04,05,06,09,15,31,34,36,,,,0.7,0.4,0.6*3E
$GPGSA,A,3,02,05,06,09,16,19,20,22,35,37,39,44,0.7,0.4,0.6*3A
$GPGSA,A,3,60,,,,,,,,,,,,0.7,0.4,0.6*31
$GPGST,034542.00,1.777,0.405,0.316,4.839,0.404,0.316,0.608*5C
$GPGBS,034542.00,3.185,1.754,3.632,72,0.0001,6.444,6.234*52
$GPGRS,034542.00,1,0.2,0.1,-0.2,0.2,0.4,-0.2,1.1,0.1,0.5,-1.4,-1.0,*61
$GPGRS,034542.00,1,-1.5,0.9,6.4,1.8,-2.0,2.7,-2.8,-4.4,,,,*41
$GPGRS,034542.00,1,-0.9,-0.9,-0.2,-0.1,0.1,0.3,0.7,-0.0,0.4,,,*4B
$GPGRS,034542.00,1,0.1,2.3,0.2,-0.4,-0.6,-0.8,0.9,-0.5,-0.6,-0.2,-1.6,-0.3*4E
$GPGRS,034542.00,1,-1.7,,,,,,,,,,,*4F
$GPGSV,6,1,21,09,82,291,51,26,13,054,39,07,34,181,46,11,28,312,44*7D
$GPGSV,6,2,21,03,33,113,44,06,55,273,48,04,64,056,47,19,08,244,39*7C
$GPGSV,6,3,21,20,08,303,38,16,09,084,39,30,03,200,,31,09,037,39*71
$GPGSV,6,4,21,36,35,170,45,58,13,245,38,40,24,132,36,34,31,208,44*73
$GPGSV,6,5,21,49,34,195,45,57,08,111,38,41,07,108,35,61,03,257,38*7D
$GPGSV,6,6,21*7A
$GLGSV,3,1,09,71,59,308,53,79,17,025,47,72,16,273,46,85,15,199,45*6A
$GLGSV,3,2,09,73,18,139,,80,36,081,49,87,34,318,47,70,52,052,41*61
$GLGSV,3,3,09,86,47,253,51*51
$GAGSV,3,1,12,09,61,057,47,15,16,323,38,23,11,046,,04,12,063,38*66
$GAGSV,3,2,12,36,45,189,46,34,56,281,48,06,36,062,44,05,61,250,48*61
$GAGSV,3,3,12,18,03,236,,31,10,095,38,11,04,162,,03,10,245,38*69
$GBGSV,5,1,20,19,77,035,52,05,23,128,40,39,14,039,42,12,22,314,*69
$GBGSV,5,2,20,36,12,164,,37,24,052,43,44,28,288,45,16,24,043,41*63
$GBGSV,5,3,20,58,29,105,,06,26,045,40,20,31,085,47,35,26,235,45*63
$GBGSV,5,4,20,46,36,115,,22,39,282,48,09,39,054,42,21,39,273,*6F
$GBGSV,5,5,20,48,52,079,,34,05,335,,02,07,106,35,60,08,111,40*64
$GPGGA,034542.00,,,,,0,00,,,M,,M,,*4C
$PTNL,GGK,034542.00,010125,4742.1603942,N,01618.1002349,E,1,41,0.7,EHT751.6824,M*4A
$GPGGQ,034542.00,010125,4742.1603942,N,01618.1002349,E,1,41,0.796,708.4759,M*30
$GPGFA,034542.00,3.846,4.989,0.405,0.316,4.839,0.608,,VVV*0F
$GPLLK,034542.00,010125,,M,,M,1,41,0.8,,M*02
$GNGMP,034542.00,,,,,DAAA,41,0.4,,,,*53
$GPGMP,034542.00,,,,,,11,,,,2.8,136*77
$GLGMP,034542.00,,,,,,08,,,,,*73
$GAGMP,034542.00,,,,,,09,,,,,*7F
$GBGMP,034542.00,,,,,,13,,,,,*77
$PSSN,SNC,[0,272760000,2347]*42
$GPZDA,034547.00,01,01,2025,,*62
$GPDTM,W84,,00.0000000,N,00.0000000,E,00.0000000,W84*5F
$PSSN,TFM,034547.00,,,,*6E
$GPRMC,034547.00,A,4742.1603978,N,01618.1002347,E,0.0,,010125,5.1,E,D*16
$GPGLL,4742.1603978,N,01618.1002347,E,034547.00,A,D*67
$GPGGA,034547.00,4742.1603978,N,01618.1002347,E,2,41,0.4,708.4748,M,43.2066,M,1.6,0136*4D
$GNGNS,034547.00,4742.1603978,N,01618.1002347,E,DAAA,41,0.4,708.4748,43.2066,,*52
$GPGNS,034547.00,,,,,,11,,,,1.6,136*7F
$GLGNS,034547.00,,,,,,08,,,,,*76
$GAGNS,034547.00,,,,,,09,,,,,*7A
$GBGNS,034547.00,,,,,,13,,,,,*72
$GPLLQ,034547.00,010125,,M,,M,1,41,0.788,,M*12
$GPVTG,,T,,M,0.00,N,0.01,K,D*27
$GPHDT,,T*1B
$GPTHS,,V*0E
$GPROT,,V*08
$PSSN,HRP,034547.00,010125,,,,,,,00,0,,*60
$PTNL,AVR,034547.00,,Yaw,,Tilt,,,,0,,00*36
$GPGSA,A,3,03,04,06,07,09,11,16,19,20,26,31,,0.7,0.4,0.6*33
$GPGSA,A,3,70,71,72,79,80,85,86,87,,,,,0.7,0.4,0.6*39
$GPGSA,A,3,03,04,05,06,09,15,31,34,36,,,,0.7,0.4,0.6*3E
$GPGSA,A,3,02,05,06,09,16,19,20,22,35,37,39,44,0.7,0.4,0.6*3A
$GPGSA,A,3,60,,,,,,,,,,,,0.7,0.4,0.6*31
$GPGST,034547.00,1.752,0.401,0.312,5.038,0.400,0.313,0.602*5D
$GPGBS,034547.00,3.120,1.723,3.532,72,0.0001,6.434,6.234*5C
$GPGRS,034547.00,1,0.5,-0.0,-0.4,0.2,0.0,0.1,0.8,0.1,0.2,-1.0,-0.5,*6C
$GPGRS,034547.00,1,-1.6,1.3,6.4,1.7,-2.4,2.5,-2.9,-3.7,,,,*40
$GPGRS,034547.00,1,-1.4,-0.9,0.1,-0.2,-0.1,0.3,0.2,-0.2,0.3,,,*42
$GPGRS,034547.00,1,0.8,2.4,-0.2,0.0,-0.2,-0.7,1.0,-0.4,-1.5,-0.6,-1.4,-0.5*41
$GPGRS,034547.00,1,-2.0,,,,,,,,,,,*4E
$GPGSV,6,1,21,09,82,291,51,26,13,054,39,07,34,181,46,11,28,312,44*7D
$GPGSV,6,2,21,03,33,113,44,06,55,273,48,04,64,056,47,19,08,244,40*72
$GPGSV,6,3,21,20,08,303,38,16,10,084,39,30,03,200,,31,09,037,39*79
$GPGSV,6,4,21,36,35,170,45,58,13,245,38,40,24,132,37,34,31,208,43*75
$GPGSV,6,5,21,49,34,195,45,57,08,111,38,41,07,108,35,61,03,257,38*7D
$GPGSV,6,6,21*7A
$GLGSV,3,1,09,71,59,308,53,79,17,025,46,72,16,273,46,85,15,199,46*68
$GLGSV,3,2,09,73,18,139,,80,36,081,49,87,34,318,47,70,52,052,42*62
$GLGSV,3,3,09,86,47,253,51*51
$GAGSV,3,1,12,09,61,057,48,15,16,323,39,23,11,046,,04,12,063,38*68
$GAGSV,3,2,12,36,45,189,46,34,56,281,48,06,36,062,44,05,61,250,48*61
$GAGSV,3,3,12,18,03,236,,31,10,095,39,11,04,162,,03,10,245,37*67
$GBGSV,5,1,20,19,77,035,52,05,23,128,40,39,14,039,42,12,22,314,*69
$GBGSV,5,2,20,36,12,164,,37,24,052,44,44,28,288,45,16,24,043,41*64
$GBGSV,5,3,20,58,29,105,,06,26,045,40,20,31,085,47,35,26,235,45*63
$GBGSV,5,4,20,46,36,115,,22,39,283,48,09,39,054,42,21,39,273,*6E
$GBGSV,5,5,20,48,52,079,,34,05,335,,02,07,106,35,60,08,111,40*64
$GPGGA,034547.00,,,,,0,00,,,M,,M,,*49
$PTNL,GGK,034547.00,010125,4742.1603978,N,01618.1002347,E,1,41,0.7,EHT751.6814,M*4B
$GPGGQ,034547.00,010125,4742.1603978,N,01618.1002347,E,1,41,0.788,708.4748,M*3D
$GPGFA,034547.00,3.813,4.936,0.401,0.312,5.038,0.602,,VVV*0C
$GPLLK,034547.00,010125,,M,,M,1,41,0.8,,M*07
$GNGMP,034547.00,,,,,DAAA,41,0.4,,,,*56
$GPGMP,034547.00,,,,,,11,,,,1.6,136*7F
$GLGMP,034547.00,,,,,,08,,,,,*76
$GAGMP,034547.00,,,,,,09,,,,,*7A
$GBGMP,034547.00,,,,,,13,,,,,*72
$PSSN,SNC,[0,272765000,2347]*47
$GPZDA,034552.00,01,01,2025,,*66
$GPDTM,W84,,00.0000000,N,00.0000000,E,00.0000000,W84*5F
$PSSN,TFM,034552.00,,,,*6A
$GPRMC,034552.00,A,4742.1603992,N,01618.1002334,E,0.0,,010125,5.1,E,D*12
$GPGLL,4742.1603992,N,01618.1002334,E,034552.00,A,D*63
$GPGGA,034552.00,4742.1603992,N,01618.1002334,E,2,41,0.4,708.4743,M,43.2066,M,2.3,0136*44
$GNGNS,034552.00,4742.1603992,N,01618.1002334,E,DAAA,41,0.4,708.4743,43.2066,,*5D
$GPGNS,034552.00,,,,,,11,,,,2.3,136*7D
$GLGNS,034552.00,,,,,,08,,,,,*72
$GAGNS,034552.00,,,,,,09,,,,,*7E
$GBGNS,034552.00,,,,,,13,,,,,*76
$GPLLQ,034552.00,010125,,M,,M,1,41,0.776,,M*17
$GPVTG,,T,,M,0.00,N,0.00,K,D*26
$GPHDT,,T*1B
$GPTHS,,V*0E
$GPROT,,V*08
$PSSN,HRP,034552.00,010125,,,,,,,00,0,,*64
$PTNL,AVR,034552.00,,Yaw,,Tilt,,,,0,,00*32
$GPGSA,A,3,03,04,06,07,09,11,16,19,20,26,31,,0.7,0.4,0.6*33
$GPGSA,A,3,70,71,72,79,80,85,86,87,,,,,0.7,0.4,0.6*39
$GPGSA,A,3,03,04,05,06,09,15,31,34,36,,,,0.7,0.4,0.6*3E
$GPGSA,A,3,02,05,06,09,16,19,20,22,35,37,39,44,0.7,0.4,0.6*3A
$GPGSA,A,3,60,,,,,,,,,,,,0.7,0.4,0.6*31
$GPGST,034552.00,1.773,0.394,0.308,5.947,0.394,0.309,0.593*51
$GPGBS,034552.00,3.141,1.734,3.566,72,0.0001,6.612,6.233*59
$GPGRS,034552.00,1,0.5,-0.1,-0.3,-0.1,0.1,0.3,1.2,-0.3,0.5,-1.1,-0.5,*61
$GPGRS,034552.00,1,-1.7,1.6,6.6,1.4,-2.2,2.2,-2.8,-3.9,,,,*4F
$GPGRS,034552.00,1,-1.1,-0.5,0.1,-0.3,-0.1,0.6,-0.0,0.0,0.1,,,*49
$GPGRS,034552.00,1,1.4,2.6,0.0,0.4,0.1,-0.7,1.2,-0.2,-1.4,-0.6,-1.4,0.2*60
$GPGRS,034552.00,1,-1.8,,,,,,,,,,,*41
$GPGSV,6,1,21,09,82,291,51,26,13,054,38,07,34,181,46,11,28,312,43*7B
$GPGSV,6,2,21,03,33,113,45,06,55,273,48,04,63,056,47,19,08,244,40*74
$GPGSV,6,3,21,20,08,303,38,16,10,084,39,30,03,200,,31,09,037,39*79
$GPGSV,6,4,21,36,35,170,45,58,13,245,38,40,24,132,36,34,31,208,43*74
$GPGSV,6,5,21,49,34,195,45,57,08,111,37,41,07,108,35,61,03,257,38*72
$GPGSV,6,6,21*7A
$GLGSV,3,1,09,71,59,308,52,79,17,025,46,72,16,273,46,85,15,199,45*6A
$GLGSV,3,2,09,73,18,139,,80,36,081,50,87,34,318,47,70,52,052,41*69
$GLGSV,3,3,09,86,47,253,51*51
$GAGSV,3,1,12,09,61,057,48,15,16,323,39,23,11,046,,04,12,063,38*68
$GAGSV,3,2,12,36,45,189,46,34,56,281,48,06,36,062,44,05,61,250,48*61
$GAGSV,3,3,12,18,03,236,,31,10,095,38,11,04,162,,03,10,245,37*66
$GBGSV,5,1,20,19,77,035,52,05,23,128,40,39,14,040,42,12,22,314,*67
$GBGSV,5,2,20,36,12,164,,37,24,052,44,44,28,288,45,16,24,043,41*64
$GBGSV,5,3,20,58,29,105,,06,26,045,40,20,31,085,48,35,26,235,46*6F
$GBGSV,5,4,20,46,36,115,,22,39,283,48,09,39,054,43,21,39,273,*6F
$GBGSV,5,5,20,48,52,079,,34,05,335,,02,07,106,35,60,08,111,40*64
$GPGGA,034552.00,,,,,0,00,,,M,,M,,*4D
$PTNL,GGK,034552.00,010125,4742.1603992,N,01618.1002334,E,1,41,0.7,EHT751.6808,M*42
$GPGGQ,034552.00,010125,4742.1603992,N,01618.1002334,E,1,41,0.776,708.4743,M*33
$GPGFA,034552.00,3.751,4.864,0.394,0.308,5.947,0.593,,VVV*0D
$GPLLK,034552.00,010125,,M,,M,1,41,0.8,,M*03
$GNGMP,034552.00,,,,,DAAA,41,0.4,,,,*52
$GPGMP,034552.00,,,,,,11,,,,2.3,136*7D
$GLGMP,034552.00,,,,,,08,,,,,*72
$GAGMP,034552.00,,,,,,09,,,,,*7E
$GBGMP,034552.00,,,,,,13,,,,,*76
$PSSN,SNC,[0,272770000,2347]*43
$GPZDA,034557.00,01,01,2025,,*63
$GPDTM,W84,,00.0000000,N,00.0000000,E,00.0000000,W84*5F
$PSSN,TFM,034557.00,,,,*6F
$GPRMC,034557.00,A,4742.1603998,N,01618.1002316,E,0.0,,010125,5.1,E,D*1D
$GPGLL,4742.1603998,N,01618.1002316,E,034557.00,A,D*6C
$GPGGA,034557.00,4742.1603998,N,01618.1002316,E,2,41,0.4,708.4802,M,43.2066,M,3.3,0136*40
$GNGNS,034557.00,4742.1603998,N,01618.1002316,E,DAAA,41,0.4,708.4802,43.2066,,*58
$GPGNS,034557.00,,,,,,11,,,,3.3,136*79
$GLGNS,034557.00,,,,,,08,,,,,*77
$GAGNS,034557.00,,,,,,09,,,,,*7B
$GBGNS,034557.00,,,,,,13,,,,,*73
$GPLLQ,034557.00,010125,,M,,M,1,41,0.787,,M*1C
$GPVTG,,T,,M,0.00,N,0.01,K,D*27
$GPHDT,,T*1B
$GPTHS,,V*0E
$GPROT,,V*08
$PSSN,HRP,034557.00,010125,,,,,,,00,0,,*61
$PTNL,AVR,034557.00,,Yaw,,Tilt,,,,0,,00*37
$GPGSA,A,3,03,04,06,07,09,11,16,19,20,26,31,,0.7,0.4,0.6*33
$GPGSA,A,3,70,71,72,79,80,85,86,87,,,,,0.7,0.4,0.6*39
$GPGSA,A,3,03,04,05,06,09,15,31,34,36,,,,0.7,0.4,0.6*3E
$GPGSA,A,3,02,05,06,09,16,19,20,22,35,37,39,44,0.7,0.4,0.6*3A
$GPGSA,A,3,60,,,,,,,,,,,,0.7,0.4,0.6*31
$GPGST,034557.00,1.735,0.399,0.312,5.502,0.399,0.313,0.602*50
$GPGBS,034557.00,3.175,1.752,3.618,72,0.0001,6.680,6.233*5A
$GPGRS,034557.00,1,0.2,0.0,-0.2,-0.0,0.0,0.4,1.0,-0.3,0.6,-0.9,-0.4,*40
$GPGRS,034557.00,1,-1.8,1.1,6.7,2.1,-2.3,1.6,-2.9,-3.9,,,,*42
$GPGRS,034557.00,1,-1.0,-0.5,0.2,-0.2,0.2,0.4,0.3,0.1,0.3,,,*4E
$GPGRS,034557.00,1,0.8,2.2,-0.1,0.6,0.0,-0.8,1.0,0.2,-0.6,-0.6,-1.1,-0.0*4A
$GPGRS,034557.00,1,-1.9,,,,,,,,,,,*45
$GPGSV,6,1,21,09,82,292,51,26,13,054,39,07,34,181,46,11,28,312,44*7E
$GPGSV,6,2,21,03,33,113,45,06,55,273,48,04,63,056,47,19,08,244,40*74
$GPGSV,6,3,21,20,08,303,38,16,10,084,38,30,03,200,,31,09,037,39*78
$GPGSV,6,4,21,36,35,170,45,58,13,245,38,40,24,132,36,34,31,208,43*74
$GPGSV,6,5,21,49,34,195,45,57,08,111,37,41,07,108,35,61,03,257,38*72
$GPGSV,6,6,21*7A
$GLGSV,3,1,09,71,59,308,52,79,17,025,45,72,16,273,46,85,15,199,44*68
$GLGSV,3,2,09,73,18,139,,80,36,081,49,87,34,318,48,70,52,052,41*6E
$GLGSV,3,3,09,86,47,253,51*51
$GAGSV,3,1,12,09,61,057,48,15,16,323,39,23,11,046,,04,12,063,38*68
$GAGSV,3,2,12,36,45,189,46,34,56,281,48,06,36,062,44,05,61,251,48*60
$GAGSV,3,3,12,18,03,236,,31,10,095,38,11,04,162,,03,10,245,38*69
$GBGSV,5,1,20,19,77,036,51,05,23,128,40,39,14,040,42,12,22,314,*67
$GBGSV,5,2,20,36,12,164,,37,24,052,44,44,28,288,45,16,24,043,41*64
$GBGSV,5,3,20,58,29,105,,06,26,045,40,20,31,085,48,35,26,235,45*6C
$GBGSV,5,4,20,46,36,115,,22,39,283,48,09,39,054,43,21,39,273,*6F
$GBGSV,5,5,20,48,52,079,,34,05,335,,02,07,106,35,60,08,111,40*64
$GPGGA,034557.00,,,,,0,00,,,M,,M,,*48
$PTNL,GGK,034557.00,010125,4742.1603998,N,01618.1002316,E,1,41,0.7,EHT751.6867,M*44
$GPGGQ,034557.00,010125,4742.1603998,N,01618.1002316,E,1,41,0.787,708.4802,M*38
$GPGFA,034557.00,3.796,4.933,0.399,0.312,5.502,0.602,,VVV*00
$GPLLK,034557.00,010125,,M,,M,1,41,0.8,,M*06
$GNGMP,034557.00,,,,,DAAA,41,0.4,,,,*57
$GPGMP,034557.00,,,,,,11,,,,3.3,136*79
$GLGMP,034557.00,,,,,,08,,,,,*77
$GAGMP,034557.00,,,,,,09,,,,,*7B
$GBGMP,034557.00,,,,,,13,,,,,*73
$PSSN,SNC,[0,272775000,2347]*46
$GPZDA,034602.00,01,01,2025,,*60
$GPDTM,W84,,00.0000000,N,00.0000000,E,00.0000000,W84*5F
$PSSN,TFM,034602.00,,,,*6C
$GPRMC,034602.00,A,4742.1603988,N,01618.1002338,E,0.0,,010125,5.1,E,D*13
$GPGLL,4742.1603988,N,01618.1002338,E,034602.00,A,D*62
$GPGGA,034602.00,4742.1603988,N,01618.1002338,E,2,41,0.4,708.4797,M,43.2066,M,2.8,0136*47
$GNGNS,034602.00,4742.1603988,N,01618.1002338,E,DAAA,41,0.4,708.4797,43.2066,,*55
$GPGNS,034602.00,,,,,,11,,,,2.8,136*70
$GLGNS,034602.00,,,,,,08,,,,,*74
$GAGNS,034602.00,,,,,,09,,,,,*78
$GBGNS,034602.00,,,,,,13,,,,,*70
$GPLLQ,034602.00,010125,,M,,M,1,41,0.796,,M*1F
$GPVTG,,T,,M,0.00,N,0.01,K,D*27
$GPHDT,,T*1B
$GPTHS,,V*0E
$GPROT,,V*08
$PSSN,HRP,034602.00,010125,,,,,,,00,0,,*62
$PTNL,AVR,034602.00,,Yaw,,Tilt,,,,0,,00*34
$GPGSA,A,3,03,04,06,07,09,11,16,19,20,26,31,,0.7,0.4,0.6*33
$GPGSA,A,3,70,71,72,79,80,85,86,87,,,,,0.7,0.4,0.6*39
$GPGSA,A,3,03,04,05,06,09,15,31,34,36,,,,0.7,0.4,0.6*3E
$GPGSA,A,3,02,05,06,09,16,19,20,22,35,37,39,44,0.7,0.4,0.6*3A
$GPGSA,A,3,60,,,,,,,,,,,,0.7,0.4,0.6*31
$GPGST,034602.00,1.868,0.404,0.316,4.820,0.404,0.316,0.609*52
$GPGBS,034602.00,3.181,1.751,3.637,72,0.0001,7.373,6.233*54
$GPGRS,034602.00,1,0.2,0.3,-0.4,-0.0,-0.0,0.5,0.7,-0.0,0.5,-1.2,-0.5,*67
$GPGRS,034602.00,1,-2.2,1.3,7.4,0.8,-2.8,1.2,-3.0,-4.3,,,,*49
$GPGRS,034602.00,1,-1.1,-0.2,0.1,-0.0,0.0,-0.1,0.6,-0.1,0.2,,,*49
$GPGRS,034602.00,1,0.8,2.1,-0.0,0.8,0.6,-0.8,1.1,-0.2,-1.1,-1.1,-1.2,-0.3*6F
$GPGRS,034602.00,1,-1.8,,,,,,,,,,,*47
$GPGSV,6,1,21,09,82,292,51,26,13,054,39,07,34,181,46,11,28,312,44*7E
$GPGSV,6,2,21,03,33,113,45,06,55,273,48,04,63,056,47,19,08,244,40*74
$GPGSV,6,3,21,20,08,303,38,16,10,084,38,30,03,200,,31,09,037,40*76
$GPGSV,6,4,21,36,35,170,45,58,13,245,38,40,24,132,36,34,31,208,43*74
$GPGSV,6,5,21,49,34,195,45,57,08,111,37,41,07,108,35,61,03,257,38*72
$GPGSV,6,6,21*7A
$GLGSV,3,1,09,71,59,308,52,79,16,025,45,72,16,273,47,85,15,199,43*6F
$GLGSV,3,2,09,73,18,139,,80,36,081,50,87,34,318,47,70,52,052,41*69
$GLGSV,3,3,09,86,47,253,51*51
$GAGSV,3,1,12,09,61,057,48,15,16,323,38,23,11,046,,04,12,063,37*66
$GAGSV,3,2,12,36,45,189,46,34,56,281,48,06,36,062,45,05,61,251,48*61
$GAGSV,3,3,12,18,03,236,,31,10,095,38,11,03,162,,03,10,245,38*6E
$GBGSV,5,1,20,19,77,036,51,05,23,128,40,39,14,040,42,12,22,314,*67
$GBGSV,5,2,20,36,12,164,,37,24,052,44,44,28,288,45,16,24,043,41*64
$GBGSV,5,3,20,58,29,105,,35,26,235,46,06,26,045,40,46,36,115,*6C
$GBGSV,5,4,20,20,31,085,48,22,39,283,48,09,39,054,42,21,39,273,*6D
$GBGSV,5,5,20,48,52,080,,34,05,335,,02,07,106,36,60,08,111,40*61
$GPGGA,034602.00,,,,,0,00,,,M,,M,,*4B
$PTNL,GGK,034602.00,010125,4742.1603988,N,01618.1002338,E,1,41,0.7,EHT751.6863,M*4E
$GPGGQ,034602.00,010125,4742.1603988,N,01618.1002338,E,1,41,0.796,708.4797,M*35
$GPGFA,034602.00,3.844,4.991,0.404,0.316,4.820,0.609,,VVV*0B
$GPLLK,034602.00,010125,,M,,M,1,41,0.8,,M*05
$GNGMP,034602.00,,,,,DAAA,41,0.4,,,,*54
$GPGMP,034602.00,,,,,,11,,,,2.8,136*70
$GLGMP,034602.00,,,,,,08,,,,,*74
$GAGMP,034602.00,,,,,,09,,,,,*78
$GBGMP,034602.00,,,,,,13,,,,,*70
$PSSN,SNC,[0,272780000,2347]*4C
$GPZDA,034607.00,01,01,2025,,*65
$GPDTM,W84,,00.0000000,N,00.0000000,E,00.0000000,W84*5F
$PSSN,TFM,034607.00,,,,*69
$GPRMC,034607.00,A,4742.1603998,N,01618.1002325,E,0.0,,010125,5.1,E,D*1B
$GPGLL,4742.1603998,N,01618.1002325,E,034607.00,A,D*6A
$GPGGA,034607.00,4742.1603998,N,01618.1002325,E,2,41,0.4,708.4832,M,43.2066,M,1.6,0136*42
$GNGNS,034607.00,4742.1603998,N,01618.1002325,E,DAAA,41,0.4,708.4832,43.2066,,*5D
$GPGNS,034607.00,,,,,,11,,,,1.6,136*78
$GLGNS,034607.00,,,,,,08,,,,,*71
$GAGNS,034607.00,,,,,,09,,,,,*7D
$GBGNS,034607.00,,,,,,13,,,,,*75
$GPLLQ,034607.00,010125,,M,,M,1,41,0.788,,M*15
$GPVTG,,T,,M,0.00,N,0.01,K,D*27
$GPHDT,,T*1B
$GPTHS,,V*0E
$GPROT,,V*08
$PSSN,HRP,034607.00,010125,,,,,,,00,0,,*67
$PTNL,AVR,034607.00,,Yaw,,Tilt,,,,0,,00*31
$GPGSA,A,3,03,04,06,07,09,11,16,19,20,26,31,,0.7,0.4,0.6*33
$GPGSA,A,3,70,71,72,79,80,85,86,87,,,,,0.7,0.4,0.6*39
$GPGSA,A,3,03,04,05,06,09,15,31,34,36,,,,0.7,0.4,0.6*3E
$GPGSA,A,3,02,05,06,09,16,19,20,22,35,37,39,44,0.7,0.4,0.6*3A
$GPGSA,A,3,60,,,,,,,,,,,,0.7,0.4,0.6*31
$GPGST,034607.00,1.808,0.401,0.312,5.036,0.400,0.313,0.602*54
$GPGBS,034607.00,3.118,1.719,3.539,72,0.0001,6.883,6.233*55
$GPGRS,034607.00,1,0.5,0.1,-0.2,-0.3,0.2,-0.1,0.7,-0.3,0.2,-1.4,-0.4,*67
$GPGRS,034607.00,1,-1.4,1.4,6.9,0.4,-2.2,2.4,-3.0,-4.5,,,,*47
$GPGRS,034607.00,1,-0.8,-0.6,0.1,-0.0,0.0,0.1,0.4,-0.1,0.3,,,*6E
$GPGRS,034607.00,1,0.8,2.3,-0.0,0.7,0.6,-0.8,1.3,-0.4,-0.6,-1.1,-1.1,-0.0*65
$GPGRS,034607.00,1,-1.8,,,,,,,,,,,*42
$GPGSV,6,1,21,09,82,292,51,26,13,054,39,07,34,181,46,11,28,312,44*7E
$GPGSV,6,2,21,03,33,113,45,06,55,273,48,04,63,056,47,19,08,244,39*7A
$GPGSV,6,3,21,20,08,303,38,16,10,084,38,30,03,200,,31,09,037,40*76
$GPGSV,6,4,21,36,35,170,45,58,13,245,38,40,24,132,36,34,31,208,44*73
$GPGSV,6,5,21,49,34,195,45,57,08,111,37,41,07,108,35,61,03,257,38*72
$GPGSV,6,6,21*7A
$GLGSV,3,1,09,71,59,308,53,79,16,025,45,72,16,273,46,85,15,199,44*68
$GLGSV,3,2,09,73,18,139,,80,36,080,49,87,34,318,47,70,52,052,41*60
$GLGSV,3,3,09,86,47,253,51*51
$GAGSV,3,1,12,09,61,057,48,15,16,323,39,23,11,046,,04,12,063,38*68
$GAGSV,3,2,12,36,45,189,46,34,56,281,48,06,36,062,45,05,61,251,48*61
$GAGSV,3,3,12,18,03,236,,31,10,095,39,11,03,162,,03,10,245,38*6F
$GBGSV,5,1,20,19,77,036,51,05,23,128,39,39,14,040,41,12,22,314,*6A
$GBGSV,5,2,20,36,12,164,,37,24,052,44,44,28,288,45,16,24,043,41*64
$GBGSV,5,3,20,58,29,105,,35,25,235,46,06,26,045,40,46,36,115,*6F
$GBGSV,5,4,20,20,31,085,48,22,39,283,48,09,39,054,42,21,39,273,*6D
$GBGSV,5,5,20,48,52,080,,34,05,335,,02,07,106,35,60,08,111,39*6C
$GPGGA,034607.00,,,,,0,00,,,M,,M,,*4E
$PTNL,GGK,034607.00,010125,4742.1603998,N,01618.1002325,E,1,41,0.7,EHT751.6898,M*42
$GPGGQ,034607.00,010125,4742.1603998,N,01618.1002325,E,1,41,0.788,708.4832,M*32
$GPGFA,034607.00,3.810,4.940,0.401,0.312,5.036,0.602,,VVV*07
$GPLLK,034607.00,010125,,M,,M,1,41,0.8,,M*00
$GNGMP,034607.00,,,,,DAAA,41,0.4,,,,*51
$GPGMP,034607.00,,,,,,11,,,,1.6,136*78
$GLGMP,034607.00,,,,,,08,,,,,*71
$GAGMP,034607.00,,,,,,09,,,,,*7D
$GBGMP,034607.00,,,,,,13,,,,,*75
$PSSN,SNC,[0,272785000,2347]*49
$GPZDA,034612.00,01,01,2025,,*61
$GPDTM,W84,,00.0000000,N,00.0000000,E,00.0000000,W84*5F
$PSSN,TFM,034612.00,,,,*6D
$GPRMC,034612.00,A,4742.1604006,N,01618.1002302,E,0.0,,010125,5.1,E,D*13
$GPGLL,4742.1604006,N,01618.1002302,E,034612.00,A,D*62
$GPGGA,034612.00,4742.1604006,N,01618.1002302,E,2,41,0.4,708.4782,M,43.2066,M,2.3,0136*48
$GNGNS,034612.00,4742.1604006,N,01618.1002302,E,DAAA,41,0.4,708.4782,43.2066,,*51
$GPGNS,034612.00,,,,,,11,,,,2.3,136*7A
$GLGNS,034612.00,,,,,,08,,,,,*75
$GAGNS,034612.00,,,,,,09,,,,,*79
$GBGNS,034612.00,,,,,,13,,,,,*71
$GPLLQ,034612.00,010125,,M,,M,1,41,0.776,,M*10
$GPVTG,,T,,M,0.00,N,0.00,K,D*26
$GPHDT,,T*1B
$GPTHS,,V*0E
$GPROT,,V*08
$PSSN,HRP,034612.00,010125,,,,,,,00,0,,*63
$PTNL,AVR,034612.00,,Yaw,,Tilt,,,,0,,00*35
$GPGSA,A,3,03,04,06,07,09,11,16,19,20,26,31,,0.7,0.4,0.6*33
$GPGSA,A,3,70,71,72,79,80,85,86,87,,,,,0.7,0.4,0.6*39
$GPGSA,A,3,03,04,05,06,09,15,31,34,36,,,,0.7,0.4,0.6*3E
$GPGSA,A,3,02,05,06,09,16,19,20,22,35,37,39,44,0.7,0.4,0.6*3A
$GPGSA,A,3,60,,,,,,,,,,,,0.7,0.4,0.6*31
$GPGST,034612.00,1.817,0.394,0.308,5.928,0.393,0.309,0.593*55
$GPGBS,034612.00,3.137,1.730,3.572,72,0.0001,6.685,6.232*51
$GPGRS,034612.00,1,0.4,0.1,-0.2,-0.2,0.1,-0.0,0.6,-0.2,0.8,-0.7,-0.7,*6A
$GPGRS,034612.00,1,-1.4,1.5,6.7,1.5,-2.7,3.4,-2.8,-4.0,,,,*44
$GPGRS,034612.00,1,-1.1,-0.5,0.1,-0.1,0.2,0.7,0.5,0.0,0.4,,,*4E
$GPGRS,034612.00,1,0.3,2.4,0.3,0.4,0.3,-0.7,1.4,-0.3,-0.7,-1.1,-0.7,0.0*61
$GPGRS,034612.00,1,-2.0,,,,,,,,,,,*4D
$GPGSV,6,1,21,09,82,292,51,26,13,054,40,07,34,181,47,11,28,312,44*71
$GPGSV,6,2,21,03,33,113,45,06,55,273,48,04,63,056,47,19,08,244,40*74
$GPGSV,6,3,21,20,08,303,38,16,10,084,38,30,03,200,,31,09,037,40*76
$GPGSV,6,4,21,36,35,170,45,58,13,245,38,40,24,132,37,34,31,208,44*72
$GPGSV,6,5,21,49,34,195,45,57,08,111,38,41,07,108,35,61,03,257,38*7D
$GPGSV,6,6,21*7A
$GLGSV,3,1,09,71,59,308,53,79,16,025,46,72,16,273,47,85,14,199,45*6A
$GLGSV,3,2,09,73,18,139,,80,36,080,50,87,34,318,47,70,52,052,42*6B
$GLGSV,3,3,09,86,47,253,51*51
$GAGSV,3,1,12,09,61,057,48,15,16,323,39,23,11,046,,04,12,063,38*68
$GAGSV,3,2,12,36,45,189,47,34,56,281,48,06,36,062,45,05,61,251,48*60
$GAGSV,3,3,12,18,03,236,,31,10,095,39,11,03,162,,03,10,245,38*6F
$GBGSV,5,1,20,19,77,036,51,05,23,128,40,39,14,040,41,12,22,314,*64
$GBGSV,5,2,20,36,12,164,,37,24,052,44,44,28,287,45,16,24,043,41*6B
$GBGSV,5,3,20,58,29,105,,35,25,235,45,06,26,045,40,46,36,115,*6C
$GBGSV,5,4,20,20,31,085,47,22,39,283,48,09,39,054,42,21,39,273,*62
$GBGSV,5,5,20,48,52,080,,34,05,335,,02,07,106,35,60,08,111,40*62
$GPGGA,034612.00,,,,,0,00,,,M,,M,,*4A
$PTNL,GGK,034612.00,010125,4742.1604006,N,01618.1002302,E,1,41,0.7,EHT751.6847,M*48
$GPGGQ,034612.00,010125,4742.1604006,N,01618.1002302,E,1,41,0.776,708.4782,M*3F
$GPGFA,034612.00,3.747,4.866,0.394,0.308,5.928,0.593,,VVV*06
$GPLLK,034612.00,010125,,M,,M,1,41,0.8,,M*04
$GNGMP,034612.00,,,,,DAAA,41,0.4,,,,*55
$GPGMP,034612.00,,,,,,11,,,,2.3,136*7A
$GLGMP,034612.00,,,,,,08,,,,,*75
$GAGMP,034612.00,,,,,,09,,,,,*79
$GBGMP,034612.00,,,,,,13,,,,,*71
$PSSN,SNC,[0,272790000,2347]*4D
$GPZDA,034617.00,01,01,2025,,*64
$GPDTM,W84,,00.0000000,N,00.0000000,E,00.0000000,W84*5F
$PSSN,TFM,034617.00,,,,*68
$GPRMC,034617.00,A,4742.1604008,N,01618.1002309,E,0.0,,010125,5.1,E,D*13
$GPGLL,4742.1604008,N,01618.1002309,E,034617.00,A,D*62
$GPGGA,034617.00,4742.1604008,N,01618.1002309,E,2,41,0.4,708.4799,M,43.2066,M,3.3,0136*43
$GNGNS,034617.00,4742.1604008,N,01618.1002309,E,DAAA,41,0.4,708.4799,43.2066,,*5B
$GPGNS,034617.00,,,,,,11,,,,3.3,136*7E
$GLGNS,034617.00,,,,,,08,,,,,*70
$GAGNS,034617.00,,,,,,09,,,,,*7C
$GBGNS,034617.00,,,,,,13,,,,,*74
$GPLLQ,034617.00,010125,,M,,M,1,41,0.787,,M*1B
$GPVTG,,T,,M,0.00,N,0.01,K,D*27
$GPHDT,,T*1B
$GPTHS,,V*0E
$GPROT,,V*08
$PSSN,HRP,034617.00,010125,,,,,,,00,0,,*66
$PTNL,AVR,034617.00,,Yaw,,Tilt,,,,0,,00*30
$GPGSA,A,3,03,04,06,07,09,11,16,19,20,26,31,,0.7,0.4,0.6*33
$GPGSA,A,3,70,71,72,79,80,85,86,87,,,,,0.7,0.4,0.6*39
$GPGSA,A,3,03,04,05,06,09,15,31,34,36,,,,0.7,0.4,0.6*3E
$GPGSA,A,3,02,05,06,09,16,19,20,22,35,37,39,44,0.7,0.4,0.6*3A
$GPGSA,A,3,60,,,,,,,,,,,,0.7,0.4,0.6*31
$GPGST,034617.00,1.777,0.399,0.312,5.518,0.398,0.313,0.602*5B
$GPGBS,034617.00,3.174,1.748,3.626,72,0.0001,6.547,6.232*53
$GPGRS,034617.00,1,0.0,-0.1,-0.1,-0.0,0.1,-0.0,0.8,-0.2,1.3,-0.6,-0.3,*46
$GPGRS,034617.00,1,-1.5,1.3,6.5,1.7,-2.0,3.1,-3.3,-3.7,,,,*4E
$GPGRS,034617.00,1,-1.4,-0.5,0.0,0.0,0.1,0.5,0.5,-0.3,0.2,,,*4A
$GPGRS,034617.00,1,0.1,2.5,0.0,0.5,-0.2,-0.7,1.0,-0.3,-1.1,-0.8,-0.8,-0.5*65
$GPGRS,034617.00,1,-1.6,,,,,,,,,,,*4D
$GPGSV,6,1,21,09,82,293,51,26,13,054,38,07,34,181,46,11,28,312,44*7E
$GPGSV,6,2,21,03,33,113,44,06,55,273,48,04,63,056,47,19,08,244,38*7A
$GPGSV,6,3,21,20,08,303,39,16,10,084,38,30,03,200,33,31,09,037,40*77
$GPGSV,6,4,21,36,35,170,45,58,13,245,38,40,24,132,36,34,31,208,44*73
$GPGSV,6,5,21,49,34,195,45,57,08,111,38,41,07,108,35,61,03,257,38*7D
$GPGSV,6,6,21*7A
$GLGSV,3,1,09,71,59,308,53,79,16,025,46,72,16,274,46,85,14,199,45*6C
$GLGSV,3,2,09,73,18,139,,80,36,080,49,87,34,318,47,70,52,052,42*63
$GLGSV,3,3,09,86,47,253,51*51
$GAGSV,3,1,12,09,61,057,48,15,16,323,39,23,11,046,,04,12,063,37*67
$GAGSV,3,2,12,36,45,189,46,34,56,281,48,06,36,062,45,05,61,251,48*61
$GAGSV,3,3,12,18,03,236,,31,10,095,39,11,03,162,,03,10,245,38*6F
$GBGSV,5,1,20,19,77,036,52,05,23,128,40,39,14,040,41,12,22,314,*67
