$GPZDA,092942.00,01,01,2025,,*67
$GPDTM,W84,,00.0000000,N,00.0000000,E,00.0000000,W84*5F
$PSSN,TFM,092942.00,,,,*6B
$GPRMC,092942.00,A,4742.1599974,N,01618.1001779,E,0.0,,010125,5.1,E,D*15
$GPGLL,4742.1599974,N,01618.1001779,E,092942.00,A,D*64
$GPGGA,092942.00,4742.1599974,N,01618.1001779,E,2,34,0.5,709.0490,M,43.2066,M,1.8,0136*40
$GNGNS,092942.00,4742.1599974,N,01618.1001779,E,DAAA,34,0.5,709.0490,43.2066,,*51
$GPGNS,092942.00,,,,,,09,,,,1.8,136*7D
$GLGNS,092942.00,,,,,,06,,,,,*7D
$GAGNS,092942.00,,,,,,07,,,,,*71
$GBGNS,092942.00,,,,,,12,,,,,*76
$GPLLQ,092942.00,010125,,M,,M,1,34,0.955,,M*1B
$GPVTG,,T,,M,0.00,N,0.00,K,D*26
$GPHDT,,T*1B
$GPTHS,,V*0E
$GPROT,,V*08
$PSSN,HRP,092942.00,010125,,,,,,,00,0,,*65
$PTNL,AVR,092942.00,,Yaw,,Tilt,,,,0,,00*33
$GPGSA,A,3,05,13,14,15,17,19,23,24,30,,,,0.8,0.5,0.6*35
$GPGSA,A,3,65,66,67,75,76,77,,,,,,,0.8,0.5,0.6*38
$GPGSA,A,3,02,03,07,08,24,25,30,,,,,,0.8,0.5,0.6*35
$GPGSA,A,3,05,07,10,14,21,26,33,36,40,42,45,60,0.8,0.5,0.6*38
$GPGST,092942.00,2.565,0.503,0.301,11.289,0.497,0.311,0.754*6F
$GPGBS,092942.00,3.098,1.650,4.758,67,0.0001,10.217,6.273*60
$GPGRS,092942.00,1,0.0,0.1,0.1,-0.1,-0.2,0.7,0.2,0.0,-0.7,,,*48
$GPGRS,092942.00,1,0.3,-1.1,10.2,-1.1,-0.3,-7.3,,,,,,*7D
$GPGRS,092942.00,1,0.0,-0.4,0.4,0.0,0.5,0.0,-0.1,,,,,*60
$GPGRS,092942.00,1,0.7,-0.3,0.4,1.8,-0.3,0.1,-0.6,0.5,-1.4,-0.0,-0.9,-2.8*69
$GPGSV,5,1,19,13,75,148,49,05,18,212,42,30,24,085,42,19,15,143,41*7F
$GPGSV,5,2,19,24,27,279,43,23,22,313,42,17,29,113,45,14,53,063,46*73
$GPGSV,5,3,19,15,63,280,49,22,71,094,,36,35,170,44,58,13,245,36*76
$GPGSV,5,4,19,40,23,133,36,34,31,208,42,49,34,195,44,57,07,112,36*7D
$GPGSV,5,5,19,41,07,108,35,61,03,257,38*73
$GLGSV,3,1,09,66,66,300,52,84,13,040,32,67,16,329,45,77,18,240,40*65
$GLGSV,3,2,09,65,50,178,49,75,47,041,50,76,64,257,52,83,03,342,33*60
$GLGSV,3,3,09,85,04,088,40*51
$GAGSV,3,1,11,08,64,298,48,24,11,045,38,07,13,309,38,16,35,052,*61
$GAGSV,3,2,11,02,57,195,48,03,58,144,48,25,59,066,47,05,08,134,34*6F
$GAGSV,3,3,11,26,01,314,36,30,08,216,38,33,03,358,35*50
$GBGSV,5,1,20,26,64,254,50,33,15,322,41,25,12,238,,05,20,130,38*6C
$GBGSV,5,2,20,40,28,049,44,21,43,190,49,14,37,307,44,07,29,059,41*6C
$GBGSV,5,3,20,56,31,082,,10,36,072,41,50,57,224,,42,55,276,50*63
$GBGSV,5,4,20,45,55,061,49,24,62,234,,22,01,162,,29,06,048,*61
$GBGSV,5,5,20,09,03,088,35,02,04,109,31,36,07,065,39,60,07,112,40*65
$GPGGA,092942.00,,,,,0,00,,,M,,M,,*4C
$PTNL,GGK,092942.00,010125,4742.1599974,N,01618.1001779,E,1,34,0.8,EHT752.2556,M*49
$GPGGQ,092942.00,010125,4742.1599974,N,01618.1001779,E,1,34,0.955,709.0490,M*31
$GPGFA,092942.00,4.780,6.186,0.503,0.301,11.289,0.754,,VVV*34
$GPLLK,092942.00,010125,,M,,M,1,34,0.9,,M*01
$GNGMP,092942.00,,,,,DAAA,34,0.5,,,,*50
$GPGMP,092942.00,,,,,,09,,,,1.8,136*7D
$GLGMP,092942.00,,,,,,06,,,,,*7D
$GAGMP,092942.00,,,,,,07,,,,,*71
$GBGMP,092942.00,,,,,,12,,,,,*76
$PSSN,SNC,[0,293400000,2347]*48
$GPZDA,092947.00,01,01,2025,,*62
$GPDTM,W84,,00.0000000,N,00.0000000,E,00.0000000,W84*5F
$PSSN,TFM,092947.00,,,,*6E
$GPRMC,092947.00,A,4742.1599992,N,01618.1001789,E,0.0,,010125,5.1,E,D*17
$GPGLL,4742.1599992,N,01618.1001789,E,092947.00,A,D*66
$GPGGA,092947.00,4742.1599992,N,01618.1001789,E,2,34,0.5,709.0500,M,43.2066,M,2.8,0136*49
$GNGNS,092947.00,4742.1599992,N,01618.1001789,E,DAAA,34,0.5,709.0500,43.2066,,*5B
$GPGNS,092947.00,,,,,,09,,,,2.8,136*7B
$GLGNS,092947.00,,,,,,06,,,,,*78
$GAGNS,092947.00,,,,,,07,,,,,*74
$GBGNS,092947.00,,,,,,12,,,,,*73
$GPLLQ,092947.00,010125,,M,,M,1,34,0.953,,M*18
$GPVTG,,T,,M,0.00,N,0.00,K,D*26
$GPHDT,,T*1B
$GPTHS,,V*0E
$GPROT,,V*08
$PSSN,HRP,092947.00,010125,,,,,,,00,0,,*60
$PTNL,AVR,092947.00,,Yaw,,Tilt,,,,0,,00*36
$GPGSA,A,3,05,13,14,15,17,19,23,24,30,,,,0.8,0.5,0.6*35
$GPGSA,A,3,65,66,67,75,76,77,,,,,,,0.8,0.5,0.6*38
$GPGSA,A,3,02,03,07,08,24,25,30,,,,,,0.8,0.5,0.6*35
$GPGSA,A,3,05,07,10,14,21,26,33,36,40,42,45,60,0.8,0.5,0.6*38
$GPGST,092947.00,2.333,0.504,0.297,12.205,0.497,0.309,0.752*6E
$GPGBS,092947.00,3.138,1.677,4.824,67,0.0001,9.077,6.272*52
$GPGRS,092947.00,1,-0.1,-0.0,-0.2,-0.0,0.0,1.0,0.0,0.1,-0.4,,,*4B
$GPGRS,092947.00,1,0.5,-0.9,9.1,-1.2,-0.7,-6.5,,,,,,*4C
$GPGRS,092947.00,1,0.1,-0.3,0.4,0.2,0.2,0.2,-0.3,,,,,*66
$GPGRS,092947.00,1,1.4,-0.1,0.5,1.8,-0.2,0.3,-0.4,0.8,-1.3,0.2,-0.6,-3.0*4F
$GPGSV,5,1,19,13,75,148,49,05,18,212,42,30,24,085,42,19,15,143,41*7F
$GPGSV,5,2,19,24,28,279,43,23,22,313,42,17,29,113,44,14,53,063,47*7C
$GPGSV,5,3,19,15,63,280,49,22,71,094,,36,35,170,44,58,13,245,36*76
$GPGSV,5,4,19,40,23,133,36,34,31,208,42,49,34,195,44,57,07,112,36*7D
$GPGSV,5,5,19,41,07,108,35,61,03,257,38*73
$GLGSV,3,1,09,66,66,299,52,84,13,040,31,67,16,329,46,77,18,240,39*6A
$GLGSV,3,2,09,65,50,178,49,75,47,041,50,76,64,258,52,83,03,342,33*6F
$GLGSV,3,3,09,85,04,088,41*50
$GAGSV,3,1,11,08,64,298,48,24,11,045,38,07,13,309,39,16,35,052,*60
$GAGSV,3,2,11,02,57,195,48,03,58,144,48,25,59,066,47,05,08,134,34*6F
$GAGSV,3,3,11,26,01,314,36,30,08,216,38,33,03,358,35*50
$GBGSV,5,1,20,26,64,254,50,33,15,322,41,25,12,238,,05,20,130,38*6C
$GBGSV,5,2,20,40,28,049,44,21,43,190,49,14,37,307,44,07,29,059,41*6C
$GBGSV,5,3,20,56,31,082,,10,36,072,41,50,57,224,,42,55,275,50*60
$GBGSV,5,4,20,45,55,061,49,24,62,234,,22,01,162,,29,06,048,*61
$GBGSV,5,5,20,09,03,088,34,02,04,109,31,36,07,065,40,60,07,112,39*64
$GPGGA,092947.00,,,,,0,00,,,M,,M,,*49
$PTNL,GGK,092947.00,010125,4742.1599992,N,01618.1001789,E,1,34,0.8,EHT752.2565,M*4B
$GPGGQ,092947.00,010125,4742.1599992,N,01618.1001789,E,1,34,0.953,709.0500,M*3D
$GPGFA,092947.00,4.791,6.166,0.504,0.297,12.205,0.752,,VVV*37
$GPLLK,092947.00,010125,,M,,M,1,34,0.9,,M*04
$GNGMP,092947.00,,,,,DAAA,34,0.5,,,,*55
$GPGMP,092947.00,,,,,,09,,,,2.8,136*7B
$GLGMP,092947.00,,,,,,06,,,,,*78
$GAGMP,092947.00,,,,,,07,,,,,*74
$GBGMP,092947.00,,,,,,12,,,,,*73
$PSSN,SNC,[0,293405000,2347]*4D
$GPZDA,092952.00,01,01,2025,,*66
$GPDTM,W84,,00.0000000,N,00.0000000,E,00.0000000,W84*5F
$PSSN,TFM,092952.00,,,,*6A
$GPRMC,092952.00,A,4742.1599983,N,01618.1001765,E,0.0,,010125,5.1,E,D*11
$GPGLL,4742.1599983,N,01618.1001765,E,092952.00,A,D*60
$GPGGA,092952.00,4742.1599983,N,01618.1001765,E,2,34,0.5,709.0515,M,43.2066,M,2.4,0136*47
$GNGNS,092952.00,4742.1599983,N,01618.1001765,E,DAAA,34,0.5,709.0515,43.2066,,*59
$GPGNS,092952.00,,,,,,09,,,,2.4,136*73
$GLGNS,092952.00,,,,,,06,,,,,*7C
$GAGNS,092952.00,,,,,,07,,,,,*70
$GBGNS,092952.00,,,,,,12,,,,,*77
$GPLLQ,092952.00,010125,,M,,M,1,34,0.957,,M*18
$GPVTG,,T,,M,0.00,N,0.01,K,D*27
$GPHDT,,T*1B
$GPTHS,,V*0E
$GPROT,,V*08
$PSSN,HRP,092952.00,010125,,,,,,,00,0,,*64
$PTNL,AVR,092952.00,,Yaw,,Tilt,,,,0,,00*32
$GPGSA,A,3,05,13,14,15,17,19,23,24,30,,,,0.8,0.5,0.6*35
$GPGSA,A,3,65,66,67,75,76,77,,,,,,,0.8,0.5,0.6*38
$GPGSA,A,3,02,03,07,08,24,25,30,,,,,,0.8,0.5,0.6*35
$GPGSA,A,3,05,07,10,14,21,26,33,36,40,42,45,60,0.8,0.5,0.6*38
$GPGST,092952.00,2.491,0.504,0.300,11.788,0.497,0.311,0.756*64
$GPGBS,092952.00,3.071,1.635,4.928,67,0.0001,9.058,6.272*5C
$GPGRS,092952.00,1,-0.5,-0.0,0.4,-0.2,-0.1,0.6,0.5,-0.5,-0.2,,,*63
$GPGRS,092952.00,1,0.6,-0.9,9.1,-1.4,-0.6,-7.6,,,,,,*4E
$GPGRS,092952.00,1,0.0,-0.2,0.8,0.0,0.5,0.2,-0.5,,,,,*6D
$GPGRS,092952.00,1,1.2,0.7,0.5,2.3,0.0,0.3,0.0,0.5,-1.7,0.4,-0.8,-3.2*6B
$GPGSV,5,1,19,13,75,148,49,05,18,212,42,30,24,085,42,19,15,143,41*7F
$GPGSV,5,2,19,24,28,279,43,23,22,313,42,17,29,113,45,14,53,063,47*7D
$GPGSV,5,3,19,15,63,280,49,22,71,094,,36,35,170,44,58,13,245,36*76
$GPGSV,5,4,19,40,23,133,36,34,31,208,42,49,34,195,44,57,07,112,36*7D
$GPGSV,5,5,19,41,07,108,35,61,03,257,38*73
$GLGSV,3,1,09,66,66,299,53,84,13,040,32,67,16,329,45,77,18,240,40*65
$GLGSV,3,2,09,65,50,178,48,75,47,041,50,76,64,258,52,83,03,342,33*6E
$GLGSV,3,3,09,85,04,088,41*50
$GAGSV,3,1,11,08,64,298,48,24,11,045,37,07,13,309,38,16,35,052,*6E
$GAGSV,3,2,11,02,57,195,48,03,58,144,48,25,59,066,47,05,08,134,34*6F
$GAGSV,3,3,11,26,01,314,35,30,08,216,38,33,03,358,34*52
$GBGSV,5,1,20,26,64,254,50,33,15,322,41,25,12,238,,05,20,130,38*6C
$GBGSV,5,2,20,40,28,049,44,21,43,190,49,14,37,307,44,07,29,059,41*6C
$GBGSV,5,3,20,56,31,082,,10,36,072,41,50,57,224,,42,55,275,49*68
$GBGSV,5,4,20,45,55,061,48,24,62,234,,22,01,162,,29,06,048,*60
$GBGSV,5,5,20,09,03,088,34,02,04,109,31,36,07,065,39,60,07,112,39*6A
$GPGGA,092952.00,,,,,0,00,,,M,,M,,*4D
$PTNL,GGK,092952.00,010125,4742.1599983,N,01618.1001765,E,1,34,0.8,EHT752.2581,M*47
$GPGGQ,092952.00,010125,4742.1599983,N,01618.1001765,E,1,34,0.957,709.0515,M*3B
$GPGFA,092952.00,4.795,6.199,0.504,0.300,11.788,0.756,,VVV*3F
$GPLLK,092952.00,010125,,M,,M,1,34,0.9,,M*00
$GNGMP,092952.00,,,,,DAAA,34,0.5,,,,*51
$GPGMP,092952.00,,,,,,09,,,,2.4,136*73
$GLGMP,092952.00,,,,,,06,,,,,*7C
$GAGMP,092952.00,,,,,,07,,,,,*70
$GBGMP,092952.00,,,,,,12,,,,,*77
$PSSN,SNC,[0,293410000,2347]*49
$GPZDA,092957.00,01,01,2025,,*63
$GPDTM,W84,,00.0000000,N,00.0000000,E,00.0000000,W84*5F
$PSSN,TFM,092957.00,,,,*6F
$GPRMC,092957.00,A,4742.1599938,N,01618.1001745,E,0.0,,010125,5.1,E,D*16
$GPGLL,4742.1599938,N,01618.1001745,E,092957.00,A,D*67
$GPGGA,092957.00,4742.1599938,N,01618.1001745,E,2,34,0.5,709.0472,M,43.2066,M,3.0,0136*45
$GNGNS,092957.00,4742.1599938,N,01618.1001745,E,DAAA,34,0.5,709.0472,43.2066,,*5E
$GPGNS,092957.00,,,,,,09,,,,3.0,136*73
$GLGNS,092957.00,,,,,,06,,,,,*79
$GAGNS,092957.00,,,,,,07,,,,,*75
$GBGNS,092957.00,,,,,,12,,,,,*72
$GPLLQ,092957.00,010125,,M,,M,1,34,0.954,,M*1E
$GPVTG,,T,,M,0.00,N,0.00,K,D*26
$GPHDT,,T*1B
$GPTHS,,V*0E
$GPROT,,V*08
$PSSN,HRP,092957.00,010125,,,,,,,00,0,,*61
$PTNL,AVR,092957.00,,Yaw,,Tilt,,,,0,,00*37
$GPGSA,A,3,05,13,14,15,17,19,23,24,30,,,,0.8,0.5,0.6*35
$GPGSA,A,3,65,66,67,75,76,77,,,,,,,0.8,0.5,0.6*38
$GPGSA,A,3,02,03,07,08,24,25,30,,,,,,0.8,0.5,0.6*35
$GPGSA,A,3,05,07,10,14,21,26,33,36,40,42,45,60,0.8,0.5,0.6*38
$GPGST,092957.00,2.207,0.500,0.302,10.936,0.495,0.312,0.753*60
$GPGBS,092957.00,3.103,1.684,5.008,67,0.0001,8.142,6.272*56
$GPGRS,092957.00,1,-0.4,-0.0,0.1,0.2,-0.3,0.4,0.1,-0.2,-0.4,,,*4A
$GPGRS,092957.00,1,0.6,-0.2,8.1,-1.5,-0.5,-6.2,,,,,,*46
$GPGRS,092957.00,1,0.1,-0.0,0.9,-0.1,0.6,0.2,-0.3,,,,,*43
$GPGRS,092957.00,1,0.9,0.6,0.7,2.8,-0.1,0.4,-0.0,0.3,-1.6,0.2,-1.0,-3.0*60
$GPGSV,5,1,19,13,75,148,49,05,18,212,43,30,24,085,42,19,15,143,40*7F
$GPGSV,5,2,19,24,28,279,43,23,22,313,41,17,29,113,45,14,53,063,47*7E
$GPGSV,5,3,19,15,63,280,49,22,71,094,,36,35,170,44,58,13,245,36*76
$GPGSV,5,4,19,40,23,133,36,34,31,208,42,49,34,195,44,57,07,112,36*7D
$GPGSV,5,5,19,41,07,108,35,61,03,257,38*73
$GLGSV,3,1,09,66,66,299,53,84,13,040,33,67,16,329,46,77,18,240,40*67
$GLGSV,3,2,09,65,50,178,49,75,47,041,49,76,64,258,52,83,03,342,32*66
$GLGSV,3,3,09,85,04,088,42*53
$GAGSV,3,1,11,08,64,298,48,24,11,045,37,07,13,309,39,16,35,052,*6F
$GAGSV,3,2,11,02,57,195,48,03,58,144,48,25,59,066,47,05,08,134,34*6F
$GAGSV,3,3,11,26,01,314,34,30,08,216,38,33,03,358,34*53
$GBGSV,5,1,20,26,64,254,50,33,15,322,41,25,12,238,,05,20,130,38*6C
$GBGSV,5,2,20,40,28,049,44,21,43,190,49,14,37,307,44,07,29,059,40*6D
$GBGSV,5,3,20,56,31,082,,10,36,072,41,50,56,224,,42,55,275,49*69
$GBGSV,5,4,20,45,55,061,48,24,62,234,,22,01,162,,29,06,048,*60
$GBGSV,5,5,20,09,03,088,35,02,04,109,31,36,07,065,39,60,07,112,40*65
$GPGGA,092957.00,,,,,0,00,,,M,,M,,*48
$PTNL,GGK,092957.00,010125,4742.1599938,N,01618.1001745,E,1,34,0.8,EHT752.2537,M*4D
$GPGGQ,092957.00,010125,4742.1599938,N,01618.1001745,E,1,34,0.954,709.0472,M*3F
$GPGFA,092957.00,4.756,6.178,0.500,0.302,10.936,0.753,,VVV*33
$GPLLK,092957.00,010125,,M,,M,1,34,0.9,,M*05
$GNGMP,092957.00,,,,,DAAA,34,0.5,,,,*54
$GPGMP,092957.00,,,,,,09,,,,3.0,136*73
$GLGMP,092957.00,,,,,,06,,,,,*79
$GAGMP,092957.00,,,,,,07,,,,,*75
$GBGMP,092957.00,,,,,,12,,,,,*72
$PSSN,SNC,[0,293415000,2347]*4C
$GPZDA,093002.00,01,01,2025,,*6B
$GPDTM,W84,,00.0000000,N,00.0000000,E,00.0000000,W84*5F
$PSSN,TFM,093002.00,,,,*67
$GPRMC,093002.00,A,4742.1599931,N,01618.1001759,E,0.0,,010125,5.1,E,D*1A
$GPGLL,4742.1599931,N,01618.1001759,E,093002.00,A,D*6B
$GPGGA,093002.00,4742.1599931,N,01618.1001759,E,2,34,0.5,709.0444,M,43.2066,M,1.8,0136*46
$GNGNS,093002.00,4742.1599931,N,01618.1001759,E,DAAA,34,0.5,709.0444,43.2066,,*57
$GPGNS,093002.00,,,,,,09,,,,1.8,136*71
$GLGNS,093002.00,,,,,,06,,,,,*71
$GAGNS,093002.00,,,,,,07,,,,,*7D
$GBGNS,093002.00,,,,,,12,,,,,*7A
$GPLLQ,093002.00,010125,,M,,M,1,34,0.956,,M*14
$GPVTG,,T,,M,0.01,N,0.01,K,D*26
$GPHDT,,T*1B
$GPTHS,,V*0E
$GPROT,,V*08
$PSSN,HRP,093002.00,010125,,,,,,,00,0,,*69
$PTNL,AVR,093002.00,,Yaw,,Tilt,,,,0,,00*3F
$GPGSA,A,3,05,13,14,15,17,19,23,24,30,,,,0.8,0.5,0.6*35
$GPGSA,A,3,65,66,67,75,76,77,,,,,,,0.8,0.5,0.6*38
$GPGSA,A,3,02,03,07,08,24,25,30,,,,,,0.8,0.5,0.6*35
$GPGSA,A,3,05,07,10,14,21,26,33,36,40,42,45,60,0.8,0.5,0.6*38
$GPGST,093002.00,2.351,0.503,0.301,11.278,0.497,0.311,0.755*6D
$GPGBS,093002.00,3.094,1.643,4.757,67,0.0001,9.246,6.271*53
$GPGRS,093002.00,1,-0.3,0.2,0.0,-0.0,-0.0,0.6,0.4,-0.3,-0.4,,,*41
$GPGRS,093002.00,1,1.0,-0.8,9.2,-1.6,-0.4,-6.2,,,,,,*43
$GPGRS,093002.00,1,0.2,0.1,0.9,-0.1,0.8,0.0,-0.2,,,,,*69
$GPGRS,093002.00,1,1.3,0.0,0.8,2.3,0.0,0.5,-0.2,0.3,-1.7,0.1,-0.7,-2.8*43
$GPGSV,5,1,19,13,75,148,49,05,17,212,42,30,24,085,42,19,15,143,40*71
$GPGSV,5,2,19,24,28,279,42,23,22,313,41,17,29,113,45,14,53,063,47*7F
$GPGSV,5,3,19,15,63,280,49,22,71,093,,36,35,170,44,58,13,245,36*71
$GPGSV,5,4,19,40,23,133,36,34,31,208,42,49,34,195,44,57,07,112,36*7D
$GPGSV,5,5,19,41,07,108,35,61,03,257,38*73
$GLGSV,3,1,09,66,66,299,52,84,13,040,33,67,16,329,46,77,18,240,40*66
$GLGSV,3,2,09,65,50,178,48,75,47,041,49,76,64,258,52,83,03,342,32*67
$GLGSV,3,3,09,85,04,088,41*50
$GAGSV,3,1,11,08,64,298,48,24,11,045,37,07,13,309,39,16,35,052,*6F
$GAGSV,3,2,11,02,57,195,48,03,58,144,48,25,59,066,47,05,08,134,34*6F
$GAGSV,3,3,11,26,01,314,36,30,08,216,38,33,03,358,34*51
$GBGSV,5,1,20,26,64,254,50,33,15,322,40,25,12,238,,05,20,130,38*6D
$GBGSV,5,2,20,40,28,049,44,21,43,190,49,14,37,307,44,07,29,059,40*6D
$GBGSV,5,3,20,56,31,082,,10,36,072,41,50,56,224,,42,55,275,49*69
$GBGSV,5,4,20,45,55,061,49,24,62,234,,22,01,162,,29,06,048,*61
$GBGSV,5,5,20,09,03,088,34,02,04,109,31,36,06,065,39,60,07,112,39*6B
$GPGGA,093002.00,,,,,0,00,,,M,,M,,*40
$PTNL,GGK,093002.00,010125,4742.1599931,N,01618.1001759,E,1,34,0.8,EHT752.2510,M*44
$GPGGQ,093002.00,010125,4742.1599931,N,01618.1001759,E,1,34,0.956,709.0444,M*34
$GPGFA,093002.00,4.781,6.192,0.503,0.301,11.278,0.755,,VVV*33
$GPLLK,093002.00,010125,,M,,M,1,34,0.9,,M*0D
$GNGMP,093002.00,,,,,DAAA,34,0.5,,,,*5C
$GPGMP,093002.00,,,,,,09,,,,1.8,136*71
$GLGMP,093002.00,,,,,,06,,,,,*71
$GAGMP,093002.00,,,,,,07,,,,,*7D
$GBGMP,093002.00,,,,,,12,,,,,*7A
$PSSN,SNC,[0,293420000,2347]*4A
$GPZDA,093007.00,01,01,2025,,*6E
$GPDTM,W84,,00.0000000,N,00.0000000,E,00.0000000,W84*5F
$PSSN,TFM,093007.00,,,,*62
$GPRMC,093007.00,A,4742.1599915,N,01618.1001729,E,0.0,,010125,5.1,E,D*1E
$GPGLL,4742.1599915,N,01618.1001729,E,093007.00,A,D*6F
$GPGGA,093007.00,4742.1599915,N,01618.1001729,E,2,34,0.5,709.0465,M,43.2066,M,2.8,0136*42
$GNGNS,093007.00,4742.1599915,N,01618.1001729,E,DAAA,34,0.5,709.0465,43.2066,,*50
$GPGNS,093007.00,,,,,,09,,,,2.8,136*77
$GLGNS,093007.00,,,,,,06,,,,,*74
$GAGNS,093007.00,,,,,,07,,,,,*78
$GBGNS,093007.00,,,,,,12,,,,,*7F
$GPLLQ,093007.00,010125,,M,,M,1,34,0.953,,M*14
$GPVTG,,T,,M,0.00,N,0.01,K,D*27
$GPHDT,,T*1B
$GPTHS,,V*0E
$GPROT,,V*08
$PSSN,HRP,093007.00,010125,,,,,,,00,0,,*6C
$PTNL,AVR,093007.00,,Yaw,,Tilt,,,,0,,00*3A
$GPGSA,A,3,05,13,14,15,17,19,23,24,30,,,,0.8,0.5,0.6*35
$GPGSA,A,3,65,66,67,75,76,77,,,,,,,0.8,0.5,0.6*38
$GPGSA,A,3,02,03,07,08,24,25,30,,,,,,0.8,0.5,0.6*35
$GPGSA,A,3,05,07,10,14,21,26,33,36,40,42,45,60,0.8,0.5,0.6*38
$GPGST,093007.00,2.468,0.504,0.297,12.199,0.497,0.309,0.753*6C
$GPGBS,093007.00,3.135,1.670,4.822,67,0.0001,9.494,6.270*59
$GPGRS,093007.00,1,-0.7,0.5,0.0,-0.1,-0.0,0.8,0.6,-0.8,-0.3,,,*46
$GPGRS,093007.00,1,0.3,-1.0,9.5,-1.3,-0.3,-6.9,,,,,,*43
$GPGRS,093007.00,1,0.3,-0.1,0.6,0.1,0.9,0.2,0.0,,,,,*4E
$GPGRS,093007.00,1,1.4,0.0,1.2,1.8,-0.1,0.5,0.5,0.2,-1.7,0.2,-0.6,-3.0*4E
$GPGSV,5,1,19,13,75,148,49,05,17,212,41,30,24,085,42,19,15,143,40*72
$GPGSV,5,2,19,24,28,279,42,23,22,312,42,17,29,113,45,14,53,063,47*7D
$GPGSV,5,3,19,15,63,280,49,22,71,093,,36,35,170,44,58,13,245,36*71
$GPGSV,5,4,19,40,23,133,36,34,31,208,42,49,34,195,44,57,07,112,36*7D
$GPGSV,5,5,19,41,07,108,34,61,03,257,38*72
$GLGSV,3,1,09,66,66,299,52,84,13,040,33,67,16,329,45,77,18,240,39*6B
$GLGSV,3,2,09,65,50,178,48,75,47,041,50,76,64,258,52,83,03,342,33*6E
$GLGSV,3,3,09,85,04,088,41*50
$GAGSV,3,1,11,08,64,298,48,24,11,045,37,07,13,309,39,16,35,052,*6F
$GAGSV,3,2,11,02,57,195,48,03,58,144,48,25,59,066,47,05,08,134,34*6F
$GAGSV,3,3,11,26,01,314,36,30,08,216,38,33,03,358,35*50
$GBGSV,5,1,20,26,64,254,50,33,15,322,41,25,12,238,,05,20,130,38*6C
$GBGSV,5,2,20,40,28,048,44,21,43,190,49,14,37,307,44,07,29,059,40*6C
$GBGSV,5,3,20,56,31,082,,10,36,072,41,50,56,224,,42,55,275,49*69
$GBGSV,5,4,20,45,55,061,49,24,62,234,,22,01,162,,29,06,048,*61
$GBGSV,5,5,20,09,03,088,34,02,04,109,31,36,06,065,39,60,07,112,39*6B
$GPGGA,093007.00,,,,,0,00,,,M,,M,,*45
$PTNL,GGK,093007.00,010125,4742.1599915,N,01618.1001729,E,1,34,0.8,EHT752.2530,M*42
$GPGGQ,093007.00,010125,4742.1599915,N,01618.1001729,E,1,34,0.953,709.0465,M*36
$GPGFA,093007.00,4.793,6.172,0.504,0.297,12.199,0.753,,VVV*3B
$GPLLK,093007.00,010125,,M,,M,1,34,0.9,,M*08
$GNGMP,093007.00,,,,,DAAA,34,0.5,,,,*59
$GPGMP,093007.00,,,,,,09,,,,2.8,136*77
$GLGMP,093007.00,,,,,,06,,,,,*74
$GAGMP,093007.00,,,,,,07,,,,,*78
$GBGMP,093007.00,,,,,,12,,,,,*7F
$PSSN,SNC,[0,293425000,2347]*4F
$GPZDA,093012.00,01,01,2025,,*6A
$GPDTM,W84,,00.0000000,N,00.0000000,E,00.0000000,W84*5F
$PSSN,TFM,093012.00,,,,*66
$GPRMC,093012.00,A,4742.1599899,N,01618.1001720,E,0.0,,010125,5.1,E,D*16
$GPGLL,4742.1599899,N,01618.1001720,E,093012.00,A,D*67
$GPGGA,093012.00,4742.1599899,N,01618.1001720,E,2,34,0.5,709.0440,M,43.2066,M,2.4,0136*41
$GNGNS,093012.00,4742.1599899,N,01618.1001720,E,DAAA,34,0.5,709.0440,43.2066,,*5F
$GPGNS,093012.00,,,,,,09,,,,2.4,136*7F
$GLGNS,093012.00,,,,,,06,,,,,*70
$GAGNS,093012.00,,,,,,07,,,,,*7C
$GBGNS,093012.00,,,,,,12,,,,,*7B
$GPLLQ,093012.00,010125,,M,,M,1,34,0.969,,M*19
$GPVTG,,T,,M,0.01,N,0.01,K,D*26
$GPHDT,,T*1B
$GPTHS,,V*0E
$GPROT,,V*08
$PSSN,HRP,093012.00,010125,,,,,,,00,0,,*68
$PTNL,AVR,093012.00,,Yaw,,Tilt,,,,0,,00*3E
$GPGSA,A,3,05,13,14,15,17,19,23,24,30,,,,0.8,0.5,0.6*35
$GPGSA,A,3,65,66,67,75,76,77,,,,,,,0.8,0.5,0.6*38
$GPGSA,A,3,02,03,07,08,24,25,30,,,,,,0.8,0.5,0.6*35
$GPGSA,A,3,05,07,10,14,21,26,33,36,40,42,45,60,0.8,0.5,0.6*38
$GPGST,093012.00,2.503,0.510,0.304,11.780,0.503,0.315,0.765*63
$GPGBS,093012.00,3.067,1.632,4.929,77,0.0001,-8.403,6.240*77
$GPGRS,093012.00,1,-0.8,0.4,-0.0,0.2,-0.7,0.7,0.7,0.2,-0.6,,,*64
$GPGRS,093012.00,1,-0.2,-0.9,8.4,-1.4,-0.2,-8.4,,,,,,*66
$GPGRS,093012.00,1,0.3,-0.2,0.5,0.0,0.6,0.3,0.3,,,,,*46
$GPGRS,093012.00,1,0.9,0.3,1.3,2.2,-0.1,0.5,0.4,0.5,-1.9,0.2,-0.9,-3.0*4A
$GPGSV,5,1,19,13,75,148,49,05,17,212,41,30,24,085,41,19,15,143,40*71
$GPGSV,5,2,19,24,28,279,42,23,22,312,41,17,29,113,45,14,53,063,47*7E
$GPGSV,5,3,19,15,63,280,49,22,71,093,,36,35,170,44,58,13,245,36*71
$GPGSV,5,4,19,40,23,133,36,34,31,208,42,49,34,195,44,57,07,112,37*7C
$GPGSV,5,5,19,41,07,108,35,61,03,257,38*73
$GLGSV,3,1,09,66,66,299,52,84,13,040,33,67,16,329,45,77,18,240,40*65
$GLGSV,3,2,09,65,50,178,49,75,47,041,50,76,64,258,52,83,03,342,32*6E
$GLGSV,3,3,09,85,04,088,40*51
$GAGSV,3,1,11,08,64,298,48,24,11,045,37,07,13,309,38,16,35,052,*6E
$GAGSV,3,2,11,02,57,195,48,03,58,144,48,25,59,066,47,05,08,134,34*6F
$GAGSV,3,3,11,26,01,314,36,30,08,216,38,33,03,358,35*50
$GBGSV,5,1,20,26,64,254,50,33,15,322,41,25,12,238,,05,20,130,38*6C
$GBGSV,5,2,20,40,28,048,44,21,43,190,49,14,37,307,44,07,29,059,41*6D
$GBGSV,5,3,20,56,31,082,,10,36,072,42,50,56,224,,42,55,275,50*62
$GBGSV,5,4,20,45,55,061,49,24,62,234,,22,01,162,,29,06,048,*61
$GBGSV,5,5,20,09,03,088,34,02,04,109,32,36,06,065,39,60,07,112,40*66
$GPGGA,093012.00,,,,,0,00,,,M,,M,,*41
$PTNL,GGK,093012.00,010125,4742.1599899,N,01618.1001720,E,1,34,0.8,EHT752.2505,M*4C
$GPGGQ,093012.00,010125,4742.1599899,N,01618.1001720,E,1,34,0.969,709.0440,M*30
$GPGFA,093012.00,4.852,6.275,0.510,0.304,11.780,0.765,,VVV*3F
$GPLLK,093012.00,010125,,M,,M,1,34,0.9,,M*0C
$GNGMP,093012.00,,,,,DAAA,34,0.5,,,,*5D
$GPGMP,093012.00,,,,,,09,,,,2.4,136*7F
$GLGMP,093012.00,,,,,,06,,,,,*70
$GAGMP,093012.00,,,,,,07,,,,,*7C
$GBGMP,093012.00,,,,,,12,,,,,*7B
$PSSN,SNC,[0,293430000,2347]*4B
$GPZDA,093017.00,01,01,2025,,*6F
$GPDTM,W84,,00.0000000,N,00.0000000,E,00.0000000,W84*5F
$PSSN,TFM,093017.00,,,,*63
$GPRMC,093017.00,A,4742.1599854,N,01618.1001811,E,0.0,,010125,5.1,E,D*1F
$GPGLL,4742.1599854,N,01618.1001811,E,093017.00,A,D*6E
$GPGGA,093017.00,4742.1599854,N,01618.1001811,E,2,34,0.5,709.0392,M,43.2066,M,3.0,0136*45
$GNGNS,093017.00,4742.1599854,N,01618.1001811,E,DAAA,34,0.5,709.0392,43.2066,,*5E
$GPGNS,093017.00,,,,,,09,,,,3.0,136*7F
$GLGNS,093017.00,,,,,,06,,,,,*75
$GAGNS,093017.00,,,,,,07,,,,,*79
$GBGNS,093017.00,,,,,,12,,,,,*7E
$GPLLQ,093017.00,010125,,M,,M,1,34,0.954,,M*12
$GPVTG,,T,,M,0.00,N,0.01,K,D*27
$GPHDT,,T*1B
$GPTHS,,V*0E
$GPROT,,V*08
$PSSN,HRP,093017.00,010125,,,,,,,00,0,,*6D
$PTNL,AVR,093017.00,,Yaw,,Tilt,,,,0,,00*3B
$GPGSA,A,3,05,13,14,15,17,19,23,24,30,,,,0.8,0.5,0.6*35
$GPGSA,A,3,65,66,67,75,76,77,,,,,,,0.8,0.5,0.6*38
$GPGSA,A,3,02,03,07,08,24,25,30,,,,,,0.8,0.5,0.6*35
$GPGSA,A,3,05,07,10,14,21,26,33,36,40,42,45,60,0.8,0.5,0.6*38
$GPGST,093017.00,2.433,0.500,0.302,10.954,0.495,0.312,0.754*6E
$GPGBS,093017.00,3.100,1.677,5.006,77,0.0001,-8.489,6.239*7A
$GPGRS,093017.00,1,-0.1,0.3,-0.1,0.1,-0.9,0.4,0.3,0.3,-0.5,,,*66
$GPGRS,093017.00,1,-0.0,-1.0,7.9,-1.4,0.1,-8.5,,,,,,*44
$GPGRS,093017.00,1,0.0,-0.4,0.6,-0.2,0.6,0.4,0.4,,,,,*6A
$GPGRS,093017.00,1,0.9,0.2,1.3,1.9,0.0,0.4,-0.0,0.5,-1.8,0.1,-0.7,-3.1*4F
$GPGSV,5,1,19,13,75,148,49,05,17,212,42,30,24,085,42,19,15,143,40*71
$GPGSV,5,2,19,24,28,279,43,23,22,312,42,17,29,113,45,14,53,063,47*7C
$GPGSV,5,3,19,15,63,280,49,22,71,093,,36,35,170,44,58,13,245,36*71
$GPGSV,5,4,19,40,23,133,36,34,31,208,42,49,34,195,44,57,07,112,36*7D
$GPGSV,5,5,19,41,07,108,35,61,03,257,38*73
$GLGSV,3,1,09,66,66,299,52,84,13,040,32,67,16,329,45,77,19,240,40*65
$GLGSV,3,2,09,65,49,178,49,75,47,041,49,76,64,258,52,83,03,342,32*6E
$GLGSV,3,3,09,85,04,088,40*51
$GAGSV,3,1,11,08,64,298,48,24,11,045,38,07,13,309,38,16,35,052,*61
$GAGSV,3,2,11,02,58,195,48,03,58,144,48,25,59,066,47,05,08,134,34*60
$GAGSV,3,3,11,26,01,313,36,30,08,216,38,33,03,358,35*57
$GBGSV,5,1,20,26,64,254,50,33,15,322,40,25,12,238,,05,20,130,38*6D
$GBGSV,5,2,20,40,28,048,44,21,43,190,49,14,37,307,44,07,29,059,40*6C
$GBGSV,5,3,20,56,31,082,,10,36,072,42,50,56,224,,42,55,275,50*62
$GBGSV,5,4,20,45,55,061,49,24,62,234,,22,01,162,,29,06,048,*61
$GBGSV,5,5,20,09,03,088,34,02,04,109,31,36,06,065,38,60,07,112,39*6A
$GPGGA,093017.00,,,,,0,00,,,M,,M,,*44
$PTNL,GGK,093017.00,010125,4742.1599854,N,01618.1001811,E,1,34,0.8,EHT752.2458,M*4C
$GPGGQ,093017.00,010125,4742.1599854,N,01618.1001811,E,1,34,0.954,709.0392,M*3F
$GPGFA,093017.00,4.758,6.184,0.500,0.302,10.954,0.754,,VVV*31
$GPLLK,093017.00,010125,,M,,M,1,34,0.9,,M*09
$GNGMP,093017.00,,,,,DAAA,34,0.5,,,,*58
$GPGMP,093017.00,,,,,,09,,,,3.0,136*7F
$GLGMP,093017.00,,,,,,06,,,,,*75
$GAGMP,093017.00,,,,,,07,,,,,*79
$GBGMP,093017.00,,,,,,12,,,,,*7E
$PSSN,SNC,[0,293435000,2347]*4E
$GPZDA,093022.00,01,01,2025,,*69
$GPDTM,W84,,00.0000000,N,00.0000000,E,00.0000000,W84*5F
$PSSN,TFM,093022.00,,,,*65
$GPRMC,093022.00,A,4742.1599853,N,01618.1001855,E,0.0,,010125,5.1,E,D*1E
$GPGLL,4742.1599853,N,01618.1001855,E,093022.00,A,D*6F
$GPGGA,093022.00,4742.1599853,N,01618.1001855,E,2,34,0.5,709.0400,M,43.2066,M,1.8,0136*42
$GNGNS,093022.00,4742.1599853,N,01618.1001855,E,DAAA,34,0.5,709.0400,43.2066,,*53
$GPGNS,093022.00,,,,,,09,,,,1.8,136*73
$GLGNS,093022.00,,,,,,06,,,,,*73
$GAGNS,093022.00,,,,,,07,,,,,*7F
$GBGNS,093022.00,,,,,,12,,,,,*78
$GPLLQ,093022.00,010125,,M,,M,1,34,0.956,,M*16
$GPVTG,,T,,M,0.00,N,0.01,K,D*27
$GPHDT,,T*1B
$GPTHS,,V*0E
$GPROT,,V*08
$PSSN,HRP,093022.00,010125,,,,,,,00,0,,*6B
$PTNL,AVR,093022.00,,Yaw,,Tilt,,,,0,,00*3D
$GPGSA,A,3,05,13,14,15,17,19,23,24,30,,,,0.8,0.5,0.6*35
$GPGSA,A,3,65,66,67,75,76,77,,,,,,,0.8,0.5,0.6*38
$GPGSA,A,3,02,03,07,08,24,25,30,,,,,,0.8,0.5,0.6*35
$GPGSA,A,3,05,07,10,14,21,26,33,36,40,42,45,60,0.8,0.5,0.6*38
$GPGST,093022.00,2.352,0.503,0.301,11.292,0.497,0.311,0.756*6B
$GPGBS,093022.00,3.092,1.636,4.754,67,0.0001,8.253,6.269*5A
$GPGRS,093022.00,1,0.1,0.2,-0.1,0.1,-0.4,0.2,0.1,0.2,-0.5,,,*44
$GPGRS,093022.00,1,-0.0,-1.2,8.3,-0.9,0.1,-7.6,,,,,,*45
$GPGRS,093022.00,1,0.3,-0.1,0.7,-0.3,1.1,0.2,0.0,,,,,*6E
$GPGRS,093022.00,1,1.2,0.3,1.4,1.8,-0.0,0.3,0.3,0.7,-1.8,0.1,-0.6,-2.8*4B
$GPGSV,5,1,19,13,75,148,49,05,17,212,42,30,24,085,42,19,16,143,40*72
$GPGSV,5,2,19,24,28,279,42,23,22,312,42,17,29,113,45,14,53,063,47*7D
$GPGSV,5,3,19,15,63,280,49,22,71,093,,36,35,170,44,58,13,245,36*71
$GPGSV,5,4,19,40,23,133,36,34,31,208,42,49,34,195,44,57,07,112,37*7C
$GPGSV,5,5,19,41,07,108,35,61,03,257,38*73
$GLGSV,3,1,09,66,66,299,52,84,13,039,32,67,16,329,45,77,19,240,40*6B
$GLGSV,3,2,09,65,49,178,48,75,47,041,50,76,65,258,52,83,02,342,32*67
$GLGSV,3,3,09,85,04,088,40*51
$GAGSV,3,1,11,08,64,298,48,24,11,045,38,07,13,309,38,16,35,052,*61
$GAGSV,3,2,11,02,58,195,48,03,58,144,48,25,59,066,47,05,08,134,34*60
$GAGSV,3,3,11,26,01,313,36,30,08,216,38,33,03,358,34*56
$GBGSV,5,1,20,26,64,254,50,33,15,322,41,25,12,238,,05,20,130,38*6C
$GBGSV,5,2,20,40,28,048,44,21,43,190,49,14,37,306,44,07,29,059,41*6C
$GBGSV,5,3,20,56,31,082,,10,36,072,42,50,56,223,,42,55,275,50*65
$GBGSV,5,4,20,45,54,061,49,24,62,234,,22,01,162,,29,06,048,*60
$GBGSV,5,5,20,09,03,088,34,02,04,109,31,36,06,065,38,60,07,112,40*64
$GPGGA,093022.00,,,,,0,00,,,M,,M,,*42
$PTNL,GGK,093022.00,010125,4742.1599853,N,01618.1001855,E,1,34,0.8,EHT752.2465,M*43
$GPGGQ,093022.00,010125,4742.1599853,N,01618.1001855,E,1,34,0.956,709.0400,M*30
$GPGFA,093022.00,4.782,6.198,0.503,0.301,11.292,0.756,,VVV*3F
$GPLLK,093022.00,010125,,M,,M,1,34,0.9,,M*0F
$GNGMP,093022.00,,,,,DAAA,34,0.5,,,,*5E
$GPGMP,093022.00,,,,,,09,,,,1.8,136*73
$GLGMP,093022.00,,,,,,06,,,,,*73
$GAGMP,093022.00,,,,,,07,,,,,*7F
$GBGMP,093022.00,,,,,,12,,,,,*78
$PSSN,SNC,[0,293440000,2347]*4C
$GPZDA,093027.00,01,01,2025,,*6C
$GPDTM,W84,,00.0000000,N,00.0000000,E,00.0000000,W84*5F
$PSSN,TFM,093027.00,,,,*60
$GPRMC,093027.00,A,4742.1599833,N,01618.1001873,E,0.0,,010125,5.1,E,D*19
$GPGLL,4742.1599833,N,01618.1001873,E,093027.00,A,D*68
$GPGGA,093027.00,4742.1599833,N,01618.1001873,E,2,34,0.5,709.0380,M,43.2066,M,2.8,0136*49
$GNGNS,093027.00,4742.1599833,N,01618.1001873,E,DAAA,34,0.5,709.0380,43.2066,,*5B
$GPGNS,093027.00,,,,,,09,,,,2.8,136*75
$GLGNS,093027.00,,,,,,06,,,,,*76
$GAGNS,093027.00,,,,,,07,,,,,*7A
$GBGNS,093027.00,,,,,,12,,,,,*7D
$GPLLQ,093027.00,010125,,M,,M,1,34,0.954,,M*11
$GPVTG,,T,,M,0.00,N,0.00,K,D*26
$GPHDT,,T*1B
$GPTHS,,V*0E
$GPROT,,V*08
$PSSN,HRP,093027.00,010125,,,,,,,00,0,,*6E
$PTNL,AVR,093027.00,,Yaw,,Tilt,,,,0,,00*38
$GPGSA,A,3,05,13,14,15,17,19,23,24,30,,,,0.8,0.5,0.6*35
$GPGSA,A,3,65,66,67,75,76,77,,,,,,,0.8,0.5,0.6*38
$GPGSA,A,3,02,03,07,08,24,25,30,,,,,,0.8,0.5,0.6*35
$GPGSA,A,3,05,07,10,14,21,26,33,36,40,42,45,60,0.8,0.5,0.6*38
$GPGST,093027.00,2.268,0.504,0.297,12.202,0.497,0.309,0.753*69
$GPGBS,093027.00,3.131,1.664,4.820,77,0.0001,-7.745,6.238*79
$GPGRS,093027.00,1,-0.2,0.3,0.1,-0.1,-0.5,0.5,0.3,-0.0,-0.2,,,*42
$GPGRS,093027.00,1,0.3,-0.9,7.5,-1.0,0.1,-7.7,,,,,,*64
$GPGRS,093027.00,1,0.2,-0.3,0.3,-0.2,0.8,-0.0,-0.1,,,,,*66
$GPGRS,093027.00,1,1.1,0.5,1.2,1.8,-0.2,0.3,0.3,0.2,-1.9,0.1,-1.0,-2.9*4D
$GPGSV,5,1,19,13,75,148,49,05,17,212,42,30,24,085,42,19,16,143,40*72
$GPGSV,5,2,19,24,28,279,42,23,22,312,42,17,29,113,45,14,53,063,47*7D
$GPGSV,5,3,19,15,63,280,49,22,71,093,,36,35,170,44,58,13,245,36*71
$GPGSV,5,4,19,40,23,133,36,34,31,208,42,49,34,195,44,57,07,112,37*7C
$GPGSV,5,5,19,41,07,108,35,61,03,257,38*73
$GLGSV,3,1,09,66,66,299,52,84,13,039,32,67,16,329,46,77,19,240,40*68
$GLGSV,3,2,09,65,49,178,49,75,47,041,50,76,65,258,53,83,02,342,32*67
$GLGSV,3,3,09,85,04,088,40*51
$GAGSV,3,1,11,08,64,298,48,24,11,045,38,07,13,309,38,16,35,052,*61
$GAGSV,3,2,11,02,58,195,48,03,58,144,48,25,59,066,47,05,08,134,34*60
$GAGSV,3,3,11,26,01,313,35,30,08,216,38,33,03,358,35*54
$GBGSV,5,1,20,26,64,254,50,33,15,322,41,25,12,238,,05,20,130,38*6C
$GBGSV,5,2,20,40,28,048,43,21,42,190,48,14,37,306,44,07,29,059,41*6B
$GBGSV,5,3,20,56,31,082,,10,36,072,42,50,56,223,,42,55,275,50*65
$GBGSV,5,4,20,45,54,061,49,24,62,234,,22,01,162,,29,06,048,*60
$GBGSV,5,5,20,09,03,088,34,02,04,109,31,36,06,065,37,60,07,112,39*65
$GPGGA,093027.00,,,,,0,00,,,M,,M,,*47
$PTNL,GGK,093027.00,010125,4742.1599833,N,01618.1001873,E,1,34,0.8,EHT752.2445,M*46
$GPGGQ,093027.00,010125,4742.1599833,N,01618.1001873,E,1,34,0.954,709.0380,M*3A
$GPGFA,093027.00,4.793,6.178,0.504,0.297,12.202,0.753,,VVV*32
$GPLLK,093027.00,010125,,M,,M,1,34,0.9,,M*0A
$GNGMP,093027.00,,,,,DAAA,34,0.5,,,,*5B
$GPGMP,093027.00,,,,,,09,,,,2.8,136*75
$GLGMP,093027.00,,,,,,06,,,,,*76
$GAGMP,093027.00,,,,,,07,,,,,*7A
$GBGMP,093027.00,,,,,,12,,,,,*7D
$PSSN,SNC,[0,293445000,2347]*49
$GPZDA,093032.00,01,01,2025,,*68
$GPDTM,W84,,00.0000000,N,00.0000000,E,00.0000000,W84*5F
$PSSN,TFM,093032.00,,,,*64
$GPRMC,093032.00,A,4742.1599829,N,01618.1001884,E,0.0,,010125,5.1,E,D*1E
$GPGLL,4742.1599829,N,01618.1001884,E,093032.00,A,D*6F
$GPGGA,093032.00,4742.1599829,N,01618.1001884,E,2,34,0.5,709.0351,M,43.2066,M,2.4,0136*4E
$GNGNS,093032.00,4742.1599829,N,01618.1001884,E,DAAA,34,0.5,709.0351,43.2066,,*50
$GPGNS,093032.00,,,,,,09,,,,2.4,136*7D
$GLGNS,093032.00,,,,,,06,,,,,*72
$GAGNS,093032.00,,,,,,07,,,,,*7E
$GBGNS,093032.00,,,,,,12,,,,,*79
$GPLLQ,093032.00,010125,,M,,M,1,34,0.958,,M*19
$GPVTG,,T,,M,0.01,N,0.01,K,D*26
$GPHDT,,T*1B
$GPTHS,,V*0E
$GPROT,,V*08
$PSSN,HRP,093032.00,010125,,,,,,,00,0,,*6A
$PTNL,AVR,093032.00,,Yaw,,Tilt,,,,0,,00*3C
$GPGSA,A,3,05,13,14,15,17,19,23,24,30,,,,0.8,0.5,0.6*35
$GPGSA,A,3,65,66,67,75,76,77,,,,,,,0.8,0.5,0.6*38
$GPGSA,A,3,02,03,07,08,24,25,30,,,,,,0.8,0.5,0.6*35
$GPGSA,A,3,05,07,10,14,21,26,33,36,40,42,45,60,0.8,0.5,0.6*38
$GPGST,093032.00,2.371,0.505,0.300,11.788,0.498,0.311,0.757*6C
$GPGBS,093032.00,3.062,1.632,4.925,67,0.0001,8.277,6.268*5F
$GPGRS,093032.00,1,-0.2,0.3,0.3,-0.1,-0.3,0.3,-0.3,0.1,-0.2,,,*45
$GPGRS,093032.00,1,0.5,-0.6,8.3,-1.1,0.2,-7.7,,,,,,*62
$GPGRS,093032.00,1,0.3,-0.3,0.4,-0.2,0.6,0.4,-0.5,,,,,*47
$GPGRS,093032.00,1,1.4,0.8,1.0,2.0,-0.1,0.3,-0.2,0.1,-1.5,0.2,-1.0,-3.0*63
$GPGSV,5,1,19,13,75,148,49,05,17,212,41,30,24,085,43,19,16,143,40*70
$GPGSV,5,2,19,24,28,279,43,23,22,312,42,17,29,113,45,14,53,063,47*7C
$GPGSV,5,3,19,15,64,279,49,22,71,093,,36,35,170,44,58,13,245,37*71
$GPGSV,5,4,19,40,23,133,37,34,31,208,42,49,34,195,44,57,07,112,37*7D
$GPGSV,5,5,19,41,07,108,35,61,03,257,38*73
$GLGSV,3,1,09,66,66,299,52,84,13,039,32,67,16,329,46,77,19,240,40*68
$GLGSV,3,2,09,65,49,178,49,75,47,041,50,76,65,258,52,83,02,342,33*67
$GLGSV,3,3,09,85,04,088,41*50
$GAGSV,3,1,11,08,64,297,48,24,11,045,38,07,13,309,38,16,35,052,*6E
$GAGSV,3,2,11,02,58,195,48,03,58,144,48,25,59,066,47,05,08,134,34*60
$GAGSV,3,3,11,26,01,313,35,30,08,216,37,33,03,358,34*5A
$GBGSV,5,1,20,26,64,254,50,33,15,322,41,25,12,238,,05,20,130,38*6C
$GBGSV,5,2,20,40,28,048,43,21,42,190,49,14,37,306,44,07,29,059,41*6A
$GBGSV,5,3,20,56,31,082,,10,36,072,42,50,56,223,,42,55,275,50*65
$GBGSV,5,4,20,45,54,061,49,24,62,234,,22,00,162,,29,06,048,*61
$GBGSV,5,5,20,09,03,088,33,02,04,109,32,36,06,065,37,60,07,112,40*6F
$GPGGA,093032.00,,,,,0,00,,,M,,M,,*43
$PTNL,GGK,093032.00,010125,4742.1599829,N,01618.1001884,E,1,34,0.8,EHT752.2416,M*47
$GPGGQ,093032.00,010125,4742.1599829,N,01618.1001884,E,1,34,0.958,709.0351,M*3D
$GPGFA,093032.00,4.798,6.211,0.505,0.300,11.788,0.757,,VVV*3F
$GPLLK,093032.00,010125,,M,,M,1,34,0.9,,M*0E
$GNGMP,093032.00,,,,,DAAA,34,0.5,,,,*5F
$GPGMP,093032.00,,,,,,09,,,,2.4,136*7D
$GLGMP,093032.00,,,,,,06,,,,,*72
$GAGMP,093032.00,,,,,,07,,,,,*7E
$GBGMP,093032.00,,,,,,12,,,,,*79
$PSSN,SNC,[0,293450000,2347]*4D
$GPZDA,093037.00,01,01,2025,,*6D
$GPDTM,W84,,00.0000000,N,00.0000000,E,00.0000000,W84*5F
$PSSN,TFM,093037.00,,,,*61
$GPRMC,093037.00,A,4742.1599824,N,01618.1001879,E,0.0,,010125,5.1,E,D*14
$GPGLL,4742.1599824,N,01618.1001879,E,093037.00,A,D*65
$GPGGA,093037.00,4742.1599824,N,01618.1001879,E,2,34,0.5,709.0290,M,43.2066,M,3.0,0136*4D
$GNGNS,093037.00,4742.1599824,N,01618.1001879,E,DAAA,34,0.5,709.0290,43.2066,,*56
$GPGNS,093037.00,,,,,,09,,,,3.0,136*7D
$GLGNS,093037.00,,,,,,06,,,,,*77
$GAGNS,093037.00,,,,,,07,,,,,*7B
$GBGNS,093037.00,,,,,,12,,,,,*7C
$GPLLQ,093037.00,010125,,M,,M,1,34,0.958,,M*1C
$GPVTG,,T,,M,0.00,N,0.01,K,D*27
$GPHDT,,T*1B
$GPTHS,,V*0E
$GPROT,,V*08
$PSSN,HRP,093037.00,010125,,,,,,,00,0,,*6F
$PTNL,AVR,093037.00,,Yaw,,Tilt,,,,0,,00*39
$GPGSA,A,3,05,13,14,15,17,19,23,24,30,,,,0.8,0.5,0.6*35
$GPGSA,A,3,65,66,67,75,76,77,,,,,,,0.8,0.5,0.6*38
$GPGSA,A,3,02,03,07,08,24,25,30,,,,,,0.8,0.5,0.6*35
$GPGSA,A,3,05,07,10,14,21,26,33,36,40,42,45,60,0.8,0.5,0.6*38
$GPGST,093037.00,2.547,0.503,0.304,11.052,0.497,0.313,0.757*65
$GPGBS,093037.00,3.092,1.674,5.012,77,0.0001,-9.054,6.261*7C
$GPGRS,093037.00,1,-0.4,0.4,0.0,0.1,-0.4,0.4,-0.1,-0.1,-0.2,,,*40
$GPGRS,093037.00,1,0.4,-0.7,8.2,-1.7,0.2,-9.1,,,,,,*68
$GPGRS,093037.00,1,0.1,-0.3,0.2,-0.1,0.8,0.3,-0.7,,,,,*4E
$GPGRS,093037.00,1,0.9,0.8,1.0,2.5,-0.1,0.3,-0.1,-0.4,-1.3,0.1,-0.8,-2.8*41
$GPGSV,5,1,19,13,75,148,49,05,17,212,40,30,24,085,43,19,16,143,40*71
$GPGSV,5,2,19,24,28,279,42,23,22,312,42,17,29,113,45,14,53,063,47*7D
$GPGSV,5,3,19,15,64,279,49,22,71,093,,36,35,170,44,58,13,245,37*71
$GPGSV,5,4,19,40,23,133,37,34,31,208,42,49,34,195,44,57,07,112,37*7D
$GPGSV,5,5,19,41,07,108,35,61,03,257,38*73
$GLGSV,3,1,09,66,66,298,53,84,13,039,32,67,16,329,45,77,19,240,39*65
$GLGSV,3,2,09,65,49,178,49,75,46,041,50,76,65,258,52,83,02,342,33*66
$GLGSV,3,3,09,85,04,088,41*50
$GAGSV,3,1,11,08,64,297,48,24,11,045,39,07,13,310,39,16,35,052,*66
$GAGSV,3,2,11,02,58,195,48,03,58,144,48,25,59,066,47,05,08,134,34*60
$GAGSV,3,3,11,26,01,313,35,30,08,216,37,33,03,358,35*5B
$GBGSV,5,1,20,26,64,254,50,33,15,322,40,25,12,238,,05,20,130,38*6D
$GBGSV,5,2,20,40,28,048,43,21,42,190,49,14,37,306,44,07,29,059,41*6A
$GBGSV,5,3,20,56,31,082,,10,36,072,42,50,56,223,,42,55,275,50*65
$GBGSV,5,4,20,45,54,061,49,24,62,234,,22,00,162,,29,06,048,*61
$GBGSV,5,5,20,09,03,088,34,02,04,109,31,36,06,065,37,60,07,112,40*6B
$GPGGA,093037.00,,,,,0,00,,,M,,M,,*46
$PTNL,GGK,093037.00,010125,4742.1599824,N,01618.1001879,E,1,34,0.8,EHT752.2355,M*4D
$GPGGQ,093037.00,010125,4742.1599824,N,01618.1001879,E,1,34,0.958,709.0290,M*3B
$GPGFA,093037.00,4.778,6.204,0.503,0.304,11.052,0.757,,VVV*32
$GPLLK,093037.00,010125,,M,,M,1,34,0.9,,M*0B
$GNGMP,093037.00,,,,,DAAA,34,0.5,,,,*5A
$GPGMP,093037.00,,,,,,09,,,,3.0,136*7D
$GLGMP,093037.00,,,,,,06,,,,,*77
$GAGMP,093037.00,,,,,,07,,,,,*7B
$GBGMP,093037.00,,,,,,12,,,,,*7C
$PSSN,SNC,[0,293455000,2347]*48
$GPZDA,093042.00,01,01,2025,,*6F
$GPDTM,W84,,00.0000000,N,00.0000000,E,00.0000000,W84*5F
$PSSN,TFM,093042.00,,,,*63
$GPRMC,093042.00,A,4742.1599823,N,01618.1001880,E,0.0,,010125,5.1,E,D*17
$GPGLL,4742.1599823,N,01618.1001880,E,093042.00,A,D*66
$GPGGA,093042.00,4742.1599823,N,01618.1001880,E,2,34,0.5,709.0229,M,43.2066,M,1.8,0136*46
$GNGNS,093042.00,4742.1599823,N,01618.1001880,E,DAAA,34,0.5,709.0229,43.2066,,*57
$GPGNS,093042.00,,,,,,09,,,,1.8,136*75
$GLGNS,093042.00,,,,,,06,,,,,*75
$GAGNS,093042.00,,,,,,07,,,,,*79
$GBGNS,093042.00,,,,,,12,,,,,*7E
$GPLLQ,093042.00,010125,,M,,M,1,34,0.960,,M*15
$GPVTG,,T,,M,0.00,N,0.00,K,D*26
$GPHDT,,T*1B
$GPTHS,,V*0E
$GPROT,,V*08
$PSSN,HRP,093042.00,010125,,,,,,,00,0,,*6D
$PTNL,AVR,093042.00,,Yaw,,Tilt,,,,0,,00*3B
$GPGSA,A,3,05,13,14,15,17,19,23,24,30,,,,0.8,0.5,0.6*35
$GPGSA,A,3,65,66,67,75,76,77,,,,,,,0.8,0.5,0.6*38
$GPGSA,A,3,02,03,07,08,24,25,30,,,,,,0.8,0.5,0.6*35
$GPGSA,A,3,05,07,10,14,21,26,33,36,40,42,45,60,0.8,0.5,0.6*38
$GPGST,093042.00,2.459,0.505,0.302,11.386,0.499,0.312,0.758*63
$GPGBS,093042.00,3.082,1.632,4.762,77,0.0001,-9.035,6.261*7B
$GPGRS,093042.00,1,0.3,0.4,0.1,0.2,-0.4,0.3,-0.2,-0.1,-0.7,,,*6B
$GPGRS,093042.00,1,-0.3,-0.6,7.7,-1.2,-0.1,-9.0,,,,,,*61
$GPGRS,093042.00,1,0.2,-0.0,0.4,-0.0,0.9,0.4,-0.8,,,,,*42
$GPGRS,093042.00,1,0.9,1.0,0.8,1.6,-0.0,0.4,0.7,-0.2,-1.3,0.1,-0.9,-3.0*60
$GPGSV,5,1,19,13,75,148,49,05,17,212,41,30,24,085,42,19,16,143,40*71
$GPGSV,5,2,19,24,28,279,43,23,22,312,42,17,29,113,45,14,53,063,47*7C
$GPGSV,5,3,19,15,64,279,49,22,71,093,,36,35,170,44,58,13,245,36*70
$GPGSV,5,4,19,40,23,133,37,34,31,208,42,49,34,195,44,57,07,112,37*7D
$GPGSV,5,5,19,41,07,108,35,61,03,257,38*73
$GLGSV,3,1,09,66,66,298,53,84,13,039,33,67,16,329,45,77,19,240,39*64
$GLGSV,3,2,09,65,49,178,48,75,46,041,50,76,65,258,52,83,02,341,33*64
$GLGSV,3,3,09,85,04,088,41*50
$GAGSV,3,1,11,08,64,297,48,24,11,045,38,07,13,310,38,16,35,052,*66
$GAGSV,3,2,11,02,58,195,48,03,58,144,48,25,59,066,47,05,08,134,33*67
$GAGSV,3,3,11,26,01,313,34,30,08,216,36,33,03,358,35*5B
$GBGSV,5,1,20,26,64,254,50,33,15,322,41,25,12,238,,05,20,130,38*6C
$GBGSV,5,2,20,40,28,048,43,21,42,190,49,14,37,306,44,07,29,059,41*6A
$GBGSV,5,3,20,56,31,082,,10,36,072,42,50,56,223,,42,55,275,50*65
$GBGSV,5,4,20,45,54,061,49,24,62,234,,22,00,162,,29,06,048,*61
$GBGSV,5,5,20,09,03,088,34,02,04,109,31,36,06,065,38,60,07,112,39*6A
$GPGGA,093042.00,,,,,0,00,,,M,,M,,*44
$PTNL,GGK,093042.00,010125,4742.1599823,N,01618.1001880,E,1,34,0.8,EHT752.2295,M*43
$GPGGQ,093042.00,010125,4742.1599823,N,01618.1001880,E,1,34,0.960,709.0229,M*31
$GPGFA,093042.00,4.802,6.217,0.505,0.302,11.386,0.758,,VVV*35
$GPLLK,093042.00,010125,,M,,M,1,34,0.9,,M*09
$GNGMP,093042.00,,,,,DAAA,34,0.5,,,,*58
$GPGMP,093042.00,,,,,,09,,,,1.8,136*75
$GLGMP,093042.00,,,,,,06,,,,,*75
$GAGMP,093042.00,,,,,,07,,,,,*79
$GBGMP,093042.00,,,,,,12,,,,,*7E
$PSSN,SNC,[0,293460000,2347]*4E
$GPZDA,093047.00,01,01,2025,,*6A
$GPDTM,W84,,00.0000000,N,00.0000000,E,00.0000000,W84*5F
$PSSN,TFM,093047.00,,,,*66
$GPRMC,093047.00,A,4742.1599829,N,01618.1001909,E,0.0,,010125,5.1,E,D*18
$GPGLL,4742.1599829,N,01618.1001909,E,093047.00,A,D*69
$GPGGA,093047.00,4742.1599829,N,01618.1001909,E,2,34,0.5,709.0170,M,43.2066,M,2.8,0136*45
$GNGNS,093047.00,4742.1599829,N,01618.1001909,E,DAAA,34,0.5,709.0170,43.2066,,*57
$GPGNS,093047.00,,,,,,09,,,,2.8,136*73
$GLGNS,093047.00,,,,,,06,,,,,*70
$GAGNS,093047.00,,,,,,07,,,,,*7C
$GBGNS,093047.00,,,,,,12,,,,,*7B
$GPLLQ,093047.00,010125,,M,,M,1,34,0.957,,M*14
$GPVTG,,T,,M,0.00,N,0.01,K,D*27
$GPHDT,,T*1B
$GPTHS,,V*0E
$GPROT,,V*08
$PSSN,HRP,093047.00,010125,,,,,,,00,0,,*68
$PTNL,AVR,093047.00,,Yaw,,Tilt,,,,0,,00*3E
$GPGSA,A,3,05,13,14,15,17,19,23,24,30,,,,0.8,0.5,0.6*35
$GPGSA,A,3,65,66,67,75,76,77,,,,,,,0.8,0.5,0.6*38
$GPGSA,A,3,02,03,07,08,24,25,30,,,,,,0.8,0.5,0.6*35
$GPGSA,A,3,05,07,10,14,21,26,33,36,40,42,45,60,0.8,0.5,0.6*38
$GPGST,093047.00,2.242,0.506,0.298,12.280,0.499,0.311,0.756*62
$GPGBS,093047.00,3.124,1.660,4.829,67,0.0001,7.654,6.266*50
$GPGRS,093047.00,1,0.5,0.3,0.0,-0.1,-0.4,0.3,-0.2,0.1,-0.6,,,*6C
$GPGRS,093047.00,1,0.1,-0.8,7.7,-1.1,-0.3,-7.5,,,,,,*4F
$GPGRS,093047.00,1,0.3,0.1,0.6,0.0,0.8,0.3,-0.1,,,,,*4A
$GPGRS,093047.00,1,1.2,0.8,0.6,1.7,0.1,0.5,0.8,0.2,-1.1,0.1,-0.9,-2.9*6C
$GPGSV,5,1,19,13,75,148,49,05,17,212,42,30,24,085,41,19,16,143,40*71
$GPGSV,5,2,19,24,28,279,43,23,22,312,42,17,29,113,45,14,53,063,47*7C
$GPGSV,5,3,19,15,64,279,49,22,71,092,,36,35,170,44,58,13,245,36*71
$GPGSV,5,4,19,40,23,133,37,34,31,208,42,49,34,195,44,57,07,112,37*7D
$GPGSV,5,5,19,41,07,108,35,61,03,257,38*73
$GLGSV,3,1,09,66,66,298,53,84,13,039,32,67,16,329,46,77,19,240,40*68
$GLGSV,3,2,09,65,49,178,48,75,46,041,50,76,65,259,52,83,02,341,33*65
$GLGSV,3,3,09,85,04,088,41*50
$GAGSV,3,1,11,08,64,297,48,24,11,045,38,07,13,310,39,16,35,052,*67
$GAGSV,3,2,11,02,58,195,48,03,58,144,48,25,59,066,47,05,08,134,33*67
$GAGSV,3,3,11,26,01,313,35,30,08,216,36,33,03,358,35*5A
$GBGSV,5,1,20,26,65,254,50,33,15,322,42,25,12,238,,05,20,130,38*6E
$GBGSV,5,2,20,40,28,048,43,21,42,190,50,14,37,306,44,07,29,059,41*62
$GBGSV,5,3,20,56,31,082,,10,36,072,42,50,56,223,,42,55,275,50*65
$GBGSV,5,4,20,45,54,061,49,24,62,234,,22,00,162,,29,06,047,*6E
$GBGSV,5,5,20,09,03,088,34,02,04,109,31,36,06,065,38,60,07,112,40*64
$GPGGA,093047.00,,,,,0,00,,,M,,M,,*41
$PTNL,GGK,093047.00,010125,4742.1599829,N,01618.1001909,E,1,34,0.8,EHT752.2235,M*46
$GPGGQ,093047.00,010125,4742.1599829,N,01618.1001909,E,1,34,0.957,709.0170,M*35
$GPGFA,093047.00,4.812,6.198,0.506,0.298,12.280,0.756,,VVV*3E
$GPLLK,093047.00,010125,,M,,M,1,34,0.9,,M*0C
$GNGMP,093047.00,,,,,DAAA,34,0.5,,,,*5D
$GPGMP,093047.00,,,,,,09,,,,2.8,136*73
$GLGMP,093047.00,,,,,,06,,,,,*70
$GAGMP,093047.00,,,,,,07,,,,,*7C
$GBGMP,093047.00,,,,,,12,,,,,*7B
$PSSN,SNC,[0,293465000,2347]*4B
$GPZDA,093052.00,01,01,2025,,*6E
$GPDTM,W84,,00.0000000,N,00.0000000,E,00.0000000,W84*5F
$PSSN,TFM,093052.00,,,,*62
$GPRMC,093052.00,A,4742.1599845,N,01618.1001932,E,0.0,,010125,5.1,E,D*1E
$GPGLL,4742.1599845,N,01618.1001932,E,093052.00,A,D*6F
$GPGGA,093052.00,4742.1599845,N,01618.1001932,E,2,34,0.5,709.0179,M,43.2066,M,2.4,0136*46
$GNGNS,093052.00,4742.1599845,N,01618.1001932,E,DAAA,34,0.5,709.0179,43.2066,,*58
$GPGNS,093052.00,,,,,,09,,,,2.4,136*7B
$GLGNS,093052.00,,,,,,06,,,,,*74
$GAGNS,093052.00,,,,,,07,,,,,*78
$GBGNS,093052.00,,,,,,12,,,,,*7F
$GPLLQ,093052.00,010125,,M,,M,1,34,0.962,,M*16
$GPVTG,,T,,M,0.00,N,0.00,K,D*26
$GPHDT,,T*1B
$GPTHS,,V*0E
$GPROT,,V*08
$PSSN,HRP,093052.00,010125,,,,,,,00,0,,*6C
$PTNL,AVR,093052.00,,Yaw,,Tilt,,,,0,,00*3A
$GPGSA,A,3,05,13,14,15,17,19,23,24,30,,,,0.8,0.5,0.6*35
$GPGSA,A,3,65,66,67,75,76,77,,,,,,,0.8,0.5,0.6*38
$GPGSA,A,3,02,03,07,08,24,25,30,,,,,,0.8,0.5,0.6*35
$GPGSA,A,3,05,07,10,14,21,26,33,36,40,42,45,60,0.8,0.5,0.6*38
$GPGST,093052.00,2.368,0.507,0.302,11.862,0.500,0.313,0.760*6F
$GPGBS,093052.00,3.056,1.634,4.933,67,0.0001,8.230,6.265*51
$GPGRS,093052.00,1,0.3,0.2,0.3,-0.3,-0.6,0.5,0.3,-0.1,0.0,,,*40
$GPGRS,093052.00,1,0.7,-0.8,8.2,-1.3,0.2,-7.8,,,,,,*64
$GPGRS,093052.00,1,-0.0,-0.1,-0.1,-0.0,0.8,0.1,-0.1,,,,,*48
$GPGRS,093052.00,1,0.6,-0.1,-0.0,2.2,-0.1,0.2,-1.0,0.4,-1.4,0.0,-1.1,-3.0*69
$GPGSV,5,1,19,13,75,148,49,05,17,212,41,30,24,085,41,19,16,142,40*73
$GPGSV,5,2,19,24,28,279,43,23,22,312,42,17,29,113,44,14,53,063,47*7D
$GPGSV,5,3,19,15,64,279,49,22,71,092,,36,35,170,44,58,13,245,36*71
$GPGSV,5,4,19,40,23,133,36,34,31,208,42,49,34,195,44,57,07,112,37*7C
$GPGSV,5,5,19,41,07,108,35,61,03,257,38*73
$GLGSV,3,1,09,66,66,298,53,84,13,039,32,67,16,329,46,77,19,240,40*68
$GLGSV,3,2,09,65,49,178,48,75,46,041,50,76,65,259,52,83,02,341,33*65
$GLGSV,3,3,09,85,05,088,41*51
$GAGSV,3,1,11,08,64,297,48,24,11,045,38,07,13,310,38,16,35,052,*66
$GAGSV,3,2,11,02,58,195,48,03,58,144,48,25,59,066,47,05,08,134,33*67
$GAGSV,3,3,11,26,01,313,35,30,09,216,37,33,03,358,34*5B
$GBGSV,5,1,20,26,65,254,50,33,15,322,41,25,12,238,,05,20,130,38*6D
$GBGSV,5,2,20,40,28,048,43,21,42,190,49,14,37,306,44,07,29,059,41*6A
$GBGSV,5,3,20,56,31,082,,10,36,072,41,50,56,223,,42,55,275,50*66
$GBGSV,5,4,20,45,54,061,49,24,62,234,,22,00,162,,29,06,047,*6E
$GBGSV,5,5,20,09,03,088,34,02,04,109,32,36,06,065,39,60,07,112,39*68
$GPGGA,093052.00,,,,,0,00,,,M,,M,,*45
$PTNL,GGK,093052.00,010125,4742.1599845,N,01618.1001932,E,1,34,0.8,EHT752.2244,M*46
$GPGGQ,093052.00,010125,4742.1599845,N,01618.1001932,E,1,34,0.962,709.0179,M*3C
$GPGFA,093052.00,4.816,6.231,0.507,0.302,11.862,0.760,,VVV*3D
$GPLLK,093052.00,010125,,M,,M,1,34,0.9,,M*08
$GNGMP,093052.00,,,,,DAAA,34,0.5,,,,*59
$GPGMP,093052.00,,,,,,09,,,,2.4,136*7B
$GLGMP,093052.00,,,,,,06,,,,,*74
$GAGMP,093052.00,,,,,,07,,,,,*78
$GBGMP,093052.00,,,,,,12,,,,,*7F
$PSSN,SNC,[0,293470000,2347]*4F
$GPZDA,093057.00,01,01,2025,,*6B
$GPDTM,W84,,00.0000000,N,00.0000000,E,00.0000000,W84*5F
$PSSN,TFM,093057.00,,,,*67
$GPRMC,093057.00,A,4742.1599847,N,01618.1001935,E,0.0,,010125,5.1,E,D*1E
$GPGLL,4742.1599847,N,01618.1001935,E,093057.00,A,D*6F
$GPGGA,093057.00,4742.1599847,N,01618.1001935,E,2,34,0.5,709.0193,M,43.2066,M,3.0,0136*47
$GNGNS,093057.00,4742.1599847,N,01618.1001935,E,DAAA,34,0.5,709.0193,43.2066,,*5C
$GPGNS,093057.00,,,,,,09,,,,3.0,136*7B
$GLGNS,093057.00,,,,,,06,,,,,*71
$GAGNS,093057.00,,,,,,07,,,,,*7D
$GBGNS,093057.00,,,,,,12,,,,,*7A
$GPLLQ,093057.00,010125,,M,,M,1,34,0.958,,M*1A
$GPVTG,,T,,M,0.00,N,0.00,K,D*26
$GPHDT,,T*1B
$GPTHS,,V*0E
$GPROT,,V*08
$PSSN,HRP,093057.00,010125,,,,,,,00,0,,*69
$PTNL,AVR,093057.00,,Yaw,,Tilt,,,,0,,00*3F
$GPGSA,A,3,05,13,14,15,17,19,23,24,30,,,,0.8,0.5,0.6*35
$GPGSA,A,3,65,66,67,75,76,77,,,,,,,0.8,0.5,0.6*38
$GPGSA,A,3,02,03,07,08,24,25,30,,,,,,0.8,0.5,0.6*35
$GPGSA,A,3,05,07,10,14,21,26,33,36,40,42,45,60,0.8,0.5,0.6*38
$GPGST,093057.00,2.396,0.502,0.304,11.045,0.496,0.313,0.757*6F
$GPGBS,093057.00,3.088,1.667,5.012,67,0.0001,8.513,6.265*5C
$GPGRS,093057.00,1,-0.0,0.4,0.0,0.0,-0.5,0.6,-0.1,-0.0,-0.1,,,*42
$GPGRS,093057.00,1,0.2,-0.8,8.5,-1.0,-0.2,-7.5,,,,,,*40
$GPGRS,093057.00,1,-0.1,-0.0,0.1,-0.2,1.0,0.0,0.0,,,,,*46
$GPGRS,093057.00,1,0.8,0.4,0.2,3.0,-0.5,0.1,-0.9,0.0,-1.2,0.0,-0.8,-3.1*62
$GPGSV,5,1,19,13,74,148,49,05,17,212,42,30,24,085,41,19,16,142,40*71
$GPGSV,5,2,19,24,28,279,43,23,22,312,42,17,29,113,44,14,53,063,46*7C
$GPGSV,5,3,19,15,64,279,49,22,71,092,,36,35,170,44,58,13,245,36*71
$GPGSV,5,4,19,40,23,133,37,34,31,208,42,49,34,195,44,57,07,112,37*7D
$GPGSV,5,5,19,41,07,108,35,61,03,257,38*73
$GLGSV,3,1,09,66,66,298,53,84,13,039,32,67,16,329,46,77,19,240,40*68
$GLGSV,3,2,09,65,49,178,49,75,46,041,50,76,65,259,52,83,02,341,33*64
$GLGSV,3,3,09,85,05,088,42*52
$GAGSV,3,1,11,08,64,297,48,24,10,045,38,07,13,310,37,16,35,052,*68
$GAGSV,3,2,11,02,58,195,48,03,58,144,48,25,59,066,47,05,08,134,33*67
$GAGSV,3,3,11,26,01,313,35,30,09,216,38,33,03,358,35*55
$GBGSV,5,1,20,26,65,254,50,33,15,322,41,25,12,238,,05,20,130,38*6D
$GBGSV,5,2,20,40,28,048,43,21,42,190,49,14,37,306,45,07,29,059,41*6B
$GBGSV,5,3,20,56,31,082,,10,36,072,41,50,56,223,,42,55,275,50*66
$GBGSV,5,4,20,45,54,061,49,24,62,234,,22,00,162,,29,06,047,*6E
$GBGSV,5,5,20,09,03,088,34,02,04,109,32,36,06,065,39,60,07,112,40*66
$GPGGA,093057.00,,,,,0,00,,,M,,M,,*40
$PTNL,GGK,093057.00,010125,4742.1599847,N,01618.1001935,E,1,34,0.8,EHT752.2259,M*4A
$GPGGQ,093057.00,010125,4742.1599847,N,01618.1001935,E,1,34,0.958,709.0193,M*31
$GPGFA,093057.00,4.776,6.210,0.502,0.304,11.045,0.757,,VVV*38
$GPLLK,093057.00,010125,,M,,M,1,34,0.9,,M*0D
$GNGMP,093057.00,,,,,DAAA,34,0.5,,,,*5C
$GPGMP,093057.00,,,,,,09,,,,3.0,136*7B
$GLGMP,093057.00,,,,,,06,,,,,*71
$GAGMP,093057.00,,,,,,07,,,,,*7D
$GBGMP,093057.00,,,,,,12,,,,,*7A
$PSSN,SNC,[0,293475000,2347]*4A
$GPZDA,093102.00,01,01,2025,,*6A
$GPDTM,W84,,00.0000000,N,00.0000000,E,00.0000000,W84*5F
$PSSN,TFM,093102.00,,,,*66
$GPRMC,093102.00,A,4742.1599848,N,01618.1001931,E,0.0,,010125,5.1,E,D*14
$GPGLL,4742.1599848,N,01618.1001931,E,093102.00,A,D*65
$GPGGA,093102.00,4742.1599848,N,01618.1001931,E,2,34,0.5,709.0155,M,43.2066,M,1.8,0136*4D
$GNGNS,093102.00,4742.1599848,N,01618.1001931,E,DAAA,34,0.5,709.0155,43.2066,,*5C
$GPGNS,093102.00,,,,,,09,,,,1.8,136*70
$GLGNS,093102.00,,,,,,06,,,,,*70
$GAGNS,093102.00,,,,,,07,,,,,*7C
$GBGNS,093102.00,,,,,,12,,,,,*7B
$GPLLQ,093102.00,010125,,M,,M,1,34,0.960,,M*10
$GPVTG,,T,,M,0.00,N,0.01,K,D*27
$GPHDT,,T*1B
$GPTHS,,V*0E
$GPROT,,V*08
$PSSN,HRP,093102.00,010125,,,,,,,00,0,,*68
$PTNL,AVR,093102.00,,Yaw,,Tilt,,,,0,,00*3E
$GPGSA,A,3,05,13,14,15,17,19,23,24,30,,,,0.8,0.5,0.6*35
$GPGSA,A,3,65,66,67,75,76,77,,,,,,,0.8,0.5,0.6*38
$GPGSA,A,3,02,03,07,08,24,25,30,,,,,,0.8,0.5,0.6*35
$GPGSA,A,3,05,07,10,14,21,26,33,36,40,42,45,60,0.8,0.5,0.6*38
$GPGST,093102.00,2.413,0.505,0.302,11.384,0.498,0.312,0.759*6A
$GPGBS,093102.00,3.078,1.625,4.759,77,0.0001,-8.268,6.257*7B
$GPGRS,093102.00,1,-0.2,0.2,0.3,-0.0,-0.3,0.2,-0.3,0.2,-0.5,,,*42
$GPGRS,093102.00,1,0.3,-1.0,8.2,-0.6,-0.2,-8.3,,,,,,*40
$GPGRS,093102.00,1,0.1,-0.1,0.2,-0.3,0.9,-0.0,0.2,,,,,*4E
$GPGRS,093102.00,1,1.4,0.1,0.9,2.3,-0.4,0.2,-0.1,-0.3,-1.1,0.2,-1.0,-2.7*49
$GPGSV,5,1,19,13,74,148,49,05,17,212,42,30,24,085,41,19,16,142,40*71
$GPGSV,5,2,19,24,28,279,43,23,22,312,42,17,29,113,45,14,53,062,47*7D
$GPGSV,5,3,19,15,64,279,49,22,71,092,,36,35,170,44,58,13,245,36*71
$GPGSV,5,4,19,40,23,133,37,34,31,208,42,49,34,195,44,57,07,112,37*7D
$GPGSV,5,5,19,41,07,108,35,61,03,257,38*73
$GLGSV,3,1,09,66,66,298,53,84,13,039,32,67,16,329,45,77,19,240,39*65
$GLGSV,3,2,09,65,49,178,49,75,46,041,50,76,65,259,52,83,02,341,32*65
$GLGSV,3,3,09,85,05,088,41*51
$GAGSV,3,1,11,08,64,297,48,24,10,045,38,07,13,310,38,16,35,052,*67
$GAGSV,3,2,11,02,58,195,48,03,58,145,48,25,59,066,47,05,08,134,33*66
$GAGSV,3,3,11,26,01,313,35,30,09,216,38,33,03,358,34*54
$GBGSV,5,1,20,26,65,254,50,33,15,322,42,25,12,238,,05,20,130,38*6E
$GBGSV,5,2,20,40,28,048,44,21,42,190,49,14,37,306,45,07,29,059,41*6C
$GBGSV,5,3,20,56,31,082,,10,36,072,42,50,56,223,,42,55,275,50*65
$GBGSV,5,4,20,45,54,061,49,24,62,234,,22,00,162,,29,06,047,*6E
$GBGSV,5,5,20,09,03,089,34,02,04,109,32,36,06,065,39,60,07,112,40*67
$GPGGA,093102.00,,,,,0,00,,,M,,M,,*41
$PTNL,GGK,093102.00,010125,4742.1599848,N,01618.1001931,E,1,34,0.8,EHT752.2221,M*4F
$GPGGQ,093102.00,010125,4742.1599848,N,01618.1001931,E,1,34,0.960,709.0155,M*3A
$GPGFA,093102.00,4.800,6.223,0.505,0.302,11.384,0.759,,VVV*36
$GPLLK,093102.00,010125,,M,,M,1,34,0.9,,M*0C
$GNGMP,093102.00,,,,,DAAA,34,0.5,,,,*5D
$GPGMP,093102.00,,,,,,09,,,,1.8,136*70
$GLGMP,093102.00,,,,,,06,,,,,*70
$GAGMP,093102.00,,,,,,07,,,,,*7C
$GBGMP,093102.00,,,,,,12,,,,,*7B
$PSSN,SNC,[0,293480000,2347]*40
$GPZDA,093107.00,01,01,2025,,*6F
$GPDTM,W84,,00.0000000,N,00.0000000,E,00.0000000,W84*5F
$PSSN,TFM,093107.00,,,,*63
$GPRMC,093107.00,A,4742.1599818,N,01618.1001926,E,0.0,,010125,5.1,E,D*12
$GPGLL,4742.1599818,N,01618.1001926,E,093107.00,A,D*63
$GPGGA,093107.00,4742.1599818,N,01618.1001926,E,2,34,0.5,709.0107,M,43.2066,M,2.8,0136*4F
$GNGNS,093107.00,4742.1599818,N,01618.1001926,E,DAAA,34,0.5,709.0107,43.2066,,*5D
$GPGNS,093107.00,,,,,,09,,,,2.8,136*76
$GLGNS,093107.00,,,,,,06,,,,,*75
$GAGNS,093107.00,,,,,,07,,,,,*79
$GBGNS,093107.00,,,,,,12,,,,,*7E
$GPLLQ,093107.00,010125,,M,,M,1,34,0.958,,M*1E
$GPVTG,,T,,M,0.01,N,0.01,K,D*26
$GPHDT,,T*1B
$GPTHS,,V*0E
$GPROT,,V*08
$PSSN,HRP,093107.00,010125,,,,,,,00,0,,*6D
$PTNL,AVR,093107.00,,Yaw,,Tilt,,,,0,,00*3B
$GPGSA,A,3,05,13,14,15,17,19,23,24,30,,,,0.8,0.5,0.6*35
$GPGSA,A,3,65,66,67,75,76,77,,,,,,,0.8,0.5,0.6*38
$GPGSA,A,3,02,03,07,08,24,25,30,,,,,,0.8,0.5,0.6*35
$GPGSA,A,3,05,07,10,14,21,26,33,36,40,42,45,60,0.8,0.5,0.6*38
$GPGST,093107.00,2.356,0.506,0.298,12.275,0.499,0.311,0.756*69
$GPGBS,093107.00,3.120,1.653,4.825,77,0.0001,-8.103,6.257*79
$GPGRS,093107.00,1,0.0,0.2,0.3,-0.2,-0.2,0.5,-0.4,-0.4,0.1,,,*69
$GPGRS,093107.00,1,0.6,-0.9,7.7,-0.8,0.3,-8.1,,,,,,*62
$GPGRS,093107.00,1,0.2,-0.2,0.6,-0.3,0.8,0.3,0.0,,,,,*62
$GPGRS,093107.00,1,1.1,0.6,1.5,2.4,0.1,0.3,0.2,-0.4,-0.9,0.4,-1.0,-2.9*45
$GPGSV,5,1,19,13,74,148,49,05,17,212,42,30,24,085,42,19,16,142,41*73
$GPGSV,5,2,19,24,28,279,43,23,22,312,42,17,29,112,45,14,53,062,47*7C
$GPGSV,5,3,19,15,64,279,49,22,71,092,,36,35,170,44,58,13,245,36*71
$GPGSV,5,4,19,40,23,133,37,34,31,208,42,49,34,195,44,57,07,112,37*7D
$GPGSV,5,5,19,41,07,108,35,61,03,257,38*73
$GLGSV,3,1,09,66,66,298,53,84,13,039,31,67,16,329,46,77,19,240,40*6B
$GLGSV,3,2,09,65,49,178,49,75,46,041,50,76,65,259,52,83,02,341,32*65
$GLGSV,3,3,09,85,05,088,41*51
$GAGSV,3,1,11,08,64,297,48,24,10,045,38,07,13,310,38,16,35,052,*67
$GAGSV,3,2,11,03,58,145,48,02,58,195,49,25,59,066,47,05,08,134,32*66
$GAGSV,3,3,11,26,01,313,36,30,09,216,38,33,03,357,35*59
$GBGSV,5,1,20,26,65,254,50,33,15,322,42,25,13,238,,05,20,130,38*6F
$GBGSV,5,2,20,40,28,048,44,21,42,190,49,14,37,306,45,07,29,059,41*6C
$GBGSV,5,3,20,56,31,082,,10,36,072,42,50,56,223,,42,55,274,50*64
$GBGSV,5,4,20,45,54,061,49,24,62,234,,22,00,162,,29,06,047,*6E
$GBGSV,5,5,20,09,03,089,34,02,04,109,31,36,06,065,39,60,07,112,40*64
$GPGGA,093107.00,,,,,0,00,,,M,,M,,*44
$PTNL,GGK,093107.00,010125,4742.1599818,N,01618.1001926,E,1,34,0.8,EHT752.2172,M*4C
$GPGGQ,093107.00,010125,4742.1599818,N,01618.1001926,E,1,34,0.958,709.0107,M*30
$GPGFA,093107.00,4.811,6.203,0.506,0.298,12.275,0.756,,VVV*33
$GPLLK,093107.00,010125,,M,,M,1,34,0.9,,M*09
$GNGMP,093107.00,,,,,DAAA,34,0.5,,,,*58
$GPGMP,093107.00,,,,,,09,,,,2.8,136*76
$GLGMP,093107.00,,,,,,06,,,,,*75
$GAGMP,093107.00,,,,,,07,,,,,*79
$GBGMP,093107.00,,,,,,12,,,,,*7E
$PSSN,SNC,[0,293485000,2347]*45
$GPZDA,093112.00,01,01,2025,,*6B
$GPDTM,W84,,00.0000000,N,00.0000000,E,00.0000000,W84*5F
$PSSN,TFM,093112.00,,,,*67
$GPRMC,093112.00,A,4742.1599837,N,01618.1001876,E,0.0,,010125,5.1,E,D*1F
$GPGLL,4742.1599837,N,01618.1001876,E,093112.00,A,D*6E
$GPGGA,093112.00,4742.1599837,N,01618.1001876,E,2,34,0.5,709.0095,M,43.2066,M,2.4,0136*44
$GNGNS,093112.00,4742.1599837,N,01618.1001876,E,DAAA,34,0.5,709.0095,43.2066,,*5A
$GPGNS,093112.00,,,,,,09,,,,2.4,136*7E
$GLGNS,093112.00,,,,,,06,,,,,*71
$GAGNS,093112.00,,,,,,07,,,,,*7D
$GBGNS,093112.00,,,,,,12,,,,,*7A
$GPLLQ,093112.00,010125,,M,,M,1,34,0.962,,M*13
$GPVTG,,T,,M,0.01,N,0.01,K,D*26
$GPHDT,,T*1B
$GPTHS,,V*0E
$GPROT,,V*08
$PSSN,HRP,093112.00,010125,,,,,,,00,0,,*69
$PTNL,AVR,093112.00,,Yaw,,Tilt,,,,0,,00*3F
$GPGSA,A,3,05,13,14,15,17,19,23,24,30,,,,0.8,0.5,0.6*35
$GPGSA,A,3,65,66,67,75,76,77,,,,,,,0.8,0.5,0.6*38
$GPGSA,A,3,02,03,07,08,24,25,30,,,,,,0.8,0.5,0.6*35
$GPGSA,A,3,05,07,10,14,21,26,33,36,40,42,45,60,0.8,0.5,0.6*38
$GPGST,093112.00,2.449,0.506,0.302,11.854,0.499,0.313,0.760*6B
$GPGBS,093112.00,3.050,1.635,4.932,77,0.0001,-8.335,6.256*7A
$GPGRS,093112.00,1,-0.3,0.2,0.3,0.1,-0.5,0.8,-0.2,-0.3,0.1,,,*66
$GPGRS,093112.00,1,-0.0,-0.8,8.3,-0.9,-0.1,-8.3,,,,,,*6B
$GPGRS,093112.00,1,0.2,-0.3,-0.2,0.0,0.7,0.3,0.0,,,,,*6F
$GPGRS,093112.00,1,0.9,0.7,1.2,2.6,0.0,0.2,-0.4,0.1,-1.2,0.3,-0.9,-2.9*4A
$GPGSV,5,1,19,13,74,148,49,05,17,212,42,30,24,085,42,19,16,142,41*73
$GPGSV,5,2,19,24,28,279,43,23,22,312,42,17,29,112,45,14,53,062,47*7C
$GPGSV,5,3,19,15,64,279,49,22,71,092,,36,35,170,44,58,13,245,36*71
$GPGSV,5,4,19,40,23,133,36,34,31,208,42,49,34,195,44,57,07,112,37*7C
$GPGSV,5,5,19,41,07,108,35,61,03,257,38*73
$GLGSV,3,1,09,66,66,298,52,84,13,039,32,67,16,329,46,77,19,240,40*69
$GLGSV,3,2,09,65,49,178,49,75,46,041,50,76,65,259,53,83,02,341,31*67
$GLGSV,3,3,09,85,05,088,41*51
$GAGSV,3,1,11,08,64,297,48,24,10,045,38,07,13,310,38,16,35,052,*67
$GAGSV,3,2,11,03,58,145,48,02,58,195,48,25,59,066,47,05,08,134,32*67
$GAGSV,3,3,11,26,01,313,36,30,09,216,39,33,03,357,35*58
$GBGSV,5,1,20,26,65,254,50,33,15,322,41,25,13,238,,05,20,130,38*6C
$GBGSV,5,2,20,40,28,048,44,21,42,190,49,14,37,306,45,07,29,059,41*6C
$GBGSV,5,3,20,56,31,082,,10,36,072,42,50,56,223,,42,55,274,49*6C
$GBGSV,5,4,20,45,54,061,49,24,62,234,,22,00,162,,29,06,047,*6E
$GBGSV,5,5,20,09,03,089,34,02,04,109,31,36,06,065,39,60,07,112,40*64
$GPGGA,093112.00,,,,,0,00,,,M,,M,,*40
$PTNL,GGK,093112.00,010125,4742.1599837,N,01618.1001876,E,1,34,0.8,EHT752.2161,M*43
$GPGGQ,093112.00,010125,4742.1599837,N,01618.1001876,E,1,34,0.962,709.0095,M*3E
$GPGFA,093112.00,4.814,6.236,0.506,0.302,11.854,0.760,,VVV*39
$GPLLK,093112.00,010125,,M,,M,1,34,0.9,,M*0D
$GNGMP,093112.00,,,,,DAAA,34,0.5,,,,*5C
$GPGMP,093112.00,,,,,,09,,,,2.4,136*7E
$GLGMP,093112.00,,,,,,06,,,,,*71
$GAGMP,093112.00,,,,,,07,,,,,*7D
$GBGMP,093112.00,,,,,,12,,,,,*7A
$PSSN,SNC,[0,293490000,2347]*41
$GPZDA,093117.00,01,01,2025,,*6E
$GPDTM,W84,,00.0000000,N,00.0000000,E,00.0000000,W84*5F
$PSSN,TFM,093117.00,,,,*62
$GPRMC,093117.00,A,4742.1599819,N,01618.1001838,E,0.0,,010125,5.1,E,D*1C
$GPGLL,4742.1599819,N,01618.1001838,E,093117.00,A,D*6D
$GPGGA,093117.00,4742.1599819,N,01618.1001838,E,2,34,0.5,709.0039,M,43.2066,M,3.0,0136*44
$GNGNS,093117.00,4742.1599819,N,01618.1001838,E,DAAA,34,0.5,709.0039,43.2066,,*5F
$GPGNS,093117.00,,,,,,09,,,,3.0,136*7E
$GLGNS,093117.00,,,,,,06,,,,,*74
$GAGNS,093117.00,,,,,,07,,,,,*78
$GBGNS,093117.00,,,,,,12,,,,,*7F
$GPLLQ,093117.00,010125,,M,,M,1,34,0.959,,M*1E
$GPVTG,,T,,M,0.01,N,0.01,K,D*26
$GPHDT,,T*1B
$GPTHS,,V*0E
$GPROT,,V*08
$PSSN,HRP,093117.00,010125,,,,,,,00,0,,*6C
$PTNL,AVR,093117.00,,Yaw,,Tilt,,,,0,,00*3A
$GPGSA,A,3,05,13,14,15,17,19,23,24,30,,,,0.8,0.5,0.6*35
$GPGSA,A,3,65,66,67,75,76,77,,,,,,,0.8,0.5,0.6*38
$GPGSA,A,3,02,03,07,08,24,25,30,,,,,,0.8,0.5,0.6*35
$GPGSA,A,3,05,07,10,14,21,26,33,36,40,42,45,60,0.8,0.5,0.6*38
$GPGST,093117.00,2.268,0.502,0.304,11.026,0.496,0.313,0.758*60
$GPGBS,093117.00,3.083,1.660,5.010,77,0.0001,-7.915,6.256*7E
$GPGRS,093117.00,1,-0.5,0.4,0.4,-0.1,-0.5,0.5,-0.1,-0.2,-0.0,,,*6A
$GPGRS,093117.00,1,0.3,-1.0,7.4,-1.2,-0.3,-7.9,,,,,,*4C
$GPGRS,093117.00,1,-0.1,-0.3,-0.3,0.1,0.5,0.1,-0.1,,,,,*68
$GPGRS,093117.00,1,1.3,0.8,0.7,2.0,-0.3,0.2,-0.7,0.6,-1.1,0.1,-0.9,-2.8*63
$GPGSV,5,1,19,13,74,148,49,05,17,212,42,30,24,085,42,19,16,142,40*72
$GPGSV,5,2,19,24,28,279,43,23,22,312,42,17,29,112,45,14,53,062,47*7C
$GPGSV,5,3,19,15,64,279,49,22,71,092,,36,35,170,44,58,13,245,36*71
$GPGSV,5,4,19,40,23,133,36,34,31,208,42,49,34,195,44,57,07,112,37*7C
$GPGSV,5,5,19,41,07,108,35,61,03,257,38*73
$GLGSV,3,1,09,66,66,298,52,84,13,039,30,67,16,329,45,77,19,240,40*68
$GLGSV,3,2,09,65,49,178,49,75,46,041,50,76,65,259,52,83,02,341,30*67
$GLGSV,3,3,09,85,05,088,41*51
$GAGSV,3,1,11,08,65,297,48,24,10,045,38,07,13,310,39,16,35,052,*67
$GAGSV,3,2,11,03,58,145,48,02,58,195,48,25,59,066,48,05,08,134,32*68
$GAGSV,3,3,11,26,01,313,36,30,09,216,38,33,03,357,36*5A
$GBGSV,5,1,20,26,65,255,50,33,15,322,41,25,13,238,,05,20,130,38*6D
$GBGSV,5,2,20,40,28,048,44,21,42,190,49,14,37,306,45,07,29,059,41*6C
$GBGSV,5,3,20,56,31,082,,10,36,072,42,50,56,223,,42,55,274,50*64
$GBGSV,5,4,20,45,54,061,49,24,62,234,,22,00,162,,29,06,047,*6E
$GBGSV,5,5,20,09,03,089,34,02,04,109,32,36,06,065,40,60,07,112,40*69
$GPGGA,093117.00,,,,,0,00,,,M,,M,,*45
$PTNL,GGK,093117.00,010125,4742.1599819,N,01618.1001838,E,1,34,0.8,EHT752.2104,M*43
$GPGGQ,093117.00,010125,4742.1599819,N,01618.1001838,E,1,34,0.959,709.0039,M*33
$GPGFA,093117.00,4.776,6.216,0.502,0.304,11.026,0.758,,VVV*31
$GPLLK,093117.00,010125,,M,,M,1,34,0.9,,M*08
$GNGMP,093117.00,,,,,DAAA,34,0.5,,,,*59
$GPGMP,093117.00,,,,,,09,,,,3.0,136*7E
$GLGMP,093117.00,,,,,,06,,,,,*74
$GAGMP,093117.00,,,,,,07,,,,,*78
$GBGMP,093117.00,,,,,,12,,,,,*7F
$PSSN,SNC,[0,293495000,2347]*44
$GPZDA,093122.00,01,01,2025,,*68
$GPDTM,W84,,00.0000000,N,00.0000000,E,00.0000000,W84*5F
$PSSN,TFM,093122.00,,,,*64
$GPRMC,093122.00,A,4742.1599779,N,01618.1001835,E,0.0,,010125,5.1,E,D*1E
$GPGLL,4742.1599779,N,01618.1001835,E,093122.00,A,D*6F
$GPGGA,093122.00,4742.1599779,N,01618.1001835,E,2,34,0.5,709.0003,M,43.2066,M,1.8,0136*45
$GNGNS,093122.00,4742.1599779,N,01618.1001835,E,DAAA,34,0.5,709.0003,43.2066,,*54
$GPGNS,093122.00,,,,,,09,,,,1.8,136*72
$GLGNS,093122.00,,,,,,06,,,,,*72
$GAGNS,093122.00,,,,,,07,,,,,*7E
$GBGNS,093122.00,,,,,,12,,,,,*79
$GPLLQ,093122.00,010125,,M,,M,1,34,0.961,,M*13
$GPVTG,,T,,M,0.00,N,0.01,K,D*27
$GPHDT,,T*1B
$GPTHS,,V*0E
$GPROT,,V*08
$PSSN,HRP,093122.00,010125,,,,,,,00,0,,*6A
$PTNL,AVR,093122.00,,Yaw,,Tilt,,,,0,,00*3C
$GPGSA,A,3,05,13,14,15,17,19,23,24,30,,,,0.8,0.5,0.6*35
$GPGSA,A,3,65,66,67,75,76,77,,,,,,,0.8,0.5,0.6*38
$GPGSA,A,3,02,03,07,08,24,25,30,,,,,,0.8,0.5,0.6*35
$GPGSA,A,3,05,07,10,14,21,26,33,36,40,42,45,60,0.8,0.5,0.6*38
$GPGST,093122.00,2.242,0.505,0.302,11.377,0.499,0.313,0.760*6C
$GPGBS,093122.00,3.076,1.620,4.756,77,0.0001,-7.921,6.256*75
$GPGRS,093122.00,1,-0.7,0.3,0.1,-0.0,-0.4,-0.3,0.4,-0.0,-0.1,,,*6C
$GPGRS,093122.00,1,0.6,-0.7,7.4,-1.0,0.1,-7.9,,,,,,*64
$GPGRS,093122.00,1,0.0,-0.2,0.0,-0.2,0.6,0.4,-0.4,,,,,*40
$GPGRS,093122.00,1,1.0,0.7,0.7,1.8,0.1,0.3,-0.5,0.6,-1.2,0.2,-0.9,-2.6*40
$GPGSV,5,1,19,13,74,148,49,05,17,212,42,30,24,085,42,19,16,142,40*72
$GPGSV,5,2,19,24,28,279,43,23,22,312,42,17,29,112,45,14,53,062,47*7C
$GPGSV,5,3,19,15,64,279,49,22,71,092,,36,35,170,44,58,13,245,36*71
$GPGSV,5,4,19,40,23,133,36,34,31,208,42,49,34,195,44,57,07,112,37*7C
$GPGSV,5,5,19,41,07,108,35,61,03,257,38*73
$GLGSV,3,1,09,66,66,298,52,84,13,039,31,67,16,329,46,77,19,240,39*64
$GLGSV,3,2,09,65,49,178,49,75,46,041,50,76,65,259,53,83,02,341,31*67
$GLGSV,3,3,09,85,05,088,40*50
$GAGSV,3,1,11,08,65,297,48,24,10,045,38,07,13,310,39,16,35,052,*67
$GAGSV,3,2,11,03,58,145,48,02,58,195,48,25,59,066,47,05,08,134,33*66
$GAGSV,3,3,11,26,01,313,36,30,09,216,38,33,03,357,35*59
$GBGSV,5,1,20,26,65,255,50,33,15,322,41,25,13,238,,05,20,130,38*6D
$GBGSV,5,2,20,40,28,048,44,21,42,190,49,14,37,306,45,07,29,059,41*6C
$GBGSV,5,3,20,56,31,082,,10,36,072,42,50,56,223,,42,55,274,49*6C
$GBGSV,5,4,20,45,54,061,49,24,62,234,,22,00,162,,29,06,047,*6E
