$GPZDA,151442.00,01,01,2025,,*64
$GPDTM,W84,,00.0000000,N,00.0000000,E,00.0000000,W84*5F
$PSSN,TFM,151442.00,,,,*68
$GPRMC,151442.00,A,4742.1603963,N,01618.1008643,E,0.0,,010125,5.1,E,D*11
$GPGLL,4742.1603963,N,01618.1008643,E,151442.00,A,D*60
$GPGGA,151442.00,4742.1603963,N,01618.1008643,E,2,40,0.4,708.8346,M,43.2065,M,2.6,0136*4D
$GNGNS,151442.00,4742.1603963,N,01618.1008643,E,DAAA,40,0.4,708.8346,43.2065,,*51
$GPGNS,151442.00,,,,,,10,,,,2.6,136*7B
$GLGNS,151442.00,,,,,,07,,,,,*7F
$GAGNS,151442.00,,,,,,09,,,,,*7C
$GBGNS,151442.00,,,,,,14,,,,,*73
$GPLLQ,151442.00,010125,,M,,M,1,40,1.201,,M*10
$GPVTG,,T,,M,0.00,N,0.01,K,D*27
$GPHDT,,T*1B
$GPTHS,,V*0E
$GPROT,,V*08
$PSSN,HRP,151442.00,010125,,,,,,,00,0,,*66
$PTNL,AVR,151442.00,,Yaw,,Tilt,,,,0,,00*30
$GPGSA,A,3,11,12,18,20,25,26,28,29,31,32,,,0.7,0.4,0.5*3D
$GPGSA,A,3,71,78,79,80,81,87,88,,,,,,0.7,0.4,0.5*3D
$GPGSA,A,3,02,15,19,21,27,29,30,34,36,,,,0.7,0.4,0.5*36
$GPGSA,A,3,05,08,10,11,12,13,23,24,25,34,38,43,0.7,0.4,0.5*32
$GPGSA,A,3,44,60,,,,,,,,,,,0.7,0.4,0.5*32
$GPGST,151442.00,2.453,0.662,0.440,359.404,0.662,0.440,0.900*56
$GPGBS,151442.00,4.726,2.335,5.066,26,0.0001,5.700,3.683*54
$GPGRS,151442.00,1,-0.3,0.4,-0.6,1.4,-0.1,5.7,0.0,-0.2,0.0,-0.8,,*69
$GPGRS,151442.00,1,1.5,-0.2,2.7,-6.2,3.5,-7.9,0.3,,,,,*46
$GPGRS,151442.00,1,-0.4,-0.5,-0.7,4.1,0.0,0.2,-0.1,0.3,-3.4,,,*4E
$GPGRS,151442.00,1,-0.0,-0.7,0.9,1.8,0.6,0.7,-0.5,-0.7,-0.8,-0.6,-0.1,-0.0*42
$GPGRS,151442.00,1,-0.2,-1.7,,,,,,,,,,*4D
$GPGSV,6,1,21,25,74,095,50,18,13,186,39,26,10,294,39,20,16,080,40*77
$GPGSV,6,2,21,11,31,052,44,31,30,310,45,12,33,102,45,28,51,285,47*7A
$GPGSV,6,3,21,29,73,242,50,06,03,029,36,05,04,112,35,32,08,242,40*76
$GPGSV,6,4,21,36,35,170,45,58,13,245,36,40,23,133,37,34,31,208,43*7D
$GPGSV,6,5,21,49,34,195,45,57,04,114,36,41,07,108,35,61,03,257,38*7A
$GPGSV,6,6,21*7A
$GLGSV,3,1,10,88,68,060,52,70,10,324,34,87,12,031,40,79,58,324,53*67
$GLGSV,3,2,10,81,47,194,52,78,62,117,52,80,06,313,45,82,02,204,37*6B
$GLGSV,3,3,10,77,04,129,20,71,06,009,42*67
$GAGSV,3,1,10,27,65,302,48,36,14,034,39,21,13,289,39,29,19,262,41*65
$GAGSV,3,2,10,19,17,308,36,15,39,157,45,34,49,080,46,30,57,095,48*65
$GAGSV,3,3,10,02,06,105,37,07,02,214,36*6A
$GBGSV,5,1,20,25,79,244,51,05,20,130,38,28,14,206,,13,20,090,41*6B
$GBGSV,5,2,20,43,28,215,45,23,31,306,46,10,11,074,36,24,36,141,46*62
$GBGSV,5,3,20,56,17,060,,08,21,082,38,38,22,067,42,11,49,202,48*6B
$GBGSV,5,4,20,31,37,082,,44,42,056,48,34,73,176,51,12,66,073,48*61
$GBGSV,5,5,20,02,05,108,33,19,03,345,,20,04,301,,60,09,110,40*61
$GPGGA,151442.00,,,,,0,00,,,M,,M,,*4F
$PTNL,GGK,151442.00,010125,4742.1603963,N,01618.1008643,E,1,40,0.7,EHT752.0411,M*41
$GPGGQ,151442.00,010125,4742.1603963,N,01618.1008643,E,1,40,1.201,708.8346,M*38
$GPGFA,151442.00,6.298,7.383,0.662,0.440,359.404,0.900,,VVV*0A
$GPLLK,151442.00,010125,,M,,M,1,40,0.8,,M*00
$GNGMP,151442.00,,,,,DAAA,40,0.4,,,,*51
$GPGMP,151442.00,,,,,,10,,,,2.6,136*7B
$GLGMP,151442.00,,,,,,07,,,,,*7F
$GAGMP,151442.00,,,,,,09,,,,,*7C
$GBGMP,151442.00,,,,,,14,,,,,*73
$PSSN,SNC,[0,314100000,2347]*43
$GPZDA,151447.00,01,01,2025,,*61
$GPDTM,W84,,00.0000000,N,00.0000000,E,00.0000000,W84*5F
$PSSN,TFM,151447.00,,,,*6D
$GPRMC,151447.00,A,4742.1603963,N,01618.1008652,E,0.0,,010125,5.1,E,D*14
$GPGLL,4742.1603963,N,01618.1008652,E,151447.00,A,D*65
$GPGGA,151447.00,4742.1603963,N,01618.1008652,E,2,40,0.4,708.8382,M,43.2065,M,2.0,0136*46
$GNGNS,151447.00,4742.1603963,N,01618.1008652,E,DAAA,40,0.4,708.8382,43.2065,,*5C
$GPGNS,151447.00,,,,,,10,,,,2.0,136*78
$GLGNS,151447.00,,,,,,07,,,,,*7A
$GAGNS,151447.00,,,,,,09,,,,,*79
$GBGNS,151447.00,,,,,,14,,,,,*76
$GPLLQ,151447.00,010125,,M,,M,1,40,1.201,,M*15
$GPVTG,,T,,M,0.00,N,0.00,K,D*26
$GPHDT,,T*1B
$GPTHS,,V*0E
$GPROT,,V*08
$PSSN,HRP,151447.00,010125,,,,,,,00,0,,*63
$PTNL,AVR,151447.00,,Yaw,,Tilt,,,,0,,00*35
$GPGSA,A,3,11,12,18,20,25,26,28,29,31,32,,,0.7,0.4,0.5*3D
$GPGSA,A,3,71,78,79,80,81,87,88,,,,,,0.7,0.4,0.5*3D
$GPGSA,A,3,02,15,19,21,27,29,30,34,36,,,,0.7,0.4,0.5*36
$GPGSA,A,3,05,08,10,11,12,13,23,24,25,34,38,43,0.7,0.4,0.5*32
$GPGSA,A,3,44,60,,,,,,,,,,,0.7,0.4,0.5*32
$GPGST,151447.00,2.439,0.661,0.438,359.464,0.661,0.438,0.902*5B
$GPGBS,151447.00,4.710,2.328,4.886,26,0.0001,5.698,3.677*54
$GPGRS,151447.00,1,-0.6,0.3,-0.3,1.5,0.1,5.7,0.1,-0.1,-0.7,-0.7,,*60
$GPGRS,151447.00,1,2.1,0.1,2.7,-6.0,3.6,-8.0,0.3,,,,,*6D
$GPGRS,151447.00,1,0.0,-0.5,-1.2,3.4,-0.2,0.1,-0.1,0.3,-3.1,,,*4D
$GPGRS,151447.00,1,0.3,-0.3,1.2,2.1,0.4,0.3,-0.7,-0.6,-0.8,-0.6,-0.8,-0.7*66
$GPGRS,151447.00,1,-0.3,-1.6,,,,,,,,,,*48
$GPGSV,6,1,21,25,74,095,50,18,13,186,39,26,10,295,39,20,16,080,40*76
$GPGSV,6,2,21,11,31,052,45,31,30,310,45,12,33,102,46,28,51,285,47*78
$GPGSV,6,3,21,29,74,242,50,06,03,029,36,05,05,112,35,32,08,242,41*71
$GPGSV,6,4,21,36,35,170,45,58,13,245,36,40,23,133,36,34,31,208,44*7B
$GPGSV,6,5,21,49,34,195,45,57,04,114,37,41,07,108,35,61,03,257,38*7B
$GPGSV,6,6,21*7A
$GLGSV,3,1,10,88,68,060,52,70,10,324,34,87,12,031,40,79,58,324,53*67
$GLGSV,3,2,10,81,47,194,52,78,62,117,53,80,06,313,45,82,02,204,37*6A
$GLGSV,3,3,10,77,04,129,,71,06,009,42*65
$GAGSV,3,1,10,27,65,302,48,36,14,034,39,21,13,289,39,29,19,262,41*65
$GAGSV,3,2,10,19,17,308,36,15,39,157,46,34,49,080,47,30,57,095,48*67
$GAGSV,3,3,10,02,06,105,38,07,02,214,36*65
$GBGSV,5,1,20,25,79,244,52,05,20,130,38,28,15,206,,13,21,090,41*68
$GBGSV,5,2,20,43,28,215,44,23,31,306,46,10,11,074,36,24,36,141,46*63
$GBGSV,5,3,20,56,17,060,,08,21,082,38,38,22,067,42,11,49,202,49*6A
$GBGSV,5,4,20,31,37,082,,44,42,056,48,34,73,176,51,12,66,073,48*61
$GBGSV,5,5,20,02,05,108,33,19,03,345,,20,04,301,,60,09,110,40*61
$GPGGA,151447.00,,,,,0,00,,,M,,M,,*4A
$PTNL,GGK,151447.00,010125,4742.1603963,N,01618.1008652,E,1,40,0.7,EHT752.0447,M*47
$GPGGQ,151447.00,010125,4742.1603963,N,01618.1008652,E,1,40,1.201,708.8382,M*35
$GPGFA,151447.00,6.287,7.394,0.661,0.438,359.464,0.902,,VVV*0F
$GPLLK,151447.00,010125,,M,,M,1,40,0.8,,M*05
$GNGMP,151447.00,,,,,DAAA,40,0.4,,,,*54
$GPGMP,151447.00,,,,,,10,,,,2.0,136*78
$GLGMP,151447.00,,,,,,07,,,,,*7A
$GAGMP,151447.00,,,,,,09,,,,,*79
$GBGMP,151447.00,,,,,,14,,,,,*76
$PSSN,SNC,[0,314105000,2347]*46
$GPZDA,151452.00,01,01,2025,,*65
$GPDTM,W84,,00.0000000,N,00.0000000,E,00.0000000,W84*5F
$PSSN,TFM,151452.00,,,,*69
$GPRMC,151452.00,A,4742.1603968,N,01618.1008652,E,0.0,,010125,5.1,E,D*1B
$GPGLL,4742.1603968,N,01618.1008652,E,151452.00,A,D*6A
$GPGGA,151452.00,4742.1603968,N,01618.1008652,E,2,40,0.4,708.8393,M,43.2065,M,3.0,0136*48
$GNGNS,151452.00,4742.1603968,N,01618.1008652,E,DAAA,40,0.4,708.8393,43.2065,,*53
$GPGNS,151452.00,,,,,,10,,,,3.0,136*7D
$GLGNS,151452.00,,,,,,07,,,,,*7E
$GAGNS,151452.00,,,,,,09,,,,,*7D
$GBGNS,151452.00,,,,,,14,,,,,*72
$GPLLQ,151452.00,010125,,M,,M,1,40,1.201,,M*11
$GPVTG,,T,,M,0.00,N,0.01,K,D*27
$GPHDT,,T*1B
$GPTHS,,V*0E
$GPROT,,V*08
$PSSN,HRP,151452.00,010125,,,,,,,00,0,,*67
$PTNL,AVR,151452.00,,Yaw,,Tilt,,,,0,,00*31
$GPGSA,A,3,11,12,18,20,25,26,28,29,31,32,,,0.7,0.4,0.5*3D
$GPGSA,A,3,71,78,79,80,81,87,88,,,,,,0.7,0.4,0.5*3D
$GPGSA,A,3,02,15,19,21,27,29,30,34,36,,,,0.7,0.4,0.5*36
$GPGSA,A,3,05,08,10,11,12,13,23,24,25,34,38,43,0.7,0.4,0.5*32
$GPGSA,A,3,44,60,,,,,,,,,,,0.7,0.4,0.5*32
$GPGST,151452.00,2.322,0.661,0.438,359.752,0.661,0.438,0.902*54
$GPGBS,151452.00,4.731,2.344,4.909,26,0.0001,5.624,3.672*5D
$GPGRS,151452.00,1,-0.4,-0.2,-0.4,1.4,-0.3,5.6,0.0,0.2,-0.5,-0.1,,*49
$GPGRS,151452.00,1,1.0,0.1,2.3,-6.2,2.9,-7.5,0.2,,,,,*68
$GPGRS,151452.00,1,-0.1,-0.5,-0.7,3.5,-0.3,0.5,-0.2,0.2,-3.1,,,*67
$GPGRS,151452.00,1,0.2,0.5,1.6,1.2,0.3,0.2,-0.6,-0.7,-0.7,-0.6,-0.8,-0.4*46
$GPGRS,151452.00,1,-0.1,-1.8,,,,,,,,,,*40
$GPGSV,6,1,21,25,74,095,50,18,13,186,40,26,10,295,39,20,16,080,40*78
$GPGSV,6,2,21,11,31,052,45,31,30,310,45,12,33,102,46,28,51,285,47*78
$GPGSV,6,3,21,29,74,242,50,06,03,029,36,05,05,112,36,32,08,242,41*72
$GPGSV,6,4,21,36,35,170,45,58,13,245,36,40,23,133,37,34,31,208,43*7D
$GPGSV,6,5,21,49,34,195,45,57,04,114,37,41,07,108,35,61,03,257,38*7B
$GPGSV,6,6,21*7A
$GLGSV,3,1,10,88,68,060,52,70,10,324,34,87,12,031,41,79,58,324,52*67
$GLGSV,3,2,10,81,47,194,51,78,62,117,53,80,06,313,46,82,02,204,38*65
$GLGSV,3,3,10,77,04,129,,71,06,009,42*65
$GAGSV,3,1,10,27,65,302,48,36,14,034,39,21,13,289,39,29,19,262,41*65
$GAGSV,3,2,10,19,17,308,36,15,39,157,46,34,49,080,47,30,57,095,48*67
$GAGSV,3,3,10,02,06,105,38,07,02,214,36*65
$GBGSV,5,1,20,25,79,244,52,05,20,130,38,28,15,206,,13,21,090,41*68
$GBGSV,5,2,20,43,28,215,45,23,31,306,46,10,11,074,36,24,36,141,46*62
$GBGSV,5,3,20,56,17,060,,08,21,082,38,38,22,067,42,11,49,202,48*6B
$GBGSV,5,4,20,31,37,082,,44,42,056,48,34,73,176,51,12,66,073,48*61
$GBGSV,5,5,20,02,05,108,33,19,03,345,,20,04,301,,60,09,110,40*61
$GPGGA,151452.00,,,,,0,00,,,M,,M,,*4E
$PTNL,GGK,151452.00,010125,4742.1603968,N,01618.1008652,E,1,40,0.7,EHT752.0458,M*46
$GPGGQ,151452.00,010125,4742.1603968,N,01618.1008652,E,1,40,1.201,708.8393,M*3A
$GPGFA,151452.00,6.287,7.393,0.661,0.438,359.752,0.902,,VVV*0A
$GPLLK,151452.00,010125,,M,,M,1,40,0.8,,M*01
$GNGMP,151452.00,,,,,DAAA,40,0.4,,,,*50
$GPGMP,151452.00,,,,,,10,,,,3.0,136*7D
$GLGMP,151452.00,,,,,,07,,,,,*7E
$GAGMP,151452.00,,,,,,09,,,,,*7D
$GBGMP,151452.00,,,,,,14,,,,,*72
$PSSN,SNC,[0,314110000,2347]*42
$GPZDA,151457.00,01,01,2025,,*60
$GPDTM,W84,,00.0000000,N,00.0000000,E,00.0000000,W84*5F
$PSSN,TFM,151457.00,,,,*6C
$GPRMC,151457.00,A,4742.1603962,N,01618.1008645,E,0.0,,010125,5.1,E,D*12
$GPGLL,4742.1603962,N,01618.1008645,E,151457.00,A,D*63
$GPGGA,151457.00,4742.1603962,N,01618.1008645,E,2,40,0.4,708.8374,M,43.2065,M,2.4,0136*4D
$GNGNS,151457.00,4742.1603962,N,01618.1008645,E,DAAA,40,0.4,708.8374,43.2065,,*53
$GPGNS,151457.00,,,,,,10,,,,2.4,136*7D
$GLGNS,151457.00,,,,,,07,,,,,*7B
$GAGNS,151457.00,,,,,,09,,,,,*78
$GBGNS,151457.00,,,,,,14,,,,,*77
$GPLLQ,151457.00,010125,,M,,M,1,40,1.203,,M*16
$GPVTG,,T,,M,0.00,N,0.01,K,D*27
$GPHDT,,T*1B
$GPTHS,,V*0E
$GPROT,,V*08
$PSSN,HRP,151457.00,010125,,,,,,,00,0,,*62
$PTNL,AVR,151457.00,,Yaw,,Tilt,,,,0,,00*34
$GPGSA,A,3,11,12,18,20,25,26,28,29,31,32,,,0.7,0.4,0.5*3D
$GPGSA,A,3,71,78,79,80,81,87,88,,,,,,0.7,0.4,0.5*3D
$GPGSA,A,3,02,15,19,21,27,29,30,34,36,,,,0.7,0.4,0.5*36
$GPGSA,A,3,05,08,10,11,12,13,23,24,25,34,38,43,0.7,0.4,0.5*32
$GPGSA,A,3,44,60,,,,,,,,,,,0.7,0.4,0.5*32
$GPGST,151457.00,2.298,0.663,0.440,359.668,0.663,0.440,0.903*58
$GPGBS,151457.00,4.743,2.314,4.986,26,0.0001,5.894,3.654*5E
$GPGRS,151457.00,1,-0.3,-0.1,-0.8,1.4,-0.1,5.9,-0.2,0.2,-0.4,-0.5,,*63
$GPGRS,151457.00,1,1.2,-0.4,2.4,-6.1,2.7,-6.9,0.1,,,,,*43
$GPGRS,151457.00,1,-0.3,-0.4,-1.0,3.7,-0.1,0.5,-0.0,0.2,-3.4,,,*60
$GPGRS,151457.00,1,0.2,0.7,1.1,0.9,0.9,0.5,-0.6,-0.7,-0.7,-0.3,-0.7,-0.2*4D
$GPGRS,151457.00,1,-0.1,-1.8,,,,,,,,,,*45
$GPGSV,6,1,21,25,74,095,50,18,13,186,40,26,10,295,39,20,16,080,40*78
$GPGSV,6,2,21,11,31,052,44,31,30,310,45,12,33,102,46,28,51,285,47*79
$GPGSV,6,3,21,29,74,242,50,06,03,029,36,05,05,112,36,32,08,242,40*73
$GPGSV,6,4,21,36,35,170,45,58,13,245,36,40,23,133,37,34,31,208,43*7D
$GPGSV,6,5,21,49,34,195,45,57,04,114,37,41,07,108,35,61,03,257,38*7B
$GPGSV,6,6,21*7A
$GLGSV,3,1,10,88,68,060,52,70,10,324,34,87,12,031,41,79,58,324,52*67
$GLGSV,3,2,10,81,48,194,51,78,62,117,52,80,06,313,45,82,02,204,38*68
$GLGSV,3,3,10,77,04,129,,71,06,008,42*64
$GAGSV,3,1,10,27,65,302,48,36,14,034,38,21,13,289,39,29,19,262,41*64
$GAGSV,3,2,10,19,17,308,36,15,39,157,46,34,49,079,47,30,57,095,48*61
$GAGSV,3,3,10,02,06,105,38,07,02,214,36*65
$GBGSV,5,1,20,25,79,244,52,05,20,130,38,28,15,206,,13,21,090,41*68
$GBGSV,5,2,20,43,28,215,45,23,31,306,46,10,11,074,36,24,36,141,47*63
$GBGSV,5,3,20,56,17,060,,08,21,082,38,38,22,067,42,11,49,202,48*6B
$GBGSV,5,4,20,31,37,082,,44,42,056,48,34,73,176,51,12,66,073,48*61
$GBGSV,5,5,20,02,05,108,33,19,03,345,,20,04,301,,60,09,110,39*6F
$GPGGA,151457.00,,,,,0,00,,,M,,M,,*4B
$PTNL,GGK,151457.00,010125,4742.1603962,N,01618.1008645,E,1,40,0.7,EHT752.0440,M*46
$GPGGQ,151457.00,010125,4742.1603962,N,01618.1008645,E,1,40,1.203,708.8374,M*38
$GPGFA,151457.00,6.301,7.401,0.663,0.440,359.668,0.903,,VVV*08
$GPLLK,151457.00,010125,,M,,M,1,40,0.8,,M*04
$GNGMP,151457.00,,,,,DAAA,40,0.4,,,,*55
$GPGMP,151457.00,,,,,,10,,,,2.4,136*7D
$GLGMP,151457.00,,,,,,07,,,,,*7B
$GAGMP,151457.00,,,,,,09,,,,,*78
$GBGMP,151457.00,,,,,,14,,,,,*77
$PSSN,SNC,[0,314115000,2347]*47
$GPZDA,151502.00,01,01,2025,,*61
$GPDTM,W84,,00.0000000,N,00.0000000,E,00.0000000,W84*5F
$PSSN,TFM,151502.00,,,,*6D
$GPRMC,151502.00,A,4742.1603944,N,01618.1008649,E,0.0,,010125,5.1,E,D*1B
$GPGLL,4742.1603944,N,01618.1008649,E,151502.00,A,D*6A
$GPGGA,151502.00,4742.1603944,N,01618.1008649,E,2,40,0.4,708.8377,M,43.2065,M,2.6,0136*45
$GNGNS,151502.00,4742.1603944,N,01618.1008649,E,DAAA,40,0.4,708.8377,43.2065,,*59
$GPGNS,151502.00,,,,,,10,,,,2.6,136*7E
$GLGNS,151502.00,,,,,,07,,,,,*7A
$GAGNS,151502.00,,,,,,09,,,,,*79
$GBGNS,151502.00,,,,,,14,,,,,*76
$GPLLQ,151502.00,010125,,M,,M,1,40,1.200,,M*14
$GPVTG,,T,,M,0.01,N,0.01,K,D*26
$GPHDT,,T*1B
$GPTHS,,V*0E
$GPROT,,V*08
$PSSN,HRP,151502.00,010125,,,,,,,00,0,,*63
$PTNL,AVR,151502.00,,Yaw,,Tilt,,,,0,,00*35
$GPGSA,A,3,11,12,18,20,25,26,28,29,31,32,,,0.7,0.4,0.5*3D
$GPGSA,A,3,71,78,79,80,81,87,88,,,,,,0.7,0.4,0.5*3D
$GPGSA,A,3,02,15,19,21,27,29,30,34,36,,,,0.7,0.4,0.5*36
$GPGSA,A,3,05,08,10,11,12,13,23,24,25,34,38,43,0.7,0.4,0.5*32
$GPGSA,A,3,44,60,,,,,,,,,,,0.7,0.4,0.5*32
$GPGST,151502.00,2.332,0.661,0.440,359.467,0.661,0.440,0.900*56
$GPGBS,151502.00,4.727,2.333,5.057,26,0.0001,5.654,3.648*53
$GPGRS,151502.00,1,-0.6,-0.4,-0.5,1.5,0.0,5.7,-0.1,0.1,0.0,-1.0,,*61
$GPGRS,151502.00,1,0.7,-0.5,2.7,-6.5,3.2,-7.0,0.2,,,,,*4F
$GPGRS,151502.00,1,-0.3,-0.3,-0.8,3.5,0.1,0.4,0.2,0.4,-3.3,,,*6F
$GPGRS,151502.00,1,0.1,0.8,0.7,1.5,1.5,0.5,-0.8,-0.5,-0.5,-0.4,-0.5,-0.2*4C
$GPGRS,151502.00,1,-0.3,-1.5,,,,,,,,,,*4B
$GPGSV,6,1,21,25,74,095,50,18,13,186,40,26,11,295,39,20,16,080,40*79
$GPGSV,6,2,21,11,31,052,44,31,30,309,45,12,33,102,46,28,51,285,47*71
$GPGSV,6,3,21,29,74,242,50,06,03,029,36,05,05,112,36,32,08,242,40*73
$GPGSV,6,4,21,36,35,170,45,58,13,245,36,40,23,133,37,34,31,208,43*7D
$GPGSV,6,5,21,49,34,195,45,57,04,114,36,41,07,108,34,61,03,257,38*7B
$GPGSV,6,6,21*7A
$GLGSV,3,1,10,88,68,059,52,70,10,324,33,87,12,031,40,79,58,324,52*6B
$GLGSV,3,2,10,81,48,194,51,78,62,117,52,80,06,313,44,82,02,204,38*69
$GLGSV,3,3,10,77,04,129,,71,06,008,42*64
$GAGSV,3,1,10,27,65,302,48,36,14,034,39,21,13,289,39,29,19,262,40*64
$GAGSV,3,2,10,19,17,308,36,15,39,157,46,34,49,079,47,30,57,095,48*61
$GAGSV,3,3,10,02,06,105,38,07,02,214,36*65
$GBGSV,5,1,20,25,79,244,52,05,20,130,38,28,15,206,,13,21,090,40*69
$GBGSV,5,2,20,24,35,141,47,56,17,060,,43,28,215,45,23,31,306,46*64
$GBGSV,5,3,20,10,11,074,36,08,22,082,38,38,22,067,43,11,49,202,48*6D
$GBGSV,5,4,20,31,37,082,,44,42,056,48,34,73,176,51,12,66,073,49*60
$GBGSV,5,5,20,20,04,301,,19,03,345,,02,05,108,33,60,09,110,40*61
$GPGGA,151502.00,,,,,0,00,,,M,,M,,*4A
$PTNL,GGK,151502.00,010125,4742.1603944,N,01618.1008649,E,1,40,0.7,EHT752.0443,M*4C
$GPGGQ,151502.00,010125,4742.1603944,N,01618.1008649,E,1,40,1.200,708.8377,M*31
$GPGFA,151502.00,6.289,7.381,0.661,0.440,359.467,0.900,,VVV*0B
$GPLLK,151502.00,010125,,M,,M,1,40,0.8,,M*05
$GNGMP,151502.00,,,,,DAAA,40,0.4,,,,*54
$GPGMP,151502.00,,,,,,10,,,,2.6,136*7E
$GLGMP,151502.00,,,,,,07,,,,,*7A
$GAGMP,151502.00,,,,,,09,,,,,*79
$GBGMP,151502.00,,,,,,14,,,,,*76
$PSSN,SNC,[0,314120000,2347]*41
$GPZDA,151507.00,01,01,2025,,*64
$GPDTM,W84,,00.0000000,N,00.0000000,E,00.0000000,W84*5F
$PSSN,TFM,151507.00,,,,*68
$GPRMC,151507.00,A,4742.1603925,N,01618.1008668,E,0.0,,010125,5.1,E,D*1A
$GPGLL,4742.1603925,N,01618.1008668,E,151507.00,A,D*6B
$GPGGA,151507.00,4742.1603925,N,01618.1008668,E,2,40,0.4,708.8380,M,43.2065,M,2.0,0136*4A
$GNGNS,151507.00,4742.1603925,N,01618.1008668,E,DAAA,40,0.4,708.8380,43.2065,,*50
$GPGNS,151507.00,,,,,,10,,,,2.0,136*7D
$GLGNS,151507.00,,,,,,07,,,,,*7F
$GAGNS,151507.00,,,,,,09,,,,,*7C
$GBGNS,151507.00,,,,,,14,,,,,*73
$GPLLQ,151507.00,010125,,M,,M,1,40,1.200,,M*11
$GPVTG,,T,,M,0.00,N,0.00,K,D*26
$GPHDT,,T*1B
$GPTHS,,V*0E
$GPROT,,V*08
$PSSN,HRP,151507.00,010125,,,,,,,00,0,,*66
$PTNL,AVR,151507.00,,Yaw,,Tilt,,,,0,,00*30
$GPGSA,A,3,11,12,18,20,25,26,28,29,31,32,,,0.7,0.4,0.5*3D
$GPGSA,A,3,71,78,79,80,81,87,88,,,,,,0.7,0.4,0.5*3D
$GPGSA,A,3,02,15,19,21,27,29,30,34,36,,,,0.7,0.4,0.5*36
$GPGSA,A,3,05,08,10,11,12,13,23,24,25,34,38,43,0.7,0.4,0.5*32
$GPGSA,A,3,44,60,,,,,,,,,,,0.7,0.4,0.5*32
$GPGST,151507.00,2.399,0.660,0.438,359.531,0.660,0.438,0.901*51
$GPGBS,151507.00,4.712,2.325,4.876,26,0.0001,5.559,3.642*59
$GPGRS,151507.00,1,-0.2,-0.4,-0.3,1.3,-0.1,5.6,-0.1,0.1,0.2,-0.6,,*48
$GPGRS,151507.00,1,1.4,-0.3,2.4,-6.4,3.3,-8.0,0.4,,,,,*44
$GPGRS,151507.00,1,-0.2,-0.3,-0.5,3.5,0.1,0.9,-0.0,0.3,-3.1,,,*41
$GPGRS,151507.00,1,0.3,1.0,0.4,1.5,1.2,-0.1,-0.5,-0.5,-0.8,-0.5,-0.5,-0.2*6E
$GPGRS,151507.00,1,-0.2,-1.5,,,,,,,,,,*4F
$GPGSV,6,1,21,25,74,095,50,18,13,186,40,26,11,295,39,20,16,080,40*79
$GPGSV,6,2,21,11,31,052,44,31,30,309,44,12,33,102,46,28,51,285,47*70
$GPGSV,6,3,21,29,74,242,50,06,03,029,36,05,05,112,36,32,08,242,40*73
$GPGSV,6,4,21,36,35,170,45,58,13,245,36,40,23,133,37,34,31,208,43*7D
$GPGSV,6,5,21,49,34,195,45,57,04,114,37,41,07,108,35,61,03,257,38*7B
$GPGSV,6,6,21*7A
$GLGSV,3,1,10,88,68,059,51,70,10,324,34,87,12,031,39,79,58,324,52*61
$GLGSV,3,2,10,81,48,194,51,78,62,117,52,80,07,313,44,82,02,204,38*68
$GLGSV,3,3,10,77,04,129,,71,06,008,42*64
$GAGSV,3,1,10,27,65,302,48,36,14,034,39,21,13,289,39,29,19,262,40*64
$GAGSV,3,2,10,19,17,308,36,15,39,157,46,34,49,079,47,30,57,095,48*61
$GAGSV,3,3,10,02,06,105,37,07,02,214,36*6A
$GBGSV,5,1,20,25,79,243,52,05,20,130,38,28,15,206,,10,11,074,36*65
$GBGSV,5,2,20,24,35,141,48,56,17,060,,23,31,306,46,43,28,215,45*6B
$GBGSV,5,3,20,13,21,090,40,08,22,082,39,38,22,067,43,11,49,202,49*66
$GBGSV,5,4,20,31,37,082,,44,42,056,48,34,73,176,51,12,66,073,49*60
$GBGSV,5,5,20,19,03,345,,20,04,301,,02,05,108,33,60,09,110,40*61
$GPGGA,151507.00,,,,,0,00,,,M,,M,,*4F
$PTNL,GGK,151507.00,010125,4742.1603925,N,01618.1008668,E,1,40,0.7,EHT752.0446,M*48
$GPGGQ,151507.00,010125,4742.1603925,N,01618.1008668,E,1,40,1.200,708.8380,M*38
$GPGFA,151507.00,6.280,7.392,0.660,0.438,359.531,0.901,,VVV*08
$GPLLK,151507.00,010125,,M,,M,1,40,0.8,,M*00
$GNGMP,151507.00,,,,,DAAA,40,0.4,,,,*51
$GPGMP,151507.00,,,,,,10,,,,2.0,136*7D
$GLGMP,151507.00,,,,,,07,,,,,*7F
$GAGMP,151507.00,,,,,,09,,,,,*7C
$GBGMP,151507.00,,,,,,14,,,,,*73
$PSSN,SNC,[0,314125000,2347]*44
$GPZDA,151512.00,01,01,2025,,*60
$GPDTM,W84,,00.0000000,N,00.0000000,E,00.0000000,W84*5F
$PSSN,TFM,151512.00,,,,*6C
$GPRMC,151512.00,A,4742.1603927,N,01618.1008693,E,0.0,,010125,5.1,E,D*18
$GPGLL,4742.1603927,N,01618.1008693,E,151512.00,A,D*69
$GPGGA,151512.00,4742.1603927,N,01618.1008693,E,2,40,0.4,708.8366,M,43.2065,M,3.0,0136*41
$GNGNS,151512.00,4742.1603927,N,01618.1008693,E,DAAA,40,0.4,708.8366,43.2065,,*5A
$GPGNS,151512.00,,,,,,10,,,,3.0,136*78
$GLGNS,151512.00,,,,,,07,,,,,*7B
$GAGNS,151512.00,,,,,,09,,,,,*78
$GBGNS,151512.00,,,,,,14,,,,,*77
$GPLLQ,151512.00,010125,,M,,M,1,40,1.200,,M*15
$GPVTG,,T,,M,0.00,N,0.01,K,D*27
$GPHDT,,T*1B
$GPTHS,,V*0E
$GPROT,,V*08
$PSSN,HRP,151512.00,010125,,,,,,,00,0,,*62
$PTNL,AVR,151512.00,,Yaw,,Tilt,,,,0,,00*34
$GPGSA,A,3,11,12,18,20,25,26,28,29,31,32,,,0.7,0.4,0.5*3D
$GPGSA,A,3,71,78,79,80,81,87,88,,,,,,0.7,0.4,0.5*3D
$GPGSA,A,3,02,15,19,21,27,29,30,34,36,,,,0.7,0.4,0.5*36
$GPGSA,A,3,05,08,10,11,12,13,23,24,25,34,38,43,0.7,0.4,0.5*32
$GPGSA,A,3,44,60,,,,,,,,,,,0.7,0.4,0.5*32
$GPGST,151512.00,2.468,0.660,0.438,359.820,0.660,0.438,0.901*51
$GPGBS,151512.00,4.733,2.341,4.899,26,0.0001,5.691,3.637*58
$GPGRS,151512.00,1,-0.4,-0.6,-0.2,1.4,0.0,5.7,-0.0,0.0,0.1,-0.6,,*60
$GPGRS,151512.00,1,1.6,0.1,2.7,-6.2,2.8,-8.6,0.4,,,,,*64
$GPGRS,151512.00,1,0.1,-0.6,-0.6,3.5,0.0,0.5,-0.2,0.4,-3.3,,,*67
$GPGRS,151512.00,1,0.6,1.3,0.9,1.5,1.2,-0.4,-0.7,-0.4,-0.8,-0.6,-0.6,-0.8*6D
$GPGRS,151512.00,1,-0.2,-1.4,,,,,,,,,,*4A
$GPGSV,6,1,21,25,74,095,49,18,13,186,40,26,11,295,38,20,16,080,40*70
$GPGSV,6,2,21,11,31,052,45,31,30,309,44,12,33,102,46,28,51,285,47*71
$GPGSV,6,3,21,29,74,242,50,06,03,029,36,05,05,112,36,32,08,242,39*7D
$GPGSV,6,4,21,36,35,170,45,58,13,245,36,40,23,133,37,34,31,208,43*7D
$GPGSV,6,5,21,49,34,195,45,57,04,114,37,41,07,108,35,61,03,257,38*7B
$GPGSV,6,6,21*7A
$GLGSV,3,1,10,88,68,059,51,70,10,324,35,87,12,031,39,79,58,324,52*60
$GLGSV,3,2,10,81,48,194,51,78,62,117,53,80,07,313,44,82,02,204,38*69
$GLGSV,3,3,10,77,04,129,,71,06,008,42*64
$GAGSV,3,1,10,27,65,302,48,36,14,034,39,21,13,289,39,29,19,262,41*65
$GAGSV,3,2,10,19,17,308,36,15,39,157,46,34,49,079,47,30,57,095,48*61
$GAGSV,3,3,10,02,06,105,37,07,02,214,36*6A
$GBGSV,5,1,20,25,79,243,52,05,20,130,38,28,15,206,,10,11,074,36*65
$GBGSV,5,2,20,24,35,141,48,56,17,060,,23,31,306,45,43,28,215,45*68
$GBGSV,5,3,20,13,21,090,40,08,22,082,39,38,22,067,43,11,49,202,48*67
$GBGSV,5,4,20,31,37,082,,44,42,056,48,34,73,176,51,12,66,073,49*60
$GBGSV,5,5,20,19,03,345,,20,04,301,,02,05,108,33,60,09,110,40*61
$GPGGA,151512.00,,,,,0,00,,,M,,M,,*4B
$PTNL,GGK,151512.00,010125,4742.1603927,N,01618.1008693,E,1,40,0.7,EHT752.0432,M*49
$GPGGQ,151512.00,010125,4742.1603927,N,01618.1008693,E,1,40,1.200,708.8366,M*32
$GPGFA,151512.00,6.279,7.391,0.660,0.438,359.820,0.901,,VVV*04
$GPLLK,151512.00,010125,,M,,M,1,40,0.8,,M*04
$GNGMP,151512.00,,,,,DAAA,40,0.4,,,,*55
$GPGMP,151512.00,,,,,,10,,,,3.0,136*78
$GLGMP,151512.00,,,,,,07,,,,,*7B
$GAGMP,151512.00,,,,,,09,,,,,*78
$GBGMP,151512.00,,,,,,14,,,,,*77
$PSSN,SNC,[0,314130000,2347]*40
$GPZDA,151517.00,01,01,2025,,*65
$GPDTM,W84,,00.0000000,N,00.0000000,E,00.0000000,W84*5F
$PSSN,TFM,151517.00,,,,*69
$GPRMC,151517.00,A,4742.1603908,N,01618.1008731,E,0.0,,010125,5.1,E,D*19
$GPGLL,4742.1603908,N,01618.1008731,E,151517.00,A,D*68
$GPGGA,151517.00,4742.1603908,N,01618.1008731,E,2,39,0.4,708.8391,M,43.2065,M,2.4,0136*43
$GNGNS,151517.00,4742.1603908,N,01618.1008731,E,DAAA,39,0.4,708.8391,43.2065,,*5D
$GPGNS,151517.00,,,,,,10,,,,2.4,136*78
$GLGNS,151517.00,,,,,,07,,,,,*7E
$GAGNS,151517.00,,,,,,08,,,,,*7C
$GBGNS,151517.00,,,,,,14,,,,,*72
$GPLLQ,151517.00,010125,,M,,M,1,39,1.198,,M*1C
$GPVTG,,T,,M,0.00,N,0.01,K,D*27
$GPHDT,,T*1B
$GPTHS,,V*0E
$GPROT,,V*08
$PSSN,HRP,151517.00,010125,,,,,,,00,0,,*67
$PTNL,AVR,151517.00,,Yaw,,Tilt,,,,0,,00*31
$GPGSA,A,3,11,12,18,20,25,26,28,29,31,32,,,0.7,0.4,0.6*3E
$GPGSA,A,3,71,78,79,80,81,87,88,,,,,,0.7,0.4,0.6*3E
$GPGSA,A,3,02,15,21,27,29,30,34,36,,,,,0.7,0.4,0.6*3D
$GPGSA,A,3,05,08,10,11,12,13,23,24,25,34,38,43,0.7,0.4,0.6*31
$GPGSA,A,3,44,60,,,,,,,,,,,0.7,0.4,0.6*31
$GPGST,151517.00,2.469,0.663,0.436,359.802,0.663,0.436,0.897*5B
$GPGBS,151517.00,4.731,2.354,5.048,26,0.0001,5.481,3.636*5C
$GPGRS,151517.00,1,-0.5,-0.2,-0.7,0.8,0.1,5.5,0.0,-0.0,0.2,-0.9,,*67
$GPGRS,151517.00,1,2.5,-0.0,2.8,-6.1,3.3,-8.1,0.6,,,,,*4E
$GPGRS,151517.00,1,0.3,-0.7,3.6,0.0,0.8,-0.1,0.9,-2.8,,,,*6E
$GPGRS,151517.00,1,0.5,1.8,1.3,1.6,1.1,0.2,-0.4,-0.5,-0.5,-0.6,-0.6,-0.4*43
$GPGRS,151517.00,1,0.1,-1.3,,,,,,,,,,*66
$GPGSV,6,1,21,25,74,095,50,18,13,186,40,26,11,295,39,20,16,080,40*79
$GPGSV,6,2,21,11,31,052,45,31,31,309,44,12,33,102,46,28,51,285,47*70
$GPGSV,6,3,21,29,74,243,50,06,03,029,36,05,05,112,36,32,08,242,41*73
$GPGSV,6,4,21,36,35,170,45,58,13,245,36,40,23,133,37,34,31,208,43*7D
$GPGSV,6,5,21,49,34,195,45,57,04,114,36,41,07,108,35,61,03,257,38*7A
$GPGSV,6,6,21*7A
$GLGSV,3,1,10,88,68,059,52,79,58,324,52,87,12,031,39,78,62,117,52*6D
$GLGSV,3,2,10,81,48,194,52,80,07,313,44,71,06,008,43,82,02,204,38*6F
$GLGSV,3,3,10,77,04,129,,70,10,324,33*69
$GAGSV,3,1,10,27,65,302,48,36,14,033,39,21,13,289,39,29,19,262,40*63
$GAGSV,3,2,10,19,17,308,35,15,39,157,46,34,49,079,47,30,57,095,48*62
$GAGSV,3,3,10,02,06,105,38,07,02,214,36*65
$GBGSV,5,1,20,25,79,243,52,05,20,130,38,28,15,206,,10,11,074,36*65
$GBGSV,5,2,20,24,35,141,47,56,17,060,,23,31,306,46,43,28,215,45*64
$GBGSV,5,3,20,13,21,090,40,08,22,082,40,38,22,067,43,11,49,202,49*68
$GBGSV,5,4,20,31,37,082,,44,42,056,48,34,73,176,51,12,66,073,49*60
$GBGSV,5,5,20,19,03,345,,20,04,301,,02,05,108,33,60,09,110,40*61
$GPGGA,151517.00,,,,,0,00,,,M,,M,,*4E
$PTNL,GGK,151517.00,010125,4742.1603908,N,01618.1008731,E,1,39,0.7,EHT752.0457,M*45
$GPGGQ,151517.00,010125,4742.1603908,N,01618.1008731,E,1,39,1.198,708.8391,M*37
$GPGFA,151517.00,6.307,7.354,0.663,0.436,359.802,0.897,,VVV*03
$GPLLK,151517.00,010125,,M,,M,1,39,0.8,,M*0F
$GNGMP,151517.00,,,,,DAAA,39,0.4,,,,*5E
$GPGMP,151517.00,,,,,,10,,,,2.4,136*78
$GLGMP,151517.00,,,,,,07,,,,,*7E
$GAGMP,151517.00,,,,,,08,,,,,*7C
$GBGMP,151517.00,,,,,,14,,,,,*72
$PSSN,SNC,[0,314135000,2347]*45
$GPZDA,151522.00,01,01,2025,,*63
$GPDTM,W84,,00.0000000,N,00.0000000,E,00.0000000,W84*5F
$PSSN,TFM,151522.00,,,,*6F
$GPRMC,151522.00,A,4742.1603893,N,01618.1008742,E,0.0,,010125,5.1,E,D*18
$GPGLL,4742.1603893,N,01618.1008742,E,151522.00,A,D*69
$GPGGA,151522.00,4742.1603893,N,01618.1008742,E,2,40,0.4,708.8383,M,43.2065,M,2.6,0136*4D
$GNGNS,151522.00,4742.1603893,N,01618.1008742,E,DAAA,40,0.4,708.8383,43.2065,,*51
$GPGNS,151522.00,,,,,,10,,,,2.6,136*7C
$GLGNS,151522.00,,,,,,07,,,,,*78
$GAGNS,151522.00,,,,,,09,,,,,*7B
$GBGNS,151522.00,,,,,,14,,,,,*74
$GPLLQ,151522.00,010125,,M,,M,1,40,1.194,,M*18
$GPVTG,,T,,M,0.00,N,0.01,K,D*27
$GPHDT,,T*1B
$GPTHS,,V*0E
$GPROT,,V*08
$PSSN,HRP,151522.00,010125,,,,,,,00,0,,*61
$PTNL,AVR,151522.00,,Yaw,,Tilt,,,,0,,00*37
$GPGSA,A,3,11,12,18,20,25,26,28,29,31,32,,,0.7,0.4,0.5*3D
$GPGSA,A,3,71,78,79,80,81,87,88,,,,,,0.7,0.4,0.5*3D
$GPGSA,A,3,02,15,19,21,27,29,30,34,36,,,,0.7,0.4,0.5*36
$GPGSA,A,3,05,08,10,11,12,13,23,24,25,34,38,43,0.7,0.4,0.5*32
$GPGSA,A,3,44,60,,,,,,,,,,,0.7,0.4,0.5*32
$GPGST,151522.00,2.408,0.661,0.435,359.820,0.661,0.435,0.894*59
$GPGBS,151522.00,4.696,2.355,5.090,26,0.0001,5.983,3.630*5B
$GPGRS,151522.00,1,-0.4,-0.2,-0.5,0.9,0.0,6.0,-0.1,0.0,0.1,-0.5,,*6A
$GPGRS,151522.00,1,2.2,-0.1,2.6,-6.2,3.7,-7.5,0.6,,,,,*4C
$GPGRS,151522.00,1,0.5,0.0,-0.9,3.3,-0.1,0.4,0.1,0.9,-3.0,,,*4F
$GPGRS,151522.00,1,0.4,2.0,0.5,1.6,0.9,0.2,-0.4,-0.5,-0.6,-0.4,-0.7,0.2*6A
$GPGRS,151522.00,1,0.4,-1.8,,,,,,,,,,*6E
$GPGSV,6,1,21,25,74,096,49,18,13,186,40,26,11,295,40,20,16,080,40*7C
$GPGSV,6,2,21,11,31,052,44,31,31,309,44,12,33,103,46,28,51,285,47*70
$GPGSV,6,3,21,29,74,243,50,06,03,029,36,05,05,112,35,32,08,242,42*73
$GPGSV,6,4,21,36,35,170,45,58,13,245,36,40,23,133,37,34,31,208,43*7D
$GPGSV,6,5,21,49,34,195,45,57,04,114,37,41,07,108,35,61,03,257,38*7B
$GPGSV,6,6,21*7A
$GLGSV,3,1,10,88,68,059,52,79,58,324,52,87,12,031,40,78,62,117,52*63
$GLGSV,3,2,10,81,48,194,52,80,07,313,44,71,06,008,42,82,02,204,38*6E
$GLGSV,3,3,10,77,04,129,,70,10,324,34*6E
$GAGSV,3,1,10,27,65,303,48,36,14,033,38,21,13,289,38,29,19,262,40*62
$GAGSV,3,2,10,19,17,308,35,15,39,157,46,34,49,079,47,30,57,095,48*62
$GAGSV,3,3,10,02,06,105,38,07,02,214,35*66
$GBGSV,5,1,20,25,79,243,51,05,20,130,38,28,15,206,,10,11,074,35*65
$GBGSV,5,2,20,24,35,141,47,56,17,060,,23,31,306,45,43,28,215,45*67
$GBGSV,5,3,20,13,21,090,40,38,22,067,43,08,22,082,40,11,49,202,48*69
$GBGSV,5,4,20,31,37,082,,44,42,056,48,34,73,176,51,12,66,073,48*61
$GBGSV,5,5,20,19,03,345,,02,05,108,33,20,04,301,,60,09,110,40*61
$GPGGA,151522.00,,,,,0,00,,,M,,M,,*48
$PTNL,GGK,151522.00,010125,4742.1603893,N,01618.1008742,E,1,40,0.7,EHT752.0448,M*44
$GPGGQ,151522.00,010125,4742.1603893,N,01618.1008742,E,1,40,1.194,708.8383,M*37
$GPGFA,151522.00,6.284,7.333,0.661,0.435,359.820,0.894,,VVV*0C
$GPLLK,151522.00,010125,,M,,M,1,40,0.8,,M*07
$GNGMP,151522.00,,,,,DAAA,40,0.4,,,,*56
$GPGMP,151522.00,,,,,,10,,,,2.6,136*7C
$GLGMP,151522.00,,,,,,07,,,,,*78
$GAGMP,151522.00,,,,,,09,,,,,*7B
$GBGMP,151522.00,,,,,,14,,,,,*74
$PSSN,SNC,[0,314140000,2347]*47
$GPZDA,151527.00,01,01,2025,,*66
$GPDTM,W84,,00.0000000,N,00.0000000,E,00.0000000,W84*5F
$PSSN,TFM,151527.00,,,,*6A
$GPRMC,151527.00,A,4742.1603889,N,01618.1008775,E,0.0,,010125,5.1,E,D*12
$GPGLL,4742.1603889,N,01618.1008775,E,151527.00,A,D*63
$GPGGA,151527.00,4742.1603889,N,01618.1008775,E,2,40,0.4,708.8414,M,43.2065,M,2.0,0136*48
$GNGNS,151527.00,4742.1603889,N,01618.1008775,E,DAAA,40,0.4,708.8414,43.2065,,*52
$GPGNS,151527.00,,,,,,10,,,,2.0,136*7F
$GLGNS,151527.00,,,,,,07,,,,,*7D
$GAGNS,151527.00,,,,,,09,,,,,*7E
$GBGNS,151527.00,,,,,,14,,,,,*71
$GPLLQ,151527.00,010125,,M,,M,1,40,1.192,,M*1B
$GPVTG,,T,,M,0.01,N,0.01,K,D*26
$GPHDT,,T*1B
$GPTHS,,V*0E
$GPROT,,V*08
$PSSN,HRP,151527.00,010125,,,,,,,00,0,,*64
$PTNL,AVR,151527.00,,Yaw,,Tilt,,,,0,,00*32
$GPGSA,A,3,11,12,18,20,25,26,28,29,31,32,,,0.7,0.4,0.5*3D
$GPGSA,A,3,71,78,79,80,81,87,88,,,,,,0.7,0.4,0.5*3D
$GPGSA,A,3,02,15,19,21,27,29,30,34,36,,,,0.7,0.4,0.5*36
$GPGSA,A,3,05,08,10,11,12,13,23,24,25,34,38,43,0.7,0.4,0.5*32
$GPGSA,A,3,44,60,,,,,,,,,,,0.7,0.4,0.5*32
$GPGST,151527.00,2.424,0.659,0.432,0.190,0.659,0.432,0.895*5E
$GPGBS,151527.00,4.683,2.347,4.912,26,0.0001,6.151,3.626*58
$GPGRS,151527.00,1,-0.4,-0.4,-0.4,1.3,0.1,6.2,-0.1,-0.2,0.4,-1.0,,*4E
$GPGRS,151527.00,1,0.5,-0.0,2.6,-6.5,3.5,-7.6,0.6,,,,,*4B
$GPGRS,151527.00,1,0.1,-0.1,-0.8,3.9,-0.0,0.2,0.1,0.8,-2.6,,,*68
$GPGRS,151527.00,1,0.6,1.8,0.0,1.2,0.7,0.2,-0.5,-0.2,-0.7,-0.5,-0.7,-0.6*46
$GPGRS,151527.00,1,-0.1,-1.5,,,,,,,,,,*4E
$GPGSV,6,1,21,25,74,096,50,18,13,186,40,26,11,295,39,20,16,080,39*74
$GPGSV,6,2,21,11,31,052,45,31,31,309,44,12,33,103,45,28,51,284,47*73
$GPGSV,6,3,21,29,74,243,50,06,03,029,36,05,05,112,36,32,08,242,41*73
$GPGSV,6,4,21,36,35,170,45,58,13,245,36,40,23,133,37,34,31,208,43*7D
$GPGSV,6,5,21,49,34,195,45,57,04,114,37,41,07,108,35,61,03,257,38*7B
$GPGSV,6,6,21*7A
$GLGSV,3,1,10,88,68,059,51,79,58,324,52,87,12,031,40,78,62,118,52*6F
$GLGSV,3,2,10,81,48,194,52,80,07,313,44,71,06,008,42,82,03,204,38*6F
$GLGSV,3,3,10,77,04,129,,70,10,324,34*6E
$GAGSV,3,1,11,27,65,303,48,36,14,033,38,21,13,289,39,29,19,262,41*63
$GAGSV,3,2,11,19,17,308,36,15,39,157,46,34,49,079,47,30,57,095,48*60
$GAGSV,3,3,11,13,00,190,,02,06,105,38,07,02,214,35*5D
$GBGSV,5,1,20,25,79,243,51,05,20,130,38,28,15,206,,10,11,074,36*66
$GBGSV,5,2,20,24,35,141,47,56,17,060,,23,31,306,45,43,28,215,45*67
$GBGSV,5,3,20,13,21,090,41,38,22,067,43,08,22,082,39,11,49,202,48*66
$GBGSV,5,4,20,31,37,082,,44,42,056,47,34,73,175,51,12,66,073,48*6D
$GBGSV,5,5,20,19,03,345,,02,05,108,33,20,04,301,,60,09,110,40*61
$GPGGA,151527.00,,,,,0,00,,,M,,M,,*4D
$PTNL,GGK,151527.00,010125,4742.1603889,N,01618.1008775,E,1,40,0.7,EHT752.0480,M*4A
$GPGGQ,151527.00,010125,4742.1603889,N,01618.1008775,E,1,40,1.192,708.8414,M*32
$GPGFA,151527.00,6.261,7.337,0.659,0.432,0.190,0.895,,VVV*06
$GPLLK,151527.00,010125,,M,,M,1,40,0.8,,M*02
$GNGMP,151527.00,,,,,DAAA,40,0.4,,,,*53
$GPGMP,151527.00,,,,,,10,,,,2.0,136*7F
$GLGMP,151527.00,,,,,,07,,,,,*7D
$GAGMP,151527.00,,,,,,09,,,,,*7E
$GBGMP,151527.00,,,,,,14,,,,,*71
$PSSN,SNC,[0,314145000,2347]*42
$GPZDA,151532.00,01,01,2025,,*62
$GPDTM,W84,,00.0000000,N,00.0000000,E,00.0000000,W84*5F
$PSSN,TFM,151532.00,,,,*6E
$GPRMC,151532.00,A,4742.1603848,N,01618.1008810,E,0.0,,010125,5.1,E,D*17
$GPGLL,4742.1603848,N,01618.1008810,E,151532.00,A,D*66
$GPGGA,151532.00,4742.1603848,N,01618.1008810,E,2,40,0.4,708.8405,M,43.2065,M,3.0,0136*4C
$GNGNS,151532.00,4742.1603848,N,01618.1008810,E,DAAA,40,0.4,708.8405,43.2065,,*57
$GPGNS,151532.00,,,,,,10,,,,3.0,136*7A
$GLGNS,151532.00,,,,,,07,,,,,*79
$GAGNS,151532.00,,,,,,09,,,,,*7A
$GBGNS,151532.00,,,,,,14,,,,,*75
$GPLLQ,151532.00,010125,,M,,M,1,40,1.192,,M*1F
$GPVTG,,T,,M,0.00,N,0.00,K,D*26
$GPHDT,,T*1B
$GPTHS,,V*0E
$GPROT,,V*08
$PSSN,HRP,151532.00,010125,,,,,,,00,0,,*60
$PTNL,AVR,151532.00,,Yaw,,Tilt,,,,0,,00*36
$GPGSA,A,3,11,12,18,20,25,26,28,29,31,32,,,0.7,0.4,0.5*3D
$GPGSA,A,3,71,78,79,80,81,87,88,,,,,,0.7,0.4,0.5*3D
$GPGSA,A,3,02,15,19,21,27,29,30,34,36,,,,0.7,0.4,0.5*36
$GPGSA,A,3,05,08,10,11,12,13,23,24,25,34,38,43,0.7,0.4,0.5*32
$GPGSA,A,3,44,60,,,,,,,,,,,0.7,0.4,0.5*32
$GPGST,151532.00,2.408,0.659,0.432,0.481,0.659,0.432,0.895*51
$GPGBS,151532.00,4.704,2.363,4.932,26,0.0001,5.038,3.602*5D
$GPGRS,151532.00,1,-0.3,-0.2,-0.7,0.6,-0.0,5.0,0.2,-0.0,0.5,-1.5,,*49
$GPGRS,151532.00,1,0.6,-0.1,2.8,-6.2,3.4,-8.4,0.8,,,,,*46
$GPGRS,151532.00,1,-0.2,-0.1,-1.2,3.7,-0.1,0.2,0.2,0.6,-2.7,,,*4A
$GPGRS,151532.00,1,0.8,1.3,-0.5,0.4,1.0,0.5,-0.6,-0.2,-0.7,-0.5,-1.3,-0.9*60
$GPGRS,151532.00,1,0.1,-1.7,,,,,,,,,,*65
$GPGSV,6,1,21,25,74,096,50,18,13,186,40,26,11,295,38,20,16,080,40*7B
$GPGSV,6,2,21,11,31,052,44,31,31,309,44,12,33,103,45,28,51,284,47*72
$GPGSV,6,3,21,29,74,243,50,06,03,029,35,05,05,112,36,32,08,242,41*70
$GPGSV,6,4,21,36,35,170,45,58,13,245,37,40,23,133,37,34,31,208,43*7C
$GPGSV,6,5,21,49,34,195,45,57,04,114,37,41,07,108,35,61,03,257,38*7B
$GPGSV,6,6,21*7A
$GLGSV,3,1,10,88,68,059,52,79,59,324,53,87,12,031,40,78,62,118,52*6C
$GLGSV,3,2,10,81,48,194,52,80,07,313,43,71,06,008,41,82,03,204,38*6B
$GLGSV,3,3,10,77,04,129,,70,10,324,34*6E
$GAGSV,3,1,11,27,65,303,48,36,14,033,38,21,13,289,39,29,19,262,41*63
$GAGSV,3,2,11,19,17,308,35,15,39,157,46,34,49,079,46,30,57,096,48*61
$GAGSV,3,3,11,13,00,190,,02,06,105,38,07,02,214,35*5D
$GBGSV,5,1,20,25,79,243,51,05,20,130,38,28,15,206,,10,11,074,36*66
$GBGSV,5,2,20,24,35,141,47,56,17,060,,23,31,306,45,43,28,215,45*67
$GBGSV,5,3,20,13,21,090,41,38,22,067,43,08,22,082,39,11,49,202,48*66
$GBGSV,5,4,20,31,37,082,,44,42,056,48,34,73,175,51,12,66,073,48*62
$GBGSV,5,5,20,19,03,345,,02,05,108,33,20,04,301,,60,09,110,40*61
$GPGGA,151532.00,,,,,0,00,,,M,,M,,*49
$PTNL,GGK,151532.00,010125,4742.1603848,N,01618.1008810,E,1,40,0.7,EHT752.0471,M*41
$GPGGQ,151532.00,010125,4742.1603848,N,01618.1008810,E,1,40,1.192,708.8405,M*37
$GPGFA,151532.00,6.261,7.336,0.659,0.432,0.481,0.895,,VVV*06
$GPLLK,151532.00,010125,,M,,M,1,40,0.8,,M*06
$GNGMP,151532.00,,,,,DAAA,40,0.4,,,,*57
$GPGMP,151532.00,,,,,,10,,,,3.0,136*7A
$GLGMP,151532.00,,,,,,07,,,,,*79
$GAGMP,151532.00,,,,,,09,,,,,*7A
$GBGMP,151532.00,,,,,,14,,,,,*75
$PSSN,SNC,[0,314150000,2347]*46
$GPZDA,151537.00,01,01,2025,,*67
$GPDTM,W84,,00.0000000,N,00.0000000,E,00.0000000,W84*5F
$PSSN,TFM,151537.00,,,,*6B
$GPRMC,151537.00,A,4742.1603827,N,01618.1008817,E,0.0,,010125,5.1,E,D*1C
$GPGLL,4742.1603827,N,01618.1008817,E,151537.00,A,D*6D
$GPGGA,151537.00,4742.1603827,N,01618.1008817,E,2,40,0.4,708.8394,M,43.2065,M,2.4,0136*4D
$GNGNS,151537.00,4742.1603827,N,01618.1008817,E,DAAA,40,0.4,708.8394,43.2065,,*53
$GPGNS,151537.00,,,,,,10,,,,2.4,136*7A
$GLGNS,151537.00,,,,,,07,,,,,*7C
$GAGNS,151537.00,,,,,,09,,,,,*7F
$GBGNS,151537.00,,,,,,14,,,,,*70
$GPLLQ,151537.00,010125,,M,,M,1,40,1.194,,M*1C
$GPVTG,,T,,M,0.00,N,0.00,K,D*26
$GPHDT,,T*1B
$GPTHS,,V*0E
$GPROT,,V*08
$PSSN,HRP,151537.00,010125,,,,,,,00,0,,*65
$PTNL,AVR,151537.00,,Yaw,,Tilt,,,,0,,00*33
$GPGSA,A,3,11,12,18,20,25,26,28,29,31,32,,,0.7,0.4,0.5*3D
$GPGSA,A,3,71,78,79,80,81,87,88,,,,,,0.7,0.4,0.5*3D
$GPGSA,A,3,02,15,19,21,27,29,30,34,36,,,,0.7,0.4,0.5*36
$GPGSA,A,3,05,08,10,11,12,13,23,24,25,34,38,43,0.7,0.4,0.5*32
$GPGSA,A,3,44,60,,,,,,,,,,,0.7,0.4,0.5*32
$GPGST,151537.00,2.432,0.660,0.434,0.380,0.660,0.434,0.896*58
$GPGBS,151537.00,4.719,2.332,5.007,26,0.0001,5.110,3.584*58
$GPGRS,151537.00,1,-0.6,0.3,-0.8,0.6,0.1,5.1,0.1,-0.3,0.5,-0.9,,*4A
$GPGRS,151537.00,1,-0.6,-0.1,2.3,-6.6,3.3,-8.3,0.9,,,,,*60
$GPGRS,151537.00,1,0.4,-0.3,-1.4,3.7,-0.2,0.3,0.2,0.6,-3.3,,,*67
$GPGRS,151537.00,1,0.1,0.1,0.5,0.9,1.0,0.1,-0.6,-0.2,-0.9,-0.6,-1.4,-0.6*4E
$GPGRS,151537.00,1,0.2,-1.9,,,,,,,,,,*6D
$GPGSV,6,1,21,25,74,096,50,18,13,186,40,26,11,295,39,20,16,080,40*7A
$GPGSV,6,2,21,11,31,052,44,31,31,309,44,12,33,103,44,28,51,284,47*73
$GPGSV,6,3,21,29,74,243,50,06,03,029,35,05,05,112,35,32,08,242,40*72
$GPGSV,6,4,21,36,35,170,45,58,13,245,36,40,23,133,37,34,31,208,43*7D
$GPGSV,6,5,21,49,34,195,45,57,04,114,37,41,07,108,35,61,03,257,38*7B
$GPGSV,6,6,21*7A
$GLGSV,3,1,10,88,68,059,52,79,59,324,52,87,12,031,40,78,62,118,52*6D
$GLGSV,3,2,10,81,48,195,52,80,07,313,44,71,06,008,42,82,03,204,39*6F
$GLGSV,3,3,10,77,04,129,,70,10,324,34*6E
$GAGSV,3,1,11,27,65,303,48,36,14,033,38,21,13,290,40,29,19,262,41*65
$GAGSV,3,2,11,19,17,308,35,15,40,157,46,34,49,079,47,30,57,096,48*6E
$GAGSV,3,3,11,13,00,190,,02,06,105,38,07,02,214,35*5D
$GBGSV,5,1,20,25,79,242,51,05,20,130,38,28,15,206,,10,11,074,36*67
$GBGSV,5,2,20,24,35,141,46,56,17,060,,23,31,306,45,43,28,215,45*66
$GBGSV,5,3,20,13,21,090,40,38,22,067,43,08,22,082,39,11,49,202,48*67
$GBGSV,5,4,20,31,37,082,,44,42,056,48,34,73,175,51,12,66,073,48*62
$GBGSV,5,5,20,19,03,345,,02,05,108,33,20,04,301,,60,09,110,40*61
$GPGGA,151537.00,,,,,0,00,,,M,,M,,*4C
$PTNL,GGK,151537.00,010125,4742.1603827,N,01618.1008817,E,1,40,0.7,EHT752.0459,M*40
$GPGGQ,151537.00,010125,4742.1603827,N,01618.1008817,E,1,40,1.194,708.8394,M*35
$GPGFA,151537.00,6.276,7.344,0.660,0.434,0.380,0.896,,VVV*09
$GPLLK,151537.00,010125,,M,,M,1,40,0.8,,M*03
$GNGMP,151537.00,,,,,DAAA,40,0.4,,,,*52
$GPGMP,151537.00,,,,,,10,,,,2.4,136*7A
$GLGMP,151537.00,,,,,,07,,,,,*7C
$GAGMP,151537.00,,,,,,09,,,,,*7F
$GBGMP,151537.00,,,,,,14,,,,,*70
$PSSN,SNC,[0,314155000,2347]*43
$GPZDA,151542.00,01,01,2025,,*65
$GPDTM,W84,,00.0000000,N,00.0000000,E,00.0000000,W84*5F
$PSSN,TFM,151542.00,,,,*69
$GPRMC,151542.00,A,4742.1603797,N,01618.1008818,E,0.0,,010125,5.1,E,D*15
$GPGLL,4742.1603797,N,01618.1008818,E,151542.00,A,D*64
$GPGGA,151542.00,4742.1603797,N,01618.1008818,E,2,40,0.4,708.8382,M,43.2065,M,2.6,0136*41
$GNGNS,151542.00,4742.1603797,N,01618.1008818,E,DAAA,40,0.4,708.8382,43.2065,,*5D
$GPGNS,151542.00,,,,,,10,,,,2.6,136*7A
$GLGNS,151542.00,,,,,,07,,,,,*7E
$GAGNS,151542.00,,,,,,09,,,,,*7D
$GBGNS,151542.00,,,,,,14,,,,,*72
$GPLLQ,151542.00,010125,,M,,M,1,40,1.193,,M*19
$GPVTG,,T,,M,0.00,N,0.00,K,D*26
$GPHDT,,T*1B
$GPTHS,,V*0E
$GPROT,,V*08
$PSSN,HRP,151542.00,010125,,,,,,,00,0,,*67
$PTNL,AVR,151542.00,,Yaw,,Tilt,,,,0,,00*31
$GPGSA,A,3,11,12,18,20,25,26,28,29,31,32,,,0.7,0.4,0.5*3D
$GPGSA,A,3,71,78,79,80,81,87,88,,,,,,0.7,0.4,0.5*3D
$GPGSA,A,3,02,15,19,21,27,29,30,34,36,,,,0.7,0.4,0.5*36
$GPGSA,A,3,05,08,10,11,12,13,23,24,25,34,38,43,0.7,0.4,0.5*32
$GPGSA,A,3,44,60,,,,,,,,,,,0.7,0.4,0.5*32
$GPGST,151542.00,2.410,0.660,0.435,359.946,0.660,0.435,0.893*50
$GPGBS,151542.00,4.698,2.351,5.079,26,0.0001,5.766,3.578*5A
$GPGRS,151542.00,1,-0.4,0.2,-0.8,0.8,0.2,5.8,0.1,-0.2,0.0,-0.9,,*4B
$GPGRS,151542.00,1,1.4,-0.3,1.9,-5.8,3.1,-8.3,0.7,,,,,*46
$GPGRS,151542.00,1,0.0,-0.3,-1.0,3.2,-0.3,0.1,0.0,0.6,-3.4,,,*66
$GPGRS,151542.00,1,0.2,-0.2,0.8,2.1,1.1,-0.0,-0.4,-0.4,-0.8,-0.8,-1.6,-0.5*41
$GPGRS,151542.00,1,0.2,-1.8,,,,,,,,,,*6E
$GPGSV,6,1,21,25,74,096,50,18,13,186,40,26,11,295,39,20,16,080,41*7B
$GPGSV,6,2,21,11,31,051,44,31,31,309,44,12,33,103,45,28,52,284,47*72
$GPGSV,6,3,21,29,74,243,50,06,03,029,35,05,05,112,35,32,08,242,40*72
$GPGSV,6,4,21,36,35,170,45,58,13,245,36,40,23,133,37,34,31,208,43*7D
$GPGSV,6,5,21,49,34,195,45,57,04,114,36,41,07,108,35,61,03,257,38*7A
$GPGSV,6,6,21*7A
$GLGSV,3,1,10,88,68,059,52,79,59,324,52,87,12,031,40,78,62,118,52*6D
$GLGSV,3,2,10,81,48,195,52,80,07,313,44,71,06,008,42,82,03,204,39*6F
$GLGSV,3,3,10,77,04,129,,70,10,324,33*69
$GAGSV,3,1,11,27,65,303,48,36,14,033,38,21,13,290,39,29,19,262,41*6B
$GAGSV,3,2,11,19,17,308,35,15,40,157,46,34,49,079,47,30,57,096,48*6E
$GAGSV,3,3,11,13,00,190,,02,06,105,38,07,02,214,35*5D
$GBGSV,5,1,20,25,79,242,51,05,20,130,38,28,15,206,,10,11,074,36*67
$GBGSV,5,2,20,24,35,141,46,56,17,060,,23,31,306,45,43,28,215,45*66
$GBGSV,5,3,20,13,21,090,41,38,22,067,43,08,22,082,38,11,49,202,48*67
$GBGSV,5,4,20,31,37,082,,44,42,056,48,34,73,175,51,12,66,073,48*62
$GBGSV,5,5,20,19,03,345,,02,05,108,33,20,04,301,,60,09,110,40*61
$GPGGA,151542.00,,,,,0,00,,,M,,M,,*4E
$PTNL,GGK,151542.00,010125,4742.1603797,N,01618.1008818,E,1,40,0.7,EHT752.0448,M*49
$GPGGQ,151542.00,010125,4742.1603797,N,01618.1008818,E,1,40,1.193,708.8382,M*3C
$GPGFA,151542.00,6.273,7.326,0.660,0.435,359.946,0.893,,VVV*01
$GPLLK,151542.00,010125,,M,,M,1,40,0.8,,M*01
$GNGMP,151542.00,,,,,DAAA,40,0.4,,,,*50
$GPGMP,151542.00,,,,,,10,,,,2.6,136*7A
$GLGMP,151542.00,,,,,,07,,,,,*7E
$GAGMP,151542.00,,,,,,09,,,,,*7D
$GBGMP,151542.00,,,,,,14,,,,,*72
$PSSN,SNC,[0,314160000,2347]*45
$GPZDA,151547.00,01,01,2025,,*60
$GPDTM,W84,,00.0000000,N,00.0000000,E,00.0000000,W84*5F
$PSSN,TFM,151547.00,,,,*6C
$GPRMC,151547.00,A,4742.1603782,N,01618.1008818,E,0.0,,010125,5.1,E,D*14
$GPGLL,4742.1603782,N,01618.1008818,E,151547.00,A,D*65
$GPGGA,151547.00,4742.1603782,N,01618.1008818,E,2,40,0.4,708.8378,M,43.2065,M,2.0,0136*43
$GNGNS,151547.00,4742.1603782,N,01618.1008818,E,DAAA,40,0.4,708.8378,43.2065,,*59
$GPGNS,151547.00,,,,,,10,,,,2.0,136*79
$GLGNS,151547.00,,,,,,07,,,,,*7B
$GAGNS,151547.00,,,,,,09,,,,,*78
$GBGNS,151547.00,,,,,,14,,,,,*77
$GPLLQ,151547.00,010125,,M,,M,1,40,1.191,,M*1E
$GPVTG,,T,,M,0.01,N,0.01,K,D*26
$GPHDT,,T*1B
$GPTHS,,V*0E
$GPROT,,V*08
$PSSN,HRP,151547.00,010125,,,,,,,00,0,,*62
$PTNL,AVR,151547.00,,Yaw,,Tilt,,,,0,,00*34
$GPGSA,A,3,11,12,18,20,25,26,28,29,31,32,,,0.7,0.4,0.5*3D
$GPGSA,A,3,71,78,79,80,81,87,88,,,,,,0.7,0.4,0.5*3D
$GPGSA,A,3,02,15,19,21,27,29,30,34,36,,,,0.7,0.4,0.5*36
$GPGSA,A,3,05,08,10,11,12,13,23,24,25,34,38,43,0.7,0.4,0.5*32
$GPGSA,A,3,44,60,,,,,,,,,,,0.7,0.4,0.5*32
$GPGST,151547.00,2.367,0.658,0.432,0.274,0.658,0.432,0.894*50
$GPGBS,151547.00,4.686,2.343,4.900,26,0.0001,5.545,3.572*5C
$GPGRS,151547.00,1,-0.4,0.6,-0.7,0.6,-0.0,5.5,0.1,-0.2,-0.2,-1.2,,*4C
$GPGRS,151547.00,1,1.3,0.2,2.6,-6.4,3.5,-7.2,1.0,,,,,*67
$GPGRS,151547.00,1,-0.2,-0.4,-0.9,3.5,-0.2,0.0,0.1,0.9,-3.1,,,*4F
$GPGRS,151547.00,1,0.6,-0.3,0.2,1.8,1.4,0.6,-0.5,-0.3,-0.7,-0.6,-1.9,-0.3*61
$GPGRS,151547.00,1,0.3,-1.6,,,,,,,,,,*64
$GPGSV,6,1,21,29,74,243,50,18,13,186,39,26,11,295,38,20,16,080,41*72
$GPGSV,6,2,21,31,31,309,44,11,31,051,45,12,32,103,45,28,52,284,47*72
$GPGSV,6,3,21,25,74,096,50,05,05,112,35,06,03,029,35,32,08,242,40*74
$GPGSV,6,4,21,36,35,170,45,58,13,245,36,40,23,133,37,34,31,208,43*7D
$GPGSV,6,5,21,49,34,195,45,57,04,114,37,41,07,108,35,61,03,257,38*7B
$GPGSV,6,6,21*7A
$GLGSV,3,1,10,88,68,059,52,79,59,324,52,87,12,031,40,78,61,118,53*6F
$GLGSV,3,2,10,81,48,195,52,80,07,314,44,71,06,008,41,82,03,204,40*65
$GLGSV,3,3,10,77,04,130,,70,10,324,34*66
$GAGSV,3,1,11,27,65,303,48,36,14,033,38,21,13,290,39,29,19,262,41*6B
$GAGSV,3,2,11,19,17,308,35,15,40,157,45,34,49,079,47,30,57,096,48*6D
$GAGSV,3,3,11,13,00,190,,02,06,105,38,07,02,214,36*5E
$GBGSV,5,1,20,25,79,242,51,05,20,130,38,28,15,206,,10,11,074,36*67
$GBGSV,5,2,20,24,35,141,47,56,17,060,,23,31,306,45,43,28,215,45*67
$GBGSV,5,3,20,13,21,090,40,38,22,067,43,08,22,082,38,11,49,202,48*66
$GBGSV,5,4,20,31,37,082,,44,41,056,48,34,73,175,51,12,66,072,48*60
$GBGSV,5,5,20,19,03,345,,02,05,108,33,20,04,301,,60,09,110,40*61
$GPGGA,151547.00,,,,,0,00,,,M,,M,,*4B
$PTNL,GGK,151547.00,010125,4742.1603782,N,01618.1008818,E,1,40,0.7,EHT752.0443,M*43
$GPGGQ,151547.00,010125,4742.1603782,N,01618.1008818,E,1,40,1.191,708.8378,M*3A
$GPGFA,151547.00,6.254,7.333,0.658,0.432,0.274,0.894,,VVV*0B
$GPLLK,151547.00,010125,,M,,M,1,40,0.8,,M*04
$GNGMP,151547.00,,,,,DAAA,40,0.4,,,,*55
$GPGMP,151547.00,,,,,,10,,,,2.0,136*79
$GLGMP,151547.00,,,,,,07,,,,,*7B
$GAGMP,151547.00,,,,,,09,,,,,*78
$GBGMP,151547.00,,,,,,14,,,,,*77
$PSSN,SNC,[0,314165000,2347]*40
$GPZDA,151552.00,01,01,2025,,*64
$GPDTM,W84,,00.0000000,N,00.0000000,E,00.0000000,W84*5F
$PSSN,TFM,151552.00,,,,*68
$GPRMC,151552.00,A,4742.1603777,N,01618.1008838,E,0.0,,010125,5.1,E,D*18
$GPGLL,4742.1603777,N,01618.1008838,E,151552.00,A,D*69
$GPGGA,151552.00,4742.1603777,N,01618.1008838,E,2,40,0.4,708.8382,M,43.2065,M,3.0,0136*4B
$GNGNS,151552.00,4742.1603777,N,01618.1008838,E,DAAA,40,0.4,708.8382,43.2065,,*50
$GPGNS,151552.00,,,,,,10,,,,3.0,136*7C
$GLGNS,151552.00,,,,,,07,,,,,*7F
$GAGNS,151552.00,,,,,,09,,,,,*7C
$GBGNS,151552.00,,,,,,14,,,,,*73
$GPLLQ,151552.00,010125,,M,,M,1,40,1.191,,M*1A
$GPVTG,,T,,M,0.00,N,0.00,K,D*26
$GPHDT,,T*1B
$GPTHS,,V*0E
$GPROT,,V*08
$PSSN,HRP,151552.00,010125,,,,,,,00,0,,*66
$PTNL,AVR,151552.00,,Yaw,,Tilt,,,,0,,00*30
$GPGSA,A,3,11,12,18,20,25,26,28,29,31,32,,,0.7,0.4,0.5*3D
$GPGSA,A,3,71,78,79,80,81,87,88,,,,,,0.7,0.4,0.5*3D
$GPGSA,A,3,02,15,19,21,27,29,30,34,36,,,,0.7,0.4,0.5*36
$GPGSA,A,3,05,08,10,11,12,13,23,24,25,34,38,43,0.7,0.4,0.5*32
$GPGSA,A,3,44,60,,,,,,,,,,,0.7,0.4,0.5*32
$GPGST,151552.00,2.362,0.658,0.432,0.506,0.658,0.432,0.894*53
$GPGBS,151552.00,4.706,2.359,4.921,26,0.0001,5.840,3.567*55
$GPGRS,151552.00,1,-0.4,0.3,-0.9,0.4,-0.0,5.8,0.2,-0.2,0.0,-0.6,,*65
$GPGRS,151552.00,1,0.3,0.1,2.1,-6.4,3.3,-7.1,0.5,,,,,*67
$GPGRS,151552.00,1,-0.2,-0.3,-0.9,3.8,-0.5,0.2,0.1,0.6,-3.4,,,*4E
$GPGRS,151552.00,1,0.6,-0.6,1.1,1.5,1.2,0.5,-0.6,-0.2,-0.8,-0.8,-1.9,-0.6*6C
$GPGRS,151552.00,1,0.1,-1.5,,,,,,,,,,*61
$GPGSV,6,1,21,29,74,243,50,18,13,186,38,26,11,295,39,20,16,080,41*72
$GPGSV,6,2,21,31,31,309,44,11,31,051,45,12,32,103,45,28,52,284,47*72
$GPGSV,6,3,21,25,74,096,50,05,05,112,35,06,03,029,35,32,08,242,40*74
$GPGSV,6,4,21,36,35,170,45,58,13,245,36,40,23,133,37,34,31,208,43*7D
$GPGSV,6,5,21,49,34,195,45,57,04,114,37,41,07,108,35,61,03,257,38*7B
$GPGSV,6,6,21*7A
$GLGSV,3,1,10,88,68,059,52,79,59,324,52,87,12,031,40,78,61,118,52*6E
$GLGSV,3,2,10,81,48,195,52,80,07,314,45,71,06,008,42,82,03,204,40*67
$GLGSV,3,3,10,77,04,130,,70,10,324,35*67
$GAGSV,3,1,11,27,65,303,48,36,14,033,37,21,13,290,39,29,19,262,41*64
$GAGSV,3,2,11,19,17,308,35,15,40,157,46,34,49,079,47,30,57,096,48*6E
$GAGSV,3,3,11,13,00,190,,02,06,105,37,07,02,214,35*52
$GBGSV,5,1,20,25,79,242,52,05,20,130,38,28,15,206,,10,11,074,37*65
$GBGSV,5,2,20,24,35,141,47,56,17,060,,23,31,306,45,43,28,215,45*67
$GBGSV,5,3,20,13,21,090,41,08,22,082,38,38,22,067,42,11,50,202,49*6F
$GBGSV,5,4,20,31,37,082,,44,41,056,47,34,73,175,51,12,66,072,48*6F
$GBGSV,5,5,20,19,03,345,,20,04,301,,02,05,108,34,60,09,110,40*66
$GPGGA,151552.00,,,,,0,00,,,M,,M,,*4F
$PTNL,GGK,151552.00,010125,4742.1603777,N,01618.1008838,E,1,40,0.7,EHT752.0448,M*44
$GPGGQ,151552.00,010125,4742.1603777,N,01618.1008838,E,1,40,1.191,708.8382,M*33
$GPGFA,151552.00,6.256,7.334,0.658,0.432,0.506,0.894,,VVV*08
$GPLLK,151552.00,010125,,M,,M,1,40,0.8,,M*00
$GNGMP,151552.00,,,,,DAAA,40,0.4,,,,*51
$GPGMP,151552.00,,,,,,10,,,,3.0,136*7C
$GLGMP,151552.00,,,,,,07,,,,,*7F
$GAGMP,151552.00,,,,,,09,,,,,*7C
$GBGMP,151552.00,,,,,,14,,,,,*73
$PSSN,SNC,[0,314170000,2347]*44
$GPZDA,151557.00,01,01,2025,,*61
$GPDTM,W84,,00.0000000,N,00.0000000,E,00.0000000,W84*5F
$PSSN,TFM,151557.00,,,,*6D
$GPRMC,151557.00,A,4742.1603770,N,01618.1008841,E,0.0,,010125,5.1,E,D*14
$GPGLL,4742.1603770,N,01618.1008841,E,151557.00,A,D*65
$GPGGA,151557.00,4742.1603770,N,01618.1008841,E,2,40,0.4,708.8396,M,43.2065,M,2.4,0136*47
$GNGNS,151557.00,4742.1603770,N,01618.1008841,E,DAAA,40,0.4,708.8396,43.2065,,*59
$GPGNS,151557.00,,,,,,10,,,,2.4,136*7C
$GLGNS,151557.00,,,,,,07,,,,,*7A
$GAGNS,151557.00,,,,,,09,,,,,*79
$GBGNS,151557.00,,,,,,14,,,,,*76
$GPLLQ,151557.00,010125,,M,,M,1,40,1.193,,M*1D
$GPVTG,,T,,M,0.01,N,0.01,K,D*26
$GPHDT,,T*1B
$GPTHS,,V*0E
$GPROT,,V*08
$PSSN,HRP,151557.00,010125,,,,,,,00,0,,*63
$PTNL,AVR,151557.00,,Yaw,,Tilt,,,,0,,00*35
$GPGSA,A,3,11,12,18,20,25,26,28,29,31,32,,,0.7,0.4,0.5*3D
$GPGSA,A,3,71,78,79,80,81,87,88,,,,,,0.7,0.4,0.5*3D
$GPGSA,A,3,02,15,19,21,27,29,30,34,36,,,,0.7,0.4,0.5*36
$GPGSA,A,3,05,08,10,11,12,13,23,24,25,34,38,43,0.7,0.4,0.5*32
$GPGSA,A,3,44,60,,,,,,,,,,,0.7,0.4,0.5*32
$GPGST,151557.00,2.282,0.659,0.434,0.453,0.659,0.434,0.895*59
$GPGBS,151557.00,4.720,2.329,4.996,26,0.0001,5.611,3.549*59
$GPGRS,151557.00,1,-0.7,0.1,-0.6,0.5,0.1,5.6,-0.2,-0.1,0.4,-0.9,,*68
$GPGRS,151557.00,1,1.8,-0.1,2.6,-5.5,3.2,-7.0,0.3,,,,,*46
$GPGRS,151557.00,1,-0.0,-0.2,-0.9,3.4,-0.1,0.3,0.0,0.9,-3.1,,,*4A
$GPGRS,151557.00,1,1.1,-0.1,1.1,1.9,1.3,0.5,-0.3,0.0,-0.6,-0.7,-1.7,-0.9*4F
$GPGRS,151557.00,1,-0.1,-1.7,,,,,,,,,,*4B
$GPGSV,6,1,21,29,74,243,50,18,13,186,39,26,11,295,39,20,16,080,40*72
$GPGSV,6,2,21,31,31,309,45,11,31,051,44,12,32,103,46,28,52,284,47*71
$GPGSV,6,3,21,25,74,096,50,05,05,112,36,06,03,029,35,32,08,242,40*77
$GPGSV,6,4,21,36,35,170,45,58,13,245,36,40,23,133,37,34,31,208,43*7D
$GPGSV,6,5,21,49,34,195,45,57,04,114,37,41,07,108,35,61,03,257,38*7B
$GPGSV,6,6,21*7A
$GLGSV,3,1,10,88,68,059,52,79,59,324,52,87,11,031,40,78,61,118,52*6D
$GLGSV,3,2,10,81,48,195,52,80,07,314,45,71,06,008,42,82,03,204,40*67
$GLGSV,3,3,10,77,04,130,,70,10,324,33*61
$GAGSV,3,1,11,27,65,303,48,36,14,033,37,21,13,290,39,29,19,262,41*64
$GAGSV,3,2,11,19,17,308,36,15,40,157,46,34,49,079,47,30,57,096,48*6D
$GAGSV,3,3,11,13,00,190,,02,06,105,37,07,02,214,36*51
$GBGSV,5,1,20,25,79,242,52,05,20,130,38,28,15,206,,10,11,074,37*65
$GBGSV,5,2,20,24,35,141,47,56,17,060,,23,31,306,45,43,28,215,45*67
$GBGSV,5,3,20,13,21,090,41,38,22,067,42,08,22,082,38,11,50,202,48*6E
$GBGSV,5,4,20,31,37,082,,44,41,056,48,34,73,175,51,12,66,072,48*60
$GBGSV,5,5,20,19,03,345,,02,05,108,33,20,04,301,,60,09,110,40*61
$GPGGA,151557.00,,,,,0,00,,,M,,M,,*4A
$PTNL,GGK,151557.00,010125,4742.1603770,N,01618.1008841,E,1,40,0.7,EHT752.0461,M*43
$GPGGQ,151557.00,010125,4742.1603770,N,01618.1008841,E,1,40,1.193,708.8396,M*38
$GPGFA,151557.00,6.268,7.340,0.659,0.434,0.453,0.895,,VVV*04
$GPLLK,151557.00,010125,,M,,M,1,40,0.8,,M*05
$GNGMP,151557.00,,,,,DAAA,40,0.4,,,,*54
$GPGMP,151557.00,,,,,,10,,,,2.4,136*7C
$GLGMP,151557.00,,,,,,07,,,,,*7A
$GAGMP,151557.00,,,,,,09,,,,,*79
$GBGMP,151557.00,,,,,,14,,,,,*76
$PSSN,SNC,[0,314175000,2347]*41
$GPZDA,151602.00,01,01,2025,,*62
$GPDTM,W84,,00.0000000,N,00.0000000,E,00.0000000,W84*5F
$PSSN,TFM,151602.00,,,,*6E
$GPRMC,151602.00,A,4742.1603766,N,01618.1008871,E,0.0,,010125,5.1,E,D*13
$GPGLL,4742.1603766,N,01618.1008871,E,151602.00,A,D*62
$GPGGA,151602.00,4742.1603766,N,01618.1008871,E,2,40,0.4,708.8415,M,43.2065,M,2.6,0136*4E
$GNGNS,151602.00,4742.1603766,N,01618.1008871,E,DAAA,40,0.4,708.8415,43.2065,,*52
$GPGNS,151602.00,,,,,,10,,,,2.6,136*7D
$GLGNS,151602.00,,,,,,07,,,,,*79
$GAGNS,151602.00,,,,,,09,,,,,*7A
$GBGNS,151602.00,,,,,,14,,,,,*75
$GPLLQ,151602.00,010125,,M,,M,1,40,1.190,,M*1D
$GPVTG,,T,,M,0.00,N,0.01,K,D*27
$GPHDT,,T*1B
$GPTHS,,V*0E
$GPROT,,V*08
$PSSN,HRP,151602.00,010125,,,,,,,00,0,,*60
$PTNL,AVR,151602.00,,Yaw,,Tilt,,,,0,,00*36
$GPGSA,A,3,11,12,18,20,25,26,28,29,31,32,,,0.7,0.4,0.5*3D
$GPGSA,A,3,71,78,79,80,81,87,88,,,,,,0.7,0.4,0.5*3D
$GPGSA,A,3,02,15,19,21,27,29,30,34,36,,,,0.7,0.4,0.5*36
$GPGSA,A,3,05,08,10,11,12,13,23,24,25,34,38,43,0.7,0.4,0.5*32
$GPGSA,A,3,44,60,,,,,,,,,,,0.7,0.4,0.5*32
$GPGST,151602.00,2.280,0.657,0.433,0.346,0.657,0.434,0.892*5B
$GPGBS,151602.00,4.698,2.346,5.067,26,0.0001,5.075,3.543*59
$GPGRS,151602.00,1,-0.6,0.4,0.4,0.3,-0.0,5.1,-0.1,-0.3,0.4,-0.9,,*6C
$GPGRS,151602.00,1,0.8,-0.1,3.1,-5.0,3.3,-8.0,0.3,,,,,*49
$GPGRS,151602.00,1,0.2,-0.2,-1.0,3.1,0.1,0.5,0.1,0.6,-3.1,,,*4E
$GPGRS,151602.00,1,0.7,0.8,1.1,1.5,1.6,0.2,-0.3,-0.2,-0.7,-0.6,-1.4,-0.5*41
$GPGRS,151602.00,1,-0.0,-1.4,,,,,,,,,,*4A
$GPGSV,6,1,21,29,74,243,50,18,13,186,39,26,11,295,39,20,16,080,40*72
$GPGSV,6,2,21,31,31,309,45,11,30,051,44,12,32,103,46,28,52,284,47*70
$GPGSV,6,3,21,25,74,096,50,05,05,112,37,06,03,029,34,32,07,242,40*78
$GPGSV,6,4,21,36,35,170,45,58,13,245,36,40,23,133,37,34,31,208,43*7D
$GPGSV,6,5,21,49,34,195,45,57,04,114,37,41,07,108,34,61,03,257,38*7A
$GPGSV,6,6,21*7A
$GLGSV,3,1,10,88,68,058,52,79,59,324,52,87,11,031,40,78,61,118,53*6D
$GLGSV,3,2,10,81,48,195,52,80,07,314,45,71,06,008,41,82,03,205,40*65
$GLGSV,3,3,10,77,04,130,,70,10,324,34*66
$GAGSV,3,1,11,27,65,303,49,36,14,033,38,21,13,290,39,29,19,262,41*6A
$GAGSV,3,2,11,19,17,308,36,15,40,157,46,34,49,079,47,30,57,096,48*6D
$GAGSV,3,3,11,13,00,190,,02,06,105,38,07,02,214,36*5E
$GBGSV,5,1,20,25,79,241,51,05,20,130,38,28,15,206,,10,11,075,37*64
$GBGSV,5,2,20,24,35,141,46,56,17,060,,23,31,306,46,43,28,215,45*65
$GBGSV,5,3,20,13,21,090,41,38,22,067,42,08,22,082,38,11,50,202,48*6E
$GBGSV,5,4,20,31,37,081,,44,41,056,48,34,73,175,51,12,66,072,48*63
$GBGSV,5,5,20,19,03,345,,02,05,108,33,20,04,301,,60,09,110,40*61
$GPGGA,151602.00,,,,,0,00,,,M,,M,,*49
$PTNL,GGK,151602.00,010125,4742.1603766,N,01618.1008871,E,1,40,0.7,EHT752.0481,M*4A
$GPGGQ,151602.00,010125,4742.1603766,N,01618.1008871,E,1,40,1.190,708.8415,M*30
$GPGFA,151602.00,6.251,7.315,0.657,0.433,0.346,0.892,,VVV*00
$GPLLK,151602.00,010125,,M,,M,1,40,0.8,,M*06
$GNGMP,151602.00,,,,,DAAA,40,0.4,,,,*57
$GPGMP,151602.00,,,,,,10,,,,2.6,136*7D
$GLGMP,151602.00,,,,,,07,,,,,*79
$GAGMP,151602.00,,,,,,09,,,,,*7A
$GBGMP,151602.00,,,,,,14,,,,,*75
$PSSN,SNC,[0,314180000,2347]*4B
$GPZDA,151607.00,01,01,2025,,*67
$GPDTM,W84,,00.0000000,N,00.0000000,E,00.0000000,W84*5F
$PSSN,TFM,151607.00,,,,*6B
$GPRMC,151607.00,A,4742.1603742,N,01618.1008889,E,0.0,,010125,5.1,E,D*17
$GPGLL,4742.1603742,N,01618.1008889,E,151607.00,A,D*66
$GPGGA,151607.00,4742.1603742,N,01618.1008889,E,2,40,0.4,708.8461,M,43.2065,M,2.0,0136*4F
$GNGNS,151607.00,4742.1603742,N,01618.1008889,E,DAAA,40,0.4,708.8461,43.2065,,*55
$GPGNS,151607.00,,,,,,10,,,,2.0,136*7E
$GLGNS,151607.00,,,,,,07,,,,,*7C
$GAGNS,151607.00,,,,,,09,,,,,*7F
$GBGNS,151607.00,,,,,,14,,,,,*70
$GPLLQ,151607.00,010125,,M,,M,1,40,1.190,,M*18
$GPVTG,,T,,M,0.01,N,0.01,K,D*26
$GPHDT,,T*1B
$GPTHS,,V*0E
$GPROT,,V*08
$PSSN,HRP,151607.00,010125,,,,,,,00,0,,*65
$PTNL,AVR,151607.00,,Yaw,,Tilt,,,,0,,00*33
$GPGSA,A,3,11,12,18,20,25,26,28,29,31,32,,,0.7,0.4,0.5*3D
$GPGSA,A,3,71,78,79,80,81,87,88,,,,,,0.7,0.4,0.5*3D
$GPGSA,A,3,02,15,19,21,27,29,30,34,36,,,,0.7,0.4,0.5*36
$GPGSA,A,3,05,08,10,11,12,13,23,24,25,34,38,43,0.7,0.4,0.5*32
$GPGSA,A,3,44,60,,,,,,,,,,,0.7,0.4,0.5*32
$GPGST,151607.00,2.294,0.657,0.432,0.437,0.657,0.432,0.894*5B
$GPGBS,151607.00,4.685,2.338,4.887,26,0.0001,5.649,3.538*5B
$GPGRS,151607.00,1,-0.1,0.1,-0.3,0.7,-0.0,5.6,-0.2,-0.4,0.2,-0.3,,*4A
$GPGRS,151607.00,1,0.5,0.1,2.4,-6.0,3.6,-7.4,0.6,,,,,*60
$GPGRS,151607.00,1,-0.1,-0.2,-1.3,3.0,-0.0,0.5,0.5,0.6,-2.7,,,*48
$GPGRS,151607.00,1,0.4,0.8,1.6,1.4,1.2,0.2,-0.4,-0.2,-0.7,-0.7,-0.9,-0.6*4C
$GPGRS,151607.00,1,0.1,-1.5,,,,,,,,,,*62
$GPGSV,6,1,21,29,74,243,50,18,13,186,39,26,11,295,40,20,16,080,40*7C
$GPGSV,6,2,21,31,31,309,45,11,30,051,44,12,32,103,46,28,52,284,47*70
$GPGSV,6,3,21,25,74,096,50,05,05,111,37,06,02,029,34,32,07,242,40*7A
$GPGSV,6,4,21,36,35,170,45,58,13,245,36,40,23,133,37,34,31,208,43*7D
$GPGSV,6,5,21,49,34,195,45,57,04,114,37,41,07,108,35,61,03,257,38*7B
$GPGSV,6,6,21*7A
$GLGSV,3,1,10,88,68,058,52,79,59,324,52,87,11,031,40,78,61,118,53*6D
$GLGSV,3,2,10,81,48,195,52,80,07,314,45,71,06,008,42,82,03,205,40*66
$GLGSV,3,3,10,77,04,130,,70,10,324,34*66
$GAGSV,3,1,11,27,65,303,49,36,14,033,39,21,13,290,39,29,19,262,41*6B
$GAGSV,3,2,11,19,17,308,36,15,40,157,46,34,49,079,47,30,57,096,48*6D
$GAGSV,3,3,11,13,00,190,,02,06,105,38,07,02,214,36*5E
$GBGSV,5,1,20,25,79,241,51,05,20,130,38,28,15,206,,10,11,075,38*6B
$GBGSV,5,2,20,24,35,141,47,56,17,060,,23,31,306,46,43,28,215,45*64
$GBGSV,5,3,20,13,21,090,41,38,22,067,42,08,22,082,39,11,50,202,48*6F
$GBGSV,5,4,20,31,37,081,,44,41,056,48,34,73,175,51,12,66,072,48*63
$GBGSV,5,5,20,19,03,345,,02,05,108,33,20,04,301,,60,09,110,40*61
$GPGGA,151607.00,,,,,0,00,,,M,,M,,*4C
$PTNL,GGK,151607.00,010125,4742.1603742,N,01618.1008889,E,1,40,0.7,EHT752.0526,M*42
$GPGGQ,151607.00,010125,4742.1603742,N,01618.1008889,E,1,40,1.190,708.8461,M*37
$GPGFA,151607.00,6.242,7.328,0.657,0.432,0.437,0.894,,VVV*0F
$GPLLK,151607.00,010125,,M,,M,1,40,0.8,,M*03
$GNGMP,151607.00,,,,,DAAA,40,0.4,,,,*52
$GPGMP,151607.00,,,,,,10,,,,2.0,136*7E
$GLGMP,151607.00,,,,,,07,,,,,*7C
$GAGMP,151607.00,,,,,,09,,,,,*7F
$GBGMP,151607.00,,,,,,14,,,,,*70
$PSSN,SNC,[0,314185000,2347]*4E
$GPZDA,151612.00,01,01,2025,,*63
$GPDTM,W84,,00.0000000,N,00.0000000,E,00.0000000,W84*5F
$PSSN,TFM,151612.00,,,,*6F
$GPRMC,151612.00,A,4742.1603743,N,01618.1008882,E,0.0,,010125,5.1,E,D*19
$GPGLL,4742.1603743,N,01618.1008882,E,151612.00,A,D*68
$GPGGA,151612.00,4742.1603743,N,01618.1008882,E,2,41,0.4,708.8496,M,43.2065,M,3.0,0136*49
$GNGNS,151612.00,4742.1603743,N,01618.1008882,E,DAAA,41,0.4,708.8496,43.2065,,*52
$GPGNS,151612.00,,,,,,10,,,,3.0,136*7B
$GLGNS,151612.00,,,,,,08,,,,,*77
$GAGNS,151612.00,,,,,,09,,,,,*7B
$GBGNS,151612.00,,,,,,14,,,,,*74
$GPLLQ,151612.00,010125,,M,,M,1,41,1.186,,M*1A
$GPVTG,,T,,M,0.00,N,0.01,K,D*27
$GPHDT,,T*1B
$GPTHS,,V*0E
$GPROT,,V*08
$PSSN,HRP,151612.00,010125,,,,,,,00,0,,*61
$PTNL,AVR,151612.00,,Yaw,,Tilt,,,,0,,00*37
$GPGSA,A,3,11,12,18,20,25,26,28,29,31,32,,,0.7,0.4,0.5*3D
$GPGSA,A,3,70,71,78,79,80,81,87,88,,,,,0.7,0.4,0.5*3A
$GPGSA,A,3,02,15,19,21,27,29,30,34,36,,,,0.7,0.4,0.5*36
$GPGSA,A,3,05,08,10,11,12,13,23,24,25,34,38,43,0.7,0.4,0.5*32
$GPGSA,A,3,44,60,,,,,,,,,,,0.7,0.4,0.5*32
$GPGST,151612.00,2.390,0.655,0.428,1.125,0.655,0.428,0.892*5B
$GPGBS,151612.00,4.685,2.365,4.897,26,0.0001,5.388,3.533*55
$GPGRS,151612.00,1,-0.1,-0.0,-0.3,1.4,-0.0,5.4,-0.1,-0.2,0.2,-1.1,,*64
$GPGRS,151612.00,1,-3.3,0.4,-0.1,2.4,-6.3,3.6,-8.0,0.8,,,,*4D
$GPGRS,151612.00,1,0.0,-0.3,-0.7,2.9,-0.0,0.5,0.2,0.8,-2.7,,,*65
$GPGRS,151612.00,1,0.3,0.8,1.8,1.2,0.9,0.1,-0.9,0.3,-0.9,-0.5,-0.9,-0.7*62
$GPGRS,151612.00,1,-0.0,-1.1,,,,,,,,,,*4E
$GPGSV,6,1,21,29,74,243,50,18,13,186,40,26,11,295,40,20,16,080,40*72
$GPGSV,6,2,21,31,31,309,45,11,30,051,44,12,32,103,45,28,52,284,47*73
$GPGSV,6,3,21,25,74,096,50,05,05,111,37,06,02,029,34,32,07,242,40*7A
$GPGSV,6,4,21,36,35,170,45,58,13,245,36,40,23,133,37,34,31,208,43*7D
$GPGSV,6,5,21,49,34,195,45,57,04,114,36,41,07,108,35,61,03,257,38*7A
$GPGSV,6,6,21*7A
$GLGSV,3,1,10,88,68,058,52,79,59,324,52,87,11,031,41,78,61,118,53*6C
$GLGSV,3,2,10,81,48,195,52,80,07,314,44,71,06,008,41,82,03,205,41*65
$GLGSV,3,3,10,77,04,130,,70,10,324,35*67
$GAGSV,3,1,11,27,65,303,49,36,14,033,38,21,13,290,39,29,19,262,41*6A
$GAGSV,3,2,11,19,17,308,36,15,40,157,46,34,49,079,47,30,57,096,48*6D
$GAGSV,3,3,11,13,00,190,,02,06,105,38,07,02,214,36*5E
$GBGSV,5,1,20,25,79,241,51,05,20,130,38,28,15,206,,10,11,075,38*6B
$GBGSV,5,2,20,24,35,141,47,56,17,060,,23,31,306,45,43,28,215,45*67
$GBGSV,5,3,20,13,21,090,41,38,22,067,42,08,22,082,38,11,50,202,49*6F
$GBGSV,5,4,20,31,37,081,,44,41,056,47,34,73,175,51,12,66,072,48*6C
$GBGSV,5,5,20,19,03,345,,02,05,108,33,20,04,301,,60,09,110,40*61
$GPGGA,151612.00,,,,,0,00,,,M,,M,,*48
$PTNL,GGK,151612.00,010125,4742.1603743,N,01618.1008882,E,1,41,0.7,EHT752.0561,M*4E
$GPGGQ,151612.00,010125,4742.1603743,N,01618.1008882,E,1,41,1.186,708.8496,M*37
$GPGFA,151612.00,6.231,7.312,0.655,0.428,1.125,0.892,,VVV*0E
$GPLLK,151612.00,010125,,M,,M,1,41,0.8,,M*06
$GNGMP,151612.00,,,,,DAAA,41,0.4,,,,*57
$GPGMP,151612.00,,,,,,10,,,,3.0,136*7B
$GLGMP,151612.00,,,,,,08,,,,,*77
$GAGMP,151612.00,,,,,,09,,,,,*7B
$GBGMP,151612.00,,,,,,14,,,,,*74
$PSSN,SNC,[0,314190000,2347]*4A
$GPZDA,151617.00,01,01,2025,,*66
$GPDTM,W84,,00.0000000,N,00.0000000,E,00.0000000,W84*5F
$PSSN,TFM,151617.00,,,,*6A
$GPRMC,151617.00,A,4742.1603728,N,01618.1008868,E,0.0,,010125,5.1,E,D*15
$GPGLL,4742.1603728,N,01618.1008868,E,151617.00,A,D*64
$GPGGA,151617.00,4742.1603728,N,01618.1008868,E,2,41,0.4,708.8485,M,43.2065,M,2.4,0136*42
$GNGNS,151617.00,4742.1603728,N,01618.1008868,E,DAAA,41,0.4,708.8485,43.2065,,*5C
$GPGNS,151617.00,,,,,,10,,,,2.4,136*7B
$GLGNS,151617.00,,,,,,08,,,,,*72
$GAGNS,151617.00,,,,,,09,,,,,*7E
$GBGNS,151617.00,,,,,,14,,,,,*71
$GPLLQ,151617.00,010125,,M,,M,1,41,1.187,,M*1E
$GPVTG,,T,,M,0.00,N,0.00,K,D*26
$GPHDT,,T*1B
$GPTHS,,V*0E
$GPROT,,V*08
$PSSN,HRP,151617.00,010125,,,,,,,00,0,,*64
$PTNL,AVR,151617.00,,Yaw,,Tilt,,,,0,,00*32
$GPGSA,A,3,11,12,18,20,25,26,28,29,31,32,,,0.7,0.4,0.5*3D
$GPGSA,A,3,70,71,78,79,80,81,87,88,,,,,0.7,0.4,0.5*3A
$GPGSA,A,3,02,15,19,21,27,29,30,34,36,,,,0.7,0.4,0.5*36
$GPGSA,A,3,05,08,10,11,12,13,23,24,25,34,38,43,0.7,0.4,0.5*32
$GPGSA,A,3,44,60,,,,,,,,,,,0.7,0.4,0.5*32
$GPGST,151617.00,2.268,0.656,0.429,1.085,0.656,0.430,0.891*58
$GPGBS,151617.00,4.698,2.336,4.972,26,0.0001,5.114,3.514*52
$GPGRS,151617.00,1,-0.2,0.0,-0.1,1.0,-0.1,5.1,-0.1,-0.0,-0.4,-1.3,,*66
$GPGRS,151617.00,1,-3.1,-0.1,0.0,2.7,-5.8,3.1,-7.1,0.8,,,,*4C
$GPGRS,151617.00,1,0.2,-0.2,-0.6,3.1,-0.0,0.4,0.1,0.7,-3.1,,,*61
$GPGRS,151617.00,1,1.2,-0.3,1.8,1.9,1.0,-0.2,-0.7,0.2,-0.7,-0.5,-1.1,-0.8*6B
$GPGRS,151617.00,1,0.1,-1.2,,,,,,,,,,*64
$GPGSV,6,1,21,29,74,243,50,18,13,186,41,26,11,295,40,20,16,080,40*73
$GPGSV,6,2,21,31,31,309,45,11,30,051,44,12,32,103,46,28,52,284,47*70
$GPGSV,6,3,21,25,74,096,50,05,05,111,37,06,02,029,34,32,07,242,40*7A
$GPGSV,6,4,21,36,35,170,45,58,13,245,36,40,23,133,37,34,31,208,43*7D
$GPGSV,6,5,21,49,34,195,45,57,04,114,37,41,07,108,35,61,03,257,38*7B
$GPGSV,6,6,21*7A
$GLGSV,3,1,10,88,68,058,52,79,59,324,52,87,11,031,41,78,61,118,52*6D
$GLGSV,3,2,10,81,48,195,51,80,07,314,45,71,06,008,41,82,03,205,41*67
$GLGSV,3,3,10,77,04,130,,70,10,324,35*67
$GAGSV,3,1,11,27,65,303,49,36,14,033,38,21,13,290,39,29,18,262,41*6B
$GAGSV,3,2,11,19,17,308,36,15,40,157,45,34,49,079,47,30,57,096,48*6E
