$GPZDA,115942.00,01,01,2025,,*69
$GPDTM,W84,,00.0000000,N,00.0000000,E,00.0000000,W84*5F
$PSSN,TFM,115942.00,,,,*65
$GPRMC,115942.00,A,4742.1598772,N,01618.1002289,E,0.0,,010125,5.1,E,D*1B
$GPGLL,4742.1598772,N,01618.1002289,E,115942.00,A,D*6A
$GPGGA,115942.00,4742.1598772,N,01618.1002289,E,2,40,0.4,707.5967,M,43.2066,M,2.0,0136*49
$GNGNS,115942.00,4742.1598772,N,01618.1002289,E,DAAA,40,0.4,707.5967,43.2066,,*53
$GPGNS,115942.00,,,,,,09,,,,2.0,136*78
$GLGNS,115942.00,,,,,,09,,,,,*7C
$GAGNS,115942.00,,,,,,10,,,,,*79
$GBGNS,115942.00,,,,,,12,,,,,*78
$GPLLQ,115942.00,010125,,M,,M,1,40,1.025,,M*19
$GPVTG,,T,,M,0.00,N,0.00,K,D*26
$GPHDT,,T*1B
$GPTHS,,V*0E
$GPROT,,V*08
$PSSN,HRP,115942.00,010125,,,,,,,00,0,,*6B
$PTNL,AVR,115942.00,,Yaw,,Tilt,,,,0,,00*3D
$GPGSA,A,3,06,10,12,15,17,19,24,25,32,,,,0.7,0.4,0.6*39
$GPGSA,A,3,66,67,68,76,77,78,85,86,87,,,,0.7,0.4,0.6*3A
$GPGSA,A,3,02,07,08,10,11,25,27,29,30,36,,,0.7,0.4,0.6*34
$GPGSA,A,3,05,07,10,14,24,26,33,35,40,41,42,60,0.7,0.4,0.6*34
$GPGST,115942.00,2.344,0.570,0.372,333.633,0.537,0.419,0.767*56
$GPGBS,115942.00,4.723,2.536,4.546,77,0.0001,-6.564,6.068*73
$GPGRS,115942.00,1,-0.1,-0.2,0.1,-0.2,-0.3,0.1,-0.0,0.2,0.3,,,*44
$GPGRS,115942.00,1,-3.6,6.2,5.4,-2.4,-6.6,-2.9,3.3,2.0,-1.7,,,*4E
$GPGRS,115942.00,1,0.3,0.4,0.9,-1.0,-1.0,-0.1,-1.7,1.3,0.6,-0.1,,*65
$GPGRS,115942.00,1,1.7,-0.4,1.0,2.6,0.3,-1.3,0.2,-1.4,-1.1,0.4,0.5,-1.0*68
$GPGSV,6,1,22,24,84,153,51,22,15,065,,06,14,103,39,15,20,191,43*73
$GPGSV,6,2,22,32,16,321,42,17,23,044,43,25,21,255,41,19,47,068,47*78
$GPGSV,6,3,22,12,61,257,50,23,00,251,,11,01,135,,10,09,289,40*73
$GPGSV,6,4,22,13,05,163,,36,35,170,45,58,13,245,36,40,23,133,37*75
$GPGSV,6,5,22,34,31,208,43,49,34,195,45,57,07,111,38,41,07,108,35*76
$GPGSV,6,6,22,61,03,257,38*46
$GLGSV,3,1,10,77,68,351,46,78,23,280,48,66,10,200,44,87,25,129,45*65
$GLGSV,3,2,10,85,13,018,42,86,36,073,49,68,34,314,49,76,38,067,49*63
$GLGSV,3,3,10,67,41,248,50,69,01,349,*6B
$GAGSV,3,1,11,02,64,057,48,29,12,323,38,11,14,049,36,36,13,097,38*6A
$GAGSV,3,2,11,25,12,065,38,08,43,195,46,07,52,280,47,30,58,254,48*6D
$GAGSV,3,3,11,03,03,164,,27,08,248,38,10,08,023,37*5F
$GBGSV,5,1,19,24,65,294,51,42,12,212,42,41,18,318,42,40,14,039,41*65
$GBGSV,5,2,19,23,12,270,,05,20,130,39,07,18,051,38,44,27,154,*68
$GBGSV,5,3,19,14,24,236,43,10,31,057,41,33,30,265,46,56,37,057,*67
$GBGSV,5,4,19,35,41,098,48,26,57,084,50,25,64,286,,02,04,109,32*65
$GBGSV,5,5,19,45,04,094,38,12,09,169,,60,08,111,41*5E
$GPGGA,115942.00,,,,,0,00,,,M,,M,,*42
$PTNL,GGK,115942.00,010125,4742.1598772,N,01618.1002289,E,1,40,0.7,EHT750.8033,M*45
$GPGGQ,115942.00,010125,4742.1598772,N,01618.1002289,E,1,40,1.025,707.5967,M*3D
$GPGFA,115942.00,5.419,6.290,0.570,0.372,333.633,0.767,,VVV*0A
$GPLLK,115942.00,010125,,M,,M,1,40,0.8,,M*0D
$GNGMP,115942.00,,,,,DAAA,40,0.4,,,,*5C
$GPGMP,115942.00,,,,,,09,,,,2.0,136*78
$GLGMP,115942.00,,,,,,09,,,,,*7C
$GAGMP,115942.00,,,,,,10,,,,,*79
$GBGMP,115942.00,,,,,,12,,,,,*78
$PSSN,SNC,[0,302400000,2347]*41
$GPZDA,115947.00,01,01,2025,,*6C
$GPDTM,W84,,00.0000000,N,00.0000000,E,00.0000000,W84*5F
$PSSN,TFM,115947.00,,,,*60
$GPRMC,115947.00,A,4742.1598757,N,01618.1002294,E,0.0,,010125,5.1,E,D*15
$GPGLL,4742.1598757,N,01618.1002294,E,115947.00,A,D*64
$GPGGA,115947.00,4742.1598757,N,01618.1002294,E,2,40,0.4,707.5944,M,43.2066,M,2.5,0136*43
$GNGNS,115947.00,4742.1598757,N,01618.1002294,E,DAAA,40,0.4,707.5944,43.2066,,*5C
$GPGNS,115947.00,,,,,,09,,,,2.5,136*78
$GLGNS,115947.00,,,,,,09,,,,,*79
$GAGNS,115947.00,,,,,,10,,,,,*7C
$GBGNS,115947.00,,,,,,12,,,,,*7D
$GPLLQ,115947.00,010125,,M,,M,1,40,1.030,,M*18
$GPVTG,,T,,M,0.00,N,0.01,K,D*27
$GPHDT,,T*1B
$GPTHS,,V*0E
$GPROT,,V*08
$PSSN,HRP,115947.00,010125,,,,,,,00,0,,*6E
$PTNL,AVR,115947.00,,Yaw,,Tilt,,,,0,,00*38
$GPGSA,A,3,06,10,12,15,17,19,24,25,32,,,,0.7,0.4,0.6*39
$GPGSA,A,3,66,67,68,76,77,78,85,86,87,,,,0.7,0.4,0.6*3A
$GPGSA,A,3,02,07,08,10,11,25,27,29,30,36,,,0.7,0.4,0.6*34
$GPGSA,A,3,05,07,10,14,24,26,33,35,40,41,42,60,0.7,0.4,0.6*34
$GPGST,115947.00,2.334,0.572,0.375,333.989,0.539,0.420,0.770*5D
$GPGBS,115947.00,4.725,2.551,4.589,77,0.0001,-6.776,6.068*73
$GPGRS,115947.00,1,-0.2,-0.7,-0.0,-0.3,-0.0,-0.1,0.2,-0.3,0.7,,,*43
$GPGRS,115947.00,1,-3.5,5.8,5.8,-2.1,-6.8,-2.5,2.7,1.4,-1.4,,,*4B
$GPGRS,115947.00,1,0.4,0.4,0.9,-0.7,-0.7,0.1,-1.8,1.5,0.8,-0.3,,*4F
$GPGRS,115947.00,1,2.2,-0.1,1.2,3.1,0.2,-1.5,0.4,-1.4,-0.9,0.7,0.7,-0.8*6A
$GPGSV,6,1,22,24,84,153,51,22,15,065,,06,14,103,39,15,20,191,41*71
$GPGSV,6,2,22,32,16,321,42,17,22,044,42,25,21,255,42,19,47,068,47*7B
$GPGSV,6,3,22,12,61,257,50,23,00,251,,11,01,135,,10,09,289,39*7D
$GPGSV,6,4,22,13,05,163,,36,35,170,45,58,13,245,36,40,23,133,37*75
$GPGSV,6,5,22,34,31,208,43,49,34,195,45,57,07,111,38,41,07,108,35*76
$GPGSV,6,6,22,61,03,257,39*47
$GLGSV,3,1,10,77,68,351,46,78,23,280,48,66,10,200,44,87,25,129,45*65
$GLGSV,3,2,10,85,13,018,42,86,36,073,48,68,34,314,48,76,38,067,49*63
$GLGSV,3,3,10,67,41,248,50,69,01,349,*6B
$GAGSV,3,1,11,02,64,057,48,29,12,323,38,11,14,049,37,36,13,097,38*6B
$GAGSV,3,2,11,25,12,065,38,08,43,195,46,07,52,280,47,30,58,254,48*6D
$GAGSV,3,3,11,03,03,164,,27,08,248,38,10,08,023,37*5F
$GBGSV,5,1,19,24,65,294,51,42,12,212,42,41,18,318,42,40,14,039,41*65
$GBGSV,5,2,19,23,12,270,,05,20,130,39,07,18,051,38,44,27,154,*68
$GBGSV,5,3,19,14,24,236,43,10,31,057,41,33,30,265,46,56,37,057,*67
$GBGSV,5,4,19,35,41,098,48,26,57,084,50,25,64,286,,02,04,109,32*65
$GBGSV,5,5,19,45,04,094,39,12,09,169,,60,08,111,41*5F
$GPGGA,115947.00,,,,,0,00,,,M,,M,,*47
$PTNL,GGK,115947.00,010125,4742.1598757,N,01618.1002294,E,1,40,0.7,EHT750.8010,M*4A
$GPGGQ,115947.00,010125,4742.1598757,N,01618.1002294,E,1,40,1.030,707.5944,M*36
$GPGFA,115947.00,5.436,6.315,0.572,0.375,333.989,0.770,,VVV*03
$GPLLK,115947.00,010125,,M,,M,1,40,0.8,,M*08
$GNGMP,115947.00,,,,,DAAA,40,0.4,,,,*59
$GPGMP,115947.00,,,,,,09,,,,2.5,136*78
$GLGMP,115947.00,,,,,,09,,,,,*79
$GAGMP,115947.00,,,,,,10,,,,,*7C
$GBGMP,115947.00,,,,,,12,,,,,*7D
$PSSN,SNC,[0,302405000,2347]*44
$GPZDA,115952.00,01,01,2025,,*68
$GPDTM,W84,,00.0000000,N,00.0000000,E,00.0000000,W84*5F
$PSSN,TFM,115952.00,,,,*64
$GPRMC,115952.00,A,4742.1598744,N,01618.1002299,E,0.0,,010125,5.1,E,D*1E
$GPGLL,4742.1598744,N,01618.1002299,E,115952.00,A,D*6F
$GPGGA,115952.00,4742.1598744,N,01618.1002299,E,2,40,0.4,707.5923,M,43.2066,M,3.5,0136*48
$GNGNS,115952.00,4742.1598744,N,01618.1002299,E,DAAA,40,0.4,707.5923,43.2066,,*56
$GPGNS,115952.00,,,,,,09,,,,3.5,136*7D
$GLGNS,115952.00,,,,,,09,,,,,*7D
$GAGNS,115952.00,,,,,,10,,,,,*78
$GBGNS,115952.00,,,,,,12,,,,,*79
$GPLLQ,115952.00,010125,,M,,M,1,40,1.041,,M*1A
$GPVTG,,T,,M,0.00,N,0.01,K,D*27
$GPHDT,,T*1B
$GPTHS,,V*0E
$GPROT,,V*08
$PSSN,HRP,115952.00,010125,,,,,,,00,0,,*6A
$PTNL,AVR,115952.00,,Yaw,,Tilt,,,,0,,00*3C
$GPGSA,A,3,06,10,12,15,17,19,24,25,32,,,,0.7,0.4,0.6*39
$GPGSA,A,3,66,67,68,76,77,78,85,86,87,,,,0.7,0.4,0.6*3A
$GPGSA,A,3,02,07,08,10,11,25,27,29,30,36,,,0.7,0.4,0.6*34
$GPGSA,A,3,05,07,10,14,24,26,33,35,40,41,42,60,0.7,0.4,0.6*34
$GPGST,115952.00,2.384,0.574,0.379,333.899,0.542,0.424,0.781*5E
$GPGBS,115952.00,4.755,2.565,4.651,77,0.0001,-6.502,6.068*70
$GPGRS,115952.00,1,0.1,-1.1,-0.2,0.2,-0.2,0.1,0.3,-0.3,0.9,,,*60
$GPGRS,115952.00,1,-3.8,6.0,6.0,-1.7,-6.5,-3.1,3.7,1.6,-1.8,,,*40
$GPGRS,115952.00,1,0.3,0.4,0.9,-1.0,-0.7,-0.2,-1.2,1.6,0.8,-0.3,,*6D
$GPGRS,115952.00,1,2.5,0.1,1.1,1.9,0.2,-1.6,0.8,-0.9,-1.2,0.5,0.5,-1.2*4F
$GPGSV,6,1,22,24,84,153,51,22,15,065,,06,14,103,40,15,20,191,42*7C
$GPGSV,6,2,22,32,16,321,41,17,22,044,42,25,21,255,42,19,47,068,47*78
$GPGSV,6,3,22,12,61,257,49,23,00,251,,11,01,135,,10,09,289,39*75
$GPGSV,6,4,22,13,05,163,,36,35,170,45,58,13,245,36,40,23,133,37*75
$GPGSV,6,5,22,34,31,208,43,49,34,195,45,57,07,111,38,41,07,108,35*76
$GPGSV,6,6,22,61,03,257,38*46
$GLGSV,3,1,10,77,68,352,47,78,23,280,47,66,10,200,44,87,25,128,44*68
$GLGSV,3,2,10,85,13,018,44,86,36,073,49,68,34,314,50,76,38,067,49*6D
$GLGSV,3,3,10,67,41,248,50,69,01,349,*6B
$GAGSV,3,1,11,02,64,057,48,29,12,323,39,11,14,049,37,36,13,097,38*6A
$GAGSV,3,2,11,25,12,065,38,08,43,195,46,07,52,280,47,30,58,254,48*6D
$GAGSV,3,3,11,03,03,164,,27,08,248,38,10,08,023,37*5F
$GBGSV,5,1,19,24,65,294,51,42,12,212,42,41,18,318,42,40,14,039,41*65
$GBGSV,5,2,19,23,12,270,,05,20,130,39,07,18,051,38,44,27,154,*68
$GBGSV,5,3,19,14,24,236,42,10,31,057,41,33,30,265,46,56,37,057,*66
$GBGSV,5,4,19,35,41,098,48,26,57,084,51,25,64,286,,02,04,109,32*64
$GBGSV,5,5,19,45,04,094,39,12,09,169,,60,08,111,41*5F
$GPGGA,115952.00,,,,,0,00,,,M,,M,,*43
$PTNL,GGK,115952.00,010125,4742.1598744,N,01618.1002299,E,1,40,0.7,EHT750.7988,M*46
$GPGGQ,115952.00,010125,4742.1598744,N,01618.1002299,E,1,40,1.041,707.5923,M*3A
$GPGFA,115952.00,5.460,6.403,0.574,0.379,333.899,0.781,,VVV*00
$GPLLK,115952.00,010125,,M,,M,1,40,0.8,,M*0C
$GNGMP,115952.00,,,,,DAAA,40,0.4,,,,*5D
$GPGMP,115952.00,,,,,,09,,,,3.5,136*7D
$GLGMP,115952.00,,,,,,09,,,,,*7D
$GAGMP,115952.00,,,,,,10,,,,,*78
$GBGMP,115952.00,,,,,,12,,,,,*79
$PSSN,SNC,[0,302410000,2347]*40
$GPZDA,115957.00,01,01,2025,,*6D
$GPDTM,W84,,00.0000000,N,00.0000000,E,00.0000000,W84*5F
$PSSN,TFM,115957.00,,,,*61
$GPRMC,115957.00,A,4742.1598725,N,01618.1002260,E,0.0,,010125,5.1,E,D*1A
$GPGLL,4742.1598725,N,01618.1002260,E,115957.00,A,D*6B
$GPGGA,115957.00,4742.1598725,N,01618.1002260,E,2,40,0.4,707.5871,M,43.2066,M,2.0,0136*4E
$GNGNS,115957.00,4742.1598725,N,01618.1002260,E,DAAA,40,0.4,707.5871,43.2066,,*54
$GPGNS,115957.00,,,,,,09,,,,2.0,136*7C
$GLGNS,115957.00,,,,,,09,,,,,*78
$GAGNS,115957.00,,,,,,10,,,,,*7D
$GBGNS,115957.00,,,,,,12,,,,,*7C
$GPLLQ,115957.00,010125,,M,,M,1,40,1.040,,M*1E
$GPVTG,,T,,M,0.01,N,0.01,K,D*26
$GPHDT,,T*1B
$GPTHS,,V*0E
$GPROT,,V*08
$PSSN,HRP,115957.00,010125,,,,,,,00,0,,*6F
$PTNL,AVR,115957.00,,Yaw,,Tilt,,,,0,,00*39
$GPGSA,A,3,06,10,12,15,17,19,24,25,32,,,,0.7,0.4,0.6*39
$GPGSA,A,3,66,67,68,76,77,78,85,86,87,,,,0.7,0.4,0.6*3A
$GPGSA,A,3,02,07,08,10,11,25,27,29,30,36,,,0.7,0.4,0.6*34
$GPGSA,A,3,05,07,10,14,24,26,33,35,40,41,42,60,0.7,0.4,0.6*34
$GPGST,115957.00,2.441,0.574,0.378,333.627,0.541,0.424,0.780*5D
$GPGBS,115957.00,4.699,2.528,4.749,77,0.0001,-6.208,6.068*78
$GPGRS,115957.00,1,-0.4,-1.0,-0.1,0.1,0.1,0.3,0.1,-0.6,0.8,,,*66
$GPGRS,115957.00,1,-3.1,6.2,6.3,-2.2,-6.2,-3.2,4.7,1.8,-2.2,,,*4F
$GPGRS,115957.00,1,0.1,0.5,1.0,-1.3,-1.1,-0.3,-2.0,1.4,0.5,0.1,,*47
$GPGRS,115957.00,1,1.7,-0.4,1.2,1.4,0.0,-1.4,0.3,-1.1,-1.1,0.6,0.3,-1.2*69
$GPGSV,6,1,22,24,84,153,51,22,15,065,,06,14,103,40,15,20,191,43*7D
$GPGSV,6,2,22,32,16,321,42,17,22,044,43,25,21,255,41,19,47,068,47*79
$GPGSV,6,3,22,12,62,257,50,23,00,251,,11,01,135,,10,09,289,40*70
$GPGSV,6,4,22,13,05,163,,36,35,170,45,58,13,245,36,40,23,133,37*75
$GPGSV,6,5,22,34,31,208,43,49,34,195,45,57,07,111,38,41,07,108,35*76
$GPGSV,6,6,22,61,03,257,38*46
$GLGSV,3,1,10,77,68,352,47,78,23,280,48,66,10,200,44,87,25,128,44*67
$GLGSV,3,2,10,85,13,018,44,86,36,073,49,68,34,314,49,76,38,067,49*65
$GLGSV,3,3,10,67,41,248,50,69,01,349,*6B
$GAGSV,3,1,11,02,64,057,48,29,12,323,39,11,14,049,37,36,13,097,39*6B
$GAGSV,3,2,11,25,12,065,37,08,43,195,46,07,52,280,47,30,58,254,48*62
$GAGSV,3,3,11,03,03,164,,27,08,248,37,10,08,023,37*50
$GBGSV,5,1,19,24,65,294,51,42,12,212,41,41,18,318,43,40,14,039,41*67
$GBGSV,5,2,19,23,12,270,,05,20,130,39,07,18,051,39,44,27,154,*69
$GBGSV,5,3,19,14,24,236,43,10,31,057,41,33,30,265,46,56,37,057,*67
$GBGSV,5,4,19,35,41,098,48,26,57,084,51,25,64,286,,02,04,109,32*64
$GBGSV,5,5,19,45,04,094,39,12,09,169,,60,08,111,41*5F
$GPGGA,115957.00,,,,,0,00,,,M,,M,,*46
$PTNL,GGK,115957.00,010125,4742.1598725,N,01618.1002260,E,1,40,0.7,EHT750.7937,M*46
$GPGGQ,115957.00,010125,4742.1598725,N,01618.1002260,E,1,40,1.040,707.5871,M*39
$GPGFA,115957.00,5.457,6.396,0.574,0.378,333.627,0.780,,VVV*01
$GPLLK,115957.00,010125,,M,,M,1,40,0.8,,M*09
$GNGMP,115957.00,,,,,DAAA,40,0.4,,,,*58
$GPGMP,115957.00,,,,,,09,,,,2.0,136*7C
$GLGMP,115957.00,,,,,,09,,,,,*78
$GAGMP,115957.00,,,,,,10,,,,,*7D
$GBGMP,115957.00,,,,,,12,,,,,*7C
$PSSN,SNC,[0,302415000,2347]*45
$GPZDA,120002.00,01,01,2025,,*62
$GPDTM,W84,,00.0000000,N,00.0000000,E,00.0000000,W84*5F
$PSSN,TFM,120002.00,,,,*6E
$GPRMC,120002.00,A,4742.1598701,N,01618.1002237,E,0.0,,010125,5.1,E,D*11
$GPGLL,4742.1598701,N,01618.1002237,E,120002.00,A,D*60
$GPGGA,120002.00,4742.1598701,N,01618.1002237,E,2,40,0.4,707.5901,M,43.2066,M,2.0,0136*43
$GNGNS,120002.00,4742.1598701,N,01618.1002237,E,DAAA,40,0.4,707.5901,43.2066,,*59
$GPGNS,120002.00,,,,,,09,,,,2.0,136*73
$GLGNS,120002.00,,,,,,09,,,,,*77
$GAGNS,120002.00,,,,,,10,,,,,*72
$GBGNS,120002.00,,,,,,12,,,,,*73
$GPLLQ,120002.00,010125,,M,,M,1,40,1.025,,M*12
$GPVTG,,T,,M,0.00,N,0.01,K,D*27
$GPHDT,,T*1B
$GPTHS,,V*0E
$GPROT,,V*08
$PSSN,HRP,120002.00,010125,,,,,,,00,0,,*60
$PTNL,AVR,120002.00,,Yaw,,Tilt,,,,0,,00*36
$GPGSA,A,3,06,10,12,15,17,19,24,25,32,,,,0.7,0.4,0.6*39
$GPGSA,A,3,66,67,68,76,77,78,85,86,87,,,,0.7,0.4,0.6*3A
$GPGSA,A,3,02,07,08,10,11,25,27,29,30,36,,,0.7,0.4,0.6*34
$GPGSA,A,3,05,07,10,14,24,26,33,35,40,41,42,60,0.7,0.4,0.6*34
$GPGST,120002.00,2.410,0.570,0.372,333.676,0.537,0.418,0.767*5B
$GPGBS,120002.00,4.722,2.534,4.523,77,0.0001,-6.550,6.068*7F
$GPGRS,120002.00,1,-0.1,-0.8,-0.2,0.5,0.2,0.0,-0.1,-0.8,1.2,,,*4A
$GPGRS,120002.00,1,-3.5,6.3,5.7,-2.4,-6.6,-3.1,4.1,1.5,-1.4,,,*4D
$GPGRS,120002.00,1,0.5,0.4,1.0,-1.5,-1.5,-0.3,-2.0,1.1,0.5,0.2,,*49
$GPGRS,120002.00,1,1.9,-0.9,1.1,1.8,0.2,-1.2,0.1,-0.7,-1.3,1.0,0.1,-1.0*6E
$GPGSV,6,1,21,24,84,153,51,22,15,065,,06,14,102,40,15,20,191,43*7F
$GPGSV,6,2,21,32,16,321,43,17,22,044,44,25,21,255,41,19,47,068,47*7C
$GPGSV,6,3,21,12,62,257,50,11,01,135,,10,09,289,41,13,05,163,*76
$GPGSV,6,4,21,36,35,170,45,58,13,245,36,40,23,133,37,34,31,208,43*7D
$GPGSV,6,5,21,49,34,195,45,57,07,111,38,41,07,108,35,61,03,257,38*72
$GPGSV,6,6,21*7A
$GLGSV,3,1,10,77,68,352,46,78,23,280,48,66,10,200,44,87,26,128,45*64
$GLGSV,3,2,10,85,13,018,44,86,36,073,49,68,34,313,49,76,38,067,49*62
$GLGSV,3,3,10,67,41,247,50,69,01,349,*64
$GAGSV,3,1,11,02,64,057,48,29,12,323,39,11,14,049,36,36,13,097,39*6A
$GAGSV,3,2,11,25,12,065,37,08,43,195,46,07,52,280,47,30,58,254,48*62
$GAGSV,3,3,11,03,03,164,,27,08,248,36,10,08,023,37*51
$GBGSV,5,1,19,24,65,294,52,42,12,212,41,41,18,318,43,40,14,039,41*64
$GBGSV,5,2,19,23,12,270,,05,20,130,39,07,18,051,39,44,27,154,*69
$GBGSV,5,3,19,14,24,236,43,10,31,057,42,33,30,265,46,56,37,057,*64
$GBGSV,5,4,19,35,41,097,49,26,57,084,51,25,64,286,,02,04,109,32*6A
$GBGSV,5,5,19,45,04,094,39,12,09,169,,60,08,111,41*5F
$GPGGA,120002.00,,,,,0,00,,,M,,M,,*49
$PTNL,GGK,120002.00,010125,4742.1598701,N,01618.1002237,E,1,40,0.7,EHT750.7967,M*48
$GPGGQ,120002.00,010125,4742.1598701,N,01618.1002237,E,1,40,1.025,707.5901,M*37
$GPGFA,120002.00,5.416,6.286,0.570,0.372,333.676,0.767,,VVV*08
$GPLLK,120002.00,010125,,M,,M,1,40,0.8,,M*06
$GNGMP,120002.00,,,,,DAAA,40,0.4,,,,*57
$GPGMP,120002.00,,,,,,09,,,,2.0,136*73
$GLGMP,120002.00,,,,,,09,,,,,*77
$GAGMP,120002.00,,,,,,10,,,,,*72
$GBGMP,120002.00,,,,,,12,,,,,*73
$PSSN,SNC,[0,302420000,2347]*43
$GPZDA,120007.00,01,01,2025,,*67
$GPDTM,W84,,00.0000000,N,00.0000000,E,00.0000000,W84*5F
$PSSN,TFM,120007.00,,,,*6B
$GPRMC,120007.00,A,4742.1598693,N,01618.1002231,E,0.0,,010125,5.1,E,D*18
$GPGLL,4742.1598693,N,01618.1002231,E,120007.00,A,D*69
$GPGGA,120007.00,4742.1598693,N,01618.1002231,E,2,40,0.4,707.5894,M,43.2066,M,2.5,0136*42
$GNGNS,120007.00,4742.1598693,N,01618.1002231,E,DAAA,40,0.4,707.5894,43.2066,,*5D
$GPGNS,120007.00,,,,,,09,,,,2.5,136*73
$GLGNS,120007.00,,,,,,09,,,,,*72
$GAGNS,120007.00,,,,,,10,,,,,*77
$GBGNS,120007.00,,,,,,12,,,,,*76
$GPLLQ,120007.00,010125,,M,,M,1,40,1.029,,M*1B
$GPVTG,,T,,M,0.00,N,0.00,K,D*26
$GPHDT,,T*1B
$GPTHS,,V*0E
$GPROT,,V*08
$PSSN,HRP,120007.00,010125,,,,,,,00,0,,*65
$PTNL,AVR,120007.00,,Yaw,,Tilt,,,,0,,00*33
$GPGSA,A,3,06,10,12,15,17,19,24,25,32,,,,0.7,0.4,0.6*39
$GPGSA,A,3,66,67,68,76,77,78,85,86,87,,,,0.7,0.4,0.6*3A
$GPGSA,A,3,02,07,08,10,11,25,27,29,30,36,,,0.7,0.4,0.6*34
$GPGSA,A,3,05,07,10,14,24,26,33,35,40,41,42,60,0.7,0.4,0.6*34
$GPGST,120007.00,2.287,0.571,0.375,334.031,0.539,0.420,0.769*59
$GPGBS,120007.00,4.722,2.549,4.566,77,0.0001,-6.775,6.068*74
$GPGRS,120007.00,1,-0.8,-0.2,0.1,0.4,0.2,-0.2,-0.0,-0.4,1.1,,,*42
$GPGRS,120007.00,1,-3.3,5.9,5.2,-2.5,-6.8,-2.8,3.4,1.6,-0.6,,,*47
$GPGRS,120007.00,1,0.4,0.5,0.9,-1.1,-1.2,-0.2,-1.2,1.4,0.4,-0.2,,*6E
$GPGRS,120007.00,1,2.3,-0.4,0.6,2.1,0.3,-1.2,0.0,-0.9,-0.9,0.6,0.0,-0.9*68
$GPGSV,6,1,21,24,84,153,51,22,15,065,,06,14,102,40,15,20,191,43*7F
$GPGSV,6,2,21,32,16,321,42,17,22,044,43,25,21,255,41,19,47,068,47*7A
$GPGSV,6,3,21,12,62,257,50,11,01,135,,10,09,289,40,13,05,163,*77
$GPGSV,6,4,21,36,35,170,45,58,13,245,36,40,23,133,36,34,31,208,43*7C
$GPGSV,6,5,21,49,34,195,44,57,07,111,38,41,07,108,35,61,03,257,38*73
$GPGSV,6,6,21*7A
$GLGSV,3,1,10,77,68,352,46,78,23,280,48,85,13,018,44,87,26,128,44*60
$GLGSV,3,2,10,86,36,073,49,76,38,067,49,68,34,313,49,67,41,247,50*64
$GLGSV,3,3,10,66,10,200,45,69,01,349,43*61
$GAGSV,3,1,11,02,64,057,48,29,12,323,38,11,14,049,36,36,13,097,39*6B
$GAGSV,3,2,11,25,12,065,38,08,43,194,47,07,52,280,47,30,58,254,48*6D
$GAGSV,3,3,11,03,03,164,,27,08,248,37,10,08,023,37*50
$GBGSV,5,1,19,24,65,294,52,42,12,212,41,41,18,318,43,40,14,039,41*64
$GBGSV,5,2,19,23,12,270,,05,20,130,39,07,18,051,39,44,27,153,*6E
$GBGSV,5,3,19,14,24,236,43,10,31,057,42,33,30,265,46,56,37,057,*64
$GBGSV,5,4,19,35,41,097,49,26,57,084,51,25,64,286,,02,04,109,32*6A
$GBGSV,5,5,19,45,04,094,39,12,09,169,,60,08,111,41*5F
$GPGGA,120007.00,,,,,0,00,,,M,,M,,*4C
$PTNL,GGK,120007.00,010125,4742.1598693,N,01618.1002231,E,1,40,0.7,EHT750.7959,M*4C
$GPGGQ,120007.00,010125,4742.1598693,N,01618.1002231,E,1,40,1.029,707.5894,M*3F
$GPGFA,120007.00,5.432,6.310,0.571,0.375,334.031,0.769,,VVV*0F
$GPLLK,120007.00,010125,,M,,M,1,40,0.8,,M*03
$GNGMP,120007.00,,,,,DAAA,40,0.4,,,,*52
$GPGMP,120007.00,,,,,,09,,,,2.5,136*73
$GLGMP,120007.00,,,,,,09,,,,,*72
$GAGMP,120007.00,,,,,,10,,,,,*77
$GBGMP,120007.00,,,,,,12,,,,,*76
$PSSN,SNC,[0,302425000,2347]*46
$GPZDA,120012.00,01,01,2025,,*63
$GPDTM,W84,,00.0000000,N,00.0000000,E,00.0000000,W84*5F
$PSSN,TFM,120012.00,,,,*6F
$GPRMC,120012.00,A,4742.1598681,N,01618.1002244,E,0.0,,010125,5.1,E,D*1D
$GPGLL,4742.1598681,N,01618.1002244,E,120012.00,A,D*6C
$GPGGA,120012.00,4742.1598681,N,01618.1002244,E,2,40,0.4,707.5887,M,43.2066,M,3.5,0136*44
$GNGNS,120012.00,4742.1598681,N,01618.1002244,E,DAAA,40,0.4,707.5887,43.2066,,*5A
$GPGNS,120012.00,,,,,,09,,,,3.5,136*76
$GLGNS,120012.00,,,,,,09,,,,,*76
$GAGNS,120012.00,,,,,,10,,,,,*73
$GBGNS,120012.00,,,,,,12,,,,,*72
$GPLLQ,120012.00,010125,,M,,M,1,40,1.040,,M*10
$GPVTG,,T,,M,0.00,N,0.00,K,D*26
$GPHDT,,T*1B
$GPTHS,,V*0E
$GPROT,,V*08
$PSSN,HRP,120012.00,010125,,,,,,,00,0,,*61
$PTNL,AVR,120012.00,,Yaw,,Tilt,,,,0,,00*37
$GPGSA,A,3,06,10,12,15,17,19,24,25,32,,,,0.7,0.4,0.6*39
$GPGSA,A,3,66,67,68,76,77,78,85,86,87,,,,0.7,0.4,0.6*3A
$GPGSA,A,3,02,07,08,10,11,25,27,29,30,36,,,0.7,0.4,0.6*34
$GPGSA,A,3,05,07,10,14,24,26,33,35,40,41,42,60,0.7,0.4,0.6*34
$GPGST,120012.00,2.480,0.574,0.379,333.948,0.542,0.424,0.780*5A
$GPGBS,120012.00,4.754,2.563,4.626,77,0.0001,-7.217,6.068*7E
$GPGRS,120012.00,1,-0.4,-0.6,-0.1,0.3,-0.1,0.0,0.1,-0.4,1.1,,,*49
$GPGRS,120012.00,1,-2.8,6.3,5.7,-2.7,-7.2,-3.0,3.8,2.1,-2.7,,,*4E
$GPGRS,120012.00,1,0.3,0.4,0.7,-1.1,-0.9,-0.1,-1.1,1.4,0.5,-0.6,,*6D
$GPGRS,120012.00,1,1.9,-0.4,0.8,2.9,0.1,-1.5,0.1,-1.2,-1.2,0.9,0.1,-1.1*60
$GPGSV,6,1,21,24,84,153,51,22,15,065,,06,14,102,40,15,20,191,42*7E
$GPGSV,6,2,21,32,16,321,42,17,22,044,43,25,21,255,42,19,47,068,47*79
$GPGSV,6,3,21,12,62,257,50,11,01,135,,10,09,289,40,13,05,163,19*7F
$GPGSV,6,4,21,36,35,170,45,58,13,245,36,40,23,133,37,34,31,208,43*7D
$GPGSV,6,5,21,49,34,195,45,57,07,111,38,41,07,108,35,61,03,257,38*72
$GPGSV,6,6,21*7A
$GLGSV,3,1,10,77,68,352,46,78,23,280,48,85,13,018,44,87,26,128,44*60
$GLGSV,3,2,10,86,36,073,49,76,38,067,49,68,34,313,49,67,41,247,50*64
$GLGSV,3,3,10,66,10,200,46,69,01,349,42*63
$GAGSV,3,1,11,02,64,057,48,29,12,323,38,11,14,049,36,36,13,097,39*6B
$GAGSV,3,2,11,25,12,065,38,08,43,194,46,07,52,280,47,30,58,254,48*6C
$GAGSV,3,3,11,03,03,164,,27,08,248,37,10,08,023,37*50
$GBGSV,5,1,19,24,65,294,52,42,12,212,41,41,18,317,43,40,14,039,41*6B
$GBGSV,5,2,19,23,12,270,,05,20,130,39,07,18,051,39,44,27,153,*6E
$GBGSV,5,3,19,14,24,236,43,10,31,057,42,33,30,265,46,56,37,057,*64
$GBGSV,5,4,19,35,41,097,49,26,57,084,50,25,64,286,,02,04,109,32*6B
$GBGSV,5,5,19,45,04,094,39,12,09,169,,60,08,111,41*5F
$GPGGA,120012.00,,,,,0,00,,,M,,M,,*48
$PTNL,GGK,120012.00,010125,4742.1598681,N,01618.1002244,E,1,40,0.7,EHT750.7953,M*43
$GPGGQ,120012.00,010125,4742.1598681,N,01618.1002244,E,1,40,1.040,707.5887,M*37
$GPGFA,120012.00,5.456,6.398,0.574,0.379,333.948,0.780,,VVV*07
$GPLLK,120012.00,010125,,M,,M,1,40,0.8,,M*07
$GNGMP,120012.00,,,,,DAAA,40,0.4,,,,*56
$GPGMP,120012.00,,,,,,09,,,,3.5,136*76
$GLGMP,120012.00,,,,,,09,,,,,*76
$GAGMP,120012.00,,,,,,10,,,,,*73
$GBGMP,120012.00,,,,,,12,,,,,*72
$PSSN,SNC,[0,302430000,2347]*42
$GPZDA,120017.00,01,01,2025,,*66
$GPDTM,W84,,00.0000000,N,00.0000000,E,00.0000000,W84*5F
$PSSN,TFM,120017.00,,,,*6A
$GPRMC,120017.00,A,4742.1598678,N,01618.1002260,E,0.0,,010125,5.1,E,D*18
$GPGLL,4742.1598678,N,01618.1002260,E,120017.00,A,D*69
$GPGGA,120017.00,4742.1598678,N,01618.1002260,E,2,40,0.4,707.5910,M,43.2066,M,2.0,0136*4A
$GNGNS,120017.00,4742.1598678,N,01618.1002260,E,DAAA,40,0.4,707.5910,43.2066,,*50
$GPGNS,120017.00,,,,,,09,,,,2.0,136*77
$GLGNS,120017.00,,,,,,09,,,,,*73
$GAGNS,120017.00,,,,,,10,,,,,*76
$GBGNS,120017.00,,,,,,12,,,,,*77
$GPLLQ,120017.00,010125,,M,,M,1,40,1.039,,M*1B
$GPVTG,,T,,M,0.00,N,0.00,K,D*26
$GPHDT,,T*1B
$GPTHS,,V*0E
$GPROT,,V*08
$PSSN,HRP,120017.00,010125,,,,,,,00,0,,*64
$PTNL,AVR,120017.00,,Yaw,,Tilt,,,,0,,00*32
$GPGSA,A,3,06,10,12,15,17,19,24,25,32,,,,0.7,0.4,0.6*39
$GPGSA,A,3,66,67,68,76,77,78,85,86,87,,,,0.7,0.4,0.6*3A
$GPGSA,A,3,02,07,08,10,11,25,27,29,30,36,,,0.7,0.4,0.6*34
$GPGSA,A,3,05,07,10,14,24,26,33,35,40,41,42,60,0.7,0.4,0.6*34
$GPGST,120017.00,2.463,0.574,0.378,333.681,0.541,0.424,0.780*5A
$GPGBS,120017.00,4.698,2.526,4.727,77,0.0001,-7.120,6.068*7C
$GPGRS,120017.00,1,-0.7,-1.1,-0.3,0.3,-0.4,0.0,0.2,-0.1,1.3,,,*4A
$GPGRS,120017.00,1,-2.5,6.5,6.0,-2.0,-7.1,-2.8,3.7,1.8,-3.1,,,*4B
$GPGRS,120017.00,1,0.5,0.5,0.7,-1.0,-0.7,-0.0,-1.2,1.8,0.5,-0.2,,*6A
$GPGRS,120017.00,1,1.8,-0.5,1.1,2.6,0.2,-0.2,0.2,-1.1,-1.2,1.0,0.3,-1.0*6C
$GPGSV,6,1,21,24,84,153,51,22,15,065,,06,14,102,40,15,20,191,42*7E
$GPGSV,6,2,21,32,16,321,42,17,22,044,43,25,21,255,42,19,47,068,47*79
$GPGSV,6,3,21,12,62,258,50,11,02,135,,10,09,289,40,13,05,163,*7B
$GPGSV,6,4,21,36,35,170,45,58,13,245,36,40,23,133,36,34,31,208,43*7C
$GPGSV,6,5,21,49,34,195,45,57,07,111,38,41,07,108,35,61,03,257,38*72
$GPGSV,6,6,21*7A
$GLGSV,3,1,10,77,68,352,46,78,23,280,48,85,13,018,44,87,26,128,45*61
$GLGSV,3,2,10,86,36,073,49,76,38,067,49,68,34,313,49,67,41,247,50*64
$GLGSV,3,3,10,66,10,200,46,69,02,349,41*63
$GAGSV,3,1,11,02,64,057,48,29,12,323,39,11,14,048,36,36,13,097,38*6A
$GAGSV,3,2,11,25,12,065,39,08,43,194,46,07,52,280,47,30,58,254,48*6D
$GAGSV,3,3,11,03,02,164,,27,08,248,38,10,08,023,38*51
$GBGSV,5,1,19,24,66,294,52,42,12,212,41,41,18,317,43,40,14,039,41*68
$GBGSV,5,2,19,23,12,270,,05,20,130,39,07,18,051,39,44,27,153,*6E
$GBGSV,5,3,19,14,24,236,43,10,31,057,41,33,30,265,46,56,37,057,*67
$GBGSV,5,4,19,35,41,097,49,26,57,084,50,25,64,286,,02,04,109,32*6B
$GBGSV,5,5,19,45,04,094,40,12,09,169,,60,08,111,41*51
$GPGGA,120017.00,,,,,0,00,,,M,,M,,*4D
$PTNL,GGK,120017.00,010125,4742.1598678,N,01618.1002260,E,1,40,0.7,EHT750.7975,M*42
$GPGGQ,120017.00,010125,4742.1598678,N,01618.1002260,E,1,40,1.039,707.5910,M*33
$GPGFA,120017.00,5.455,6.392,0.574,0.378,333.681,0.780,,VVV*00
$GPLLK,120017.00,010125,,M,,M,1,40,0.8,,M*02
$GNGMP,120017.00,,,,,DAAA,40,0.4,,,,*53
$GPGMP,120017.00,,,,,,09,,,,2.0,136*77
$GLGMP,120017.00,,,,,,09,,,,,*73
$GAGMP,120017.00,,,,,,10,,,,,*76
$GBGMP,120017.00,,,,,,12,,,,,*77
$PSSN,SNC,[0,302435000,2347]*47
$GPZDA,120022.00,01,01,2025,,*60
$GPDTM,W84,,00.0000000,N,00.0000000,E,00.0000000,W84*5F
$PSSN,TFM,120022.00,,,,*6C
$GPRMC,120022.00,A,4742.1598667,N,01618.1002280,E,0.0,,010125,5.1,E,D*1E
$GPGLL,4742.1598667,N,01618.1002280,E,120022.00,A,D*6F
$GPGGA,120022.00,4742.1598667,N,01618.1002280,E,2,40,0.4,707.5884,M,43.2066,M,2.0,0136*40
$GNGNS,120022.00,4742.1598667,N,01618.1002280,E,DAAA,40,0.4,707.5884,43.2066,,*5A
$GPGNS,120022.00,,,,,,09,,,,2.0,136*71
$GLGNS,120022.00,,,,,,09,,,,,*75
$GAGNS,120022.00,,,,,,10,,,,,*70
$GBGNS,120022.00,,,,,,12,,,,,*71
$GPLLQ,120022.00,010125,,M,,M,1,40,1.025,,M*10
$GPVTG,,T,,M,0.00,N,0.01,K,D*27
$GPHDT,,T*1B
$GPTHS,,V*0E
$GPROT,,V*08
$PSSN,HRP,120022.00,010125,,,,,,,00,0,,*62
$PTNL,AVR,120022.00,,Yaw,,Tilt,,,,0,,00*34
$GPGSA,A,3,06,10,12,15,17,19,24,25,32,,,,0.7,0.4,0.6*39
$GPGSA,A,3,66,67,68,76,77,78,85,86,87,,,,0.7,0.4,0.6*3A
$GPGSA,A,3,02,07,08,10,11,25,27,29,30,36,,,0.7,0.4,0.6*34
$GPGSA,A,3,05,07,10,14,24,26,33,35,40,41,42,60,0.7,0.4,0.6*34
$GPGST,120022.00,2.455,0.570,0.372,333.730,0.537,0.418,0.766*5A
$GPGBS,120022.00,4.722,2.533,4.501,77,0.0001,-7.515,6.068*7A
$GPGRS,120022.00,1,-1.1,-1.0,-0.0,0.3,-0.3,-0.0,-0.0,0.0,1.2,,,*61
$GPGRS,120022.00,1,-2.7,6.0,5.9,-2.6,-7.5,-2.9,3.8,1.9,-2.2,,,*4F
$GPGRS,120022.00,1,0.4,0.4,1.0,-1.5,-0.5,-0.1,-1.0,1.7,0.5,-0.3,,*60
$GPGRS,120022.00,1,1.9,-0.8,0.7,2.1,0.2,-0.0,0.1,-1.4,-1.2,1.2,0.3,-1.0*60
$GPGSV,6,1,21,24,84,152,50,22,15,065,,06,14,102,39,15,20,191,43*71
$GPGSV,6,2,21,32,16,321,42,17,22,044,43,25,21,255,42,19,47,068,47*79
$GPGSV,6,3,21,12,62,258,49,11,02,134,,10,09,289,39,13,05,163,*7C
$GPGSV,6,4,21,36,35,170,45,58,13,245,36,40,23,133,37,34,31,208,43*7D
$GPGSV,6,5,21,49,34,195,45,57,07,111,38,41,07,108,35,61,03,257,38*72
$GPGSV,6,6,21*7A
$GLGSV,3,1,10,77,68,352,47,78,23,280,47,85,13,018,44,87,26,128,45*6F
$GLGSV,3,2,10,86,36,073,49,76,38,067,49,68,34,313,49,67,40,247,50*65
$GLGSV,3,3,10,66,10,200,46,69,02,349,41*63
$GAGSV,3,1,11,02,64,057,48,29,12,323,39,11,14,048,36,36,13,097,38*6A
$GAGSV,3,2,11,25,12,065,39,08,43,194,47,07,52,280,47,30,58,255,48*6D
$GAGSV,3,3,11,03,02,164,,27,08,248,38,10,08,023,38*51
$GBGSV,5,1,19,24,66,294,52,42,12,212,42,41,18,317,43,40,14,039,41*6B
$GBGSV,5,2,19,23,12,270,,05,20,130,39,07,18,051,39,44,27,153,*6E
$GBGSV,5,3,19,14,24,236,43,10,31,057,41,33,30,265,46,56,37,057,*67
$GBGSV,5,4,19,35,41,097,48,26,57,084,50,25,64,286,,02,04,109,32*6A
$GBGSV,5,5,19,45,04,094,40,12,09,169,,60,08,111,41*51
$GPGGA,120022.00,,,,,0,00,,,M,,M,,*4B
$PTNL,GGK,120022.00,010125,4742.1598667,N,01618.1002280,E,1,40,0.7,EHT750.7949,M*4B
$GPGGQ,120022.00,010125,4742.1598667,N,01618.1002280,E,1,40,1.025,707.5884,M*34
$GPGFA,120022.00,5.416,6.285,0.570,0.372,333.730,0.766,,VVV*0B
$GPLLK,120022.00,010125,,M,,M,1,40,0.8,,M*04
$GNGMP,120022.00,,,,,DAAA,40,0.4,,,,*55
$GPGMP,120022.00,,,,,,09,,,,2.0,136*71
$GLGMP,120022.00,,,,,,09,,,,,*75
$GAGMP,120022.00,,,,,,10,,,,,*70
$GBGMP,120022.00,,,,,,12,,,,,*71
$PSSN,SNC,[0,302440000,2347]*45
$GPZDA,120027.00,01,01,2025,,*65
$GPDTM,W84,,00.0000000,N,00.0000000,E,00.0000000,W84*5F
$PSSN,TFM,120027.00,,,,*69
$GPRMC,120027.00,A,4742.1598670,N,01618.1002283,E,0.0,,010125,5.1,E,D*1E
$GPGLL,4742.1598670,N,01618.1002283,E,120027.00,A,D*6F
$GPGGA,120027.00,4742.1598670,N,01618.1002283,E,2,40,0.4,707.5919,M,43.2066,M,2.5,0136*40
$GNGNS,120027.00,4742.1598670,N,01618.1002283,E,DAAA,40,0.4,707.5919,43.2066,,*5F
$GPGNS,120027.00,,,,,,09,,,,2.5,136*71
$GLGNS,120027.00,,,,,,09,,,,,*70
$GAGNS,120027.00,,,,,,10,,,,,*75
$GBGNS,120027.00,,,,,,12,,,,,*74
$GPLLQ,120027.00,010125,,M,,M,1,40,1.029,,M*19
$GPVTG,,T,,M,0.00,N,0.00,K,D*26
$GPHDT,,T*1B
$GPTHS,,V*0E
$GPROT,,V*08
$PSSN,HRP,120027.00,010125,,,,,,,00,0,,*67
$PTNL,AVR,120027.00,,Yaw,,Tilt,,,,0,,00*31
$GPGSA,A,3,06,10,12,15,17,19,24,25,32,,,,0.7,0.4,0.6*39
$GPGSA,A,3,66,67,68,76,77,78,85,86,87,,,,0.7,0.4,0.6*3A
$GPGSA,A,3,02,07,08,10,11,25,27,29,30,36,,,0.7,0.4,0.6*34
$GPGSA,A,3,05,07,10,14,24,26,33,35,40,41,42,60,0.7,0.4,0.6*34
$GPGST,120027.00,2.425,0.571,0.375,334.085,0.539,0.420,0.769*5A
$GPGBS,120027.00,4.722,2.547,4.542,77,0.0001,-7.028,6.068*70
$GPGRS,120027.00,1,-0.6,-0.5,-0.1,0.4,0.2,-0.1,-0.1,-0.2,1.2,,,*63
$GPGRS,120027.00,1,-2.6,6.0,6.2,-2.9,-7.0,-3.2,4.0,2.2,-1.5,,,*40
$GPGRS,120027.00,1,0.4,0.2,0.7,-1.5,-0.8,0.0,-1.1,1.4,0.5,-0.2,,*47
$GPGRS,120027.00,1,1.7,-0.5,0.9,1.5,0.1,0.0,-0.0,-1.4,-1.4,0.6,0.5,-1.3*6B
$GPGSV,6,1,21,24,84,152,50,22,15,065,,06,14,102,39,15,20,191,43*71
$GPGSV,6,2,21,32,16,321,42,17,22,044,43,25,21,255,41,19,47,068,46*7B
$GPGSV,6,3,21,12,62,258,49,11,02,134,,10,09,289,40,13,05,163,*72
$GPGSV,6,4,21,36,35,170,45,58,13,245,36,40,23,133,37,34,31,208,43*7D
$GPGSV,6,5,21,49,34,195,45,57,07,111,38,41,07,108,35,61,03,257,38*72
$GPGSV,6,6,21*7A
$GLGSV,3,1,10,77,68,352,46,78,23,280,48,85,13,018,44,87,26,128,45*61
$GLGSV,3,2,10,86,36,073,50,76,38,067,49,68,34,313,49,67,40,247,50*6D
$GLGSV,3,3,10,66,10,200,45,69,02,349,41*60
$GAGSV,3,1,11,02,64,057,48,29,12,323,39,11,14,048,36,36,13,097,38*6A
$GAGSV,3,2,11,25,12,065,39,08,43,194,47,07,52,280,47,30,58,255,48*6D
$GAGSV,3,3,11,03,02,164,,27,08,248,38,10,08,023,37*5E
$GBGSV,5,1,19,24,66,294,52,42,12,212,42,41,18,317,43,40,14,039,41*6B
$GBGSV,5,2,19,23,12,270,,05,20,130,39,07,18,051,39,44,27,153,*6E
$GBGSV,5,3,19,14,24,236,42,10,31,057,41,33,30,265,46,56,37,057,*66
$GBGSV,5,4,19,35,41,097,48,26,57,084,50,25,64,286,,02,04,109,32*6A
$GBGSV,5,5,19,45,04,094,39,12,09,169,,60,08,111,41*5F
$GPGGA,120027.00,,,,,0,00,,,M,,M,,*4E
$PTNL,GGK,120027.00,010125,4742.1598670,N,01618.1002283,E,1,40,0.7,EHT750.7984,M*4A
$GPGGQ,120027.00,010125,4742.1598670,N,01618.1002283,E,1,40,1.029,707.5919,M*3D
$GPGFA,120027.00,5.430,6.307,0.571,0.375,334.085,0.769,,VVV*06
$GPLLK,120027.00,010125,,M,,M,1,40,0.8,,M*01
$GNGMP,120027.00,,,,,DAAA,40,0.4,,,,*50
$GPGMP,120027.00,,,,,,09,,,,2.5,136*71
$GLGMP,120027.00,,,,,,09,,,,,*70
$GAGMP,120027.00,,,,,,10,,,,,*75
$GBGMP,120027.00,,,,,,12,,,,,*74
$PSSN,SNC,[0,302445000,2347]*40
$GPZDA,120032.00,01,01,2025,,*61
$GPDTM,W84,,00.0000000,N,00.0000000,E,00.0000000,W84*5F
$PSSN,TFM,120032.00,,,,*6D
$GPRMC,120032.00,A,4742.1598644,N,01618.1002303,E,0.0,,010125,5.1,E,D*14
$GPGLL,4742.1598644,N,01618.1002303,E,120032.00,A,D*65
$GPGGA,120032.00,4742.1598644,N,01618.1002303,E,2,40,0.4,707.5950,M,43.2066,M,3.5,0136*46
$GNGNS,120032.00,4742.1598644,N,01618.1002303,E,DAAA,40,0.4,707.5950,43.2066,,*58
$GPGNS,120032.00,,,,,,09,,,,3.5,136*74
$GLGNS,120032.00,,,,,,09,,,,,*74
$GAGNS,120032.00,,,,,,10,,,,,*71
$GBGNS,120032.00,,,,,,12,,,,,*70
$GPLLQ,120032.00,010125,,M,,M,1,40,1.040,,M*12
$GPVTG,,T,,M,0.00,N,0.01,K,D*27
$GPHDT,,T*1B
$GPTHS,,V*0E
$GPROT,,V*08
$PSSN,HRP,120032.00,010125,,,,,,,00,0,,*63
$PTNL,AVR,120032.00,,Yaw,,Tilt,,,,0,,00*35
$GPGSA,A,3,06,10,12,15,17,19,24,25,32,,,,0.7,0.4,0.6*39
$GPGSA,A,3,66,67,68,76,77,78,85,86,87,,,,0.7,0.4,0.6*3A
$GPGSA,A,3,02,07,08,10,11,25,27,29,30,36,,,0.7,0.4,0.6*34
$GPGSA,A,3,05,07,10,14,24,26,33,35,40,41,42,60,0.7,0.4,0.6*34
$GPGST,120032.00,2.406,0.574,0.380,333.997,0.542,0.424,0.780*52
$GPGBS,120032.00,4.753,2.561,4.603,77,0.0001,-7.599,6.068*7F
$GPGRS,120032.00,1,-0.4,-0.1,-0.2,0.1,-0.3,0.1,0.2,-0.3,1.0,,,*4B
$GPGRS,120032.00,1,-3.1,6.1,5.8,-2.2,-7.6,-2.8,3.7,2.1,-2.0,,,*49
$GPGRS,120032.00,1,0.3,0.2,0.4,-1.1,-0.8,-0.3,-1.5,0.9,0.3,-0.0,,*61
$GPGRS,120032.00,1,1.5,-0.2,0.8,1.3,0.0,-0.4,0.1,-1.4,-1.3,0.6,0.6,-1.5*6B
$GPGSV,6,1,21,24,84,152,50,22,15,065,,06,14,102,40,15,20,191,43*7F
$GPGSV,6,2,21,32,16,321,42,17,22,044,43,25,21,255,42,19,47,068,46*78
$GPGSV,6,3,21,12,62,258,49,11,02,134,,10,09,289,40,13,04,163,*73
$GPGSV,6,4,21,36,35,170,45,58,13,245,36,40,23,133,37,34,31,208,43*7D
$GPGSV,6,5,21,49,34,195,45,57,08,111,38,41,07,108,35,61,03,257,38*7D
$GPGSV,6,6,21*7A
$GLGSV,3,1,10,77,68,352,46,78,23,280,48,85,13,018,43,87,26,128,46*65
$GLGSV,3,2,10,86,36,072,49,76,37,067,49,68,34,313,50,67,40,247,50*63
$GLGSV,3,3,10,66,10,200,45,69,02,349,41*60
$GAGSV,3,1,11,02,64,057,48,29,12,323,39,11,14,048,36,36,13,097,39*6B
$GAGSV,3,2,11,25,12,065,39,08,43,194,47,07,52,279,47,30,58,255,48*6B
$GAGSV,3,3,11,03,02,164,,27,08,248,38,10,08,023,37*5E
$GBGSV,5,1,19,24,66,294,52,42,12,212,41,41,18,317,43,40,14,039,41*68
$GBGSV,5,2,19,23,12,270,,05,20,130,39,07,18,051,39,44,27,153,*6E
$GBGSV,5,3,19,14,24,236,43,10,31,057,42,33,30,265,46,56,37,057,*64
$GBGSV,5,4,19,35,41,097,49,26,57,084,50,25,64,286,,02,04,109,31*68
$GBGSV,5,5,19,45,04,094,39,12,09,169,,60,08,111,41*5F
$GPGGA,120032.00,,,,,0,00,,,M,,M,,*4A
$PTNL,GGK,120032.00,010125,4742.1598644,N,01618.1002303,E,1,40,0.7,EHT750.8015,M*4E
$GPGGQ,120032.00,010125,4742.1598644,N,01618.1002303,E,1,40,1.040,707.5950,M*35
$GPGFA,120032.00,5.454,6.395,0.574,0.380,333.997,0.780,,VVV*0E
$GPLLK,120032.00,010125,,M,,M,1,40,0.8,,M*05
$GNGMP,120032.00,,,,,DAAA,40,0.4,,,,*54
$GPGMP,120032.00,,,,,,09,,,,3.5,136*74
$GLGMP,120032.00,,,,,,09,,,,,*74
$GAGMP,120032.00,,,,,,10,,,,,*71
$GBGMP,120032.00,,,,,,12,,,,,*70
$PSSN,SNC,[0,302450000,2347]*44
$GPZDA,120037.00,01,01,2025,,*64
$GPDTM,W84,,00.0000000,N,00.0000000,E,00.0000000,W84*5F
$PSSN,TFM,120037.00,,,,*68
$GPRMC,120037.00,A,4742.1598642,N,01618.1002320,E,0.0,,010125,5.1,E,D*16
$GPGLL,4742.1598642,N,01618.1002320,E,120037.00,A,D*67
$GPGGA,120037.00,4742.1598642,N,01618.1002320,E,2,40,0.4,707.5901,M,43.2066,M,2.0,0136*44
$GNGNS,120037.00,4742.1598642,N,01618.1002320,E,DAAA,40,0.4,707.5901,43.2066,,*5E
$GPGNS,120037.00,,,,,,09,,,,2.0,136*75
$GLGNS,120037.00,,,,,,09,,,,,*71
$GAGNS,120037.00,,,,,,10,,,,,*74
$GBGNS,120037.00,,,,,,12,,,,,*75
$GPLLQ,120037.00,010125,,M,,M,1,40,1.039,,M*19
$GPVTG,,T,,M,0.00,N,0.00,K,D*26
$GPHDT,,T*1B
$GPTHS,,V*0E
$GPROT,,V*08
$PSSN,HRP,120037.00,010125,,,,,,,00,0,,*66
$PTNL,AVR,120037.00,,Yaw,,Tilt,,,,0,,00*30
$GPGSA,A,3,06,10,12,15,17,19,24,25,32,,,,0.7,0.4,0.6*39
$GPGSA,A,3,66,67,68,76,77,78,85,86,87,,,,0.7,0.4,0.6*3A
$GPGSA,A,3,02,07,08,10,11,25,27,29,30,36,,,0.7,0.4,0.6*34
$GPGSA,A,3,05,07,10,14,24,26,33,35,40,41,42,60,0.7,0.4,0.6*34
$GPGST,120037.00,2.574,0.573,0.379,333.735,0.541,0.424,0.779*51
$GPGBS,120037.00,4.697,2.523,4.705,77,0.0001,-7.451,6.068*77
$GPGRS,120037.00,1,-0.8,-0.4,-0.0,-0.1,-0.5,-0.2,0.2,-0.2,0.8,,,*48
$GPGRS,120037.00,1,-4.0,6.8,5.8,-2.4,-7.5,-2.2,4.2,2.3,-2.6,,,*4A
$GPGRS,120037.00,1,0.5,0.4,0.7,-0.8,-0.2,-0.5,-1.6,1.0,0.2,-0.2,,*6B
$GPGRS,120037.00,1,2.0,-0.1,1.2,2.4,0.0,-0.2,0.1,-1.2,-1.2,1.5,0.7,-1.2*61
$GPGSV,6,1,21,24,84,152,51,22,15,065,,06,14,102,40,15,20,191,42*7F
$GPGSV,6,2,21,32,16,321,42,17,22,044,42,25,21,255,42,19,47,068,46*79
$GPGSV,6,3,21,12,62,258,50,11,02,134,,10,09,289,40,13,04,163,*7B
$GPGSV,6,4,21,36,35,170,45,58,13,245,37,40,23,133,37,34,31,208,43*7C
$GPGSV,6,5,21,49,34,195,45,57,08,111,38,41,07,108,35,61,03,257,38*7D
$GPGSV,6,6,21*7A
$GLGSV,3,1,10,77,68,353,46,78,23,280,48,85,13,018,44,87,26,128,45*60
$GLGSV,3,2,10,86,36,072,50,76,37,067,49,68,34,313,49,67,40,247,51*62
$GLGSV,3,3,10,66,10,200,44,69,02,349,42*62
$GAGSV,3,1,11,02,64,057,49,29,12,323,39,11,14,048,36,36,13,097,39*6A
$GAGSV,3,2,11,25,12,065,39,08,43,194,47,07,52,279,47,30,58,255,48*6B
$GAGSV,3,3,11,03,02,164,,27,08,248,39,10,08,023,37*5F
$GBGSV,5,1,19,24,66,294,52,42,12,212,40,41,18,317,43,40,14,039,41*69
$GBGSV,5,2,19,23,12,270,,05,20,130,39,07,18,051,39,44,27,153,*6E
$GBGSV,5,3,19,14,24,236,43,10,31,057,42,33,30,265,46,56,37,057,*64
$GBGSV,5,4,19,35,42,097,49,26,57,084,51,25,64,286,,02,04,109,31*6A
$GBGSV,5,5,19,45,04,094,39,12,09,169,,60,08,111,41*5F
$GPGGA,120037.00,,,,,0,00,,,M,,M,,*4F
$PTNL,GGK,120037.00,010125,4742.1598642,N,01618.1002320,E,1,40,0.7,EHT750.7967,M*4F
$GPGGQ,120037.00,010125,4742.1598642,N,01618.1002320,E,1,40,1.039,707.5901,M*3D
$GPGFA,120037.00,5.453,6.390,0.573,0.379,333.735,0.779,,VVV*08
$GPLLK,120037.00,010125,,M,,M,1,40,0.8,,M*00
$GNGMP,120037.00,,,,,DAAA,40,0.4,,,,*51
$GPGMP,120037.00,,,,,,09,,,,2.0,136*75
$GLGMP,120037.00,,,,,,09,,,,,*71
$GAGMP,120037.00,,,,,,10,,,,,*74
$GBGMP,120037.00,,,,,,12,,,,,*75
$PSSN,SNC,[0,302455000,2347]*41
$GPZDA,120042.00,01,01,2025,,*66
$GPDTM,W84,,00.0000000,N,00.0000000,E,00.0000000,W84*5F
$PSSN,TFM,120042.00,,,,*6A
$GPRMC,120042.00,A,4742.1598631,N,01618.1002338,E,0.0,,010125,5.1,E,D*19
$GPGLL,4742.1598631,N,01618.1002338,E,120042.00,A,D*68
$GPGGA,120042.00,4742.1598631,N,01618.1002338,E,2,40,0.4,707.5874,M,43.2066,M,2.0,0136*48
$GNGNS,120042.00,4742.1598631,N,01618.1002338,E,DAAA,40,0.4,707.5874,43.2066,,*52
$GPGNS,120042.00,,,,,,09,,,,2.0,136*77
$GLGNS,120042.00,,,,,,09,,,,,*73
$GAGNS,120042.00,,,,,,10,,,,,*76
$GBGNS,120042.00,,,,,,12,,,,,*77
$GPLLQ,120042.00,010125,,M,,M,1,40,1.025,,M*16
$GPVTG,,T,,M,0.00,N,0.01,K,D*27
$GPHDT,,T*1B
$GPTHS,,V*0E
$GPROT,,V*08
$PSSN,HRP,120042.00,010125,,,,,,,00,0,,*64
$PTNL,AVR,120042.00,,Yaw,,Tilt,,,,0,,00*32
$GPGSA,A,3,06,10,12,15,17,19,24,25,32,,,,0.7,0.4,0.6*39
$GPGSA,A,3,66,67,68,76,77,78,85,86,87,,,,0.7,0.4,0.6*3A
$GPGSA,A,3,02,07,08,10,11,25,27,29,30,36,,,0.7,0.4,0.6*34
$GPGSA,A,3,05,07,10,14,24,26,33,35,40,41,42,60,0.7,0.4,0.6*34
$GPGST,120042.00,2.598,0.569,0.373,333.792,0.537,0.418,0.766*5D
$GPGBS,120042.00,4.721,2.531,4.477,77,0.0001,-6.825,6.068*72
$GPGRS,120042.00,1,-0.5,-0.5,-0.1,-0.3,-0.3,-0.0,0.2,-0.2,1.0,,,*48
$GPGRS,120042.00,1,-4.8,6.7,5.7,-2.5,-6.8,-2.4,4.4,2.3,-2.7,,,*4C
$GPGRS,120042.00,1,0.4,0.4,0.8,-0.6,-0.7,-0.5,-1.7,1.0,0.5,-0.0,,*68
$GPGRS,120042.00,1,1.9,-0.4,1.2,3.2,-0.0,0.0,0.3,-1.3,-1.4,1.1,0.6,-1.4*6F
$GPGSV,6,1,21,24,84,152,51,22,15,065,,06,14,102,40,15,20,191,43*7E
$GPGSV,6,2,21,32,16,321,42,17,22,044,42,25,21,255,42,19,47,068,47*78
$GPGSV,6,3,21,12,62,258,50,11,02,134,,10,09,289,40,13,04,163,*7B
$GPGSV,6,4,21,36,35,170,46,58,13,245,37,40,23,133,37,34,31,208,43*7F
$GPGSV,6,5,21,49,34,195,45,57,08,111,39,41,07,108,35,61,03,257,39*7D
$GPGSV,6,6,21*7A
$GLGSV,3,1,10,77,68,353,46,78,23,281,47,85,13,018,44,87,26,128,45*6E
$GLGSV,3,2,10,86,36,072,49,76,37,067,49,68,34,313,49,67,40,247,50*6B
$GLGSV,3,3,10,66,10,200,43,69,02,349,42*65
$GAGSV,3,1,11,02,64,057,49,29,12,323,39,11,14,048,37,36,13,097,39*6B
$GAGSV,3,2,11,25,12,065,38,08,43,194,46,07,52,279,47,30,58,255,48*6B
$GAGSV,3,3,11,03,02,164,,27,08,248,38,10,08,023,37*5E
$GBGSV,5,1,19,24,66,294,51,42,12,212,40,41,18,317,43,40,14,039,40*6B
$GBGSV,5,2,19,23,12,270,,05,20,130,39,07,18,051,39,44,27,153,*6E
$GBGSV,5,3,19,14,24,236,42,10,31,057,42,33,30,265,46,56,37,057,*65
$GBGSV,5,4,19,35,42,097,48,26,57,084,50,25,64,286,,02,04,109,31*6A
$GBGSV,5,5,19,45,04,094,39,12,09,169,,60,08,111,41*5F
$GPGGA,120042.00,,,,,0,00,,,M,,M,,*4D
$PTNL,GGK,120042.00,010125,4742.1598631,N,01618.1002338,E,1,40,0.7,EHT750.7939,M*4B
$GPGGQ,120042.00,010125,4742.1598631,N,01618.1002338,E,1,40,1.025,707.5874,M*3C
$GPGFA,120042.00,5.414,6.282,0.569,0.373,333.792,0.766,,VVV*09
$GPLLK,120042.00,010125,,M,,M,1,40,0.8,,M*02
$GNGMP,120042.00,,,,,DAAA,40,0.4,,,,*53
$GPGMP,120042.00,,,,,,09,,,,2.0,136*77
$GLGMP,120042.00,,,,,,09,,,,,*73
$GAGMP,120042.00,,,,,,10,,,,,*76
$GBGMP,120042.00,,,,,,12,,,,,*77
$PSSN,SNC,[0,302460000,2347]*47
$GPZDA,120047.00,01,01,2025,,*63
$GPDTM,W84,,00.0000000,N,00.0000000,E,00.0000000,W84*5F
$PSSN,TFM,120047.00,,,,*6F
$GPRMC,120047.00,A,4742.1598591,N,01618.1002338,E,0.0,,010125,5.1,E,D*15
$GPGLL,4742.1598591,N,01618.1002338,E,120047.00,A,D*64
$GPGGA,120047.00,4742.1598591,N,01618.1002338,E,2,40,0.4,707.5833,M,43.2066,M,2.5,0136*42
$GNGNS,120047.00,4742.1598591,N,01618.1002338,E,DAAA,40,0.4,707.5833,43.2066,,*5D
$GPGNS,120047.00,,,,,,09,,,,2.5,136*77
$GLGNS,120047.00,,,,,,09,,,,,*76
$GAGNS,120047.00,,,,,,10,,,,,*73
$GBGNS,120047.00,,,,,,12,,,,,*72
$GPLLQ,120047.00,010125,,M,,M,1,40,1.028,,M*1E
$GPVTG,,T,,M,0.00,N,0.01,K,D*27
$GPHDT,,T*1B
$GPTHS,,V*0E
$GPROT,,V*08
$PSSN,HRP,120047.00,010125,,,,,,,00,0,,*61
$PTNL,AVR,120047.00,,Yaw,,Tilt,,,,0,,00*37
$GPGSA,A,3,06,10,12,15,17,19,24,25,32,,,,0.7,0.4,0.6*39
$GPGSA,A,3,66,67,68,76,77,78,85,86,87,,,,0.7,0.4,0.6*3A
$GPGSA,A,3,02,07,08,10,11,25,27,29,30,36,,,0.7,0.4,0.6*34
$GPGSA,A,3,05,07,10,14,24,26,33,35,40,41,42,60,0.7,0.4,0.6*34
$GPGST,120047.00,2.493,0.571,0.375,334.142,0.539,0.419,0.769*51
$GPGBS,120047.00,4.720,2.545,4.519,77,0.0001,-7.071,6.068*74
$GPGRS,120047.00,1,-0.5,-1.0,-0.1,0.0,0.2,-0.0,0.3,-0.4,0.9,,,*44
$GPGRS,120047.00,1,-4.5,6.3,5.6,-2.3,-7.1,-3.1,4.5,1.5,-1.9,,,*42
$GPGRS,120047.00,1,0.4,0.1,0.6,-0.7,-0.8,-0.1,-1.7,0.9,0.5,0.4,,*4D
$GPGRS,120047.00,1,1.6,0.1,1.7,1.8,-0.1,-0.1,0.2,-1.4,-1.3,0.6,0.6,-1.4*6A
$GPGSV,6,1,21,24,84,152,51,22,15,065,,06,14,102,40,15,20,191,43*7E
$GPGSV,6,2,21,32,16,321,42,17,22,044,43,25,21,255,42,19,47,068,47*79
$GPGSV,6,3,21,12,62,258,49,11,02,134,,10,09,289,40,13,04,163,*73
$GPGSV,6,4,21,36,35,170,46,58,13,245,37,40,23,133,37,34,31,208,43*7F
$GPGSV,6,5,21,49,34,195,45,57,08,111,38,41,07,108,35,61,03,257,39*7C
$GPGSV,6,6,21*7A
$GLGSV,3,1,10,77,68,353,46,78,23,281,48,85,13,018,44,87,26,128,45*61
$GLGSV,3,2,10,86,36,072,49,76,37,067,49,68,34,313,49,67,40,247,51*6A
$GLGSV,3,3,10,66,10,200,44,69,02,349,42*62
$GAGSV,3,1,11,02,63,057,49,29,12,323,39,11,14,048,36,36,13,097,39*6D
$GAGSV,3,2,11,25,12,065,38,08,43,194,47,07,52,279,47,30,58,255,48*6A
$GAGSV,3,3,11,03,02,164,,27,08,248,38,10,08,023,37*5E
$GBGSV,5,1,19,24,66,294,51,42,12,212,41,41,18,317,42,40,14,039,41*6A
$GBGSV,5,2,19,23,12,270,,05,20,130,38,07,18,051,39,44,27,153,*6F
$GBGSV,5,3,19,14,24,236,42,10,31,057,41,33,30,265,46,56,37,057,*66
$GBGSV,5,4,19,35,42,097,48,26,57,084,50,25,65,286,,02,04,109,31*6B
$GBGSV,5,5,19,45,04,094,39,12,09,169,,60,08,111,41*5F
$GPGGA,120047.00,,,,,0,00,,,M,,M,,*48
$PTNL,GGK,120047.00,010125,4742.1598591,N,01618.1002338,E,1,40,0.7,EHT750.7899,M*4C
$GPGGQ,120047.00,010125,4742.1598591,N,01618.1002338,E,1,40,1.028,707.5833,M*3E
$GPGFA,120047.00,5.428,6.303,0.571,0.375,334.142,0.769,,VVV*07
$GPLLK,120047.00,010125,,M,,M,1,40,0.8,,M*07
$GNGMP,120047.00,,,,,DAAA,40,0.4,,,,*56
$GPGMP,120047.00,,,,,,09,,,,2.5,136*77
$GLGMP,120047.00,,,,,,09,,,,,*76
$GAGMP,120047.00,,,,,,10,,,,,*73
$GBGMP,120047.00,,,,,,12,,,,,*72
$PSSN,SNC,[0,302465000,2347]*42
$GPZDA,120052.00,01,01,2025,,*67
$GPDTM,W84,,00.0000000,N,00.0000000,E,00.0000000,W84*5F
$PSSN,TFM,120052.00,,,,*6B
$GPRMC,120052.00,A,4742.1598585,N,01618.1002317,E,0.0,,010125,5.1,E,D*19
$GPGLL,4742.1598585,N,01618.1002317,E,120052.00,A,D*68
$GPGGA,120052.00,4742.1598585,N,01618.1002317,E,2,40,0.4,707.5838,M,43.2066,M,3.5,0136*44
$GNGNS,120052.00,4742.1598585,N,01618.1002317,E,DAAA,40,0.4,707.5838,43.2066,,*5A
$GPGNS,120052.00,,,,,,09,,,,3.5,136*72
$GLGNS,120052.00,,,,,,09,,,,,*72
$GAGNS,120052.00,,,,,,10,,,,,*77
$GBGNS,120052.00,,,,,,12,,,,,*76
$GPLLQ,120052.00,010125,,M,,M,1,40,1.040,,M*14
$GPVTG,,T,,M,0.01,N,0.01,K,D*26
$GPHDT,,T*1B
$GPTHS,,V*0E
$GPROT,,V*08
$PSSN,HRP,120052.00,010125,,,,,,,00,0,,*65
$PTNL,AVR,120052.00,,Yaw,,Tilt,,,,0,,00*33
$GPGSA,A,3,06,10,12,15,17,19,24,25,32,,,,0.7,0.4,0.6*39
$GPGSA,A,3,66,67,68,76,77,78,85,86,87,,,,0.7,0.4,0.6*3A
$GPGSA,A,3,02,07,08,10,11,25,27,29,30,36,,,0.7,0.4,0.6*34
$GPGSA,A,3,05,07,10,14,24,26,33,35,40,41,42,60,0.7,0.4,0.6*34
$GPGST,120052.00,2.431,0.573,0.380,334.062,0.542,0.424,0.779*55
$GPGBS,120052.00,4.752,2.560,4.579,77,0.0001,-7.157,6.068*71
$GPGRS,120052.00,1,-0.5,-1.0,-0.2,0.3,0.0,0.0,0.1,-0.2,0.6,,,*64
$GPGRS,120052.00,1,-3.5,6.7,5.3,-2.1,-7.2,-2.5,4.0,1.8,-1.6,,,*43
$GPGRS,120052.00,1,0.4,0.3,0.9,-1.0,-0.9,-0.1,-1.8,1.4,0.6,0.0,,*47
$GPGRS,120052.00,1,1.7,0.5,1.6,2.2,0.1,-0.3,0.1,-1.3,-1.3,0.8,0.4,-1.2*42
$GPGSV,6,1,21,24,84,152,51,22,15,065,,06,14,102,40,15,20,191,43*7E
$GPGSV,6,2,21,32,16,321,41,17,22,044,43,25,21,255,41,19,47,068,47*79
$GPGSV,6,3,21,12,62,258,49,11,02,134,,10,09,289,40,13,04,163,*73
$GPGSV,6,4,21,36,35,170,45,58,13,245,36,40,23,133,36,34,31,208,43*7C
$GPGSV,6,5,21,49,34,195,45,57,08,111,38,41,07,108,35,61,03,257,38*7D
$GPGSV,6,6,21*7A
$GLGSV,3,1,10,77,68,353,46,78,23,281,48,85,13,018,44,87,26,128,45*61
$GLGSV,3,2,10,86,36,072,49,76,37,068,49,68,34,313,49,67,40,247,51*65
$GLGSV,3,3,10,66,10,200,45,69,02,349,42*63
$GAGSV,3,1,11,02,63,057,48,29,12,323,39,11,14,048,36,36,13,097,39*6C
$GAGSV,3,2,11,25,12,065,38,08,42,194,47,07,52,279,47,30,58,255,48*6B
$GAGSV,3,3,11,03,02,164,,27,08,248,38,10,08,023,37*5E
$GBGSV,5,1,19,24,66,294,51,42,12,212,41,41,18,317,43,40,14,039,41*6B
$GBGSV,5,2,19,23,12,270,,05,20,130,38,07,18,051,39,44,27,153,*6F
$GBGSV,5,3,19,14,24,236,43,10,31,057,41,33,30,265,46,56,37,057,*67
$GBGSV,5,4,19,35,42,097,48,26,57,084,50,25,65,286,,02,04,109,31*6B
$GBGSV,5,5,19,45,04,094,40,12,09,169,,60,08,111,41*51
$GPGGA,120052.00,,,,,0,00,,,M,,M,,*4C
$PTNL,GGK,120052.00,010125,4742.1598585,N,01618.1002317,E,1,40,0.7,EHT750.7904,M*45
$GPGGQ,120052.00,010125,4742.1598585,N,01618.1002317,E,1,40,1.040,707.5838,M*37
$GPGFA,120052.00,5.453,6.392,0.573,0.380,334.062,0.779,,VVV*0D
$GPLLK,120052.00,010125,,M,,M,1,40,0.8,,M*03
$GNGMP,120052.00,,,,,DAAA,40,0.4,,,,*52
$GPGMP,120052.00,,,,,,09,,,,3.5,136*72
$GLGMP,120052.00,,,,,,09,,,,,*72
$GAGMP,120052.00,,,,,,10,,,,,*77
$GBGMP,120052.00,,,,,,12,,,,,*76
$PSSN,SNC,[0,302470000,2347]*46
$GPZDA,120057.00,01,01,2025,,*62
$GPDTM,W84,,00.0000000,N,00.0000000,E,00.0000000,W84*5F
$PSSN,TFM,120057.00,,,,*6E
$GPRMC,120057.00,A,4742.1598601,N,01618.1002284,E,0.0,,010125,5.1,E,D*18
$GPGLL,4742.1598601,N,01618.1002284,E,120057.00,A,D*69
$GPGGA,120057.00,4742.1598601,N,01618.1002284,E,2,40,0.4,707.5835,M,43.2066,M,2.0,0136*4C
$GNGNS,120057.00,4742.1598601,N,01618.1002284,E,DAAA,40,0.4,707.5835,43.2066,,*56
$GPGNS,120057.00,,,,,,09,,,,2.0,136*73
$GLGNS,120057.00,,,,,,09,,,,,*77
$GAGNS,120057.00,,,,,,10,,,,,*72
$GBGNS,120057.00,,,,,,12,,,,,*73
$GPLLQ,120057.00,010125,,M,,M,1,40,1.034,,M*12
$GPVTG,,T,,M,0.00,N,0.00,K,D*26
$GPHDT,,T*1B
$GPTHS,,V*0E
$GPROT,,V*08
$PSSN,HRP,120057.00,010125,,,,,,,00,0,,*60
$PTNL,AVR,120057.00,,Yaw,,Tilt,,,,0,,00*36
$GPGSA,A,3,06,10,12,15,17,19,24,25,32,,,,0.7,0.4,0.6*39
$GPGSA,A,3,66,67,68,76,77,78,85,86,87,,,,0.7,0.4,0.6*3A
$GPGSA,A,3,02,07,08,10,11,25,27,29,30,36,,,0.7,0.4,0.6*34
$GPGSA,A,3,05,07,10,14,24,26,33,35,40,41,42,60,0.7,0.4,0.6*34
$GPGST,120057.00,2.475,0.566,0.379,333.751,0.534,0.422,0.778*54
$GPGBS,120057.00,4.641,2.528,4.668,77,0.0001,-6.895,6.068*7E
$GPGRS,120057.00,1,-1.0,-1.0,0.0,0.5,-0.2,0.1,-0.1,-0.4,0.8,,,*47
$GPGRS,120057.00,1,-3.2,6.4,5.9,-1.9,-6.9,-3.0,4.0,2.1,-1.3,,,*42
$GPGRS,120057.00,1,0.3,0.7,1.0,-1.0,-0.9,-0.1,-1.9,1.4,0.5,-0.1,,*67
$GPGRS,120057.00,1,2.1,0.6,1.3,3.0,0.1,-0.1,-0.1,-1.2,-1.4,0.7,0.6,-1.4*65
$GPGSV,6,1,21,24,84,152,51,22,15,065,,06,14,102,40,15,20,191,43*7E
$GPGSV,6,2,21,32,16,321,41,17,22,044,43,25,21,255,40,19,47,068,47*78
$GPGSV,6,3,21,12,62,258,49,11,02,134,,10,09,289,41,13,04,163,*72
$GPGSV,6,4,21,36,35,170,45,58,13,245,37,40,23,133,37,34,31,208,43*7C
$GPGSV,6,5,21,49,34,195,45,57,08,111,38,41,07,108,35,61,03,257,38*7D
$GPGSV,6,6,21*7A
$GLGSV,3,1,10,77,68,353,47,78,23,281,48,85,13,018,43,87,26,128,45*67
$GLGSV,3,2,10,86,36,072,49,76,37,068,49,68,34,313,49,67,40,247,50*64
$GLGSV,3,3,10,66,10,200,45,69,02,349,42*63
$GAGSV,3,1,11,02,63,057,48,29,12,323,39,11,14,048,36,36,13,097,39*6C
$GAGSV,3,2,11,25,12,065,38,08,42,194,46,07,52,279,47,30,58,255,48*6A
$GAGSV,3,3,11,03,02,164,,27,08,249,37,10,08,023,37*50
$GBGSV,5,1,19,24,66,294,51,42,12,212,41,41,18,317,43,40,14,039,41*6B
$GBGSV,5,2,19,23,12,270,,05,20,130,39,07,18,051,39,44,27,153,*6E
$GBGSV,5,3,19,14,24,236,42,10,31,057,41,33,30,265,46,56,37,057,*66
$GBGSV,5,4,19,35,42,097,48,26,57,084,50,25,65,286,,02,04,109,31*6B
$GBGSV,5,5,19,45,04,094,40,12,09,169,,60,08,111,41*51
$GPGGA,120057.00,,,,,0,00,,,M,,M,,*49
$PTNL,GGK,120057.00,010125,4742.1598601,N,01618.1002284,E,1,40,0.7,EHT750.7901,M*41
$GPGGQ,120057.00,010125,4742.1598601,N,01618.1002284,E,1,40,1.034,707.5835,M*38
$GPGFA,120057.00,5.380,6.377,0.566,0.379,333.751,0.778,,VVV*09
$GPLLK,120057.00,010125,,M,,M,1,40,0.8,,M*06
$GNGMP,120057.00,,,,,DAAA,40,0.4,,,,*57
$GPGMP,120057.00,,,,,,09,,,,2.0,136*73
$GLGMP,120057.00,,,,,,09,,,,,*77
$GAGMP,120057.00,,,,,,10,,,,,*72
$GBGMP,120057.00,,,,,,12,,,,,*73
$PSSN,SNC,[0,302475000,2347]*43
$GPZDA,120102.00,01,01,2025,,*63
$GPDTM,W84,,00.0000000,N,00.0000000,E,00.0000000,W84*5F
$PSSN,TFM,120102.00,,,,*6F
$GPRMC,120102.00,A,4742.1598590,N,01618.1002304,E,0.0,,010125,5.1,E,D*1B
$GPGLL,4742.1598590,N,01618.1002304,E,120102.00,A,D*6A
$GPGGA,120102.00,4742.1598590,N,01618.1002304,E,2,40,0.4,707.5834,M,43.2066,M,2.0,0136*4E
$GNGNS,120102.00,4742.1598590,N,01618.1002304,E,DAAA,40,0.4,707.5834,43.2066,,*54
$GPGNS,120102.00,,,,,,09,,,,2.0,136*72
$GLGNS,120102.00,,,,,,09,,,,,*76
$GAGNS,120102.00,,,,,,10,,,,,*73
$GBGNS,120102.00,,,,,,12,,,,,*72
$GPLLQ,120102.00,010125,,M,,M,1,40,1.020,,M*16
$GPVTG,,T,,M,0.00,N,0.00,K,D*26
$GPHDT,,T*1B
$GPTHS,,V*0E
$GPROT,,V*08
$PSSN,HRP,120102.00,010125,,,,,,,00,0,,*61
$PTNL,AVR,120102.00,,Yaw,,Tilt,,,,0,,00*37
$GPGSA,A,3,06,10,12,15,17,19,24,25,32,,,,0.7,0.4,0.6*39
$GPGSA,A,3,66,67,68,76,77,78,85,86,87,,,,0.7,0.4,0.6*3A
$GPGSA,A,3,02,07,08,10,11,25,27,29,30,36,,,0.7,0.4,0.6*34
$GPGSA,A,3,05,07,10,14,24,26,33,35,40,41,42,60,0.7,0.4,0.6*34
$GPGST,120102.00,2.405,0.562,0.373,333.819,0.531,0.416,0.765*51
$GPGBS,120102.00,4.667,2.535,4.438,77,0.0001,-6.845,6.068*7D
$GPGRS,120102.00,1,-0.8,-0.6,0.2,0.4,-0.2,0.0,-0.2,-0.4,1.3,,,*43
$GPGRS,120102.00,1,-3.5,5.6,6.3,-2.1,-6.8,-3.0,3.0,2.0,-2.7,,,*47
$GPGRS,120102.00,1,0.2,0.6,0.8,-1.6,-1.1,-0.3,-1.5,1.0,0.6,-0.3,,*6B
$GPGRS,120102.00,1,1.7,0.5,1.2,2.1,-0.0,-0.3,0.1,-1.3,-1.4,0.7,0.3,-1.3*63
$GPGSV,6,1,21,24,84,152,51,22,14,065,,06,14,102,39,15,20,191,42*70
$GPGSV,6,2,21,32,16,321,41,17,22,044,43,25,21,255,41,19,47,068,46*78
$GPGSV,6,3,21,12,62,258,50,11,02,134,,10,08,289,40,13,04,163,*7A
$GPGSV,6,4,21,36,35,170,45,58,13,245,37,40,23,133,37,34,31,208,43*7C
$GPGSV,6,5,21,49,34,195,45,57,08,111,38,41,07,108,35,61,03,257,38*7D
$GPGSV,6,6,21*7A
$GLGSV,3,1,10,77,68,353,46,78,23,281,47,85,13,018,43,87,26,128,44*68
$GLGSV,3,2,10,86,36,072,50,76,37,068,49,68,34,313,49,67,40,247,50*6C
$GLGSV,3,3,10,66,10,200,45,69,02,349,40*61
$GAGSV,3,1,11,02,63,057,48,29,12,323,39,11,14,048,36,36,14,097,39*6B
$GAGSV,3,2,11,25,12,065,37,08,42,194,46,07,52,279,47,30,58,255,48*65
$GAGSV,3,3,11,03,02,164,,27,08,249,37,10,08,023,37*50
$GBGSV,5,1,19,24,66,295,51,42,12,212,41,41,18,317,43,40,14,039,41*6A
$GBGSV,5,2,19,23,12,270,,05,20,130,38,07,18,051,39,44,27,153,*6F
$GBGSV,5,3,19,14,24,236,42,10,31,057,42,33,30,264,46,56,37,057,*64
$GBGSV,5,4,19,35,42,097,48,26,57,085,50,25,65,286,,02,04,109,31*6A
$GBGSV,5,5,19,45,04,094,41,12,09,169,,60,08,111,41*50
$GPGGA,120102.00,,,,,0,00,,,M,,M,,*48
$PTNL,GGK,120102.00,010125,4742.1598590,N,01618.1002304,E,1,40,0.7,EHT750.7899,M*42
$GPGGQ,120102.00,010125,4742.1598590,N,01618.1002304,E,1,40,1.020,707.5834,M*3F
$GPGFA,120102.00,5.345,6.271,0.562,0.373,333.819,0.765,,VVV*07
$GPLLK,120102.00,010125,,M,,M,1,40,0.8,,M*07
$GNGMP,120102.00,,,,,DAAA,40,0.4,,,,*56
$GPGMP,120102.00,,,,,,09,,,,2.0,136*72
$GLGMP,120102.00,,,,,,09,,,,,*76
$GAGMP,120102.00,,,,,,10,,,,,*73
$GBGMP,120102.00,,,,,,12,,,,,*72
$PSSN,SNC,[0,302480000,2347]*49
$GPZDA,120107.00,01,01,2025,,*66
$GPDTM,W84,,00.0000000,N,00.0000000,E,00.0000000,W84*5F
$PSSN,TFM,120107.00,,,,*6A
$GPRMC,120107.00,A,4742.1598556,N,01618.1002327,E,0.0,,010125,5.1,E,D*15
$GPGLL,4742.1598556,N,01618.1002327,E,120107.00,A,D*64
$GPGGA,120107.00,4742.1598556,N,01618.1002327,E,2,40,0.4,707.5837,M,43.2066,M,2.5,0136*46
$GNGNS,120107.00,4742.1598556,N,01618.1002327,E,DAAA,40,0.4,707.5837,43.2066,,*59
$GPGNS,120107.00,,,,,,09,,,,2.5,136*72
$GLGNS,120107.00,,,,,,09,,,,,*73
$GAGNS,120107.00,,,,,,10,,,,,*76
$GBGNS,120107.00,,,,,,12,,,,,*77
$GPLLQ,120107.00,010125,,M,,M,1,40,1.050,,M*14
$GPVTG,,T,,M,0.01,N,0.02,K,D*25
$GPHDT,,T*1B
$GPTHS,,V*0E
$GPROT,,V*08
$PSSN,HRP,120107.00,010125,,,,,,,00,0,,*64
$PTNL,AVR,120107.00,,Yaw,,Tilt,,,,0,,00*32
$GPGSA,A,3,06,10,12,15,17,19,24,25,32,,,,0.7,0.4,0.6*39
$GPGSA,A,3,66,67,68,76,77,78,85,86,87,,,,0.7,0.4,0.6*3A
$GPGSA,A,3,02,07,08,10,11,25,27,29,30,36,,,0.7,0.4,0.6*34
$GPGSA,A,3,05,07,10,14,24,26,33,35,40,41,42,60,0.7,0.4,0.6*34
$GPGST,120107.00,2.553,0.579,0.385,334.152,0.547,0.429,0.788*5A
$GPGBS,120107.00,4.662,2.550,4.479,32,0.0001,1.634,1.243*54
$GPGRS,120107.00,1,-0.8,-1.5,-0.1,0.2,-0.6,-0.1,0.2,-0.0,1.6,,,*68
$GPGRS,120107.00,1,-3.5,6.4,6.0,-2.1,-7.5,-3.5,3.1,2.0,-2.9,,,*46
$GPGRS,120107.00,1,0.3,0.5,0.9,-0.9,-0.6,-0.4,-2.1,0.8,0.4,-0.4,,*69
$GPGRS,120107.00,1,1.6,1.0,1.1,2.1,-0.0,-0.3,0.0,-1.7,-1.3,0.8,0.2,-1.2*6D
$GPGSV,6,1,21,24,84,152,51,22,14,065,,06,14,102,39,15,20,191,43*71
$GPGSV,6,2,21,32,16,321,42,17,22,044,43,25,21,255,41,19,46,068,46*7A
$GPGSV,6,3,21,12,62,258,50,11,02,134,,10,08,289,40,13,04,163,*7A
$GPGSV,6,4,21,36,35,170,45,58,13,245,36,40,23,133,37,34,31,208,43*7D
$GPGSV,6,5,21,49,34,195,45,57,08,111,38,41,07,108,35,61,03,257,38*7D
$GPGSV,6,6,21*7A
$GLGSV,3,1,10,77,68,353,46,78,23,281,48,85,12,018,42,87,26,128,44*67
$GLGSV,3,2,10,86,36,072,49,76,37,068,49,68,34,313,49,67,40,247,50*64
$GLGSV,3,3,10,66,09,200,45,69,02,349,40*69
$GAGSV,3,1,11,02,63,057,48,29,12,323,39,11,14,048,36,36,14,097,39*6B
$GAGSV,3,2,11,25,12,065,37,08,42,194,46,07,52,279,47,30,58,255,48*65
$GAGSV,3,3,11,03,02,164,,27,08,249,38,10,08,023,37*5F
$GBGSV,5,1,19,24,66,295,51,42,12,212,41,41,18,317,43,40,14,039,41*6A
$GBGSV,5,2,19,23,12,270,,05,20,130,39,07,18,051,39,44,27,153,*6E
$GBGSV,5,3,19,14,24,236,42,10,31,057,41,33,30,264,46,56,37,057,*67
$GBGSV,5,4,19,35,42,097,48,26,57,085,50,25,65,286,,02,04,109,31*6A
$GBGSV,5,5,19,45,04,094,40,12,09,169,,60,08,111,41*51
$GPGGA,120107.00,,,,,0,00,,,M,,M,,*4D
$PTNL,GGK,120107.00,010125,4742.1598556,N,01618.1002327,E,1,40,0.7,EHT750.7903,M*4E
$GPGGQ,120107.00,010125,4742.1598556,N,01618.1002327,E,1,40,1.050,707.5837,M*35
$GPGFA,120107.00,5.501,6.458,0.579,0.385,334.152,0.788,,VVV*08
$GPLLK,120107.00,010125,,M,,M,1,40,0.8,,M*02
$GNGMP,120107.00,,,,,DAAA,40,0.4,,,,*53
$GPGMP,120107.00,,,,,,09,,,,2.5,136*72
$GLGMP,120107.00,,,,,,09,,,,,*73
$GAGMP,120107.00,,,,,,10,,,,,*76
$GBGMP,120107.00,,,,,,12,,,,,*77
$PSSN,SNC,[0,302485000,2347]*4C
$GPZDA,120112.00,01,01,2025,,*62
$GPDTM,W84,,00.0000000,N,00.0000000,E,00.0000000,W84*5F
$PSSN,TFM,120112.00,,,,*6E
$GPRMC,120112.00,A,4742.1598564,N,01618.1002341,E,0.0,,010125,5.1,E,D*10
$GPGLL,4742.1598564,N,01618.1002341,E,120112.00,A,D*61
$GPGGA,120112.00,4742.1598564,N,01618.1002341,E,2,40,0.4,707.5800,M,43.2066,M,3.5,0136*46
$GNGNS,120112.00,4742.1598564,N,01618.1002341,E,DAAA,40,0.4,707.5800,43.2066,,*58
$GPGNS,120112.00,,,,,,09,,,,3.5,136*77
$GLGNS,120112.00,,,,,,09,,,,,*77
$GAGNS,120112.00,,,,,,10,,,,,*72
$GBGNS,120112.00,,,,,,12,,,,,*73
$GPLLQ,120112.00,010125,,M,,M,1,40,1.033,,M*15
$GPVTG,,T,,M,0.01,N,0.01,K,D*26
$GPHDT,,T*1B
$GPTHS,,V*0E
$GPROT,,V*08
$PSSN,HRP,120112.00,010125,,,,,,,00,0,,*60
$PTNL,AVR,120112.00,,Yaw,,Tilt,,,,0,,00*36
$GPGSA,A,3,06,10,12,15,17,19,24,25,32,,,,0.7,0.4,0.6*39
$GPGSA,A,3,66,67,68,76,77,78,85,86,87,,,,0.7,0.4,0.6*3A
$GPGSA,A,3,02,07,08,10,11,25,27,29,30,36,,,0.7,0.4,0.6*34
$GPGSA,A,3,05,07,10,14,24,26,33,35,40,41,42,60,0.7,0.4,0.6*34
$GPGST,120112.00,2.586,0.565,0.380,334.072,0.535,0.422,0.777*53
$GPGBS,120112.00,4.693,2.565,4.541,77,0.0001,-7.543,6.068*77
$GPGRS,120112.00,1,-0.6,-1.2,-0.3,0.1,-0.3,0.1,0.1,0.0,1.2,,,*66
$GPGRS,120112.00,1,-3.5,6.6,5.9,-2.3,-7.5,-3.8,3.3,1.8,-2.6,,,*43
$GPGRS,120112.00,1,0.4,0.2,1.0,-0.8,-1.5,-0.6,-2.4,1.0,0.4,0.0,,*41
$GPGRS,120112.00,1,1.7,0.4,1.0,2.8,-0.0,-0.0,0.1,-1.3,-1.4,0.1,0.1,-1.2*6E
$GPGSV,6,1,21,24,84,152,51,22,14,065,,06,14,102,39,15,20,191,43*71
$GPGSV,6,2,21,32,16,321,42,17,22,044,43,25,21,255,41,19,46,068,47*7B
$GPGSV,6,3,21,12,62,258,50,11,02,134,,10,08,289,38,13,04,163,*75
$GPGSV,6,4,21,36,35,170,45,58,13,245,36,40,23,133,36,34,31,208,43*7C
$GPGSV,6,5,21,49,34,195,45,57,08,111,38,41,07,108,35,61,03,257,38*7D
$GPGSV,6,6,21*7A
$GLGSV,3,1,10,77,68,353,46,78,23,281,47,85,12,018,43,87,26,128,45*68
$GLGSV,3,2,10,86,36,072,49,76,37,068,49,68,34,313,49,67,40,247,50*64
$GLGSV,3,3,10,66,09,200,45,69,02,349,41*68
$GAGSV,3,1,11,02,63,057,48,29,12,323,39,11,14,048,36,36,14,097,39*6B
$GAGSV,3,2,11,25,12,065,37,08,42,194,47,07,52,279,47,30,58,255,48*64
$GAGSV,3,3,11,03,02,164,,27,08,249,38,10,08,023,37*5F
$GBGSV,5,1,19,24,66,295,51,42,12,212,41,41,18,317,42,40,14,039,41*6B
$GBGSV,5,2,19,23,12,270,,05,20,130,38,07,18,051,39,44,27,153,*6F
$GBGSV,5,3,19,14,24,236,42,10,31,057,41,33,30,264,45,56,37,057,*64
$GBGSV,5,4,19,35,42,097,48,26,57,085,50,25,65,287,,02,04,109,32*68
$GBGSV,5,5,19,45,04,094,40,12,09,169,,60,08,111,41*51
$GPGGA,120112.00,,,,,0,00,,,M,,M,,*49
$PTNL,GGK,120112.00,010125,4742.1598564,N,01618.1002341,E,1,40,0.7,EHT750.7865,M*4A
$GPGGQ,120112.00,010125,4742.1598564,N,01618.1002341,E,1,40,1.033,707.5800,M*31
$GPGFA,120112.00,5.375,6.374,0.565,0.380,334.072,0.777,,VVV*0B
$GPLLK,120112.00,010125,,M,,M,1,40,0.8,,M*06
$GNGMP,120112.00,,,,,DAAA,40,0.4,,,,*57
$GPGMP,120112.00,,,,,,09,,,,3.5,136*77
$GLGMP,120112.00,,,,,,09,,,,,*77
$GAGMP,120112.00,,,,,,10,,,,,*72
$GBGMP,120112.00,,,,,,12,,,,,*73
$PSSN,SNC,[0,302490000,2347]*48
$GPZDA,120117.00,01,01,2025,,*67
$GPDTM,W84,,00.0000000,N,00.0000000,E,00.0000000,W84*5F
$PSSN,TFM,120117.00,,,,*6B
$GPRMC,120117.00,A,4742.1598551,N,01618.1002317,E,0.0,,010125,5.1,E,D*10
$GPGLL,4742.1598551,N,01618.1002317,E,120117.00,A,D*61
$GPGGA,120117.00,4742.1598551,N,01618.1002317,E,2,40,0.4,707.5808,M,43.2066,M,2.0,0136*4A
$GNGNS,120117.00,4742.1598551,N,01618.1002317,E,DAAA,40,0.4,707.5808,43.2066,,*50
$GPGNS,120117.00,,,,,,09,,,,2.0,136*76
$GLGNS,120117.00,,,,,,09,,,,,*72
$GAGNS,120117.00,,,,,,10,,,,,*77
$GBGNS,120117.00,,,,,,12,,,,,*76
$GPLLQ,120117.00,010125,,M,,M,1,40,1.034,,M*17
$GPVTG,,T,,M,0.00,N,0.01,K,D*27
$GPHDT,,T*1B
$GPTHS,,V*0E
$GPROT,,V*08
$PSSN,HRP,120117.00,010125,,,,,,,00,0,,*65
$PTNL,AVR,120117.00,,Yaw,,Tilt,,,,0,,00*33
$GPGSA,A,3,06,10,12,15,17,19,24,25,32,,,,0.7,0.4,0.6*39
$GPGSA,A,3,66,67,68,76,77,78,85,86,87,,,,0.7,0.4,0.6*3A
$GPGSA,A,3,02,07,08,10,11,25,27,29,30,36,,,0.7,0.4,0.6*34
$GPGSA,A,3,05,07,10,14,24,26,33,35,40,41,42,60,0.7,0.4,0.6*34
$GPGST,120117.00,2.547,0.566,0.379,333.820,0.535,0.422,0.778*59
$GPGBS,120117.00,4.641,2.526,4.646,77,0.0001,-7.009,6.068*75
$GPGRS,120117.00,1,-0.5,-1.2,-0.2,0.1,-0.1,0.1,0.0,0.1,1.0,,,*61
$GPGRS,120117.00,1,-3.5,6.9,6.3,-2.5,-7.0,-3.5,3.5,1.0,-2.7,,,*41
$GPGRS,120117.00,1,0.4,0.4,1.1,-0.8,-1.5,-0.7,-2.1,0.9,0.2,-0.3,,*67
$GPGRS,120117.00,1,2.1,0.4,0.7,1.9,0.1,-0.3,-0.0,-1.0,-1.5,0.2,0.2,-1.2*6B
$GPGSV,6,1,21,24,83,152,50,22,14,065,,15,20,191,43,06,14,102,38*76
$GPGSV,6,2,21,32,16,321,41,17,22,044,42,25,21,255,41,19,46,068,46*78
$GPGSV,6,3,21,12,62,258,49,10,08,289,40,11,02,134,,13,04,163,*72
$GPGSV,6,4,21,36,35,170,45,58,13,245,36,40,23,133,37,34,31,208,43*7D
$GPGSV,6,5,21,49,34,195,45,57,08,111,38,41,07,108,35,61,03,257,38*7D
$GPGSV,6,6,21*7A
$GLGSV,3,1,10,77,68,354,46,78,23,281,48,85,12,018,43,87,26,128,46*63
$GLGSV,3,2,10,86,36,072,49,76,37,068,49,68,34,313,49,67,40,247,51*65
$GLGSV,3,3,10,66,09,200,44,69,02,349,41*69
$GAGSV,3,1,11,02,63,057,48,29,12,323,40,11,14,048,36,36,14,096,39*64
$GAGSV,3,2,11,25,12,065,38,08,42,194,47,07,52,279,47,30,58,255,49*6A
$GAGSV,3,3,11,03,02,164,,27,08,249,38,10,08,023,37*5F
$GBGSV,5,1,19,24,66,295,51,42,12,212,41,41,18,317,42,40,14,039,41*6B
$GBGSV,5,2,19,23,12,270,,05,20,130,38,07,18,051,39,44,27,153,*6F
$GBGSV,5,3,19,14,24,236,42,10,31,057,41,33,29,264,45,56,37,057,*6C
$GBGSV,5,4,19,35,42,097,48,26,57,085,50,25,65,287,,02,04,109,31*6B
$GBGSV,5,5,19,45,04,094,40,12,09,169,,60,08,111,41*51
$GPGGA,120117.00,,,,,0,00,,,M,,M,,*4C
$PTNL,GGK,120117.00,010125,4742.1598551,N,01618.1002317,E,1,40,0.7,EHT750.7874,M*4A
$GPGGQ,120117.00,010125,4742.1598551,N,01618.1002317,E,1,40,1.034,707.5808,M*3E
$GPGFA,120117.00,5.380,6.376,0.566,0.379,333.820,0.778,,VVV*04
$GPLLK,120117.00,010125,,M,,M,1,40,0.8,,M*03
$GNGMP,120117.00,,,,,DAAA,40,0.4,,,,*52
$GPGMP,120117.00,,,,,,09,,,,2.0,136*76
$GLGMP,120117.00,,,,,,09,,,,,*72
$GAGMP,120117.00,,,,,,10,,,,,*77
$GBGMP,120117.00,,,,,,12,,,,,*76
$PSSN,SNC,[0,302495000,2347]*4D
$GPZDA,120122.00,01,01,2025,,*61
$GPDTM,W84,,00.0000000,N,00.0000000,E,00.0000000,W84*5F
$PSSN,TFM,120122.00,,,,*6D
$GPRMC,120122.00,A,4742.1598543,N,01618.1002331,E,0.0,,010125,5.1,E,D*11
$GPGLL,4742.1598543,N,01618.1002331,E,120122.00,A,D*60
$GPGGA,120122.00,4742.1598543,N,01618.1002331,E,2,40,0.4,707.5833,M,43.2066,M,2.0,0136*43
$GNGNS,120122.00,4742.1598543,N,01618.1002331,E,DAAA,40,0.4,707.5833,43.2066,,*59
$GPGNS,120122.00,,,,,,09,,,,2.0,136*70
$GLGNS,120122.00,,,,,,09,,,,,*74
$GAGNS,120122.00,,,,,,10,,,,,*71
$GBGNS,120122.00,,,,,,12,,,,,*70
$GPLLQ,120122.00,010125,,M,,M,1,40,1.020,,M*14
$GPVTG,,T,,M,0.00,N,0.01,K,D*27
$GPHDT,,T*1B
$GPTHS,,V*0E
$GPROT,,V*08
$PSSN,HRP,120122.00,010125,,,,,,,00,0,,*63
