$GPZDA,172942.00,01,01,2025,,*68
$GPDTM,W84,,00.0000000,N,00.0000000,E,00.0000000,W84*5F
$PSSN,TFM,172942.00,,,,*64
$GPRMC,172942.00,A,4742.1599517,N,01618.1004193,E,0.0,,010125,5.1,E,D*14
$GPGLL,4742.1599517,N,01618.1004193,E,172942.00,A,D*65
$GPGGA,172942.00,4742.1599517,N,01618.1004193,E,2,37,0.4,707.9986,M,43.2066,M,2.2,0136*47
$GNGNS,172942.00,4742.1599517,N,01618.1004193,E,DAAA,37,0.4,707.9986,43.2066,,*5F
$GPGNS,172942.00,,,,,,10,,,,2.2,136*73
$GLGNS,172942.00,,,,,,07,,,,,*73
$GAGNS,172942.00,,,,,,06,,,,,*7F
$GBGNS,172942.00,,,,,,14,,,,,*7F
$GPLLQ,172942.00,010125,,M,,M,1,37,0.928,,M*1D
$GPVTG,,T,,M,0.00,N,0.00,K,D*26
$GPHDT,,T*1B
$GPTHS,,V*0E
$GPROT,,V*08
$PSSN,HRP,172942.00,010125,,,,,,,00,0,,*6A
$PTNL,AVR,172942.00,,Yaw,,Tilt,,,,0,,00*3C
$GPGSA,A,3,05,16,18,23,25,26,27,28,29,31,,,0.8,0.4,0.6*37
$GPGSA,A,3,65,73,79,80,81,82,83,,,,,,0.8,0.4,0.6*31
$GPGSA,A,3,13,15,21,27,30,34,,,,,,,0.8,0.4,0.6*3C
$GPGSA,A,3,05,08,11,12,13,22,23,25,28,34,37,38,0.8,0.4,0.6*30
$GPGSA,A,3,43,60,,,,,,,,,,,0.8,0.4,0.6*39
$GPGST,172942.00,1.017,0.444,0.330,358.382,0.444,0.330,0.745*5A
$GPGBS,172942.00,2.751,1.947,5.606,27,0.0001,-1.189,1.743*72
$GPGRS,172942.00,1,0.2,0.2,0.0,-0.1,-0.1,0.4,-1.2,-0.2,-0.3,0.0,,*6E
$GPGRS,172942.00,1,-1.0,0.9,-0.5,-3.5,0.2,-0.8,-2.6,,,,,*43
$GPGRS,172942.00,1,0.5,0.4,0.1,0.5,-0.5,-1.0,,,,,,*44
$GPGRS,172942.00,1,0.9,1.3,-0.1,-0.4,-0.4,-0.6,-0.2,-0.0,-0.8,0.2,-0.0,-0.5*69
$GPGRS,172942.00,1,0.8,-0.9,,,,,,,,,,*69
$GPGSV,5,1,20,18,76,165,49,05,26,055,43,25,16,141,40,28,19,214,41*7E
$GPGSV,5,2,20,23,16,154,40,31,33,239,46,16,36,306,45,29,46,074,47*79
$GPGSV,5,3,20,26,64,281,49,27,09,273,38,20,06,029,35,36,35,170,45*71
$GPGSV,5,4,20,58,13,245,37,40,23,133,36,34,31,208,42,49,34,195,44*7D
$GPGSV,5,5,20,57,08,111,38,41,07,108,34,61,03,257,38*48
$GLGSV,3,1,10,80,69,288,52,65,14,046,41,73,18,327,43,83,25,237,37*67
$GLGSV,3,2,10,79,43,172,51,81,55,035,51,82,67,261,52,66,03,091,42*63
$GLGSV,3,3,10,72,05,354,37,88,04,051,41*67
$GAGSV,3,1,11,15,66,069,47,30,14,135,39,34,17,044,40,13,51,203,47*68
$GAGSV,3,2,11,21,55,301,47,27,65,148,48,23,06,310,,26,02,217,35*6D
$GAGSV,3,3,11,04,00,320,35,06,01,343,34,09,00,004,33*52
$GBGSV,6,1,22,43,82,276,51,25,27,178,46,12,17,062,39,60,10,109,40*68
$GBGSV,6,2,22,05,21,129,37,38,30,045,44,07,13,098,,27,22,237,*69
$GBGSV,6,3,22,37,30,309,45,28,19,247,43,08,40,057,42,31,41,057,*6B
$GBGSV,6,4,22,13,43,068,44,34,45,063,48,23,57,241,50,11,71,050,49*62
$GBGSV,6,5,22,21,06,033,,42,02,125,,02,07,106,34,50,09,102,*65
$GBGSV,6,6,22,56,04,083,,22,08,031,40*69
$GPGGA,172942.00,,,,,0,00,,,M,,M,,*43
$PTNL,GGK,172942.00,010125,4742.1599517,N,01618.1004193,E,1,37,0.8,EHT751.2052,M*49
$GPGGQ,172942.00,010125,4742.1599517,N,01618.1004193,E,1,37,0.928,707.9986,M*34
$GPGFA,172942.00,4.225,6.106,0.444,0.330,358.382,0.745,,VVV*0D
$GPLLK,172942.00,010125,,M,,M,1,37,0.9,,M*0D
$GNGMP,172942.00,,,,,DAAA,37,0.4,,,,*5D
$GPGMP,172942.00,,,,,,10,,,,2.2,136*73
$GLGMP,172942.00,,,,,,07,,,,,*73
$GAGMP,172942.00,,,,,,06,,,,,*7F
$GBGMP,172942.00,,,,,,14,,,,,*7F
$PSSN,SNC,[0,322200000,2347]*45
$GPZDA,172947.00,01,01,2025,,*6D
$GPDTM,W84,,00.0000000,N,00.0000000,E,00.0000000,W84*5F
$PSSN,TFM,172947.00,,,,*61
$GPRMC,172947.00,A,4742.1599513,N,01618.1004199,E,0.0,,010125,5.1,E,D*1F
$GPGLL,4742.1599513,N,01618.1004199,E,172947.00,A,D*6E
$GPGGA,172947.00,4742.1599513,N,01618.1004199,E,2,38,0.4,707.9940,M,43.2066,M,3.2,0136*48
$GNGNS,172947.00,4742.1599513,N,01618.1004199,E,DAAA,38,0.4,707.9940,43.2066,,*51
$GPGNS,172947.00,,,,,,11,,,,3.2,136*76
$GLGNS,172947.00,,,,,,07,,,,,*76
$GAGNS,172947.00,,,,,,06,,,,,*7A
$GBGNS,172947.00,,,,,,14,,,,,*7A
$GPLLQ,172947.00,010125,,M,,M,1,38,0.942,,M*1B
$GPVTG,,T,,M,0.00,N,0.01,K,D*27
$GPHDT,,T*1B
$GPTHS,,V*0E
$GPROT,,V*08
$PSSN,HRP,172947.00,010125,,,,,,,00,0,,*6F
$PTNL,AVR,172947.00,,Yaw,,Tilt,,,,0,,00*39
$GPGSA,A,3,05,16,18,20,23,25,26,27,28,29,31,,0.7,0.4,0.6*3A
$GPGSA,A,3,65,73,79,80,81,82,83,,,,,,0.7,0.4,0.6*3E
$GPGSA,A,3,13,15,21,27,30,34,,,,,,,0.7,0.4,0.6*33
$GPGSA,A,3,05,08,11,12,13,22,23,25,28,34,37,38,0.7,0.4,0.6*3F
$GPGSA,A,3,43,60,,,,,,,,,,,0.7,0.4,0.6*36
$GPGST,172947.00,0.989,0.450,0.334,358.178,0.450,0.335,0.757*55
$GPGBS,172947.00,2.699,1.952,5.578,80,0.0001,-2.910,6.065*7E
$GPGRS,172947.00,1,-0.2,0.3,0.3,1.4,0.3,0.3,-0.1,-0.7,0.1,-0.3,-0.2,*42
$GPGRS,172947.00,1,0.3,0.8,-0.0,-2.9,-0.0,-1.1,-2.9,,,,,*48
$GPGRS,172947.00,1,0.4,0.4,-0.0,0.4,-0.7,-0.8,,,,,,*66
$GPGRS,172947.00,1,0.8,1.4,-0.1,-0.3,-0.6,-0.4,-0.3,0.1,-1.2,0.2,-0.1,-0.6*49
$GPGRS,172947.00,1,0.7,-1.2,,,,,,,,,,*69
$GPGSV,5,1,20,18,76,165,49,05,26,055,44,25,16,141,40,28,19,214,41*79
$GPGSV,5,2,20,23,16,154,41,31,33,239,45,16,36,306,44,29,46,074,46*7B
$GPGSV,5,3,20,26,65,281,50,27,09,273,39,20,06,029,35,36,35,170,45*79
$GPGSV,5,4,20,58,13,245,37,40,23,133,36,34,31,208,42,49,34,195,44*7D
$GPGSV,5,5,20,57,08,111,38,41,07,108,34,61,03,257,38*48
$GLGSV,3,1,10,80,69,288,52,65,14,046,41,73,18,327,44,83,25,237,37*60
$GLGSV,3,2,10,79,43,172,51,81,55,035,52,82,67,261,52,66,03,091,41*63
$GLGSV,3,3,10,72,05,354,37,88,04,051,42*64
$GAGSV,3,1,11,15,66,069,47,30,14,135,38,34,17,044,40,13,51,203,47*69
$GAGSV,3,2,11,21,55,301,47,27,65,148,48,23,06,310,,26,02,217,35*6D
$GAGSV,3,3,11,04,00,320,34,06,01,343,34,09,00,004,32*52
$GBGSV,6,1,22,43,82,276,51,25,27,178,46,12,17,062,39,60,10,109,40*68
$GBGSV,6,2,22,05,21,129,37,38,30,044,44,07,13,098,,27,22,237,*68
$GBGSV,6,3,22,37,30,309,45,28,19,247,43,08,40,057,43,31,41,057,*6A
$GBGSV,6,4,22,13,43,068,45,34,45,063,48,23,57,241,50,11,71,050,49*63
$GBGSV,6,5,22,21,06,033,,42,02,125,,02,07,106,34,50,09,102,*65
$GBGSV,6,6,22,56,04,083,,22,08,031,40*69
$GPGGA,172947.00,,,,,0,00,,,M,,M,,*46
$PTNL,GGK,172947.00,010125,4742.1599513,N,01618.1004199,E,1,38,0.7,EHT751.2005,M*40
$GPGGQ,172947.00,010125,4742.1599513,N,01618.1004199,E,1,38,0.942,707.9940,M*36
$GPGFA,172947.00,4.276,6.205,0.450,0.334,358.178,0.757,,VVV*0B
$GPLLK,172947.00,010125,,M,,M,1,38,0.8,,M*06
$GNGMP,172947.00,,,,,DAAA,38,0.4,,,,*57
$GPGMP,172947.00,,,,,,11,,,,3.2,136*76
$GLGMP,172947.00,,,,,,07,,,,,*76
$GAGMP,172947.00,,,,,,06,,,,,*7A
$GBGMP,172947.00,,,,,,14,,,,,*7A
$PSSN,SNC,[0,322205000,2347]*40
$GPZDA,172952.00,01,01,2025,,*69
$GPDTM,W84,,00.0000000,N,00.0000000,E,00.0000000,W84*5F
$PSSN,TFM,172952.00,,,,*65
$GPRMC,172952.00,A,4742.1599532,N,01618.1004178,E,0.0,,010125,5.1,E,D*17
$GPGLL,4742.1599532,N,01618.1004178,E,172952.00,A,D*66
$GPGGA,172952.00,4742.1599532,N,01618.1004178,E,2,37,0.4,707.9943,M,43.2066,M,3.0,0136*4E
$GNGNS,172952.00,4742.1599532,N,01618.1004178,E,DAAA,37,0.4,707.9943,43.2066,,*55
$GPGNS,172952.00,,,,,,10,,,,3.0,136*71
$GLGNS,172952.00,,,,,,07,,,,,*72
$GAGNS,172952.00,,,,,,06,,,,,*7E
$GBGNS,172952.00,,,,,,14,,,,,*7E
$GPLLQ,172952.00,010125,,M,,M,1,37,0.951,,M*12
$GPVTG,,T,,M,0.00,N,0.00,K,D*26
$GPHDT,,T*1B
$GPTHS,,V*0E
$GPROT,,V*08
$PSSN,HRP,172952.00,010125,,,,,,,00,0,,*6B
$PTNL,AVR,172952.00,,Yaw,,Tilt,,,,0,,00*3D
$GPGSA,A,3,05,16,18,23,25,26,27,28,29,31,,,0.8,0.4,0.6*37
$GPGSA,A,3,65,73,79,80,81,82,83,,,,,,0.8,0.4,0.6*31
$GPGSA,A,3,13,15,21,27,30,34,,,,,,,0.8,0.4,0.6*3C
$GPGSA,A,3,05,08,11,12,13,22,23,25,28,34,37,38,0.8,0.4,0.6*30
$GPGSA,A,3,43,60,,,,,,,,,,,0.8,0.4,0.6*39
$GPGST,172952.00,0.988,0.452,0.335,356.587,0.452,0.335,0.767*58
$GPGBS,172952.00,2.814,1.971,5.760,23,0.0001,0.643,1.125*56
$GPGRS,172952.00,1,-0.3,0.3,0.0,0.6,-0.1,0.1,-0.4,-0.3,-0.0,-0.3,,*46
$GPGRS,172952.00,1,-0.0,1.5,0.1,-2.8,-0.2,-1.0,-2.8,,,,,*41
$GPGRS,172952.00,1,0.7,0.6,0.0,0.5,-0.3,-1.0,,,,,,*42
$GPGRS,172952.00,1,1.1,1.3,-0.0,-0.1,-0.2,-0.9,-0.2,0.5,-0.8,0.2,0.5,-0.7*6E
$GPGRS,172952.00,1,0.6,-0.9,,,,,,,,,,*66
$GPGSV,5,1,20,18,77,164,49,05,26,055,44,25,16,141,40,28,19,214,41*79
$GPGSV,5,2,20,23,16,154,41,31,33,239,45,16,36,306,44,29,46,074,47*7A
$GPGSV,5,3,20,26,65,281,50,27,09,273,39,20,06,029,35,36,35,170,45*79
$GPGSV,5,4,20,58,13,245,37,40,23,133,36,34,31,208,43,49,34,195,44*7C
$GPGSV,5,5,20,57,08,111,38,41,07,108,34,61,03,257,38*48
$GLGSV,3,1,10,80,69,288,52,65,14,046,40,73,18,327,44,83,25,237,37*61
$GLGSV,3,2,10,79,43,172,51,81,55,035,51,82,67,262,52,66,03,091,41*63
$GLGSV,3,3,10,72,05,353,36,88,04,051,42*62
$GAGSV,3,1,11,15,66,069,47,30,14,135,38,34,17,044,40,13,51,203,47*69
$GAGSV,3,2,11,21,55,301,47,27,65,148,48,23,06,310,,26,02,217,35*6D
$GAGSV,3,3,11,04,00,320,35,06,01,343,34,09,00,004,32*53
$GBGSV,6,1,22,43,82,277,51,25,27,178,45,12,17,062,39,60,10,109,40*6A
$GBGSV,6,2,22,05,21,129,37,38,30,044,44,07,13,098,,27,22,237,*68
$GBGSV,6,3,22,37,30,309,45,28,19,247,44,08,40,057,42,31,41,056,*6D
$GBGSV,6,4,22,13,43,068,45,34,45,063,48,23,57,241,50,11,71,050,49*63
$GBGSV,6,5,22,21,06,033,,42,02,125,,02,07,106,34,50,09,102,*65
$GBGSV,6,6,22,56,04,083,,22,08,031,40*69
$GPGGA,172952.00,,,,,0,00,,,M,,M,,*42
$PTNL,GGK,172952.00,010125,4742.1599532,N,01618.1004178,E,1,37,0.8,EHT751.2008,M*45
$GPGGQ,172952.00,010125,4742.1599532,N,01618.1004178,E,1,37,0.951,707.9943,M*30
$GPGFA,172952.00,4.302,6.287,0.452,0.335,356.587,0.767,,VVV*0D
$GPLLK,172952.00,010125,,M,,M,1,37,0.9,,M*0C
$GNGMP,172952.00,,,,,DAAA,37,0.4,,,,*5C
$GPGMP,172952.00,,,,,,10,,,,3.0,136*71
$GLGMP,172952.00,,,,,,07,,,,,*72
$GAGMP,172952.00,,,,,,06,,,,,*7E
$GBGMP,172952.00,,,,,,14,,,,,*7E
$PSSN,SNC,[0,322210000,2347]*44
$GPZDA,172957.00,01,01,2025,,*6C
$GPDTM,W84,,00.0000000,N,00.0000000,E,00.0000000,W84*5F
$PSSN,TFM,172957.00,,,,*60
$GPRMC,172957.00,A,4742.1599519,N,01618.1004189,E,0.0,,010125,5.1,E,D*15
$GPGLL,4742.1599519,N,01618.1004189,E,172957.00,A,D*64
$GPGGA,172957.00,4742.1599519,N,01618.1004189,E,2,38,0.4,707.9914,M,43.2066,M,1.6,0136*45
$GNGNS,172957.00,4742.1599519,N,01618.1004189,E,DAAA,38,0.4,707.9914,43.2066,,*5A
$GPGNS,172957.00,,,,,,11,,,,1.6,136*71
$GLGNS,172957.00,,,,,,07,,,,,*77
$GAGNS,172957.00,,,,,,06,,,,,*7B
$GBGNS,172957.00,,,,,,14,,,,,*7B
$GPLLQ,172957.00,010125,,M,,M,1,38,0.938,,M*17
$GPVTG,,T,,M,0.00,N,0.01,K,D*27
$GPHDT,,T*1B
$GPTHS,,V*0E
$GPROT,,V*08
$PSSN,HRP,172957.00,010125,,,,,,,00,0,,*6E
$PTNL,AVR,172957.00,,Yaw,,Tilt,,,,0,,00*38
$GPGSA,A,3,05,16,18,20,23,25,26,27,28,29,31,,0.7,0.4,0.6*3A
$GPGSA,A,3,65,73,79,80,81,82,83,,,,,,0.7,0.4,0.6*3E
$GPGSA,A,3,13,15,21,27,30,34,,,,,,,0.7,0.4,0.6*33
$GPGSA,A,3,05,08,11,12,13,22,23,25,28,34,37,38,0.7,0.4,0.6*3F
$GPGSA,A,3,43,60,,,,,,,,,,,0.7,0.4,0.6*36
$GPGST,172957.00,0.963,0.447,0.330,356.418,0.447,0.331,0.756*5C
$GPGBS,172957.00,2.692,1.955,5.457,23,0.0001,0.817,1.088*5B
$GPGRS,172957.00,1,-0.4,0.2,0.1,1.7,0.8,-0.4,-0.2,-0.4,-0.5,-0.1,0.3,*63
$GPGRS,172957.00,1,-1.0,1.4,0.2,-3.0,-0.1,-0.7,-1.9,,,,,*49
$GPGRS,172957.00,1,0.4,0.4,-0.0,0.4,-0.1,-1.0,,,,,,*68
$GPGRS,172957.00,1,1.5,1.0,-0.3,0.3,-0.2,-0.6,-0.3,0.2,-0.4,0.2,0.0,-1.0*46
$GPGRS,172957.00,1,0.8,-0.9,,,,,,,,,,*6D
$GPGSV,5,1,20,18,77,164,49,05,26,055,44,25,16,141,39,28,19,214,41*77
$GPGSV,5,2,20,23,16,154,41,31,33,239,45,16,36,306,45,29,46,074,47*7B
$GPGSV,5,3,20,26,65,281,49,27,09,273,38,20,06,029,36,36,35,170,45*73
$GPGSV,5,4,20,58,13,245,37,40,23,133,36,34,31,208,42,49,34,195,44*7D
$GPGSV,5,5,20,57,08,111,38,41,07,108,34,61,03,257,38*48
$GLGSV,3,1,10,80,69,288,52,65,14,046,40,73,18,327,44,83,25,237,37*61
$GLGSV,3,2,10,79,43,172,51,81,55,035,52,82,67,262,52,66,03,091,42*63
$GLGSV,3,3,10,72,05,353,36,88,04,051,42*62
$GAGSV,3,1,11,15,66,069,47,30,14,135,38,34,17,044,40,13,51,203,47*69
$GAGSV,3,2,11,21,55,301,47,27,65,148,48,23,06,310,,26,02,217,35*6D
$GAGSV,3,3,11,04,00,320,34,06,01,343,34,09,00,004,33*53
$GBGSV,6,1,22,43,82,277,51,25,27,178,44,12,17,062,39,60,10,109,39*65
$GBGSV,6,2,22,05,21,129,37,38,30,044,44,07,13,098,,27,22,237,*68
$GBGSV,6,3,22,37,30,309,45,28,19,247,43,08,40,057,42,31,41,056,*6A
$GBGSV,6,4,22,13,43,068,44,34,45,063,48,23,57,241,50,11,71,050,49*62
$GBGSV,6,5,22,21,06,033,,42,02,125,,02,07,106,34,50,09,102,*65
$GBGSV,6,6,22,56,04,083,,22,08,031,40*69
$GPGGA,172957.00,,,,,0,00,,,M,,M,,*47
$PTNL,GGK,172957.00,010125,4742.1599519,N,01618.1004189,E,1,38,0.7,EHT751.1979,M*4B
$GPGGQ,172957.00,010125,4742.1599519,N,01618.1004189,E,1,38,0.938,707.9914,M*30
$GPGFA,172957.00,4.255,6.197,0.447,0.330,356.418,0.756,,VVV*0D
$GPLLK,172957.00,010125,,M,,M,1,38,0.8,,M*07
$GNGMP,172957.00,,,,,DAAA,38,0.4,,,,*56
$GPGMP,172957.00,,,,,,11,,,,1.6,136*71
$GLGMP,172957.00,,,,,,07,,,,,*77
$GAGMP,172957.00,,,,,,06,,,,,*7B
$GBGMP,172957.00,,,,,,14,,,,,*7B
$PSSN,SNC,[0,322215000,2347]*41
$GPZDA,173002.00,01,01,2025,,*64
$GPDTM,W84,,00.0000000,N,00.0000000,E,00.0000000,W84*5F
$PSSN,TFM,173002.00,,,,*68
$GPRMC,173002.00,A,4742.1599533,N,01618.1004197,E,0.0,,010125,5.1,E,D*1A
$GPGLL,4742.1599533,N,01618.1004197,E,173002.00,A,D*6B
$GPGGA,173002.00,4742.1599533,N,01618.1004197,E,2,38,0.4,707.9936,M,43.2066,M,2.2,0136*4D
$GNGNS,173002.00,4742.1599533,N,01618.1004197,E,DAAA,38,0.4,707.9936,43.2066,,*55
$GPGNS,173002.00,,,,,,11,,,,2.2,136*7E
$GLGNS,173002.00,,,,,,07,,,,,*7F
$GAGNS,173002.00,,,,,,06,,,,,*73
$GBGNS,173002.00,,,,,,14,,,,,*73
$GPLLQ,173002.00,010125,,M,,M,1,38,0.923,,M*15
$GPVTG,,T,,M,0.00,N,0.00,K,D*26
$GPHDT,,T*1B
$GPTHS,,V*0E
$GPROT,,V*08
$PSSN,HRP,173002.00,010125,,,,,,,00,0,,*66
$PTNL,AVR,173002.00,,Yaw,,Tilt,,,,0,,00*30
$GPGSA,A,3,05,16,18,20,23,25,26,27,28,29,31,,0.7,0.4,0.6*3A
$GPGSA,A,3,65,73,79,80,81,82,83,,,,,,0.7,0.4,0.6*3E
$GPGSA,A,3,13,15,21,27,30,34,,,,,,,0.7,0.4,0.6*33
$GPGSA,A,3,05,08,11,12,13,22,23,25,28,34,37,38,0.7,0.4,0.6*3F
$GPGSA,A,3,43,60,,,,,,,,,,,0.7,0.4,0.6*36
$GPGST,173002.00,0.884,0.442,0.330,357.997,0.442,0.330,0.740*51
$GPGBS,173002.00,2.679,1.938,5.499,27,0.0001,-1.049,1.731*71
$GPGRS,173002.00,1,-0.6,0.5,0.0,1.2,0.6,-0.3,-0.2,-1.0,-0.4,0.1,0.3,*4A
$GPGRS,173002.00,1,-0.2,1.4,-0.1,-2.8,0.3,-1.0,-1.3,,,,,*46
$GPGRS,173002.00,1,0.6,0.4,-0.0,0.4,-0.2,-0.9,,,,,,*69
$GPGRS,173002.00,1,0.6,1.1,-0.2,0.1,-0.3,-0.4,-0.2,0.1,-1.0,0.2,-0.1,-1.0*66
$GPGRS,173002.00,1,1.0,-1.2,,,,,,,,,,*66
$GPGSV,5,1,20,18,77,164,49,05,26,055,43,25,16,141,39,28,19,214,41*70
$GPGSV,5,2,20,23,16,154,40,31,33,239,45,16,36,306,44,29,46,074,47*7B
$GPGSV,5,3,20,26,65,281,49,27,09,273,38,20,06,029,35,36,35,170,44*71
$GPGSV,5,4,20,58,13,245,37,40,23,133,36,34,31,208,42,49,34,195,44*7D
$GPGSV,5,5,20,57,08,111,38,41,07,108,34,61,03,257,38*48
$GLGSV,3,1,10,80,69,287,52,65,14,046,39,73,18,327,43,83,25,237,37*67
$GLGSV,3,2,10,79,43,172,51,81,55,035,52,82,67,262,52,66,03,091,42*63
$GLGSV,3,3,10,72,05,353,36,88,04,051,42*62
$GAGSV,3,1,11,15,66,069,47,30,14,135,39,34,17,044,39,13,51,203,47*66
$GAGSV,3,2,11,21,56,301,47,27,65,148,48,23,06,310,,26,02,217,35*6E
$GAGSV,3,3,11,04,00,320,35,06,01,343,35,09,00,004,31*51
$GBGSV,6,1,22,43,82,277,51,25,27,178,45,12,17,062,39,60,10,109,39*64
$GBGSV,6,2,22,05,21,129,37,38,30,044,44,07,13,098,,27,22,237,*68
$GBGSV,6,3,22,37,30,309,45,28,19,247,43,08,40,057,42,31,41,056,*6A
$GBGSV,6,4,22,13,43,068,44,34,45,063,48,23,57,241,50,11,71,050,49*62
$GBGSV,6,5,22,21,06,033,,42,02,125,,02,07,106,34,50,09,102,*65
$GBGSV,6,6,22,56,04,083,,22,08,031,39*67
$GPGGA,173002.00,,,,,0,00,,,M,,M,,*4F
$PTNL,GGK,173002.00,010125,4742.1599533,N,01618.1004197,E,1,38,0.7,EHT751.2001,M*41
$GPGGQ,173002.00,010125,4742.1599533,N,01618.1004197,E,1,38,0.923,707.9936,M*35
$GPGFA,173002.00,4.202,6.065,0.442,0.330,357.997,0.740,,VVV*02
$GPLLK,173002.00,010125,,M,,M,1,38,0.8,,M*0F
$GNGMP,173002.00,,,,,DAAA,38,0.4,,,,*5E
$GPGMP,173002.00,,,,,,11,,,,2.2,136*7E
$GLGMP,173002.00,,,,,,07,,,,,*7F
$GAGMP,173002.00,,,,,,06,,,,,*73
$GBGMP,173002.00,,,,,,14,,,,,*73
$PSSN,SNC,[0,322220000,2347]*47
$GPZDA,173007.00,01,01,2025,,*61
$GPDTM,W84,,00.0000000,N,00.0000000,E,00.0000000,W84*5F
$PSSN,TFM,173007.00,,,,*6D
$GPRMC,173007.00,A,4742.1599531,N,01618.1004205,E,0.0,,010125,5.1,E,D*15
$GPGLL,4742.1599531,N,01618.1004205,E,173007.00,A,D*64
$GPGGA,173007.00,4742.1599531,N,01618.1004205,E,2,38,0.4,707.9888,M,43.2066,M,3.2,0136*47
$GNGNS,173007.00,4742.1599531,N,01618.1004205,E,DAAA,38,0.4,707.9888,43.2066,,*5E
$GPGNS,173007.00,,,,,,11,,,,3.2,136*7A
$GLGNS,173007.00,,,,,,07,,,,,*7A
$GAGNS,173007.00,,,,,,06,,,,,*76
$GBGNS,173007.00,,,,,,14,,,,,*76
$GPLLQ,173007.00,010125,,M,,M,1,38,0.934,,M*16
$GPVTG,,T,,M,0.00,N,0.00,K,D*26
$GPHDT,,T*1B
$GPTHS,,V*0E
$GPROT,,V*08
$PSSN,HRP,173007.00,010125,,,,,,,00,0,,*63
$PTNL,AVR,173007.00,,Yaw,,Tilt,,,,0,,00*35
$GPGSA,A,3,05,16,18,20,23,25,26,27,28,29,31,,0.7,0.4,0.6*3A
$GPGSA,A,3,65,73,79,80,81,82,83,,,,,,0.7,0.4,0.6*3E
$GPGSA,A,3,13,15,21,27,30,34,,,,,,,0.7,0.4,0.6*33
$GPGSA,A,3,05,08,11,12,13,22,23,25,28,34,37,38,0.7,0.4,0.6*3F
$GPGSA,A,3,43,60,,,,,,,,,,,0.7,0.4,0.6*36
$GPGST,173007.00,0.933,0.446,0.334,357.550,0.446,0.334,0.750*5F
$GPGBS,173007.00,2.699,1.955,5.570,16,0.0001,0.482,0.869*59
$GPGRS,173007.00,1,-0.4,0.5,0.1,0.9,0.4,-0.5,0.0,-0.7,-0.4,-0.1,0.1,*44
$GPGRS,173007.00,1,-0.0,1.3,0.1,-3.2,0.1,-1.1,-1.1,,,,,*61
$GPGRS,173007.00,1,0.9,0.4,-0.0,0.5,-0.3,-0.5,,,,,,*6F
$GPGRS,173007.00,1,1.2,1.8,-0.1,0.7,-0.4,0.0,0.1,0.1,-0.8,0.4,-0.1,-1.1*64
$GPGRS,173007.00,1,1.0,-1.1,,,,,,,,,,*60
$GPGSV,5,1,20,18,77,164,49,05,26,055,43,25,16,141,39,28,19,214,42*73
$GPGSV,5,2,20,23,16,154,40,31,33,239,46,16,36,306,44,29,46,074,47*78
$GPGSV,5,3,20,26,65,281,49,27,09,273,37,20,06,029,36,36,35,170,44*7D
$GPGSV,5,4,20,58,13,245,36,40,23,133,36,34,31,208,42,49,34,195,44*7C
$GPGSV,5,5,20,57,08,111,37,41,07,108,34,61,03,257,38*47
$GLGSV,3,1,10,80,69,287,52,65,14,046,39,73,18,327,44,83,25,237,37*60
$GLGSV,3,2,10,79,43,172,51,81,55,035,51,82,67,262,51,66,04,091,42*64
$GLGSV,3,3,10,72,05,353,35,88,04,051,42*61
$GAGSV,3,1,11,15,66,069,47,30,14,135,39,34,17,044,40,13,51,203,47*68
$GAGSV,3,2,11,21,56,301,47,27,65,148,48,23,06,310,,26,02,217,35*6E
$GAGSV,3,3,11,04,00,319,35,06,01,343,36,09,00,004,31*58
$GBGSV,6,1,22,43,82,277,51,25,26,178,45,12,17,062,39,60,10,109,39*65
$GBGSV,6,2,22,05,21,129,37,38,30,044,44,07,13,098,,27,22,237,*68
$GBGSV,6,3,22,37,30,309,45,28,19,247,43,08,40,057,42,31,41,056,*6A
$GBGSV,6,4,22,13,43,068,44,34,45,063,48,23,57,241,50,11,71,050,49*62
$GBGSV,6,5,22,21,06,033,,42,02,125,,02,07,106,34,50,10,102,*6D
$GBGSV,6,6,22,56,04,083,,22,08,031,39*67
$GPGGA,173007.00,,,,,0,00,,,M,,M,,*4A
$PTNL,GGK,173007.00,010125,4742.1599531,N,01618.1004205,E,1,38,0.7,EHT751.1953,M*43
$GPGGQ,173007.00,010125,4742.1599531,N,01618.1004205,E,1,38,0.934,707.9888,M*38
$GPGFA,173007.00,4.241,6.148,0.446,0.334,357.550,0.750,,VVV*08
$GPLLK,173007.00,010125,,M,,M,1,38,0.8,,M*0A
$GNGMP,173007.00,,,,,DAAA,38,0.4,,,,*5B
$GPGMP,173007.00,,,,,,11,,,,3.2,136*7A
$GLGMP,173007.00,,,,,,07,,,,,*7A
$GAGMP,173007.00,,,,,,06,,,,,*76
$GBGMP,173007.00,,,,,,14,,,,,*76
$PSSN,SNC,[0,322225000,2347]*42
$GPZDA,173012.00,01,01,2025,,*65
$GPDTM,W84,,00.0000000,N,00.0000000,E,00.0000000,W84*5F
$PSSN,TFM,173012.00,,,,*69
$GPRMC,173012.00,A,4742.1599542,N,01618.1004242,E,0.0,,010125,5.1,E,D*16
$GPGLL,4742.1599542,N,01618.1004242,E,173012.00,A,D*67
$GPGGA,173012.00,4742.1599542,N,01618.1004242,E,2,38,0.4,707.9890,M,43.2066,M,3.0,0136*4F
$GNGNS,173012.00,4742.1599542,N,01618.1004242,E,DAAA,38,0.4,707.9890,43.2066,,*54
$GPGNS,173012.00,,,,,,11,,,,3.0,136*7C
$GLGNS,173012.00,,,,,,07,,,,,*7E
$GAGNS,173012.00,,,,,,06,,,,,*72
$GBGNS,173012.00,,,,,,14,,,,,*72
$GPLLQ,173012.00,010125,,M,,M,1,38,0.952,,M*12
$GPVTG,,T,,M,0.00,N,0.01,K,D*27
$GPHDT,,T*1B
$GPTHS,,V*0E
$GPROT,,V*08
$PSSN,HRP,173012.00,010125,,,,,,,00,0,,*67
$PTNL,AVR,173012.00,,Yaw,,Tilt,,,,0,,00*31
$GPGSA,A,3,05,16,18,20,23,25,26,27,28,29,31,,0.7,0.4,0.6*3A
$GPGSA,A,3,65,73,79,80,81,82,83,,,,,,0.7,0.4,0.6*3E
$GPGSA,A,3,13,15,21,27,30,34,,,,,,,0.7,0.4,0.6*33
$GPGSA,A,3,05,08,11,12,13,22,23,25,28,34,37,38,0.7,0.4,0.6*3F
$GPGSA,A,3,43,60,,,,,,,,,,,0.7,0.4,0.6*36
$GPGST,173012.00,0.863,0.451,0.336,356.314,0.451,0.336,0.768*53
$GPGBS,173012.00,2.741,1.971,5.680,16,0.0001,0.569,0.883*53
$GPGRS,173012.00,1,-0.2,0.6,0.2,1.1,0.2,-0.5,-0.1,-1.0,0.4,-0.2,0.0,*4C
$GPGRS,173012.00,1,-0.7,0.5,0.2,-1.8,0.3,-1.2,-2.3,,,,,*6E
$GPGRS,173012.00,1,0.8,0.4,-0.3,0.4,-1.0,-0.6,,,,,,*69
$GPGRS,173012.00,1,1.0,1.4,-0.2,0.9,-0.4,-0.2,-0.1,0.0,-0.7,0.2,0.2,-1.1*47
$GPGRS,173012.00,1,0.8,-1.1,,,,,,,,,,*6D
$GPGSV,5,1,20,18,77,164,49,05,26,054,43,25,16,141,39,28,19,214,41*71
$GPGSV,5,2,20,23,16,154,40,31,33,239,45,16,36,306,45,29,46,075,47*7B
$GPGSV,5,3,20,26,65,281,49,27,09,273,39,20,06,029,36,36,35,170,44*73
$GPGSV,5,4,20,58,13,245,37,40,23,133,36,34,31,208,42,49,34,195,44*7D
$GPGSV,5,5,20,57,08,111,37,41,07,108,34,61,03,257,38*47
$GLGSV,3,1,10,80,69,287,52,65,14,046,39,73,18,327,45,83,25,237,37*61
$GLGSV,3,2,10,79,43,172,51,81,55,035,51,82,67,262,51,66,04,091,42*64
$GLGSV,3,3,10,72,05,353,37,88,04,051,43*62
$GAGSV,3,1,11,15,66,069,47,30,14,135,39,34,17,044,40,13,51,203,47*68
$GAGSV,3,2,11,21,56,301,47,27,65,148,48,23,06,310,,26,02,217,34*6F
$GAGSV,3,3,11,04,00,319,35,06,01,343,33,09,00,004,31*5D
$GBGSV,6,1,22,43,82,277,51,25,26,178,45,12,17,062,40,60,10,109,39*6B
$GBGSV,6,2,22,05,21,129,37,38,30,044,44,07,13,098,,27,22,237,*68
$GBGSV,6,3,22,37,30,309,45,28,19,247,44,08,40,057,42,31,41,056,*6D
$GBGSV,6,4,22,13,43,068,44,34,45,063,48,23,57,241,50,11,71,050,49*62
$GBGSV,6,5,22,21,06,033,,42,02,125,,02,07,106,34,50,10,102,*6D
$GBGSV,6,6,22,56,04,083,,22,08,031,39*67
$GPGGA,173012.00,,,,,0,00,,,M,,M,,*4E
$PTNL,GGK,173012.00,010125,4742.1599542,N,01618.1004242,E,1,38,0.7,EHT751.1955,M*46
$GPGGQ,173012.00,010125,4742.1599542,N,01618.1004242,E,1,38,0.952,707.9890,M*32
$GPGFA,173012.00,4.292,6.296,0.451,0.336,356.314,0.768,,VVV*0A
$GPLLK,173012.00,010125,,M,,M,1,38,0.8,,M*0E
$GNGMP,173012.00,,,,,DAAA,38,0.4,,,,*5F
$GPGMP,173012.00,,,,,,11,,,,3.0,136*7C
$GLGMP,173012.00,,,,,,07,,,,,*7E
$GAGMP,173012.00,,,,,,06,,,,,*72
$GBGMP,173012.00,,,,,,14,,,,,*72
$PSSN,SNC,[0,322230000,2347]*46
$GPZDA,173017.00,01,01,2025,,*60
$GPDTM,W84,,00.0000000,N,00.0000000,E,00.0000000,W84*5F
$PSSN,TFM,173017.00,,,,*6C
$GPRMC,173017.00,A,4742.1599532,N,01618.1004272,E,0.0,,010125,5.1,E,D*17
$GPGLL,4742.1599532,N,01618.1004272,E,173017.00,A,D*66
$GPGGA,173017.00,4742.1599532,N,01618.1004272,E,2,38,0.4,707.9885,M,43.2066,M,1.6,0136*4E
$GNGNS,173017.00,4742.1599532,N,01618.1004272,E,DAAA,38,0.4,707.9885,43.2066,,*51
$GPGNS,173017.00,,,,,,11,,,,1.6,136*7D
$GLGNS,173017.00,,,,,,07,,,,,*7B
$GAGNS,173017.00,,,,,,06,,,,,*77
$GBGNS,173017.00,,,,,,14,,,,,*77
$GPLLQ,173017.00,010125,,M,,M,1,38,0.944,,M*10
$GPVTG,,T,,M,0.01,N,0.01,K,D*26
$GPHDT,,T*1B
$GPTHS,,V*0E
$GPROT,,V*08
$PSSN,HRP,173017.00,010125,,,,,,,00,0,,*62
$PTNL,AVR,173017.00,,Yaw,,Tilt,,,,0,,00*34
$GPGSA,A,3,05,16,18,20,23,25,26,27,28,29,31,,0.7,0.4,0.6*3A
$GPGSA,A,3,65,73,79,80,81,82,83,,,,,,0.7,0.4,0.6*3E
$GPGSA,A,3,13,15,21,27,30,34,,,,,,,0.7,0.4,0.6*33
$GPGSA,A,3,05,08,11,12,13,22,23,25,28,34,37,38,0.7,0.4,0.6*3F
$GPGSA,A,3,43,60,,,,,,,,,,,0.7,0.4,0.6*36
$GPGST,173017.00,0.793,0.449,0.332,356.501,0.449,0.332,0.761*5D
$GPGBS,173017.00,2.696,1.965,5.491,16,0.0001,0.756,0.845*5E
$GPGRS,173017.00,1,-0.5,0.8,-0.0,0.7,-0.0,-0.3,-0.4,-0.7,0.2,-0.1,0.4,*43
$GPGRS,173017.00,1,-0.3,1.7,0.0,-1.8,0.5,-1.2,-1.1,,,,,*69
$GPGRS,173017.00,1,0.6,0.0,-0.2,0.2,-0.7,-0.8,,,,,,*69
$GPGRS,173017.00,1,0.6,0.6,-0.0,1.2,-0.6,-0.0,-0.3,-0.1,-0.9,0.0,0.1,-1.0*6E
$GPGRS,173017.00,1,0.7,-1.2,,,,,,,,,,*64
$GPGSV,5,1,20,18,77,164,49,05,26,054,43,25,16,141,39,28,19,214,41*71
$GPGSV,5,2,20,23,16,154,41,31,33,239,45,16,36,306,45,29,46,075,47*7A
$GPGSV,5,3,20,26,65,281,49,27,09,273,38,20,06,029,36,36,35,170,44*72
$GPGSV,5,4,20,58,13,245,37,40,23,133,36,34,31,208,42,49,34,195,44*7D
$GPGSV,5,5,20,57,08,111,38,41,07,108,34,61,03,257,38*48
$GLGSV,3,1,10,80,69,287,52,65,14,046,40,73,18,327,45,83,25,237,38*60
$GLGSV,3,2,10,79,43,172,51,81,55,035,51,82,67,262,52,66,04,091,42*67
$GLGSV,3,3,10,72,05,353,36,88,04,051,42*62
$GAGSV,3,1,11,15,66,069,47,30,14,135,38,34,17,044,40,13,51,203,47*69
$GAGSV,3,2,11,21,56,301,47,27,65,148,48,23,06,310,,26,02,217,35*6E
$GAGSV,3,3,11,04,00,319,33,06,01,343,34,09,00,004,30*5D
$GBGSV,6,1,22,43,82,277,51,25,26,178,45,12,17,062,40,05,21,129,37*66
$GBGSV,6,2,22,38,30,044,44,60,10,109,39,28,19,247,44,37,30,309,45*6D
$GBGSV,6,3,22,27,22,237,,07,13,098,,08,40,057,42,31,41,056,*65
$GBGSV,6,4,22,13,43,068,45,34,45,063,48,23,57,241,50,11,71,050,49*63
$GBGSV,6,5,22,21,06,033,,42,02,125,,02,07,106,34,50,10,102,*6D
$GBGSV,6,6,22,56,04,083,,22,08,031,40*69
$GPGGA,173017.00,,,,,0,00,,,M,,M,,*4B
$PTNL,GGK,173017.00,010125,4742.1599532,N,01618.1004272,E,1,38,0.7,EHT751.1950,M*42
$GPGGQ,173017.00,010125,4742.1599532,N,01618.1004272,E,1,38,0.944,707.9885,M*30
$GPGFA,173017.00,4.269,6.242,0.449,0.332,356.501,0.761,,VVV*04
$GPLLK,173017.00,010125,,M,,M,1,38,0.8,,M*0B
$GNGMP,173017.00,,,,,DAAA,38,0.4,,,,*5A
$GPGMP,173017.00,,,,,,11,,,,1.6,136*7D
$GLGMP,173017.00,,,,,,07,,,,,*7B
$GAGMP,173017.00,,,,,,06,,,,,*77
$GBGMP,173017.00,,,,,,14,,,,,*77
$PSSN,SNC,[0,322235000,2347]*43
$GPZDA,173022.00,01,01,2025,,*66
$GPDTM,W84,,00.0000000,N,00.0000000,E,00.0000000,W84*5F
$PSSN,TFM,173022.00,,,,*6A
$GPRMC,173022.00,A,4742.1599534,N,01618.1004303,E,0.0,,010125,5.1,E,D*10
$GPGLL,4742.1599534,N,01618.1004303,E,173022.00,A,D*61
$GPGGA,173022.00,4742.1599534,N,01618.1004303,E,2,38,0.4,707.9912,M,43.2066,M,2.2,0136*41
$GNGNS,173022.00,4742.1599534,N,01618.1004303,E,DAAA,38,0.4,707.9912,43.2066,,*59
$GPGNS,173022.00,,,,,,11,,,,2.2,136*7C
$GLGNS,173022.00,,,,,,07,,,,,*7D
$GAGNS,173022.00,,,,,,06,,,,,*71
$GBGNS,173022.00,,,,,,14,,,,,*71
$GPLLQ,173022.00,010125,,M,,M,1,38,0.928,,M*1C
$GPVTG,,T,,M,0.01,N,0.01,K,D*26
$GPHDT,,T*1B
$GPTHS,,V*0E
$GPROT,,V*08
$PSSN,HRP,173022.00,010125,,,,,,,00,0,,*64
$PTNL,AVR,173022.00,,Yaw,,Tilt,,,,0,,00*32
$GPGSA,A,3,05,16,18,20,23,25,26,27,28,29,31,,0.7,0.4,0.6*3A
$GPGSA,A,3,65,73,79,80,81,82,83,,,,,,0.7,0.4,0.6*3E
$GPGSA,A,3,13,15,21,27,30,34,,,,,,,0.7,0.4,0.6*33
$GPGSA,A,3,05,08,11,12,13,22,23,25,28,34,37,38,0.7,0.4,0.6*3F
$GPGSA,A,3,43,60,,,,,,,,,,,0.7,0.4,0.6*36
$GPGST,173022.00,0.730,0.443,0.331,358.070,0.443,0.331,0.745*59
$GPGBS,173022.00,2.681,1.949,5.531,16,0.0001,0.517,0.855*5D
$GPGRS,173022.00,1,-0.4,0.5,0.0,0.4,0.1,-0.2,-0.3,-0.4,0.2,-0.1,0.2,*48
$GPGRS,173022.00,1,-0.3,0.9,0.5,-1.4,0.9,-0.8,-0.7,,,,,*69
$GPGRS,173022.00,1,0.6,0.3,0.1,0.4,-0.8,-0.7,,,,,,*44
$GPGRS,173022.00,1,0.8,0.8,0.3,0.9,-0.4,-0.1,-0.2,-0.1,-1.5,0.2,0.3,-1.1*42
$GPGRS,173022.00,1,0.8,-1.4,,,,,,,,,,*6B
$GPGSV,5,1,20,18,77,164,50,05,26,054,43,25,16,141,39,28,19,214,41*79
$GPGSV,5,2,20,23,16,154,41,31,33,239,45,16,36,306,44,29,46,075,47*7B
$GPGSV,5,3,20,26,65,280,49,27,09,273,39,20,06,029,36,36,35,170,45*73
$GPGSV,5,4,20,58,13,245,37,40,23,133,36,34,31,208,42,49,34,195,44*7D
$GPGSV,5,5,20,57,08,111,38,41,07,108,34,61,03,257,38*48
$GLGSV,3,1,10,80,69,287,52,65,14,046,40,73,18,327,45,83,25,237,36*6E
$GLGSV,3,2,10,79,43,172,51,81,55,035,51,82,67,262,52,66,04,091,42*67
$GLGSV,3,3,10,72,05,353,37,88,04,051,42*63
$GAGSV,3,1,11,15,66,068,47,30,14,135,38,34,17,044,40,13,52,203,47*6B
$GAGSV,3,2,11,21,56,301,47,27,65,148,48,23,06,310,,26,02,217,35*6E
$GAGSV,3,3,11,04,00,319,34,06,01,343,35,09,00,004,30*5B
$GBGSV,6,1,22,43,82,278,51,25,26,178,45,12,17,062,39,05,21,129,37*67
$GBGSV,6,2,22,38,30,044,44,60,10,109,40,28,19,247,43,37,30,309,45*64
$GBGSV,6,3,22,27,22,237,,07,13,098,,08,40,057,42,31,41,056,*65
$GBGSV,6,4,22,13,43,068,44,34,45,063,48,23,57,241,50,11,71,050,49*62
$GBGSV,6,5,22,21,06,033,,42,02,125,,02,07,106,34,50,10,102,*6D
$GBGSV,6,6,22,56,04,083,,22,08,031,40*69
$GPGGA,173022.00,,,,,0,00,,,M,,M,,*4D
$PTNL,GGK,173022.00,010125,4742.1599534,N,01618.1004303,E,1,38,0.7,EHT751.1977,M*40
$GPGGQ,173022.00,010125,4742.1599534,N,01618.1004303,E,1,38,0.928,707.9912,M*32
$GPGFA,173022.00,4.216,6.110,0.443,0.331,358.070,0.745,,VVV*0C
$GPLLK,173022.00,010125,,M,,M,1,38,0.8,,M*0D
$GNGMP,173022.00,,,,,DAAA,38,0.4,,,,*5C
$GPGMP,173022.00,,,,,,11,,,,2.2,136*7C
$GLGMP,173022.00,,,,,,07,,,,,*7D
$GAGMP,173022.00,,,,,,06,,,,,*71
$GBGMP,173022.00,,,,,,14,,,,,*71
$PSSN,SNC,[0,322240000,2347]*41
$GPZDA,173027.00,01,01,2025,,*63
$GPDTM,W84,,00.0000000,N,00.0000000,E,00.0000000,W84*5F
$PSSN,TFM,173027.00,,,,*6F
$GPRMC,173027.00,A,4742.1599531,N,01618.1004328,E,0.0,,010125,5.1,E,D*19
$GPGLL,4742.1599531,N,01618.1004328,E,173027.00,A,D*68
$GPGGA,173027.00,4742.1599531,N,01618.1004328,E,2,38,0.4,707.9908,M,43.2066,M,3.2,0136*42
$GNGNS,173027.00,4742.1599531,N,01618.1004328,E,DAAA,38,0.4,707.9908,43.2066,,*5B
$GPGNS,173027.00,,,,,,11,,,,3.2,136*78
$GLGNS,173027.00,,,,,,07,,,,,*78
$GAGNS,173027.00,,,,,,06,,,,,*74
$GBGNS,173027.00,,,,,,14,,,,,*74
$GPLLQ,173027.00,010125,,M,,M,1,38,0.940,,M*17
$GPVTG,,T,,M,0.01,N,0.01,K,D*26
$GPHDT,,T*1B
$GPTHS,,V*0E
$GPROT,,V*08
$PSSN,HRP,173027.00,010125,,,,,,,00,0,,*61
$PTNL,AVR,173027.00,,Yaw,,Tilt,,,,0,,00*37
$GPGSA,A,3,05,16,18,20,23,25,26,27,28,29,31,,0.7,0.4,0.6*3A
$GPGSA,A,3,65,73,79,80,81,82,83,,,,,,0.7,0.4,0.6*3E
$GPGSA,A,3,13,15,21,27,30,34,,,,,,,0.7,0.4,0.6*33
$GPGSA,A,3,05,08,11,12,13,22,23,25,28,34,37,38,0.7,0.4,0.6*3F
$GPGSA,A,3,43,60,,,,,,,,,,,0.7,0.4,0.6*36
$GPGST,173027.00,0.992,0.448,0.335,357.642,0.447,0.335,0.755*5C
$GPGBS,173027.00,2.701,1.965,5.600,83,0.0001,-3.743,6.191*78
$GPGRS,173027.00,1,-0.2,0.3,0.1,0.6,0.3,-0.4,-0.1,-0.3,0.1,-0.3,0.2,*4E
$GPGRS,173027.00,1,0.2,1.1,0.4,-1.3,0.9,-0.8,-3.7,,,,,*4C
$GPGRS,173027.00,1,0.8,0.4,0.1,0.6,-0.8,-0.9,,,,,,*44
$GPGRS,173027.00,1,0.7,1.3,-0.1,0.1,-0.6,-0.9,-0.1,0.2,-1.6,0.1,0.1,-0.9*49
$GPGRS,173027.00,1,0.8,-1.1,,,,,,,,,,*6B
$GPGSV,5,1,20,18,77,164,49,05,26,054,43,25,16,141,39,28,19,214,41*71
$GPGSV,5,2,20,23,16,154,41,31,33,239,45,16,36,306,44,29,46,075,47*7B
$GPGSV,5,3,20,26,65,280,49,27,09,273,39,20,06,029,36,36,35,170,45*73
$GPGSV,5,4,20,58,13,245,37,40,23,133,36,34,31,208,42,49,34,195,44*7D
$GPGSV,5,5,20,57,08,111,38,41,07,108,34,61,03,257,38*48
$GLGSV,3,1,10,80,69,287,52,65,14,046,40,73,18,327,45,83,25,237,37*6F
$GLGSV,3,2,10,79,43,172,51,81,55,035,51,82,67,262,52,66,04,091,42*67
$GLGSV,3,3,10,72,05,353,38,88,04,051,41*6F
$GAGSV,3,1,11,15,66,068,47,30,14,135,38,34,17,044,39,13,52,203,47*65
$GAGSV,3,2,11,21,56,301,46,27,65,148,48,23,06,310,,26,02,217,35*6F
$GAGSV,3,3,11,04,00,319,33,06,01,342,33,09,00,004,29*53
$GBGSV,6,1,22,43,82,278,51,25,26,178,46,12,17,062,39,05,21,129,37*64
$GBGSV,6,2,22,38,30,044,44,60,10,109,40,28,19,247,43,37,30,309,45*64
$GBGSV,6,3,22,27,22,237,,07,13,098,,08,40,057,42,31,41,056,*65
$GBGSV,6,4,22,13,43,068,44,34,45,063,48,23,57,241,50,11,71,050,49*62
$GBGSV,6,5,22,21,06,033,,42,03,125,,02,07,106,34,50,10,102,*6C
$GBGSV,6,6,22,56,04,083,,22,08,031,39*67
$GPGGA,173027.00,,,,,0,00,,,M,,M,,*48
$PTNL,GGK,173027.00,010125,4742.1599531,N,01618.1004328,E,1,38,0.7,EHT751.1973,M*4D
$GPGGQ,173027.00,010125,4742.1599531,N,01618.1004328,E,1,38,0.940,707.9908,M*3E
$GPGFA,173027.00,4.255,6.191,0.448,0.335,357.642,0.755,,VVV*01
$GPLLK,173027.00,010125,,M,,M,1,38,0.8,,M*08
$GNGMP,173027.00,,,,,DAAA,38,0.4,,,,*59
$GPGMP,173027.00,,,,,,11,,,,3.2,136*78
$GLGMP,173027.00,,,,,,07,,,,,*78
$GAGMP,173027.00,,,,,,06,,,,,*74
$GBGMP,173027.00,,,,,,14,,,,,*74
$PSSN,SNC,[0,322245000,2347]*44
$GPZDA,173032.00,01,01,2025,,*67
$GPDTM,W84,,00.0000000,N,00.0000000,E,00.0000000,W84*5F
$PSSN,TFM,173032.00,,,,*6B
$GPRMC,173032.00,A,4742.1599519,N,01618.1004372,E,0.0,,010125,5.1,E,D*18
$GPGLL,4742.1599519,N,01618.1004372,E,173032.00,A,D*69
$GPGGA,173032.00,4742.1599519,N,01618.1004372,E,2,38,0.4,707.9898,M,43.2066,M,3.0,0136*49
$GNGNS,173032.00,4742.1599519,N,01618.1004372,E,DAAA,38,0.4,707.9898,43.2066,,*52
$GPGNS,173032.00,,,,,,11,,,,3.0,136*7E
$GLGNS,173032.00,,,,,,07,,,,,*7C
$GAGNS,173032.00,,,,,,06,,,,,*70
$GBGNS,173032.00,,,,,,14,,,,,*70
$GPLLQ,173032.00,010125,,M,,M,1,38,0.944,,M*17
$GPVTG,,T,,M,0.00,N,0.01,K,D*27
$GPHDT,,T*1B
$GPTHS,,V*0E
$GPROT,,V*08
$PSSN,HRP,173032.00,010125,,,,,,,00,0,,*65
$PTNL,AVR,173032.00,,Yaw,,Tilt,,,,0,,00*33
$GPGSA,A,3,05,16,18,20,23,25,26,27,28,29,31,,0.7,0.4,0.6*3A
$GPGSA,A,3,65,73,79,80,81,82,83,,,,,,0.7,0.4,0.6*3E
$GPGSA,A,3,13,15,21,27,30,34,,,,,,,0.7,0.4,0.6*33
$GPGSA,A,3,05,08,11,12,13,22,23,25,28,34,37,38,0.7,0.4,0.6*3F
$GPGSA,A,3,43,60,,,,,,,,,,,0.7,0.4,0.6*36
$GPGST,173032.00,0.795,0.450,0.334,357.125,0.450,0.334,0.760*5E
$GPGBS,173032.00,2.696,1.963,5.584,16,0.0001,0.572,0.881*56
$GPGRS,173032.00,1,-0.6,0.6,-0.1,0.5,0.2,-0.1,-0.1,-0.2,-0.2,-0.2,0.5,*48
$GPGRS,173032.00,1,0.2,0.7,-0.1,-1.8,0.6,-1.2,-2.0,,,,,*6E
$GPGRS,173032.00,1,0.7,0.3,-0.0,0.4,-0.6,-0.9,,,,,,*68
$GPGRS,173032.00,1,1.1,1.0,-0.3,-0.3,-0.6,-0.6,-0.1,0.0,-0.7,0.1,0.1,-0.8*68
$GPGRS,173032.00,1,0.8,-1.3,,,,,,,,,,*6D
$GPGSV,5,1,20,18,77,164,49,05,26,054,43,25,16,141,39,28,19,213,40*77
$GPGSV,5,2,20,23,16,154,41,31,33,239,45,16,36,306,44,29,46,075,46*7A
$GPGSV,5,3,20,26,65,280,49,27,09,273,40,20,06,029,35,36,35,170,45*7E
$GPGSV,5,4,20,58,13,245,37,40,23,133,36,34,31,208,42,49,34,195,44*7D
$GPGSV,5,5,20,57,08,111,38,41,07,108,34,61,03,257,38*48
$GLGSV,3,1,10,80,69,287,52,65,14,046,40,73,18,327,44,83,25,238,37*61
$GLGSV,3,2,10,79,43,172,51,81,55,035,51,82,67,262,51,66,04,091,42*64
$GLGSV,3,3,10,72,05,353,38,88,04,051,41*6F
$GAGSV,3,1,11,15,66,068,47,30,14,135,38,34,17,044,39,13,52,203,47*65
$GAGSV,3,2,11,21,56,301,46,27,65,148,48,23,06,311,,26,02,217,35*6E
$GAGSV,3,3,11,04,00,319,34,06,01,342,34,09,00,004,31*5A
$GBGSV,6,1,22,43,82,278,52,25,26,178,46,12,17,062,38,05,21,129,37*66
$GBGSV,6,2,22,38,30,044,44,60,10,109,40,28,19,247,43,37,30,309,45*64
$GBGSV,6,3,22,27,22,237,,07,13,098,,08,40,057,42,31,41,056,*65
$GBGSV,6,4,22,13,43,068,45,34,45,063,48,23,57,241,51,11,71,050,49*62
$GBGSV,6,5,22,21,06,033,,42,03,125,,02,07,106,34,50,10,102,*6C
$GBGSV,6,6,22,56,04,083,,22,08,031,40*69
$GPGGA,173032.00,,,,,0,00,,,M,,M,,*4C
$PTNL,GGK,173032.00,010125,4742.1599519,N,01618.1004372,E,1,38,0.7,EHT751.1964,M*4A
$GPGGQ,173032.00,010125,4742.1599519,N,01618.1004372,E,1,38,0.944,707.9898,M*33
$GPGFA,173032.00,4.281,6.232,0.450,0.334,357.125,0.760,,VVV*0E
$GPLLK,173032.00,010125,,M,,M,1,38,0.8,,M*0C
$GNGMP,173032.00,,,,,DAAA,38,0.4,,,,*5D
$GPGMP,173032.00,,,,,,11,,,,3.0,136*7E
$GLGMP,173032.00,,,,,,07,,,,,*7C
$GAGMP,173032.00,,,,,,06,,,,,*70
$GBGMP,173032.00,,,,,,14,,,,,*70
$PSSN,SNC,[0,322250000,2347]*40
$GPZDA,173037.00,01,01,2025,,*62
$GPDTM,W84,,00.0000000,N,00.0000000,E,00.0000000,W84*5F
$PSSN,TFM,173037.00,,,,*6E
$GPRMC,173037.00,A,4742.1599523,N,01618.1004414,E,0.0,,010125,5.1,E,D*13
$GPGLL,4742.1599523,N,01618.1004414,E,173037.00,A,D*62
$GPGGA,173037.00,4742.1599523,N,01618.1004414,E,2,37,0.4,707.9899,M,43.2066,M,1.6,0136*48
$GNGNS,173037.00,4742.1599523,N,01618.1004414,E,DAAA,37,0.4,707.9899,43.2066,,*57
$GPGNS,173037.00,,,,,,10,,,,1.6,136*7E
$GLGNS,173037.00,,,,,,07,,,,,*79
$GAGNS,173037.00,,,,,,06,,,,,*75
$GBGNS,173037.00,,,,,,14,,,,,*75
$GPLLQ,173037.00,010125,,M,,M,1,37,0.938,,M*16
$GPVTG,,T,,M,0.00,N,0.00,K,D*26
$GPHDT,,T*1B
$GPTHS,,V*0E
$GPROT,,V*08
$PSSN,HRP,173037.00,010125,,,,,,,00,0,,*60
$PTNL,AVR,173037.00,,Yaw,,Tilt,,,,0,,00*36
$GPGSA,A,3,05,16,18,23,25,26,27,28,29,31,,,0.8,0.4,0.6*37
$GPGSA,A,3,65,73,79,80,81,82,83,,,,,,0.8,0.4,0.6*31
$GPGSA,A,3,13,15,21,27,30,34,,,,,,,0.8,0.4,0.6*3C
$GPGSA,A,3,05,08,11,12,13,22,23,25,28,34,37,38,0.8,0.4,0.6*30
$GPGSA,A,3,43,60,,,,,,,,,,,0.8,0.4,0.6*39
$GPGST,173037.00,0.840,0.449,0.330,357.538,0.449,0.330,0.755*52
$GPGBS,173037.00,2.725,1.970,5.490,16,0.0001,0.622,0.843*54
$GPGRS,173037.00,1,-0.4,0.6,-0.2,-0.1,-0.4,0.2,-0.7,0.2,-0.0,0.2,,*4F
$GPGRS,173037.00,1,-0.2,0.5,-0.3,-1.5,0.6,-1.1,-2.6,,,,,*4E
$GPGRS,173037.00,1,0.6,0.2,-0.2,0.3,-0.3,-1.0,,,,,,*65
$GPGRS,173037.00,1,0.7,0.6,0.1,-1.6,-0.5,-0.0,-0.2,0.2,-0.6,0.2,0.0,-0.9*40
$GPGRS,173037.00,1,0.9,-1.1,,,,,,,,,,*6B
$GPGSV,5,1,20,18,77,163,49,05,26,054,43,25,16,141,39,28,19,213,41*71
$GPGSV,5,2,20,23,16,154,40,31,33,239,46,16,36,306,44,29,46,075,46*78
$GPGSV,5,3,20,26,65,280,49,27,09,273,39,20,06,029,35,36,35,170,44*71
$GPGSV,5,4,20,58,13,245,37,40,23,133,36,34,31,208,42,49,34,195,44*7D
$GPGSV,5,5,20,57,08,111,37,41,07,108,34,61,03,257,38*47
$GLGSV,3,1,10,80,69,286,52,65,14,045,41,73,18,327,45,83,25,238,37*63
$GLGSV,3,2,10,79,42,172,50,81,55,035,51,82,67,262,52,66,04,091,42*67
$GLGSV,3,3,10,72,05,353,38,88,04,051,41*6F
$GAGSV,3,1,11,15,66,068,47,30,14,135,39,34,17,044,39,13,52,203,47*64
$GAGSV,3,2,11,21,56,301,47,27,65,148,48,23,06,311,,26,02,217,36*6C
$GAGSV,3,3,11,04,00,319,34,06,01,342,35,09,00,004,31*5B
$GBGSV,6,1,22,43,82,278,52,25,26,178,45,12,17,062,38,05,21,129,37*65
$GBGSV,6,2,22,38,30,044,44,60,10,109,39,28,19,247,43,07,13,098,*62
$GBGSV,6,3,22,37,30,309,45,27,22,237,,08,40,057,42,31,41,056,*6D
$GBGSV,6,4,22,13,43,068,45,34,45,063,48,23,57,241,50,11,71,050,49*63
$GBGSV,6,5,22,22,08,031,40,42,03,125,,02,07,106,34,50,10,102,*67
$GBGSV,6,6,22,56,04,083,,21,06,033,*62
$GPGGA,173037.00,,,,,0,00,,,M,,M,,*49
$PTNL,GGK,173037.00,010125,4742.1599523,N,01618.1004414,E,1,37,0.8,EHT751.1965,M*40
$GPGGQ,173037.00,010125,4742.1599523,N,01618.1004414,E,1,37,0.938,707.9899,M*3D
$GPGFA,173037.00,4.267,6.190,0.449,0.330,357.538,0.755,,VVV*0A
$GPLLK,173037.00,010125,,M,,M,1,37,0.9,,M*07
$GNGMP,173037.00,,,,,DAAA,37,0.4,,,,*57
$GPGMP,173037.00,,,,,,10,,,,1.6,136*7E
$GLGMP,173037.00,,,,,,07,,,,,*79
$GAGMP,173037.00,,,,,,06,,,,,*75
$GBGMP,173037.00,,,,,,14,,,,,*75
$PSSN,SNC,[0,322255000,2347]*45
$GPZDA,173042.00,01,01,2025,,*60
$GPDTM,W84,,00.0000000,N,00.0000000,E,00.0000000,W84*5F
$PSSN,TFM,173042.00,,,,*6C
$GPRMC,173042.00,A,4742.1599500,N,01618.1004442,E,0.0,,010125,5.1,E,D*13
$GPGLL,4742.1599500,N,01618.1004442,E,173042.00,A,D*62
$GPGGA,173042.00,4742.1599500,N,01618.1004442,E,2,38,0.4,707.9912,M,43.2066,M,2.2,0136*42
$GNGNS,173042.00,4742.1599500,N,01618.1004442,E,DAAA,38,0.4,707.9912,43.2066,,*5A
$GPGNS,173042.00,,,,,,11,,,,2.2,136*7A
$GLGNS,173042.00,,,,,,07,,,,,*7B
$GAGNS,173042.00,,,,,,06,,,,,*77
$GBGNS,173042.00,,,,,,14,,,,,*77
$GPLLQ,173042.00,010125,,M,,M,1,38,0.921,,M*13
$GPVTG,,T,,M,0.00,N,0.00,K,D*26
$GPHDT,,T*1B
$GPTHS,,V*0E
$GPROT,,V*08
$PSSN,HRP,173042.00,010125,,,,,,,00,0,,*62
$PTNL,AVR,173042.00,,Yaw,,Tilt,,,,0,,00*34
$GPGSA,A,3,05,16,18,20,23,25,26,27,28,29,31,,0.7,0.4,0.6*3A
$GPGSA,A,3,65,73,79,80,81,82,83,,,,,,0.7,0.4,0.6*3E
$GPGSA,A,3,13,15,21,27,30,34,,,,,,,0.7,0.4,0.6*33
$GPGSA,A,3,05,08,11,12,13,22,23,25,28,34,37,38,0.7,0.4,0.6*3F
$GPGSA,A,3,43,60,,,,,,,,,,,0.7,0.4,0.6*36
$GPGST,173042.00,0.841,0.443,0.329,358.887,0.443,0.329,0.738*5C
$GPGBS,173042.00,2.640,1.940,5.435,16,0.0001,0.545,0.853*5B
$GPGRS,173042.00,1,-0.3,0.5,-0.0,1.0,-0.0,-0.7,-0.2,-0.7,-0.1,0.1,0.5,*4E
$GPGRS,173042.00,1,0.3,1.3,-0.1,-1.6,0.5,-0.8,-1.8,,,,,*60
$GPGRS,173042.00,1,0.8,0.2,-0.2,0.2,-0.6,-1.0,,,,,,*6D
$GPGRS,173042.00,1,1.0,0.4,0.3,-1.8,-0.4,-0.4,-0.4,0.4,-0.4,0.1,-0.4,-1.0*6F
$GPGRS,173042.00,1,0.6,-1.3,,,,,,,,,,*64
$GPGSV,5,1,20,18,77,163,50,05,26,054,43,25,16,141,39,28,19,213,42*7A
$GPGSV,5,2,20,23,16,154,40,31,33,239,46,16,36,306,44,29,46,075,47*79
$GPGSV,5,3,20,26,65,280,49,27,09,273,39,20,05,029,35,36,35,170,45*73
$GPGSV,5,4,20,58,13,245,37,40,23,133,36,34,31,208,42,49,34,195,44*7D
$GPGSV,5,5,20,57,08,111,38,41,07,108,34,61,03,257,38*48
$GLGSV,3,1,10,80,69,286,52,65,14,045,40,73,18,327,44,83,25,238,37*63
$GLGSV,3,2,10,79,42,172,51,81,55,035,51,82,67,262,52,66,04,091,42*66
$GLGSV,3,3,10,72,05,353,37,88,04,051,41*60
$GAGSV,3,1,11,15,66,068,47,30,14,135,39,34,17,044,39,13,52,203,47*64
$GAGSV,3,2,11,21,56,301,47,27,65,148,48,23,06,311,,26,02,217,36*6C
$GAGSV,3,3,11,04,00,319,33,06,01,342,35,09,00,004,29*55
$GBGSV,6,1,22,43,82,278,52,25,26,178,45,12,17,062,38,05,21,129,37*65
$GBGSV,6,2,22,38,30,044,44,60,10,109,39,28,19,248,43,07,13,098,*6D
$GBGSV,6,3,22,37,30,309,45,27,22,237,,08,40,056,42,31,41,056,*6C
$GBGSV,6,4,22,13,43,068,45,34,45,063,48,23,57,240,50,11,71,050,49*62
$GBGSV,6,5,22,22,08,031,40,42,03,125,,02,07,106,34,50,10,102,*67
$GBGSV,6,6,22,56,04,083,,21,06,033,*62
$GPGGA,173042.00,,,,,0,00,,,M,,M,,*4B
$PTNL,GGK,173042.00,010125,4742.1599500,N,01618.1004442,E,1,38,0.7,EHT751.1978,M*4C
$GPGGQ,173042.00,010125,4742.1599500,N,01618.1004442,E,1,38,0.921,707.9912,M*38
$GPGFA,173042.00,4.208,6.050,0.443,0.329,358.887,0.738,,VVV*03
$GPLLK,173042.00,010125,,M,,M,1,38,0.8,,M*0B
$GNGMP,173042.00,,,,,DAAA,38,0.4,,,,*5A
$GPGMP,173042.00,,,,,,11,,,,2.2,136*7A
$GLGMP,173042.00,,,,,,07,,,,,*7B
$GAGMP,173042.00,,,,,,06,,,,,*77
$GBGMP,173042.00,,,,,,14,,,,,*77
$PSSN,SNC,[0,322260000,2347]*43
$GPZDA,173047.00,01,01,2025,,*65
$GPDTM,W84,,00.0000000,N,00.0000000,E,00.0000000,W84*5F
$PSSN,TFM,173047.00,,,,*69
$GPRMC,173047.00,A,4742.1599486,N,01618.1004482,E,0.0,,010125,5.1,E,D*15
$GPGLL,4742.1599486,N,01618.1004482,E,173047.00,A,D*64
$GPGGA,173047.00,4742.1599486,N,01618.1004482,E,2,38,0.4,707.9875,M,43.2066,M,3.2,0136*45
$GNGNS,173047.00,4742.1599486,N,01618.1004482,E,DAAA,38,0.4,707.9875,43.2066,,*5C
$GPGNS,173047.00,,,,,,11,,,,3.2,136*7E
$GLGNS,173047.00,,,,,,07,,,,,*7E
$GAGNS,173047.00,,,,,,06,,,,,*72
$GBGNS,173047.00,,,,,,14,,,,,*72
$GPLLQ,173047.00,010125,,M,,M,1,38,0.932,,M*14
$GPVTG,,T,,M,0.00,N,0.00,K,D*26
$GPHDT,,T*1B
$GPTHS,,V*0E
$GPROT,,V*08
$PSSN,HRP,173047.00,010125,,,,,,,00,0,,*67
$PTNL,AVR,173047.00,,Yaw,,Tilt,,,,0,,00*31
$GPGSA,A,3,05,16,18,20,23,25,26,27,28,29,31,,0.7,0.4,0.6*3A
$GPGSA,A,3,65,73,79,80,81,82,83,,,,,,0.7,0.4,0.6*3E
$GPGSA,A,3,13,15,21,27,30,34,,,,,,,0.7,0.4,0.6*33
$GPGSA,A,3,05,08,11,12,13,22,23,25,28,34,37,38,0.7,0.4,0.6*3F
$GPGSA,A,3,43,60,,,,,,,,,,,0.7,0.4,0.6*36
$GPGST,173047.00,0.709,0.446,0.333,358.424,0.446,0.333,0.747*57
$GPGBS,173047.00,2.658,1.956,5.502,16,0.0001,0.669,0.865*5D
$GPGRS,173047.00,1,-0.4,0.7,0.1,0.2,0.1,-0.8,0.0,-0.5,-0.1,0.1,-0.2,*45
$GPGRS,173047.00,1,0.0,-0.0,0.6,-1.4,1.0,-0.9,-2.0,,,,,*6F
$GPGRS,173047.00,1,0.6,0.2,-0.1,0.3,-0.5,-0.8,,,,,,*6E
$GPGRS,173047.00,1,0.9,0.4,-0.2,-0.2,-0.0,-0.5,-0.1,-0.0,-0.2,0.0,-0.3,-1.1*6D
$GPGRS,173047.00,1,0.7,-1.1,,,,,,,,,,*62
$GPGSV,5,1,20,18,77,163,49,05,26,054,43,25,16,141,38,28,19,213,41*70
$GPGSV,5,2,20,23,16,154,40,31,33,239,45,16,36,306,44,29,46,075,47*7A
$GPGSV,5,3,20,26,65,280,49,27,09,273,39,20,05,029,35,36,35,170,45*73
$GPGSV,5,4,20,58,13,245,37,40,23,133,36,34,31,208,42,49,34,195,44*7D
$GPGSV,5,5,20,57,08,111,38,41,07,108,34,61,03,257,38*48
$GLGSV,3,1,10,80,69,286,52,65,14,045,40,73,18,327,44,83,25,238,37*63
$GLGSV,3,2,10,79,42,172,51,81,55,035,52,82,67,263,51,66,04,091,41*64
$GLGSV,3,3,10,72,05,353,38,88,04,051,41*6F
$GAGSV,3,1,11,15,66,068,47,30,14,135,39,34,17,044,39,13,52,203,47*64
$GAGSV,3,2,11,21,56,301,47,27,65,148,48,23,06,311,,26,02,217,36*6C
$GAGSV,3,3,11,04,00,319,34,06,01,342,35,09,00,004,30*5A
$GBGSV,6,1,22,43,82,279,51,25,26,178,44,12,17,062,39,05,21,129,37*67
$GBGSV,6,2,22,38,30,044,44,60,10,109,39,28,19,248,43,07,13,098,*6D
$GBGSV,6,3,22,37,30,309,45,27,22,237,,08,40,056,42,31,41,056,*6C
$GBGSV,6,4,22,13,43,067,44,34,45,063,48,23,57,240,50,11,71,050,49*6C
$GBGSV,6,5,22,22,08,031,40,42,03,125,,02,07,106,34,50,10,102,*67
$GBGSV,6,6,22,56,04,083,,21,06,033,*62
$GPGGA,173047.00,,,,,0,00,,,M,,M,,*4E
$PTNL,GGK,173047.00,010125,4742.1599486,N,01618.1004482,E,1,38,0.7,EHT751.1941,M*40
$GPGGQ,173047.00,010125,4742.1599486,N,01618.1004482,E,1,38,0.932,707.9875,M*3C
$GPGFA,173047.00,4.244,6.126,0.446,0.333,358.424,0.747,,VVV*0D
$GPLLK,173047.00,010125,,M,,M,1,38,0.8,,M*0E
$GNGMP,173047.00,,,,,DAAA,38,0.4,,,,*5F
$GPGMP,173047.00,,,,,,11,,,,3.2,136*7E
$GLGMP,173047.00,,,,,,07,,,,,*7E
$GAGMP,173047.00,,,,,,06,,,,,*72
$GBGMP,173047.00,,,,,,14,,,,,*72
$PSSN,SNC,[0,322265000,2347]*46
$GPZDA,173052.00,01,01,2025,,*61
$GPDTM,W84,,00.0000000,N,00.0000000,E,00.0000000,W84*5F
$PSSN,TFM,173052.00,,,,*6D
$GPRMC,173052.00,A,4742.1599444,N,01618.1004506,E,0.0,,010125,5.1,E,D*12
$GPGLL,4742.1599444,N,01618.1004506,E,173052.00,A,D*63
$GPGGA,173052.00,4742.1599444,N,01618.1004506,E,2,38,0.4,707.9839,M,43.2066,M,3.0,0136*48
$GNGNS,173052.00,4742.1599444,N,01618.1004506,E,DAAA,38,0.4,707.9839,43.2066,,*53
$GPGNS,173052.00,,,,,,11,,,,3.0,136*78
$GLGNS,173052.00,,,,,,07,,,,,*7A
$GAGNS,173052.00,,,,,,06,,,,,*76
$GBGNS,173052.00,,,,,,14,,,,,*76
$GPLLQ,173052.00,010125,,M,,M,1,38,0.944,,M*11
$GPVTG,,T,,M,0.01,N,0.01,K,D*26
$GPHDT,,T*1B
$GPTHS,,V*0E
$GPROT,,V*08
$PSSN,HRP,173052.00,010125,,,,,,,00,0,,*63
$PTNL,AVR,173052.00,,Yaw,,Tilt,,,,0,,00*35
$GPGSA,A,3,05,16,18,20,23,25,26,27,28,29,31,,0.7,0.4,0.6*3A
$GPGSA,A,3,65,73,79,80,81,82,83,,,,,,0.7,0.4,0.6*3E
$GPGSA,A,3,13,15,21,27,30,34,,,,,,,0.7,0.4,0.6*33
$GPGSA,A,3,05,08,11,12,13,22,23,25,28,34,37,38,0.7,0.4,0.6*3F
$GPGSA,A,3,43,60,,,,,,,,,,,0.7,0.4,0.6*36
$GPGST,173052.00,0.773,0.450,0.334,357.134,0.450,0.334,0.759*5A
$GPGBS,173052.00,2.693,1.966,5.573,16,0.0001,0.631,0.880*5D
$GPGRS,173052.00,1,-0.0,0.6,0.1,0.4,-0.2,-0.7,0.1,0.4,-0.2,-0.2,-0.0,*61
$GPGRS,173052.00,1,0.2,0.0,0.5,-1.2,1.3,-1.2,-2.1,,,,,*49
$GPGRS,173052.00,1,0.7,0.3,-0.0,0.4,-0.4,-0.8,,,,,,*6D
$GPGRS,173052.00,1,0.8,0.5,-0.3,1.0,-0.4,-0.6,-0.2,-0.1,-0.7,0.3,-0.0,-1.1*46
$GPGRS,173052.00,1,0.8,-1.2,,,,,,,,,,*6A
$GPGSV,5,1,20,18,77,163,50,05,26,054,43,25,16,141,38,28,19,213,41*78
$GPGSV,5,2,20,23,16,154,40,31,33,239,45,16,36,306,44,29,45,075,47*79
$GPGSV,5,3,20,26,65,280,49,27,09,273,37,20,05,029,36,36,35,170,45*7E
$GPGSV,5,4,20,58,13,245,37,40,23,133,36,34,31,208,42,49,34,195,44*7D
$GPGSV,5,5,20,57,08,111,37,41,07,108,34,61,03,257,38*47
$GLGSV,3,1,10,80,69,286,52,65,14,045,40,73,18,327,45,83,25,238,38*6D
$GLGSV,3,2,10,79,42,172,51,81,54,035,52,82,67,263,52,66,04,091,41*66
$GLGSV,3,3,10,72,05,353,37,88,04,051,41*60
$GAGSV,3,1,11,15,66,068,47,30,14,135,39,34,16,044,39,13,52,203,47*65
$GAGSV,3,2,11,21,56,301,47,27,65,148,49,23,06,311,,26,03,217,37*6D
$GAGSV,3,3,11,04,00,319,35,06,01,342,33,09,00,004,30*5D
$GBGSV,6,1,22,43,82,279,51,25,26,178,45,12,17,062,39,05,21,129,37*66
$GBGSV,6,2,22,38,30,044,44,60,10,109,39,27,22,237,,07,13,098,*65
$GBGSV,6,3,22,37,30,309,45,28,19,248,43,08,40,056,41,31,41,056,*67
$GBGSV,6,4,22,13,43,067,44,34,45,063,48,23,57,240,50,11,71,050,49*6C
$GBGSV,6,5,22,22,08,031,40,42,03,125,,02,07,106,33,50,10,102,*60
$GBGSV,6,6,22,56,04,083,,21,06,033,*62
$GPGGA,173052.00,,,,,0,00,,,M,,M,,*4A
$PTNL,GGK,173052.00,010125,4742.1599444,N,01618.1004506,E,1,38,0.7,EHT751.1905,M*47
$GPGGQ,173052.00,010125,4742.1599444,N,01618.1004506,E,1,38,0.944,707.9839,M*32
$GPGFA,173052.00,4.283,6.223,0.450,0.334,357.134,0.759,,VVV*00
$GPLLK,173052.00,010125,,M,,M,1,38,0.8,,M*0A
$GNGMP,173052.00,,,,,DAAA,38,0.4,,,,*5B
$GPGMP,173052.00,,,,,,11,,,,3.0,136*78
$GLGMP,173052.00,,,,,,07,,,,,*7A
$GAGMP,173052.00,,,,,,06,,,,,*76
$GBGMP,173052.00,,,,,,14,,,,,*76
$PSSN,SNC,[0,322270000,2347]*42
$GPZDA,173057.00,01,01,2025,,*64
$GPDTM,W84,,00.0000000,N,00.0000000,E,00.0000000,W84*5F
$PSSN,TFM,173057.00,,,,*68
$GPRMC,173057.00,A,4742.1599435,N,01618.1004569,E,0.0,,010125,5.1,E,D*18
$GPGLL,4742.1599435,N,01618.1004569,E,173057.00,A,D*69
$GPGGA,173057.00,4742.1599435,N,01618.1004569,E,2,38,0.4,707.9802,M,43.2066,M,1.6,0136*4E
$GNGNS,173057.00,4742.1599435,N,01618.1004569,E,DAAA,38,0.4,707.9802,43.2066,,*51
$GPGNS,173057.00,,,,,,11,,,,1.6,136*79
$GLGNS,173057.00,,,,,,07,,,,,*7F
$GAGNS,173057.00,,,,,,06,,,,,*73
$GBGNS,173057.00,,,,,,14,,,,,*73
$GPLLQ,173057.00,010125,,M,,M,1,38,0.936,,M*11
$GPVTG,,T,,M,0.00,N,0.01,K,D*27
$GPHDT,,T*1B
$GPTHS,,V*0E
$GPROT,,V*08
$PSSN,HRP,173057.00,010125,,,,,,,00,0,,*66
$PTNL,AVR,173057.00,,Yaw,,Tilt,,,,0,,00*30
$GPGSA,A,3,05,16,18,20,23,25,26,27,28,29,31,,0.7,0.4,0.6*3A
$GPGSA,A,3,65,73,79,80,81,82,83,,,,,,0.7,0.4,0.6*3E
$GPGSA,A,3,13,15,21,27,30,34,,,,,,,0.7,0.4,0.6*33
$GPGSA,A,3,05,08,11,12,13,22,23,25,28,34,37,38,0.7,0.4,0.6*3F
$GPGSA,A,3,43,60,,,,,,,,,,,0.7,0.4,0.6*36
$GPGST,173057.00,0.925,0.448,0.330,357.328,0.448,0.330,0.752*56
$GPGBS,173057.00,2.653,1.960,5.384,31,0.0001,0.524,0.794*54
$GPGRS,173057.00,1,-0.2,0.4,0.1,0.9,-0.3,-0.3,-0.1,-0.5,0.1,-0.4,0.5,*6D
$GPGRS,173057.00,1,0.7,2.2,0.6,-1.3,0.7,-1.2,-2.4,,,,,*4B
$GPGRS,173057.00,1,0.6,0.1,-0.3,0.2,-0.9,-0.7,,,,,,*6C
$GPGRS,173057.00,1,0.9,0.4,-0.4,1.0,-0.7,-0.8,-0.4,0.1,-0.8,-0.1,0.1,-1.5*6A
$GPGRS,173057.00,1,0.6,-1.1,,,,,,,,,,*62
$GPGSV,5,1,20,18,77,163,49,05,26,054,42,25,16,141,39,28,19,213,41*70
$GPGSV,5,2,20,23,16,154,40,31,33,239,45,16,36,306,44,29,45,075,46*78
$GPGSV,5,3,20,26,65,280,49,27,09,273,38,20,05,029,35,36,35,170,45*72
$GPGSV,5,4,20,58,13,245,36,40,23,133,36,34,31,208,42,49,34,195,44*7C
$GPGSV,5,5,20,57,08,111,38,41,07,108,34,61,03,257,38*48
$GLGSV,3,1,10,80,69,286,52,65,14,045,40,73,18,327,45,83,25,238,38*6D
$GLGSV,3,2,10,79,42,172,51,81,54,035,52,82,67,263,51,66,04,091,41*65
$GLGSV,3,3,10,72,05,353,37,88,04,051,41*60
$GAGSV,3,1,11,15,66,068,47,30,14,135,39,34,16,044,40,13,52,203,47*6B
$GAGSV,3,2,11,21,56,301,47,27,65,148,49,23,06,311,,26,03,217,36*6C
$GAGSV,3,3,11,04,00,319,35,06,01,342,34,09,00,004,29*52
$GBGSV,6,1,22,43,82,279,51,25,26,178,45,12,17,062,40,05,21,129,37*68
$GBGSV,6,2,22,38,30,044,44,60,10,109,39,27,22,237,,07,13,098,*65
$GBGSV,6,3,22,37,30,309,45,28,19,248,43,08,40,056,42,31,41,056,*64
$GBGSV,6,4,22,13,43,067,44,34,45,063,48,23,57,240,50,11,71,050,49*6C
$GBGSV,6,5,22,22,08,031,40,42,03,125,,02,07,106,34,50,10,102,*67
$GBGSV,6,6,22,56,04,083,,21,06,032,*63
$GPGGA,173057.00,,,,,0,00,,,M,,M,,*4F
$PTNL,GGK,173057.00,010125,4742.1599435,N,01618.1004569,E,1,38,0.7,EHT751.1867,M*48
$GPGGQ,173057.00,010125,4742.1599435,N,01618.1004569,E,1,38,0.936,707.9802,M*35
$GPGFA,173057.00,4.260,6.168,0.448,0.330,357.328,0.752,,VVV*0D
$GPLLK,173057.00,010125,,M,,M,1,38,0.8,,M*0F
$GNGMP,173057.00,,,,,DAAA,38,0.4,,,,*5E
$GPGMP,173057.00,,,,,,11,,,,1.6,136*79
$GLGMP,173057.00,,,,,,07,,,,,*7F
$GAGMP,173057.00,,,,,,06,,,,,*73
$GBGMP,173057.00,,,,,,14,,,,,*73
$PSSN,SNC,[0,322275000,2347]*47
$GPZDA,173102.00,01,01,2025,,*65
$GPDTM,W84,,00.0000000,N,00.0000000,E,00.0000000,W84*5F
$PSSN,TFM,173102.00,,,,*69
$GPRMC,173102.00,A,4742.1599439,N,01618.1004624,E,0.0,,010125,5.1,E,D*1F
$GPGLL,4742.1599439,N,01618.1004624,E,173102.00,A,D*6E
$GPGGA,173102.00,4742.1599439,N,01618.1004624,E,2,37,0.4,707.9833,M,43.2066,M,2.2,0136*43
$GNGNS,173102.00,4742.1599439,N,01618.1004624,E,DAAA,37,0.4,707.9833,43.2066,,*5B
$GPGNS,173102.00,,,,,,10,,,,2.2,136*7E
$GLGNS,173102.00,,,,,,07,,,,,*7E
$GAGNS,173102.00,,,,,,06,,,,,*72
$GBGNS,173102.00,,,,,,14,,,,,*72
$GPLLQ,173102.00,010125,,M,,M,1,37,0.929,,M*11
$GPVTG,,T,,M,0.00,N,0.01,K,D*27
$GPHDT,,T*1B
$GPTHS,,V*0E
$GPROT,,V*08
$PSSN,HRP,173102.00,010125,,,,,,,00,0,,*67
$PTNL,AVR,173102.00,,Yaw,,Tilt,,,,0,,00*31
$GPGSA,A,3,05,16,18,23,25,26,27,28,29,31,,,0.8,0.4,0.6*37
$GPGSA,A,3,65,73,79,80,81,82,83,,,,,,0.8,0.4,0.6*31
$GPGSA,A,3,13,15,21,27,30,34,,,,,,,0.8,0.4,0.6*3C
$GPGSA,A,3,05,08,11,12,13,22,23,25,28,34,37,38,0.8,0.4,0.6*30
$GPGSA,A,3,43,60,,,,,,,,,,,0.8,0.4,0.6*39
$GPGST,173102.00,0.798,0.448,0.330,359.604,0.448,0.330,0.744*5D
$GPGBS,173102.00,2.707,1.955,5.518,16,0.0001,0.576,0.851*54
$GPGRS,173102.00,1,-0.3,0.6,-0.2,0.3,-0.5,0.1,-0.2,0.1,-0.5,0.5,,*66
$GPGRS,173102.00,1,-1.3,1.6,0.2,-1.3,0.4,-1.1,-1.0,,,,,*66
$GPGRS,173102.00,1,0.4,0.2,-0.1,0.1,-1.0,-0.5,,,,,,*67
$GPGRS,173102.00,1,0.7,0.9,-0.2,0.9,-0.7,-0.5,-0.3,0.1,-1.0,-0.1,0.3,-1.3*61
$GPGRS,173102.00,1,0.6,-1.3,,,,,,,,,,*61
$GPGSV,5,1,20,18,77,163,49,05,26,054,42,25,16,141,38,28,19,213,41*71
$GPGSV,5,2,20,23,16,154,40,31,33,239,45,16,36,306,44,29,45,075,46*78
$GPGSV,5,3,20,26,65,280,49,27,09,273,38,20,05,029,35,36,35,170,45*72
$GPGSV,5,4,20,58,13,245,37,40,23,133,36,34,31,208,42,49,34,195,44*7D
$GPGSV,5,5,20,57,08,111,38,41,07,108,34,61,03,257,38*48
$GLGSV,3,1,10,80,69,286,52,65,14,045,40,73,18,327,45,83,25,238,37*62
$GLGSV,3,2,10,79,42,172,51,81,54,035,51,82,67,263,51,66,04,091,41*66
$GLGSV,3,3,10,72,05,353,36,88,04,051,41*61
$GAGSV,3,1,11,15,66,068,47,30,14,135,39,34,16,044,40,13,52,203,47*6B
$GAGSV,3,2,11,21,56,301,47,27,65,148,48,23,06,311,,26,03,217,36*6D
$GAGSV,3,3,11,04,00,319,35,06,01,342,34,09,00,004,28*53
$GBGSV,6,1,22,43,82,279,51,25,26,178,45,12,17,062,40,05,21,129,37*68
$GBGSV,6,2,22,38,30,044,44,60,10,109,39,07,13,098,,27,22,237,*65
$GBGSV,6,3,22,37,30,309,45,28,19,248,43,08,40,056,42,31,41,056,*64
$GBGSV,6,4,22,13,43,067,44,34,45,063,47,23,57,240,50,11,71,050,49*63
$GBGSV,6,5,22,22,08,031,40,42,03,125,,02,07,106,34,50,10,102,*67
$GBGSV,6,6,22,56,04,083,,21,06,032,*63
$GPGGA,173102.00,,,,,0,00,,,M,,M,,*4E
$PTNL,GGK,173102.00,010125,4742.1599439,N,01618.1004624,E,1,37,0.8,EHT751.1899,M*4E
$GPGGQ,173102.00,010125,4742.1599439,N,01618.1004624,E,1,37,0.929,707.9833,M*31
$GPGFA,173102.00,4.259,6.105,0.448,0.330,359.604,0.744,,VVV*0F
$GPLLK,173102.00,010125,,M,,M,1,37,0.9,,M*00
$GNGMP,173102.00,,,,,DAAA,37,0.4,,,,*50
$GPGMP,173102.00,,,,,,10,,,,2.2,136*7E
$GLGMP,173102.00,,,,,,07,,,,,*7E
$GAGMP,173102.00,,,,,,06,,,,,*72
$GBGMP,173102.00,,,,,,14,,,,,*72
$PSSN,SNC,[0,322280000,2347]*4D
$GPZDA,173107.00,01,01,2025,,*60
$GPDTM,W84,,00.0000000,N,00.0000000,E,00.0000000,W84*5F
$PSSN,TFM,173107.00,,,,*6C
$GPRMC,173107.00,A,4742.1599431,N,01618.1004686,E,0.0,,010125,5.1,E,D*1A
$GPGLL,4742.1599431,N,01618.1004686,E,173107.00,A,D*6B
$GPGGA,173107.00,4742.1599431,N,01618.1004686,E,2,38,0.4,707.9812,M,43.2066,M,3.2,0136*4B
$GNGNS,173107.00,4742.1599431,N,01618.1004686,E,DAAA,38,0.4,707.9812,43.2066,,*52
$GPGNS,173107.00,,,,,,11,,,,3.2,136*7B
$GLGNS,173107.00,,,,,,07,,,,,*7B
$GAGNS,173107.00,,,,,,06,,,,,*77
$GBGNS,173107.00,,,,,,14,,,,,*77
$GPLLQ,173107.00,010125,,M,,M,1,38,0.936,,M*15
$GPVTG,,T,,M,0.00,N,0.01,K,D*27
$GPHDT,,T*1B
$GPTHS,,V*0E
$GPROT,,V*08
$PSSN,HRP,173107.00,010125,,,,,,,00,0,,*62
$PTNL,AVR,173107.00,,Yaw,,Tilt,,,,0,,00*34
$GPGSA,A,3,05,16,18,20,23,25,26,27,28,29,31,,0.7,0.4,0.6*3A
$GPGSA,A,3,65,73,79,80,81,82,83,,,,,,0.7,0.4,0.6*3E
$GPGSA,A,3,13,15,21,27,30,34,,,,,,,0.7,0.4,0.6*33
$GPGSA,A,3,05,08,11,12,13,22,23,25,28,34,37,38,0.7,0.4,0.6*3F
$GPGSA,A,3,43,60,,,,,,,,,,,0.7,0.4,0.6*36
$GPGST,173107.00,0.724,0.449,0.334,358.934,0.449,0.334,0.750*57
$GPGBS,173107.00,2.655,1.958,5.491,16,0.0001,0.439,0.864*56
$GPGRS,173107.00,1,-0.1,0.4,0.1,1.1,0.2,-0.3,-0.1,-0.2,-0.2,-0.2,-0.0,*48
$GPGRS,173107.00,1,-0.7,0.8,0.0,-1.2,0.4,-0.8,-1.3,,,,,*61
$GPGRS,173107.00,1,0.6,0.3,-0.1,0.2,-0.7,-0.5,,,,,,*64
$GPGRS,173107.00,1,1.1,1.2,0.2,0.6,-0.6,-1.1,0.0,-0.2,-0.8,0.0,-0.1,-1.1*47
$GPGRS,173107.00,1,0.7,-1.2,,,,,,,,,,*64
$GPGSV,5,1,20,18,77,163,49,05,26,054,43,25,15,141,39,28,19,213,41*72
$GPGSV,5,2,20,23,16,154,41,31,32,239,45,16,36,306,44,29,45,075,47*79
$GPGSV,5,3,20,26,65,280,49,27,10,273,38,20,05,029,35,36,35,170,45*7A
$GPGSV,5,4,20,58,13,245,37,40,23,133,36,34,31,208,42,49,34,195,44*7D
$GPGSV,5,5,20,57,08,111,37,41,07,108,34,61,03,257,38*47
$GLGSV,3,1,10,80,69,286,52,65,14,045,41,73,18,327,45,83,25,238,37*63
$GLGSV,3,2,10,79,42,172,51,81,54,035,52,82,67,263,51,66,04,091,42*66
$GLGSV,3,3,10,72,05,353,37,88,04,051,42*63
$GAGSV,3,1,11,15,66,068,47,30,14,135,39,34,16,044,40,13,52,203,47*6B
$GAGSV,3,2,11,21,56,301,47,27,65,148,49,23,06,311,,26,03,217,36*6C
$GAGSV,3,3,11,04,00,319,34,06,01,342,35,09,00,004,30*5A
$GBGSV,6,1,22,43,82,279,51,25,26,178,45,12,17,062,40,05,21,129,37*68
$GBGSV,6,2,22,38,30,044,44,60,10,109,39,07,13,098,,27,22,237,*65
$GBGSV,6,3,22,37,30,309,45,28,19,248,43,08,40,056,42,31,41,056,*64
$GBGSV,6,4,22,13,43,067,44,34,45,063,48,23,57,240,50,11,71,050,49*6C
$GBGSV,6,5,22,22,08,031,40,42,03,125,,02,07,106,34,50,10,102,*67
$GBGSV,6,6,22,56,04,083,,21,06,032,*63
$GPGGA,173107.00,,,,,0,00,,,M,,M,,*4B
$PTNL,GGK,173107.00,010125,4742.1599431,N,01618.1004686,E,1,38,0.7,EHT751.1877,M*4B
$GPGGQ,173107.00,010125,4742.1599431,N,01618.1004686,E,1,38,0.936,707.9812,M*36
$GPGFA,173107.00,4.273,6.153,0.449,0.334,358.934,0.750,,VVV*0C
$GPLLK,173107.00,010125,,M,,M,1,38,0.8,,M*0B
$GNGMP,173107.00,,,,,DAAA,38,0.4,,,,*5A
$GPGMP,173107.00,,,,,,11,,,,3.2,136*7B
$GLGMP,173107.00,,,,,,07,,,,,*7B
$GAGMP,173107.00,,,,,,06,,,,,*77
$GBGMP,173107.00,,,,,,14,,,,,*77
$PSSN,SNC,[0,322285000,2347]*48
$GPZDA,173112.00,01,01,2025,,*64
$GPDTM,W84,,00.0000000,N,00.0000000,E,00.0000000,W84*5F
$PSSN,TFM,173112.00,,,,*68
$GPRMC,173112.00,A,4742.1599436,N,01618.1004662,E,0.0,,010125,5.1,E,D*13
$GPGLL,4742.1599436,N,01618.1004662,E,173112.00,A,D*62
$GPGGA,173112.00,4742.1599436,N,01618.1004662,E,2,37,0.4,707.9847,M,43.2066,M,3.0,0136*4F
$GNGNS,173112.00,4742.1599436,N,01618.1004662,E,DAAA,37,0.4,707.9847,43.2066,,*54
$GPGNS,173112.00,,,,,,10,,,,3.0,136*7C
$GLGNS,173112.00,,,,,,07,,,,,*7F
$GAGNS,173112.00,,,,,,06,,,,,*73
$GBGNS,173112.00,,,,,,14,,,,,*73
$GPLLQ,173112.00,010125,,M,,M,1,37,0.948,,M*17
$GPVTG,,T,,M,0.01,N,0.01,K,D*26
$GPHDT,,T*1B
$GPTHS,,V*0E
$GPROT,,V*08
$PSSN,HRP,173112.00,010125,,,,,,,00,0,,*66
$PTNL,AVR,173112.00,,Yaw,,Tilt,,,,0,,00*30
$GPGSA,A,3,05,16,18,23,25,26,27,28,29,31,,,0.8,0.4,0.6*37
$GPGSA,A,3,65,73,79,80,81,82,83,,,,,,0.8,0.4,0.6*31
$GPGSA,A,3,13,15,21,27,30,34,,,,,,,0.8,0.4,0.6*3C
$GPGSA,A,3,05,08,11,12,13,22,23,25,28,34,37,38,0.8,0.4,0.6*30
$GPGSA,A,3,43,60,,,,,,,,,,,0.8,0.4,0.6*39
$GPGST,173112.00,0.750,0.454,0.331,356.848,0.454,0.331,0.764*53
$GPGBS,173112.00,2.741,1.975,5.656,23,0.0001,0.562,1.114*56
$GPGRS,173112.00,1,0.0,-0.0,-0.1,0.6,0.3,-0.3,-0.3,0.1,-0.0,0.2,,*63
$GPGRS,173112.00,1,0.4,0.8,0.3,-0.9,0.6,-0.8,-1.9,,,,,*4A
$GPGRS,173112.00,1,0.4,0.3,-0.2,0.2,-0.4,-0.8,,,,,,*6F
$GPGRS,173112.00,1,1.0,1.2,0.1,0.3,-0.7,-1.1,-0.1,-0.2,-1.0,-0.0,-0.1,-1.3*4F
$GPGRS,173112.00,1,0.6,-1.2,,,,,,,,,,*61
$GPGSV,5,1,20,18,77,163,49,05,26,054,43,25,15,141,39,28,19,213,42*71
$GPGSV,5,2,20,23,16,154,41,31,32,239,45,16,36,306,45,29,45,075,47*78
$GPGSV,5,3,20,26,65,280,49,27,10,273,37,20,05,029,35,36,35,170,45*75
$GPGSV,5,4,20,58,13,245,37,40,23,133,36,34,31,208,42,49,34,195,44*7D
$GPGSV,5,5,20,57,08,111,38,41,07,108,34,61,03,257,38*48
$GLGSV,3,1,10,80,69,286,52,65,14,045,39,73,18,327,45,83,25,238,37*6C
$GLGSV,3,2,10,79,42,172,51,81,54,035,51,82,67,263,51,66,04,091,42*65
$GLGSV,3,3,10,72,05,353,36,88,04,051,43*63
$GAGSV,3,1,11,15,66,068,47,30,14,135,39,34,16,044,40,13,52,203,47*6B
$GAGSV,3,2,11,21,56,301,47,27,65,148,48,23,06,311,,26,03,217,36*6D
$GAGSV,3,3,11,04,00,319,33,06,01,342,38,09,00,004,31*51
$GBGSV,6,1,22,43,82,279,51,25,26,178,45,12,17,062,39,05,21,129,37*66
$GBGSV,6,2,22,38,30,044,43,60,10,109,39,07,13,098,,27,22,237,*62
$GBGSV,6,3,22,37,30,309,45,28,19,248,43,08,40,056,42,31,41,056,*64
$GBGSV,6,4,22,13,43,067,44,34,45,063,48,23,57,240,50,11,71,050,49*6C
$GBGSV,6,5,22,22,08,031,39,42,03,125,,02,07,106,34,50,10,102,*69
$GBGSV,6,6,22,56,04,083,,21,06,032,*63
$GPGGA,173112.00,,,,,0,00,,,M,,M,,*4F
$PTNL,GGK,173112.00,010125,4742.1599436,N,01618.1004662,E,1,37,0.8,EHT751.1912,M*40
$GPGGQ,173112.00,010125,4742.1599436,N,01618.1004662,E,1,37,0.948,707.9847,M*39
$GPGFA,173112.00,4.318,6.264,0.454,0.331,356.848,0.764,,VVV*09
$GPLLK,173112.00,010125,,M,,M,1,37,0.9,,M*01
$GNGMP,173112.00,,,,,DAAA,37,0.4,,,,*51
$GPGMP,173112.00,,,,,,10,,,,3.0,136*7C
$GLGMP,173112.00,,,,,,07,,,,,*7F
$GAGMP,173112.00,,,,,,06,,,,,*73
$GBGMP,173112.00,,,,,,14,,,,,*73
$PSSN,SNC,[0,322290000,2347]*4C
$GPZDA,173117.00,01,01,2025,,*61
$GPDTM,W84,,00.0000000,N,00.0000000,E,00.0000000,W84*5F
$PSSN,TFM,173117.00,,,,*6D
$GPRMC,173117.00,A,4742.1599452,N,01618.1004684,E,0.0,,010125,5.1,E,D*1C
$GPGLL,4742.1599452,N,01618.1004684,E,173117.00,A,D*6D
$GPGGA,173117.00,4742.1599452,N,01618.1004684,E,2,37,0.4,707.9859,M,43.2066,M,1.6,0136*4B
$GNGNS,173117.00,4742.1599452,N,01618.1004684,E,DAAA,37,0.4,707.9859,43.2066,,*54
$GPGNS,173117.00,,,,,,10,,,,1.6,136*7D
$GLGNS,173117.00,,,,,,07,,,,,*7A
$GAGNS,173117.00,,,,,,06,,,,,*76
$GBGNS,173117.00,,,,,,14,,,,,*76
$GPLLQ,173117.00,010125,,M,,M,1,37,0.940,,M*1A
$GPVTG,,T,,M,0.00,N,0.01,K,D*27
$GPHDT,,T*1B
$GPTHS,,V*0E
$GPROT,,V*08
$PSSN,HRP,173117.00,010125,,,,,,,00,0,,*63
$PTNL,AVR,173117.00,,Yaw,,Tilt,,,,0,,00*35
$GPGSA,A,3,05,16,18,23,25,26,27,28,29,31,,,0.8,0.4,0.6*37
$GPGSA,A,3,65,73,79,80,81,82,83,,,,,,0.8,0.4,0.6*31
$GPGSA,A,3,13,15,21,27,30,34,,,,,,,0.8,0.4,0.6*3C
$GPGSA,A,3,05,08,11,12,13,22,23,25,28,34,37,38,0.8,0.4,0.6*30
$GPGSA,A,3,43,60,,,,,,,,,,,0.8,0.4,0.6*39
$GPGST,173117.00,0.944,0.452,0.327,357.071,0.451,0.327,0.757*5D
$GPGBS,173117.00,2.698,1.971,5.455,31,0.0001,0.547,0.795*59
$GPGRS,173117.00,1,-0.4,0.3,0.1,0.5,-0.4,-0.0,-0.3,-0.1,-0.3,0.5,,*4F
$GPGRS,173117.00,1,-0.9,1.4,0.5,-1.6,0.5,-1.1,-2.9,,,,,*62
$GPGRS,173117.00,1,0.6,0.3,-0.1,0.0,-0.3,-1.0,,,,,,*67
$GPGRS,173117.00,1,0.5,1.1,-0.3,0.3,-0.7,-1.0,-0.2,0.2,-1.2,-0.2,-0.3,-1.4*48
$GPGRS,173117.00,1,0.6,-1.2,,,,,,,,,,*64
$GPGSV,5,1,20,18,77,163,49,05,26,054,43,25,15,141,38,28,19,213,41*73
$GPGSV,5,2,20,23,16,154,41,31,32,238,45,16,36,306,45,29,45,075,46*78
$GPGSV,5,3,20,26,65,280,49,27,10,273,39,20,05,029,34,36,35,170,45*7A
$GPGSV,5,4,20,58,13,245,37,40,23,133,36,34,31,208,42,49,34,195,44*7D
$GPGSV,5,5,20,57,08,111,38,41,07,108,34,61,03,257,38*48
$GLGSV,3,1,10,80,69,286,52,65,14,045,39,73,18,327,45,83,25,238,38*63
$GLGSV,3,2,10,79,42,172,51,81,54,035,52,82,67,263,51,66,04,091,42*66
$GLGSV,3,3,10,72,05,353,38,88,04,051,42*6C
$GAGSV,3,1,11,15,66,068,47,30,14,135,39,34,16,044,40,13,52,203,47*6B
