$GPZDA,211442.00,01,01,2025,,*63
$GPDTM,W84,,00.0000000,N,00.0000000,E,00.0000000,W84*5F
$PSSN,TFM,211442.00,,,,*6F
$GPRMC,211442.00,A,4742.1604130,N,01618.1003710,E,0.0,,010125,5.1,E,D*13
$GPGLL,4742.1604130,N,01618.1003710,E,211442.00,A,D*62
$GPGGA,211442.00,4742.1604130,N,01618.1003710,E,2,37,0.4,708.6930,M,43.2066,M,2.9,0136*46
$GNGNS,211442.00,4742.1604130,N,01618.1003710,E,DAAA,37,0.4,708.6930,43.2066,,*55
$GPGNS,211442.00,,,,,,08,,,,2.9,136*7A
$GLGNS,211442.00,,,,,,09,,,,,*76
$GAGNS,211442.00,,,,,,08,,,,,*7A
$GBGNS,211442.00,,,,,,12,,,,,*72
$GPLLQ,211442.00,010125,,M,,M,1,37,0.964,,M*1E
$GPVTG,,T,,M,0.00,N,0.01,K,D*27
$GPHDT,,T*1B
$GPTHS,,V*0E
$GPROT,,V*08
$PSSN,HRP,211442.00,010125,,,,,,,00,0,,*61
$PTNL,AVR,211442.00,,Yaw,,Tilt,,,,0,,00*37
$GPGSA,A,3,02,08,10,16,21,23,27,32,,,,,0.8,0.4,0.6*32
$GPGSA,A,3,67,68,69,74,75,82,83,84,85,,,,0.8,0.4,0.6*39
$GPGSA,A,3,03,07,08,13,21,26,31,33,,,,,0.8,0.4,0.6*33
$GPGSA,A,3,05,08,13,14,27,28,33,36,41,42,43,60,0.8,0.4,0.6*3A
$GPGST,211442.00,2.079,0.505,0.335,12.829,0.498,0.345,0.750*6B
$GPGBS,211442.00,3.733,2.289,4.274,67,0.0001,6.287,6.215*54
$GPGRS,211442.00,1,0.2,0.4,0.1,-0.0,-0.4,-0.4,-0.3,0.1,,,,*4B
$GPGRS,211442.00,1,6.3,5.5,0.3,-5.0,-3.6,-1.6,-0.9,-2.6,2.3,,,*40
$GPGRS,211442.00,1,0.5,-0.0,0.0,0.4,-0.0,0.1,-0.1,-0.3,,,,*4C
$GPGRS,211442.00,1,1.4,-0.2,0.0,-0.1,-0.1,-0.2,-0.9,-0.1,-0.4,-0.2,-0.6,-1.1*43
$GPGSV,5,1,18,10,71,079,51,16,17,194,40,32,23,134,43,02,20,275,42*77
$GPGSV,5,2,18,23,30,050,44,21,40,280,43,27,70,159,51,08,67,288,50*7F
$GPGSV,5,3,18,18,02,083,36,36,35,170,44,58,13,245,37,57,11,108,37*71
$GPGSV,5,4,18,34,31,208,42,40,24,132,36,49,34,195,44,41,07,108,34*74
$GPGSV,5,5,18,61,03,257,37*40
$GLGSV,3,1,10,68,54,091,51,69,30,158,49,67,25,032,47,75,23,317,47*69
$GLGSV,3,2,10,74,24,260,42,83,45,076,41,84,53,317,40,73,04,222,42*63
$GLGSV,3,3,10,82,08,097,41,85,06,291,44*6C
$GAGSV,3,1,09,26,72,299,48,03,10,030,38,07,19,134,39,21,19,196,39*6A
$GAGSV,3,2,09,33,24,269,41,08,28,079,42,31,26,312,41,23,43,251,*67
$GAGSV,3,3,09,13,46,069,45*5F
$GBGSV,6,1,21,28,78,087,51,41,34,172,46,08,16,042,36,60,11,108,40*62
$GBGSV,6,2,21,05,23,128,39,42,22,042,43,31,16,066,,43,15,111,42*6F
$GBGSV,6,3,21,13,24,046,40,46,15,273,,58,23,265,,57,36,239,*6D
$GBGSV,6,4,21,27,52,298,49,14,43,062,46,33,56,101,49,30,04,294,38*6F
$GBGSV,6,5,21,38,03,046,34,50,01,030,,37,02,224,37,36,09,322,40*6C
$GBGSV,6,6,21,02,08,105,34*51
$GPGGA,211442.00,,,,,0,00,,,M,,M,,*48
$PTNL,GGK,211442.00,010125,4742.1604130,N,01618.1003710,E,1,37,0.8,EHT751.8995,M*46
$GPGGQ,211442.00,010125,4742.1604130,N,01618.1003710,E,1,37,0.964,708.6930,M*36
$GPGFA,211442.00,4.800,6.146,0.505,0.335,12.829,0.750,,VVV*3D
$GPLLK,211442.00,010125,,M,,M,1,37,0.9,,M*06
$GNGMP,211442.00,,,,,DAAA,37,0.4,,,,*56
$GPGMP,211442.00,,,,,,08,,,,2.9,136*7A
$GLGMP,211442.00,,,,,,09,,,,,*76
$GAGMP,211442.00,,,,,,08,,,,,*7A
$GBGMP,211442.00,,,,,,12,,,,,*72
$PSSN,SNC,[0,335700000,2347]*46
$GPZDA,211447.00,01,01,2025,,*66
$GPDTM,W84,,00.0000000,N,00.0000000,E,00.0000000,W84*5F
$PSSN,TFM,211447.00,,,,*6A
$GPRMC,211447.00,A,4742.1604128,N,01618.1003710,E,0.0,,010125,5.1,E,D*1F
$GPGLL,4742.1604128,N,01618.1003710,E,211447.00,A,D*6E
$GPGGA,211447.00,4742.1604128,N,01618.1003710,E,2,37,0.4,708.6965,M,43.2066,M,1.9,0136*49
$GNGNS,211447.00,4742.1604128,N,01618.1003710,E,DAAA,37,0.4,708.6965,43.2066,,*59
$GPGNS,211447.00,,,,,,08,,,,1.9,136*7C
$GLGNS,211447.00,,,,,,09,,,,,*73
$GAGNS,211447.00,,,,,,08,,,,,*7F
$GBGNS,211447.00,,,,,,12,,,,,*77
$GPLLQ,211447.00,010125,,M,,M,1,37,0.946,,M*1B
$GPVTG,,T,,M,0.00,N,0.01,K,D*27
$GPHDT,,T*1B
$GPTHS,,V*0E
$GPROT,,V*08
$PSSN,HRP,211447.00,010125,,,,,,,00,0,,*64
$PTNL,AVR,211447.00,,Yaw,,Tilt,,,,0,,00*32
$GPGSA,A,3,02,08,10,16,21,23,27,32,,,,,0.8,0.4,0.6*32
$GPGSA,A,3,67,68,69,74,75,82,83,84,85,,,,0.8,0.4,0.6*39
$GPGSA,A,3,03,07,08,13,21,26,31,33,,,,,0.8,0.4,0.6*33
$GPGSA,A,3,05,08,13,14,27,28,33,36,41,42,43,60,0.8,0.4,0.6*3A
$GPGST,211447.00,2.072,0.494,0.334,13.971,0.486,0.345,0.734*6D
$GPGBS,211447.00,3.526,2.281,4.017,27,0.0001,-0.600,0.599*79
$GPGRS,211447.00,1,0.2,0.2,0.2,0.3,0.2,-0.2,-0.6,0.2,,,,*4E
$GPGRS,211447.00,1,6.0,5.5,-0.1,-4.9,-4.1,-1.8,-1.1,-2.6,2.0,,,*65
$GPGRS,211447.00,1,0.2,-0.1,-0.0,0.1,0.0,-0.1,-0.1,0.0,,,,*49
$GPGRS,211447.00,1,1.4,-0.4,-0.1,0.4,-0.3,-0.3,-0.9,-0.4,-0.3,-0.5,-0.4,-1.5*44
$GPGSV,5,1,18,10,71,079,51,16,17,194,40,32,23,134,43,02,20,275,42*77
$GPGSV,5,2,18,23,30,050,44,21,40,280,43,27,70,159,50,08,67,288,50*7E
$GPGSV,5,3,18,18,02,083,36,36,35,170,44,58,13,245,37,57,11,108,37*71
$GPGSV,5,4,18,34,31,208,42,40,24,132,36,49,34,195,44,41,07,108,34*74
$GPGSV,5,5,18,61,03,257,38*4F
$GLGSV,3,1,10,68,54,091,51,69,30,158,48,67,25,032,46,75,23,317,46*68
$GLGSV,3,2,10,74,24,260,43,83,45,076,40,84,53,317,41,73,04,222,42*62
$GLGSV,3,3,10,82,08,097,41,85,06,291,43*6B
$GAGSV,3,1,09,26,72,299,48,03,10,030,38,21,19,196,39,07,19,134,39*6A
$GAGSV,3,2,09,33,24,269,41,08,28,079,42,31,26,312,41,23,43,251,*67
$GAGSV,3,3,09,13,46,069,45*5F
$GBGSV,6,1,21,28,78,087,51,41,34,172,46,08,16,042,36,60,11,108,40*62
$GBGSV,6,2,21,05,23,128,38,42,22,042,43,31,16,066,,43,15,111,42*6E
$GBGSV,6,3,21,13,24,046,40,46,15,273,,58,23,265,,57,36,240,*63
$GBGSV,6,4,21,27,52,298,49,14,42,062,46,33,56,101,49,30,04,294,38*6E
$GBGSV,6,5,21,38,03,046,35,50,01,030,,37,02,224,37,36,09,322,40*6D
$GBGSV,6,6,21,02,08,105,34*51
$GPGGA,211447.00,,,,,0,00,,,M,,M,,*4D
$PTNL,GGK,211447.00,010125,4742.1604128,N,01618.1003710,E,1,37,0.8,EHT751.9031,M*4C
$GPGGQ,211447.00,010125,4742.1604128,N,01618.1003710,E,1,37,0.946,708.6965,M*3A
$GPGFA,211447.00,4.699,6.019,0.494,0.334,13.971,0.734,,VVV*3A
$GPLLK,211447.00,010125,,M,,M,1,37,0.9,,M*03
$GNGMP,211447.00,,,,,DAAA,37,0.4,,,,*53
$GPGMP,211447.00,,,,,,08,,,,1.9,136*7C
$GLGMP,211447.00,,,,,,09,,,,,*73
$GAGMP,211447.00,,,,,,08,,,,,*7F
$GBGMP,211447.00,,,,,,12,,,,,*77
$PSSN,SNC,[0,335705000,2347]*43
$GPZDA,211452.00,01,01,2025,,*62
$GPDTM,W84,,00.0000000,N,00.0000000,E,00.0000000,W84*5F
$PSSN,TFM,211452.00,,,,*6E
$GPRMC,211452.00,A,4742.1604136,N,01618.1003713,E,0.0,,010125,5.1,E,D*17
$GPGLL,4742.1604136,N,01618.1003713,E,211452.00,A,D*66
$GPGGA,211452.00,4742.1604136,N,01618.1003713,E,2,37,0.4,708.6979,M,43.2066,M,2.9,0136*4F
$GNGNS,211452.00,4742.1604136,N,01618.1003713,E,DAAA,37,0.4,708.6979,43.2066,,*5C
$GPGNS,211452.00,,,,,,08,,,,2.9,136*7B
$GLGNS,211452.00,,,,,,09,,,,,*77
$GAGNS,211452.00,,,,,,08,,,,,*7B
$GBGNS,211452.00,,,,,,12,,,,,*73
$GPLLQ,211452.00,010125,,M,,M,1,37,0.939,,M*17
$GPVTG,,T,,M,0.00,N,0.01,K,D*27
$GPHDT,,T*1B
$GPTHS,,V*0E
$GPROT,,V*08
$PSSN,HRP,211452.00,010125,,,,,,,00,0,,*60
$PTNL,AVR,211452.00,,Yaw,,Tilt,,,,0,,00*36
$GPGSA,A,3,02,08,10,16,21,23,27,32,,,,,0.8,0.4,0.6*32
$GPGSA,A,3,67,68,69,74,75,82,83,84,85,,,,0.8,0.4,0.6*39
$GPGSA,A,3,03,07,08,13,21,26,31,33,,,,,0.8,0.4,0.6*33
$GPGSA,A,3,05,08,13,14,27,28,33,36,41,42,43,60,0.8,0.4,0.6*3A
$GPGST,211452.00,1.845,0.486,0.333,13.829,0.479,0.344,0.732*69
$GPGBS,211452.00,3.564,2.308,4.057,67,0.0001,5.554,6.216*57
$GPGRS,211452.00,1,0.2,-0.1,0.2,0.5,-0.1,-0.2,-0.5,0.4,,,,*49
$GPGRS,211452.00,1,5.6,4.8,-0.7,-4.0,-3.9,-1.7,-1.0,-2.0,1.7,,,*64
$GPGRS,211452.00,1,0.1,0.0,0.0,0.2,-0.1,-0.1,-0.1,-0.3,,,,*4E
$GPGRS,211452.00,1,1.5,-0.3,0.3,-0.2,0.1,-0.0,-0.6,-0.4,-0.1,-0.1,0.1,-1.6*4C
$GPGSV,5,1,18,10,71,079,51,16,17,194,40,32,23,134,42,02,20,276,42*75
$GPGSV,5,2,18,23,30,050,44,21,40,280,42,27,70,159,50,08,67,288,50*7F
$GPGSV,5,3,18,18,02,083,36,36,35,170,44,58,13,245,37,57,11,108,37*71
$GPGSV,5,4,18,34,31,208,42,40,24,132,36,49,34,195,43,41,07,108,33*74
$GPGSV,5,5,18,61,03,257,38*4F
$GLGSV,3,1,10,68,54,091,51,69,31,158,48,67,25,032,46,75,23,317,46*69
$GLGSV,3,2,10,74,24,260,43,83,44,076,40,84,53,317,41,73,04,222,42*63
$GLGSV,3,3,10,82,08,097,41,85,06,291,41*69
$GAGSV,3,1,09,26,72,299,48,03,10,030,38,21,19,196,40,07,19,134,39*64
$GAGSV,3,2,09,33,24,269,41,08,28,079,42,31,26,312,42,23,43,251,*64
$GAGSV,3,3,09,13,46,069,45*5F
$GBGSV,6,1,21,28,77,087,51,41,34,172,46,08,16,042,36,60,11,108,40*6D
$GBGSV,6,2,21,05,23,128,38,42,22,042,43,31,16,066,,43,15,111,42*6E
$GBGSV,6,3,21,13,24,046,40,46,15,273,,58,23,265,,57,36,240,*63
$GBGSV,6,4,21,27,52,298,49,14,42,062,45,33,56,101,50,30,04,294,38*65
$GBGSV,6,5,21,38,03,046,35,50,01,030,,37,02,224,37,36,09,322,40*6D
$GBGSV,6,6,21,02,08,105,34*51
$GPGGA,211452.00,,,,,0,00,,,M,,M,,*49
$PTNL,GGK,211452.00,010125,4742.1604136,N,01618.1003713,E,1,37,0.8,EHT751.9045,M*47
$GPGGQ,211452.00,010125,4742.1604136,N,01618.1003713,E,1,37,0.939,708.6979,M*37
$GPGFA,211452.00,4.624,5.999,0.486,0.333,13.829,0.732,,VVV*34
$GPLLK,211452.00,010125,,M,,M,1,37,0.9,,M*07
$GNGMP,211452.00,,,,,DAAA,37,0.4,,,,*57
$GPGMP,211452.00,,,,,,08,,,,2.9,136*7B
$GLGMP,211452.00,,,,,,09,,,,,*77
$GAGMP,211452.00,,,,,,08,,,,,*7B
$GBGMP,211452.00,,,,,,12,,,,,*73
$PSSN,SNC,[0,335710000,2347]*47
$GPZDA,211457.00,01,01,2025,,*67
$GPDTM,W84,,00.0000000,N,00.0000000,E,00.0000000,W84*5F
$PSSN,TFM,211457.00,,,,*6B
$GPRMC,211457.00,A,4742.1604144,N,01618.1003718,E,0.0,,010125,5.1,E,D*1C
$GPGLL,4742.1604144,N,01618.1003718,E,211457.00,A,D*6D
$GPGGA,211457.00,4742.1604144,N,01618.1003718,E,2,37,0.4,708.7038,M,43.2066,M,2.4,0136*44
$GNGNS,211457.00,4742.1604144,N,01618.1003718,E,DAAA,37,0.4,708.7038,43.2066,,*5A
$GPGNS,211457.00,,,,,,08,,,,2.4,136*73
$GLGNS,211457.00,,,,,,09,,,,,*72
$GAGNS,211457.00,,,,,,08,,,,,*7E
$GBGNS,211457.00,,,,,,12,,,,,*76
$GPLLQ,211457.00,010125,,M,,M,1,37,0.947,,M*1B
$GPVTG,,T,,M,0.00,N,0.00,K,D*26
$GPHDT,,T*1B
$GPTHS,,V*0E
$GPROT,,V*08
$PSSN,HRP,211457.00,010125,,,,,,,00,0,,*65
$PTNL,AVR,211457.00,,Yaw,,Tilt,,,,0,,00*33
$GPGSA,A,3,02,08,10,16,21,23,27,32,,,,,0.8,0.4,0.6*32
$GPGSA,A,3,67,68,69,74,75,82,83,84,85,,,,0.8,0.4,0.6*39
$GPGSA,A,3,03,07,08,13,21,26,31,33,,,,,0.8,0.4,0.6*33
$GPGSA,A,3,05,08,13,14,27,28,33,36,41,42,43,60,0.8,0.4,0.6*3A
$GPGST,211457.00,1.828,0.492,0.335,13.649,0.485,0.346,0.736*69
$GPGBS,211457.00,3.571,2.293,4.147,67,0.0001,5.610,6.216*56
$GPGRS,211457.00,1,0.5,-0.1,0.1,0.5,-0.1,-0.1,-0.2,-0.2,,,,*67
$GPGRS,211457.00,1,5.6,5.0,-0.0,-4.0,-3.5,-1.5,-0.9,-2.3,1.2,,,*6F
$GPGRS,211457.00,1,0.3,0.3,0.2,0.3,0.4,-0.0,-0.1,0.0,,,,*4E
$GPGRS,211457.00,1,1.4,-0.3,-0.1,-0.5,0.3,0.1,-0.5,0.3,0.4,0.2,0.2,-1.2*66
$GPGSV,5,1,18,10,70,079,51,16,17,194,41,32,23,134,42,02,20,276,42*75
$GPGSV,5,2,18,23,30,050,43,21,40,280,43,27,70,159,50,08,67,288,50*79
$GPGSV,5,3,18,18,02,083,36,36,35,170,44,58,13,245,37,57,11,108,37*71
$GPGSV,5,4,18,34,31,208,42,40,24,132,36,49,34,195,44,41,07,108,33*73
$GPGSV,5,5,18,61,03,257,38*4F
$GLGSV,3,1,10,68,54,091,51,69,31,158,48,67,25,032,46,75,23,317,46*69
$GLGSV,3,2,10,74,24,260,43,83,44,076,41,84,53,317,41,73,04,222,43*63
$GLGSV,3,3,10,82,08,097,41,85,06,291,42*6A
$GAGSV,3,1,09,26,72,299,48,03,10,030,38,21,19,196,41,07,19,134,39*65
$GAGSV,3,2,09,33,24,269,42,08,28,079,42,31,26,312,41,23,42,251,*65
$GAGSV,3,3,09,13,46,069,45*5F
$GBGSV,6,1,21,28,77,088,51,41,34,172,46,08,16,042,36,60,11,108,40*62
$GBGSV,6,2,21,05,23,128,38,42,22,042,42,31,16,066,,43,15,111,42*6F
$GBGSV,6,3,21,13,24,046,40,46,15,273,,58,23,265,,57,36,240,*63
$GBGSV,6,4,21,27,52,298,49,14,42,062,45,33,56,101,50,30,04,294,38*65
$GBGSV,6,5,21,38,03,046,35,50,01,030,,37,02,224,37,36,09,322,41*6C
$GBGSV,6,6,21,02,08,105,34*51
$GPGGA,211457.00,,,,,0,00,,,M,,M,,*4C
$PTNL,GGK,211457.00,010125,4742.1604144,N,01618.1003718,E,1,37,0.8,EHT751.9104,M*48
$GPGGQ,211457.00,010125,4742.1604144,N,01618.1003718,E,1,37,0.947,708.7038,M*38
$GPGFA,211457.00,4.678,6.033,0.492,0.335,13.649,0.736,,VVV*3D
$GPLLK,211457.00,010125,,M,,M,1,37,0.9,,M*02
$GNGMP,211457.00,,,,,DAAA,37,0.4,,,,*52
$GPGMP,211457.00,,,,,,08,,,,2.4,136*73
$GLGMP,211457.00,,,,,,09,,,,,*72
$GAGMP,211457.00,,,,,,08,,,,,*7E
$GBGMP,211457.00,,,,,,12,,,,,*76
$PSSN,SNC,[0,335715000,2347]*42
$GPZDA,211502.00,01,01,2025,,*66
$GPDTM,W84,,00.0000000,N,00.0000000,E,00.0000000,W84*5F
$PSSN,TFM,211502.00,,,,*6A
$GPRMC,211502.00,A,4742.1604135,N,01618.1003750,E,0.0,,010125,5.1,E,D*17
$GPGLL,4742.1604135,N,01618.1003750,E,211502.00,A,D*66
$GPGGA,211502.00,4742.1604135,N,01618.1003750,E,2,37,0.4,708.7073,M,43.2066,M,2.9,0136*4D
$GNGNS,211502.00,4742.1604135,N,01618.1003750,E,DAAA,37,0.4,708.7073,43.2066,,*5E
$GPGNS,211502.00,,,,,,08,,,,2.9,136*7F
$GLGNS,211502.00,,,,,,09,,,,,*73
$GAGNS,211502.00,,,,,,08,,,,,*7F
$GBGNS,211502.00,,,,,,12,,,,,*77
$GPLLQ,211502.00,010125,,M,,M,1,37,0.947,,M*1A
$GPVTG,,T,,M,0.00,N,0.01,K,D*27
$GPHDT,,T*1B
$GPTHS,,V*0E
$GPROT,,V*08
$PSSN,HRP,211502.00,010125,,,,,,,00,0,,*64
$PTNL,AVR,211502.00,,Yaw,,Tilt,,,,0,,00*32
$GPGSA,A,3,02,08,10,16,21,23,27,32,,,,,0.8,0.4,0.6*32
$GPGSA,A,3,67,68,69,74,75,82,83,84,85,,,,0.8,0.4,0.6*39
$GPGSA,A,3,03,07,08,13,21,26,31,33,,,,,0.8,0.4,0.6*33
$GPGSA,A,3,05,08,13,14,27,28,33,36,41,42,43,60,0.8,0.4,0.6*3A
$GPGST,211502.00,1.979,0.498,0.334,13.812,0.490,0.345,0.734*63
$GPGBS,211502.00,3.649,2.288,4.141,67,0.0001,5.698,6.216*53
$GPGRS,211502.00,1,0.5,0.0,0.1,-0.1,0.0,-0.2,-0.4,0.1,,,,*64
$GPGRS,211502.00,1,5.7,5.3,-0.4,-4.7,-3.8,-2.0,-1.7,-2.8,0.5,,,*66
$GPGRS,211502.00,1,0.5,0.1,0.3,0.6,0.3,-0.0,-0.4,-0.5,,,,*65
$GPGRS,211502.00,1,1.0,0.3,-0.0,-0.8,0.3,-0.0,-0.8,-0.1,0.2,0.1,-0.1,-1.3*66
$GPGSV,5,1,18,10,70,079,51,16,17,194,41,32,23,134,42,02,20,276,42*75
$GPGSV,5,2,18,23,30,050,43,21,40,280,43,27,70,159,50,08,67,288,50*79
$GPGSV,5,3,18,18,02,083,36,36,35,170,44,58,13,245,37,57,11,108,37*71
$GPGSV,5,4,18,34,31,208,42,40,24,132,36,49,34,195,43,41,07,108,33*74
$GPGSV,5,5,18,61,03,257,38*4F
$GLGSV,3,1,10,68,54,090,51,69,31,158,48,67,25,032,46,75,23,317,46*68
$GLGSV,3,2,10,74,24,260,42,83,44,077,40,84,53,318,41,73,04,222,43*6D
$GLGSV,3,3,10,82,08,097,41,85,06,291,42*6A
$GAGSV,3,1,09,26,72,299,48,03,10,030,38,21,19,196,41,07,19,134,39*65
$GAGSV,3,2,09,33,24,269,41,08,28,078,42,31,26,312,41,23,42,251,*67
$GAGSV,3,3,09,13,46,069,45*5F
$GBGSV,6,1,21,28,77,088,51,41,34,172,46,08,16,042,36,60,11,108,40*62
$GBGSV,6,2,21,05,23,128,38,42,22,042,42,31,16,066,,43,15,111,42*6F
$GBGSV,6,3,21,13,24,046,40,46,15,273,,58,23,265,,57,36,240,*63
$GBGSV,6,4,21,27,52,298,49,14,42,062,45,33,56,101,50,30,04,294,38*65
$GBGSV,6,5,21,38,03,046,35,50,01,030,,37,02,224,37,36,09,322,40*6D
$GBGSV,6,6,21,02,08,105,34*51
$GPGGA,211502.00,,,,,0,00,,,M,,M,,*4D
$PTNL,GGK,211502.00,010125,4742.1604135,N,01618.1003750,E,1,37,0.8,EHT751.9139,M*4D
$GPGGQ,211502.00,010125,4742.1604135,N,01618.1003750,E,1,37,0.947,708.7073,M*3C
$GPGFA,211502.00,4.730,6.016,0.498,0.334,13.812,0.734,,VVV*3F
$GPLLK,211502.00,010125,,M,,M,1,37,0.9,,M*03
$GNGMP,211502.00,,,,,DAAA,37,0.4,,,,*53
$GPGMP,211502.00,,,,,,08,,,,2.9,136*7F
$GLGMP,211502.00,,,,,,09,,,,,*73
$GAGMP,211502.00,,,,,,08,,,,,*7F
$GBGMP,211502.00,,,,,,12,,,,,*77
$PSSN,SNC,[0,335720000,2347]*44
$GPZDA,211507.00,01,01,2025,,*63
$GPDTM,W84,,00.0000000,N,00.0000000,E,00.0000000,W84*5F
$PSSN,TFM,211507.00,,,,*6F
$GPRMC,211507.00,A,4742.1604120,N,01618.1003747,E,0.0,,010125,5.1,E,D*10
$GPGLL,4742.1604120,N,01618.1003747,E,211507.00,A,D*61
$GPGGA,211507.00,4742.1604120,N,01618.1003747,E,2,37,0.4,708.7097,M,43.2066,M,1.9,0136*43
$GNGNS,211507.00,4742.1604120,N,01618.1003747,E,DAAA,37,0.4,708.7097,43.2066,,*53
$GPGNS,211507.00,,,,,,08,,,,1.9,136*79
$GLGNS,211507.00,,,,,,09,,,,,*76
$GAGNS,211507.00,,,,,,08,,,,,*7A
$GBGNS,211507.00,,,,,,12,,,,,*72
$GPLLQ,211507.00,010125,,M,,M,1,37,0.945,,M*1D
$GPVTG,,T,,M,0.00,N,0.01,K,D*27
$GPHDT,,T*1B
$GPTHS,,V*0E
$GPROT,,V*08
$PSSN,HRP,211507.00,010125,,,,,,,00,0,,*61
$PTNL,AVR,211507.00,,Yaw,,Tilt,,,,0,,00*37
$GPGSA,A,3,02,08,10,16,21,23,27,32,,,,,0.8,0.4,0.6*32
$GPGSA,A,3,67,68,69,74,75,82,83,84,85,,,,0.8,0.4,0.6*39
$GPGSA,A,3,03,07,08,13,21,26,31,33,,,,,0.8,0.4,0.6*33
$GPGSA,A,3,05,08,13,14,27,28,33,36,41,42,43,60,0.8,0.4,0.6*3A
$GPGST,211507.00,1.979,0.494,0.333,14.019,0.486,0.345,0.734*6E
$GPGBS,211507.00,3.522,2.275,4.019,67,0.0001,5.704,6.217*53
$GPGRS,211507.00,1,-0.0,0.1,0.1,-0.2,0.1,0.2,-0.3,0.4,,,,*65
$GPGRS,211507.00,1,5.7,5.3,-0.1,-4.2,-3.9,-2.0,-1.6,-2.8,1.8,,,*6F
$GPGRS,211507.00,1,0.2,0.0,0.2,0.4,-0.2,0.0,-0.0,-0.5,,,,*60
$GPGRS,211507.00,1,1.2,0.1,0.2,-0.4,0.2,-0.0,-1.0,-0.4,-0.1,0.0,-0.0,-1.5*65
$GPGSV,5,1,18,10,70,079,51,16,17,194,41,32,23,134,43,02,20,276,42*74
$GPGSV,5,2,18,23,30,050,44,21,40,280,42,27,70,159,50,08,67,288,50*7F
$GPGSV,5,3,18,18,02,083,36,36,35,170,44,58,13,245,37,57,11,108,37*71
$GPGSV,5,4,18,34,31,208,42,40,24,132,36,49,34,195,43,41,07,108,33*74
$GPGSV,5,5,18,61,03,257,37*40
$GLGSV,3,1,10,68,54,090,51,69,31,158,48,67,25,032,46,75,23,317,47*69
$GLGSV,3,2,10,74,24,260,42,83,44,077,40,84,53,318,41,73,04,222,43*6D
$GLGSV,3,3,10,82,08,097,41,85,06,291,43*6B
$GAGSV,3,1,09,26,72,299,48,03,10,030,38,21,19,196,41,07,19,134,40*6B
$GAGSV,3,2,09,33,24,269,41,08,28,078,42,31,26,311,42,23,42,250,*66
$GAGSV,3,3,09,13,46,069,46*5C
$GBGSV,6,1,21,28,77,088,51,41,34,172,46,08,16,042,36,60,11,108,40*62
$GBGSV,6,2,21,05,23,128,38,42,22,042,42,31,16,066,,43,15,111,42*6F
$GBGSV,6,3,21,13,24,046,40,46,15,272,,58,23,265,,57,36,240,*62
$GBGSV,6,4,21,27,52,298,49,14,42,062,45,33,56,101,50,30,04,294,38*65
$GBGSV,6,5,21,38,03,046,34,50,01,030,,37,02,224,38,36,09,322,41*62
$GBGSV,6,6,21,02,08,105,34*51
$GPGGA,211507.00,,,,,0,00,,,M,,M,,*48
$PTNL,GGK,211507.00,010125,4742.1604120,N,01618.1003747,E,1,37,0.8,EHT751.9162,M*44
$GPGGQ,211507.00,010125,4742.1604120,N,01618.1003747,E,1,37,0.945,708.7097,M*33
$GPGFA,211507.00,4.697,6.018,0.494,0.333,14.019,0.734,,VVV*37
$GPLLK,211507.00,010125,,M,,M,1,37,0.9,,M*06
$GNGMP,211507.00,,,,,DAAA,37,0.4,,,,*56
$GPGMP,211507.00,,,,,,08,,,,1.9,136*79
$GLGMP,211507.00,,,,,,09,,,,,*76
$GAGMP,211507.00,,,,,,08,,,,,*7A
$GBGMP,211507.00,,,,,,12,,,,,*72
$PSSN,SNC,[0,335725000,2347]*41
$GPZDA,211512.00,01,01,2025,,*67
$GPDTM,W84,,00.0000000,N,00.0000000,E,00.0000000,W84*5F
$PSSN,TFM,211512.00,,,,*6B
$GPRMC,211512.00,A,4742.1604094,N,01618.1003698,E,0.0,,010125,5.1,E,D*19
$GPGLL,4742.1604094,N,01618.1003698,E,211512.00,A,D*68
$GPGGA,211512.00,4742.1604094,N,01618.1003698,E,2,37,0.4,708.7113,M,43.2066,M,2.9,0136*44
$GNGNS,211512.00,4742.1604094,N,01618.1003698,E,DAAA,37,0.4,708.7113,43.2066,,*57
$GPGNS,211512.00,,,,,,08,,,,2.9,136*7E
$GLGNS,211512.00,,,,,,09,,,,,*72
$GAGNS,211512.00,,,,,,08,,,,,*7E
$GBGNS,211512.00,,,,,,12,,,,,*76
$GPLLQ,211512.00,010125,,M,,M,1,37,0.939,,M*12
$GPVTG,,T,,M,0.00,N,0.00,K,D*26
$GPHDT,,T*1B
$GPTHS,,V*0E
$GPROT,,V*08
$PSSN,HRP,211512.00,010125,,,,,,,00,0,,*65
$PTNL,AVR,211512.00,,Yaw,,Tilt,,,,0,,00*33
$GPGSA,A,3,02,08,10,16,21,23,27,32,,,,,0.8,0.4,0.6*32
$GPGSA,A,3,67,68,69,74,75,82,83,84,85,,,,0.8,0.4,0.6*39
$GPGSA,A,3,03,07,08,13,21,26,31,33,,,,,0.8,0.4,0.6*33
$GPGSA,A,3,05,08,13,14,27,28,33,36,41,42,43,60,0.8,0.4,0.6*3A
$GPGST,211512.00,2.032,0.486,0.333,13.895,0.479,0.343,0.732*67
$GPGBS,211512.00,3.561,2.302,4.059,67,0.0001,6.058,6.217*58
$GPGRS,211512.00,1,0.0,-0.1,0.2,0.0,-0.1,0.0,-0.5,0.6,,,,*66
$GPGRS,211512.00,1,6.1,5.0,-0.2,-4.6,-3.7,-1.5,-1.2,-3.1,2.7,,,*62
$GPGRS,211512.00,1,0.1,-0.3,0.1,0.4,-0.2,0.0,0.2,-0.0,,,,*60
$GPGRS,211512.00,1,1.7,-0.1,0.4,-0.4,0.2,-0.2,-0.8,-0.7,0.1,0.3,-0.2,-1.4*6A
$GPGSV,5,1,18,10,70,079,51,16,17,194,40,32,23,134,43,02,20,276,42*75
$GPGSV,5,2,18,23,30,050,43,21,40,280,43,27,70,159,50,08,67,288,50*79
$GPGSV,5,3,18,18,02,083,35,36,35,170,44,58,13,245,37,57,11,108,37*72
$GPGSV,5,4,18,34,31,208,42,40,24,132,36,49,34,195,43,41,07,108,34*73
$GPGSV,5,5,18,61,03,257,38*4F
$GLGSV,3,1,10,68,54,090,51,69,31,158,48,67,25,032,47,75,23,317,46*69
$GLGSV,3,2,10,74,24,260,43,83,44,077,40,84,53,318,41,73,04,222,43*6C
$GLGSV,3,3,10,82,08,097,41,85,06,291,43*6B
$GAGSV,3,1,09,26,72,299,48,03,10,030,38,21,19,196,40,07,19,134,39*64
$GAGSV,3,2,09,33,24,269,41,08,28,078,42,31,26,311,41,23,42,250,*65
$GAGSV,3,3,09,13,46,069,45*5F
$GBGSV,6,1,21,28,77,088,51,41,34,172,46,08,16,042,36,60,11,108,40*62
$GBGSV,6,2,21,05,23,128,38,42,22,042,42,31,16,066,,43,15,111,42*6F
$GBGSV,6,3,21,13,24,046,40,46,15,272,,58,23,265,,57,36,240,*62
$GBGSV,6,4,21,27,52,298,49,14,42,062,45,33,56,101,50,30,04,294,38*65
$GBGSV,6,5,21,38,03,046,35,50,01,030,,37,02,224,38,36,09,322,41*63
$GBGSV,6,6,21,02,08,105,34*51
$GPGGA,211512.00,,,,,0,00,,,M,,M,,*4C
$PTNL,GGK,211512.00,010125,4742.1604094,N,01618.1003698,E,1,37,0.8,EHT751.9178,M*46
$GPGGQ,211512.00,010125,4742.1604094,N,01618.1003698,E,1,37,0.939,708.7113,M*3C
$GPGFA,211512.00,4.623,6.000,0.486,0.333,13.895,0.732,,VVV*3B
$GPLLK,211512.00,010125,,M,,M,1,37,0.9,,M*02
$GNGMP,211512.00,,,,,DAAA,37,0.4,,,,*52
$GPGMP,211512.00,,,,,,08,,,,2.9,136*7E
$GLGMP,211512.00,,,,,,09,,,,,*72
$GAGMP,211512.00,,,,,,08,,,,,*7E
$GBGMP,211512.00,,,,,,12,,,,,*76
$PSSN,SNC,[0,335730000,2347]*45
$GPZDA,211517.00,01,01,2025,,*62
$GPDTM,W84,,00.0000000,N,00.0000000,E,00.0000000,W84*5F
$PSSN,TFM,211517.00,,,,*6E
$GPRMC,211517.00,A,4742.1604090,N,01618.1003668,E,0.0,,010125,5.1,E,D*17
$GPGLL,4742.1604090,N,01618.1003668,E,211517.00,A,D*66
$GPGGA,211517.00,4742.1604090,N,01618.1003668,E,2,37,0.4,708.7168,M,43.2066,M,2.4,0136*4B
$GNGNS,211517.00,4742.1604090,N,01618.1003668,E,DAAA,37,0.4,708.7168,43.2066,,*55
$GPGNS,211517.00,,,,,,08,,,,2.4,136*76
$GLGNS,211517.00,,,,,,09,,,,,*77
$GAGNS,211517.00,,,,,,08,,,,,*7B
$GBGNS,211517.00,,,,,,12,,,,,*73
$GPLLQ,211517.00,010125,,M,,M,1,37,0.946,,M*1F
$GPVTG,,T,,M,0.00,N,0.01,K,D*27
$GPHDT,,T*1B
$GPTHS,,V*0E
$GPROT,,V*08
$PSSN,HRP,211517.00,010125,,,,,,,00,0,,*60
$PTNL,AVR,211517.00,,Yaw,,Tilt,,,,0,,00*36
$GPGSA,A,3,02,08,10,16,21,23,27,32,,,,,0.8,0.4,0.6*32
$GPGSA,A,3,67,68,69,74,75,82,83,84,85,,,,0.8,0.4,0.6*39
$GPGSA,A,3,03,07,08,13,21,26,31,33,,,,,0.8,0.4,0.6*33
$GPGSA,A,3,05,08,13,14,27,28,33,36,41,42,43,60,0.8,0.4,0.6*3A
$GPGST,211517.00,2.051,0.492,0.335,13.679,0.485,0.346,0.736*6A
$GPGBS,211517.00,3.567,2.287,4.146,67,0.0001,5.883,6.217*55
$GPGRS,211517.00,1,0.1,-0.1,0.2,0.1,-0.0,0.1,-0.3,0.1,,,,*62
$GPGRS,211517.00,1,5.9,5.3,-0.4,-4.2,-4.8,-1.7,-0.8,-1.6,2.9,,,*67
$GPGRS,211517.00,1,-0.0,-0.3,0.4,0.3,-0.2,0.2,0.0,-0.2,,,,*49
$GPGRS,211517.00,1,1.6,-0.0,-0.0,-0.2,0.5,-0.2,-1.1,-0.7,0.0,0.3,-0.3,-1.6*4D
$GPGSV,5,1,18,10,70,079,51,16,17,194,41,32,23,134,43,02,20,276,42*74
$GPGSV,5,2,18,23,30,050,43,21,40,280,43,27,70,159,51,08,67,288,50*78
$GPGSV,5,3,18,18,02,083,36,36,35,170,44,58,13,245,37,57,11,108,37*71
$GPGSV,5,4,18,34,31,208,42,40,24,132,36,49,34,195,44,41,07,108,34*74
$GPGSV,5,5,18,61,03,257,38*4F
$GLGSV,3,1,10,68,54,090,51,69,31,158,49,67,25,032,47,75,23,317,45*6B
$GLGSV,3,2,10,74,24,260,43,83,44,077,41,84,53,318,41,73,04,222,42*6C
$GLGSV,3,3,10,82,08,097,40,85,06,291,43*6A
$GAGSV,3,1,09,26,72,299,48,03,10,030,37,21,19,196,40,07,19,134,39*6B
$GAGSV,3,2,09,33,24,269,42,08,28,078,43,31,26,311,41,23,42,250,*67
$GAGSV,3,3,09,13,46,069,45*5F
$GBGSV,6,1,21,28,77,088,51,41,34,172,46,08,16,042,36,60,11,108,40*62
$GBGSV,6,2,21,05,23,128,38,42,22,042,43,31,16,066,,43,15,111,42*6E
$GBGSV,6,3,21,13,24,046,40,46,14,272,,58,23,264,,57,36,240,*62
$GBGSV,6,4,21,27,52,298,49,14,42,062,45,33,56,101,50,30,04,294,39*64
$GBGSV,6,5,21,38,02,046,35,50,01,030,,37,02,224,39,36,09,322,40*62
$GBGSV,6,6,21,02,08,105,34*51
$GPGGA,211517.00,,,,,0,00,,,M,,M,,*49
$PTNL,GGK,211517.00,010125,4742.1604090,N,01618.1003668,E,1,37,0.8,EHT751.9233,M*44
$GPGGQ,211517.00,010125,4742.1604090,N,01618.1003668,E,1,37,0.946,708.7168,M*36
$GPGFA,211517.00,4.678,6.034,0.492,0.335,13.679,0.736,,VVV*3C
$GPLLK,211517.00,010125,,M,,M,1,37,0.9,,M*07
$GNGMP,211517.00,,,,,DAAA,37,0.4,,,,*57
$GPGMP,211517.00,,,,,,08,,,,2.4,136*76
$GLGMP,211517.00,,,,,,09,,,,,*77
$GAGMP,211517.00,,,,,,08,,,,,*7B
$GBGMP,211517.00,,,,,,12,,,,,*73
$PSSN,SNC,[0,335735000,2347]*40
$GPZDA,211522.00,01,01,2025,,*64
$GPDTM,W84,,00.0000000,N,00.0000000,E,00.0000000,W84*5F
$PSSN,TFM,211522.00,,,,*68
$GPRMC,211522.00,A,4742.1604078,N,01618.1003658,E,0.0,,010125,5.1,E,D*14
$GPGLL,4742.1604078,N,01618.1003658,E,211522.00,A,D*65
$GPGGA,211522.00,4742.1604078,N,01618.1003658,E,2,37,0.4,708.7218,M,43.2066,M,2.9,0136*41
$GNGNS,211522.00,4742.1604078,N,01618.1003658,E,DAAA,37,0.4,708.7218,43.2066,,*52
$GPGNS,211522.00,,,,,,08,,,,2.9,136*7D
$GLGNS,211522.00,,,,,,09,,,,,*71
$GAGNS,211522.00,,,,,,08,,,,,*7D
$GBGNS,211522.00,,,,,,12,,,,,*75
$GPLLQ,211522.00,010125,,M,,M,1,37,0.947,,M*18
$GPVTG,,T,,M,0.00,N,0.01,K,D*27
$GPHDT,,T*1B
$GPTHS,,V*0E
$GPROT,,V*08
$PSSN,HRP,211522.00,010125,,,,,,,00,0,,*66
$PTNL,AVR,211522.00,,Yaw,,Tilt,,,,0,,00*30
$GPGSA,A,3,02,08,10,16,21,23,27,32,,,,,0.8,0.4,0.6*32
$GPGSA,A,3,67,68,69,74,75,82,83,84,85,,,,0.8,0.4,0.6*39
$GPGSA,A,3,03,07,08,13,21,26,31,33,,,,,0.8,0.4,0.6*33
$GPGSA,A,3,05,08,13,14,27,28,33,36,41,42,43,60,0.8,0.4,0.6*3A
$GPGST,211522.00,2.009,0.497,0.334,13.836,0.490,0.345,0.734*65
$GPGBS,211522.00,3.646,2.282,4.142,67,0.0001,6.228,6.217*5A
$GPGRS,211522.00,1,0.5,-0.1,0.0,0.0,-0.1,0.4,-0.4,0.0,,,,*61
$GPGRS,211522.00,1,6.2,5.6,0.5,-4.0,-3.7,-1.7,-0.6,-1.7,2.6,,,*4A
$GPGRS,211522.00,1,-0.2,-0.4,0.4,0.4,-0.1,0.3,-0.0,-0.4,,,,*64
$GPGRS,211522.00,1,1.6,0.7,0.2,-0.3,0.4,0.1,-0.9,-0.9,0.5,0.4,-0.3,-1.1*62
$GPGSV,5,1,18,10,70,079,51,16,17,194,40,32,23,134,42,02,20,276,42*74
$GPGSV,5,2,18,23,30,050,43,21,40,280,43,27,70,159,50,08,67,288,50*79
$GPGSV,5,3,18,18,02,083,36,36,35,170,44,58,13,245,37,57,11,108,37*71
$GPGSV,5,4,18,34,31,208,42,40,24,132,37,49,34,195,44,41,07,108,34*75
$GPGSV,5,5,18,61,03,257,38*4F
$GLGSV,3,1,10,68,54,090,52,69,31,158,49,67,25,032,47,75,23,317,46*6B
$GLGSV,3,2,10,74,24,260,42,83,44,077,40,84,53,318,41,73,04,222,42*6C
$GLGSV,3,3,10,82,07,097,40,85,06,291,43*65
$GAGSV,3,1,09,26,72,300,48,03,10,030,37,21,19,196,39,33,24,269,41*69
$GAGSV,3,2,09,07,19,134,39,08,28,078,43,31,26,311,41,23,42,250,*69
$GAGSV,3,3,09,13,46,069,45*5F
$GBGSV,6,1,21,28,77,088,51,41,34,172,46,08,16,042,36,60,11,108,40*62
$GBGSV,6,2,21,05,23,128,38,42,22,042,43,31,16,066,,43,15,111,42*6E
$GBGSV,6,3,21,13,24,046,40,46,14,272,,58,23,264,,57,36,240,*62
$GBGSV,6,4,21,27,52,298,49,14,42,062,46,33,56,101,50,30,04,294,39*67
$GBGSV,6,5,21,38,02,046,35,50,01,030,,37,01,224,38,36,09,322,40*60
$GBGSV,6,6,21,02,08,105,34*51
$GPGGA,211522.00,,,,,0,00,,,M,,M,,*4F
$PTNL,GGK,211522.00,010125,4742.1604078,N,01618.1003658,E,1,37,0.8,EHT751.9284,M*4B
$GPGGQ,211522.00,010125,4742.1604078,N,01618.1003658,E,1,37,0.947,708.7218,M*30
$GPGFA,211522.00,4.730,6.017,0.497,0.334,13.836,0.734,,VVV*35
$GPLLK,211522.00,010125,,M,,M,1,37,0.9,,M*01
$GNGMP,211522.00,,,,,DAAA,37,0.4,,,,*51
$GPGMP,211522.00,,,,,,08,,,,2.9,136*7D
$GLGMP,211522.00,,,,,,09,,,,,*71
$GAGMP,211522.00,,,,,,08,,,,,*7D
$GBGMP,211522.00,,,,,,12,,,,,*75
$PSSN,SNC,[0,335740000,2347]*42
$GPZDA,211527.00,01,01,2025,,*61
$GPDTM,W84,,00.0000000,N,00.0000000,E,00.0000000,W84*5F
$PSSN,TFM,211527.00,,,,*6D
$GPRMC,211527.00,A,4742.1604043,N,01618.1003636,E,0.0,,010125,5.1,E,D*11
$GPGLL,4742.1604043,N,01618.1003636,E,211527.00,A,D*60
$GPGGA,211527.00,4742.1604043,N,01618.1003636,E,2,37,0.4,708.7300,M,43.2066,M,1.9,0136*4F
$GNGNS,211527.00,4742.1604043,N,01618.1003636,E,DAAA,37,0.4,708.7300,43.2066,,*5F
$GPGNS,211527.00,,,,,,08,,,,1.9,136*7B
$GLGNS,211527.00,,,,,,09,,,,,*74
$GAGNS,211527.00,,,,,,08,,,,,*78
$GBGNS,211527.00,,,,,,12,,,,,*70
$GPLLQ,211527.00,010125,,M,,M,1,37,0.946,,M*1C
$GPVTG,,T,,M,0.00,N,0.00,K,D*26
$GPHDT,,T*1B
$GPTHS,,V*0E
$GPROT,,V*08
$PSSN,HRP,211527.00,010125,,,,,,,00,0,,*63
$PTNL,AVR,211527.00,,Yaw,,Tilt,,,,0,,00*35
$GPGSA,A,3,02,08,10,16,21,23,27,32,,,,,0.8,0.4,0.6*32
$GPGSA,A,3,67,68,69,74,75,82,83,84,85,,,,0.8,0.4,0.6*39
$GPGSA,A,3,03,07,08,13,21,26,31,33,,,,,0.8,0.4,0.6*33
$GPGSA,A,3,05,08,13,14,27,28,33,36,41,42,43,60,0.8,0.4,0.6*3A
$GPGST,211527.00,2.010,0.494,0.333,14.040,0.486,0.345,0.734*65
$GPGBS,211527.00,3.520,2.271,4.019,67,0.0001,6.118,6.217*5F
$GPGRS,211527.00,1,0.3,0.2,-0.1,0.4,-0.2,0.5,-0.5,0.3,,,,*64
$GPGRS,211527.00,1,6.1,5.5,0.2,-4.4,-3.5,-1.5,-2.3,-1.8,1.9,,,*48
$GPGRS,211527.00,1,-0.3,-0.3,-0.0,0.5,0.2,0.1,0.1,-0.1,,,,*4A
$GPGRS,211527.00,1,1.6,0.4,-0.1,0.7,0.1,-0.0,-0.8,-0.4,0.4,0.3,-0.2,-1.4*44
$GPGSV,5,1,18,10,70,079,51,16,17,194,39,32,23,134,42,02,20,276,42*7A
$GPGSV,5,2,18,23,30,050,44,21,40,280,42,27,70,159,50,08,67,288,50*7F
$GPGSV,5,3,18,18,02,083,36,36,35,170,44,58,13,245,38,57,11,108,37*7E
$GPGSV,5,4,18,34,31,208,42,40,24,132,36,49,34,195,44,41,07,108,33*73
$GPGSV,5,5,18,61,03,257,38*4F
$GLGSV,3,1,10,68,54,090,51,69,31,158,48,67,25,032,47,75,23,317,46*69
$GLGSV,3,2,10,74,24,260,42,83,44,077,40,84,53,318,41,73,04,222,42*6C
$GLGSV,3,3,10,82,07,097,40,85,06,291,42*64
$GAGSV,3,1,09,26,72,300,48,03,10,030,37,21,19,196,39,33,24,269,41*69
$GAGSV,3,2,09,07,19,134,39,08,28,078,42,31,26,311,41,23,42,250,*68
$GAGSV,3,3,09,13,46,069,45*5F
$GBGSV,6,1,21,28,77,088,51,41,34,172,46,08,16,042,36,60,11,108,40*62
$GBGSV,6,2,21,05,23,128,39,42,22,042,43,31,16,066,,43,15,111,42*6F
$GBGSV,6,3,21,13,24,046,41,46,14,272,,58,23,264,,57,36,240,*63
$GBGSV,6,4,21,27,52,298,49,14,42,062,46,33,56,101,50,30,04,294,39*67
$GBGSV,6,5,21,38,02,046,35,50,01,030,,37,01,224,38,36,09,322,41*61
$GBGSV,6,6,21,02,08,105,34*51
$GPGGA,211527.00,,,,,0,00,,,M,,M,,*4A
$PTNL,GGK,211527.00,010125,4742.1604043,N,01618.1003636,E,1,37,0.8,EHT751.9366,M*43
$GPGGQ,211527.00,010125,4742.1604043,N,01618.1003636,E,1,37,0.946,708.7300,M*3C
$GPGFA,211527.00,4.699,6.021,0.494,0.333,14.040,0.734,,VVV*3D
$GPLLK,211527.00,010125,,M,,M,1,37,0.9,,M*04
$GNGMP,211527.00,,,,,DAAA,37,0.4,,,,*54
$GPGMP,211527.00,,,,,,08,,,,1.9,136*7B
$GLGMP,211527.00,,,,,,09,,,,,*74
$GAGMP,211527.00,,,,,,08,,,,,*78
$GBGMP,211527.00,,,,,,12,,,,,*70
$PSSN,SNC,[0,335745000,2347]*47
$GPZDA,211532.00,01,01,2025,,*65
$GPDTM,W84,,00.0000000,N,00.0000000,E,00.0000000,W84*5F
$PSSN,TFM,211532.00,,,,*69
$GPRMC,211532.00,A,4742.1604035,N,01618.1003632,E,0.0,,010125,5.1,E,D*10
$GPGLL,4742.1604035,N,01618.1003632,E,211532.00,A,D*61
$GPGGA,211532.00,4742.1604035,N,01618.1003632,E,2,37,0.4,708.7390,M,43.2066,M,2.9,0136*44
$GNGNS,211532.00,4742.1604035,N,01618.1003632,E,DAAA,37,0.4,708.7390,43.2066,,*57
$GPGNS,211532.00,,,,,,08,,,,2.9,136*7C
$GLGNS,211532.00,,,,,,09,,,,,*70
$GAGNS,211532.00,,,,,,08,,,,,*7C
$GBGNS,211532.00,,,,,,12,,,,,*74
$GPLLQ,211532.00,010125,,M,,M,1,37,0.940,,M*1E
$GPVTG,,T,,M,0.00,N,0.00,K,D*26
$GPHDT,,T*1B
$GPTHS,,V*0E
$GPROT,,V*08
$PSSN,HRP,211532.00,010125,,,,,,,00,0,,*67
$PTNL,AVR,211532.00,,Yaw,,Tilt,,,,0,,00*31
$GPGSA,A,3,02,08,10,16,21,23,27,32,,,,,0.8,0.4,0.6*32
$GPGSA,A,3,67,68,69,74,75,82,83,84,85,,,,0.8,0.4,0.6*39
$GPGSA,A,3,03,07,08,13,21,26,31,33,,,,,0.8,0.4,0.6*33
$GPGSA,A,3,05,08,13,14,27,28,33,36,41,42,43,60,0.8,0.4,0.6*3A
$GPGST,211532.00,1.947,0.486,0.333,13.918,0.479,0.343,0.732*69
$GPGBS,211532.00,3.558,2.297,4.060,67,0.0001,5.978,6.218*50
$GPGRS,211532.00,1,0.5,-0.1,0.1,0.3,-0.3,0.2,-0.3,0.3,,,,*62
$GPGRS,211532.00,1,6.0,5.2,-0.2,-4.5,-3.2,-1.6,-1.7,-2.9,0.7,,,*68
$GPGRS,211532.00,1,0.3,-0.2,0.2,0.7,-0.0,0.0,0.5,0.1,,,,*48
$GPGRS,211532.00,1,1.3,0.2,0.2,0.6,0.2,-0.0,-0.8,-0.1,0.2,0.3,0.1,-1.3*45
$GPGSV,5,1,19,10,70,078,51,16,17,194,39,32,23,134,42,02,20,276,42*7A
$GPGSV,5,2,19,23,30,050,44,21,40,280,42,27,70,159,50,08,67,288,49*76
$GPGSV,5,3,19,18,02,083,37,14,00,336,,36,35,170,44,58,13,245,38*72
$GPGSV,5,4,19,57,11,108,37,34,31,208,42,40,24,132,37,49,34,195,44*77
$GPGSV,5,5,19,41,07,108,34,61,03,257,38*72
$GLGSV,3,1,10,68,54,090,51,69,31,158,48,67,25,032,46,75,23,317,47*69
$GLGSV,3,2,10,74,24,260,42,83,44,077,40,84,53,318,40,73,04,222,41*6E
$GLGSV,3,3,10,82,07,097,41,85,06,291,43*64
$GAGSV,3,1,09,26,72,300,48,03,10,030,37,21,19,196,40,33,24,269,41*67
$GAGSV,3,2,09,07,19,134,39,08,28,078,43,31,26,311,41,23,42,250,*69
$GAGSV,3,3,09,13,46,069,45*5F
$GBGSV,6,1,21,28,77,088,51,41,34,172,46,08,16,043,36,60,11,108,40*63
$GBGSV,6,2,21,05,23,128,38,42,22,042,43,31,16,066,,43,15,111,42*6E
$GBGSV,6,3,21,13,24,046,41,46,14,272,,58,23,264,,57,36,240,*63
$GBGSV,6,4,21,27,52,298,49,14,42,062,45,33,56,101,50,30,04,294,39*64
$GBGSV,6,5,21,38,02,046,35,50,01,030,,37,01,224,38,36,09,321,40*63
$GBGSV,6,6,21,02,08,105,34*51
$GPGGA,211532.00,,,,,0,00,,,M,,M,,*4E
$PTNL,GGK,211532.00,010125,4742.1604035,N,01618.1003632,E,1,37,0.8,EHT751.9455,M*45
$GPGGQ,211532.00,010125,4742.1604035,N,01618.1003632,E,1,37,0.940,708.7390,M*32
$GPGFA,211532.00,4.624,6.001,0.486,0.333,13.918,0.732,,VVV*3B
$GPLLK,211532.00,010125,,M,,M,1,37,0.9,,M*00
$GNGMP,211532.00,,,,,DAAA,37,0.4,,,,*50
$GPGMP,211532.00,,,,,,08,,,,2.9,136*7C
$GLGMP,211532.00,,,,,,09,,,,,*70
$GAGMP,211532.00,,,,,,08,,,,,*7C
$GBGMP,211532.00,,,,,,12,,,,,*74
$PSSN,SNC,[0,335750000,2347]*43
$GPZDA,211537.00,01,01,2025,,*60
$GPDTM,W84,,00.0000000,N,00.0000000,E,00.0000000,W84*5F
$PSSN,TFM,211537.00,,,,*6C
$GPRMC,211537.00,A,4742.1604049,N,01618.1003594,E,0.0,,010125,5.1,E,D*11
$GPGLL,4742.1604049,N,01618.1003594,E,211537.00,A,D*60
$GPGGA,211537.00,4742.1604049,N,01618.1003594,E,2,37,0.4,708.7472,M,43.2066,M,2.4,0136*43
$GNGNS,211537.00,4742.1604049,N,01618.1003594,E,DAAA,37,0.4,708.7472,43.2066,,*5D
$GPGNS,211537.00,,,,,,08,,,,2.4,136*74
$GLGNS,211537.00,,,,,,09,,,,,*75
$GAGNS,211537.00,,,,,,08,,,,,*79
$GBGNS,211537.00,,,,,,12,,,,,*71
$GPLLQ,211537.00,010125,,M,,M,1,37,0.947,,M*1C
$GPVTG,,T,,M,0.00,N,0.01,K,D*27
$GPHDT,,T*1B
$GPTHS,,V*0E
$GPROT,,V*08
$PSSN,HRP,211537.00,010125,,,,,,,00,0,,*62
$PTNL,AVR,211537.00,,Yaw,,Tilt,,,,0,,00*34
$GPGSA,A,3,02,08,10,16,21,23,27,32,,,,,0.8,0.4,0.6*32
$GPGSA,A,3,67,68,69,74,75,82,83,84,85,,,,0.8,0.4,0.6*39
$GPGSA,A,3,03,07,08,13,21,26,31,33,,,,,0.8,0.4,0.6*33
$GPGSA,A,3,05,08,13,14,27,28,33,36,41,42,43,60,0.8,0.4,0.6*3A
$GPGST,211537.00,1.948,0.492,0.335,13.684,0.485,0.346,0.736*68
$GPGBS,211537.00,3.563,2.281,4.146,16,0.0001,1.001,1.010*57
$GPGRS,211537.00,1,0.2,-0.1,0.1,1.0,-0.1,0.0,-0.5,0.6,,,,*61
$GPGRS,211537.00,1,4.7,5.6,-0.5,-4.5,-3.8,-1.7,-2.4,-2.4,1.7,,,*6C
$GPGRS,211537.00,1,-0.2,-0.3,0.2,0.4,0.3,-0.3,0.1,-0.1,,,,*4A
$GPGRS,211537.00,1,1.0,-0.5,-0.2,-1.2,0.2,-0.0,-0.8,-0.7,0.4,0.1,0.1,-1.5*68
$GPGSV,5,1,19,10,70,078,51,16,17,194,38,32,23,134,42,02,20,276,42*7B
$GPGSV,5,2,19,23,30,050,43,21,40,280,43,27,70,159,50,08,67,288,50*78
$GPGSV,5,3,19,18,01,083,36,14,00,336,,36,35,170,44,58,13,245,38*70
$GPGSV,5,4,19,57,11,108,37,34,31,208,42,40,24,132,36,49,34,195,43*71
$GPGSV,5,5,19,41,07,108,33,61,03,257,38*75
$GLGSV,3,1,10,68,54,090,51,69,31,158,48,67,25,032,46,75,23,317,46*68
$GLGSV,3,2,10,74,23,260,42,83,44,077,40,84,53,318,41,73,03,222,40*6E
$GLGSV,3,3,10,82,07,097,41,85,06,291,42*65
$GAGSV,3,1,09,26,72,300,48,03,10,030,37,21,19,196,40,33,24,269,41*67
$GAGSV,3,2,09,07,19,134,39,08,28,078,43,31,26,311,41,23,42,250,*69
$GAGSV,3,3,09,13,46,069,45*5F
$GBGSV,6,1,21,28,77,088,51,41,34,172,47,08,16,043,36,60,11,108,40*62
$GBGSV,6,2,21,05,23,128,39,42,21,042,43,31,16,066,,43,15,111,42*6C
$GBGSV,6,3,21,13,24,046,40,46,14,272,,58,22,264,,57,37,240,*62
$GBGSV,6,4,21,27,52,298,49,14,42,062,45,33,56,101,50,30,04,294,38*65
$GBGSV,6,5,21,38,02,046,36,50,01,030,,37,01,224,38,36,09,321,40*60
$GBGSV,6,6,21,02,08,105,34*51
$GPGGA,211537.00,,,,,0,00,,,M,,M,,*4B
$PTNL,GGK,211537.00,010125,4742.1604049,N,01618.1003594,E,1,37,0.8,EHT751.9537,M*41
$GPGGQ,211537.00,010125,4742.1604049,N,01618.1003594,E,1,37,0.947,708.7472,M*3F
$GPGFA,211537.00,4.678,6.035,0.492,0.335,13.684,0.736,,VVV*3D
$GPLLK,211537.00,010125,,M,,M,1,37,0.9,,M*05
$GNGMP,211537.00,,,,,DAAA,37,0.4,,,,*55
$GPGMP,211537.00,,,,,,08,,,,2.4,136*74
$GLGMP,211537.00,,,,,,09,,,,,*75
$GAGMP,211537.00,,,,,,08,,,,,*79
$GBGMP,211537.00,,,,,,12,,,,,*71
$PSSN,SNC,[0,335755000,2347]*46
$GPZDA,211542.00,01,01,2025,,*62
$GPDTM,W84,,00.0000000,N,00.0000000,E,00.0000000,W84*5F
$PSSN,TFM,211542.00,,,,*6E
$GPRMC,211542.00,A,4742.1604055,N,01618.1003603,E,0.0,,010125,5.1,E,D*13
$GPGLL,4742.1604055,N,01618.1003603,E,211542.00,A,D*62
$GPGGA,211542.00,4742.1604055,N,01618.1003603,E,2,37,0.4,708.7507,M,43.2066,M,2.9,0136*4F
$GNGNS,211542.00,4742.1604055,N,01618.1003603,E,DAAA,37,0.4,708.7507,43.2066,,*5C
$GPGNS,211542.00,,,,,,08,,,,2.9,136*7B
$GLGNS,211542.00,,,,,,09,,,,,*77
$GAGNS,211542.00,,,,,,08,,,,,*7B
$GBGNS,211542.00,,,,,,12,,,,,*73
$GPLLQ,211542.00,010125,,M,,M,1,37,0.947,,M*1E
$GPVTG,,T,,M,0.00,N,0.01,K,D*27
$GPHDT,,T*1B
$GPTHS,,V*0E
$GPROT,,V*08
$PSSN,HRP,211542.00,010125,,,,,,,00,0,,*60
$PTNL,AVR,211542.00,,Yaw,,Tilt,,,,0,,00*36
$GPGSA,A,3,02,08,10,16,21,23,27,32,,,,,0.8,0.4,0.6*32
$GPGSA,A,3,67,68,69,74,75,82,83,84,85,,,,0.8,0.4,0.6*39
$GPGSA,A,3,03,07,08,13,21,26,31,33,,,,,0.8,0.4,0.6*33
$GPGSA,A,3,05,08,13,14,27,28,33,36,41,42,43,60,0.8,0.4,0.6*3A
$GPGST,211542.00,1.903,0.497,0.333,13.853,0.489,0.345,0.734*6F
$GPGBS,211542.00,3.641,2.275,4.141,68,0.0001,5.296,6.071*5B
$GPGRS,211542.00,1,0.4,0.0,0.1,0.4,0.1,-0.4,-0.5,0.2,,,,*4C
$GPGRS,211542.00,1,5.0,5.3,0.1,-3.7,-4.4,-1.5,-1.9,-1.8,2.3,,,*4E
$GPGRS,211542.00,1,-0.4,-0.0,-0.0,0.5,-0.0,-0.2,-0.1,-0.1,,,,*61
$GPGRS,211542.00,1,1.1,-0.2,0.1,-1.4,0.3,-0.1,-0.7,-0.3,-0.6,0.3,0.3,-1.5*60
$GPGSV,5,1,19,10,70,078,51,16,17,194,39,32,23,134,43,02,20,276,42*7B
$GPGSV,5,2,19,23,30,050,43,21,40,280,43,27,70,159,50,08,67,288,50*78
$GPGSV,5,3,19,18,01,083,36,14,00,336,35,36,35,170,44,58,13,245,37*79
$GPGSV,5,4,19,57,11,108,37,34,31,208,42,40,24,132,36,49,34,195,44*76
$GPGSV,5,5,19,41,07,108,34,61,03,257,38*72
$GLGSV,3,1,10,68,54,090,51,69,31,158,49,67,25,032,46,75,23,317,45*6A
$GLGSV,3,2,10,74,23,260,43,83,44,077,40,84,53,318,41,73,03,222,42*6D
$GLGSV,3,3,10,82,07,097,41,85,06,291,43*64
$GAGSV,3,1,09,26,72,300,48,03,10,030,37,21,19,196,40,33,24,269,41*67
$GAGSV,3,2,09,07,20,134,39,08,28,078,42,31,26,311,41,23,42,250,*62
$GAGSV,3,3,09,13,46,069,45*5F
$GBGSV,6,1,21,28,77,088,51,41,34,172,46,08,16,043,37,60,11,108,40*62
$GBGSV,6,2,21,05,23,128,39,42,21,042,43,31,16,066,,43,15,111,42*6C
$GBGSV,6,3,21,13,24,046,40,46,14,272,,58,22,264,,57,37,240,*62
$GBGSV,6,4,21,27,52,298,49,14,42,062,45,33,56,101,50,30,04,294,39*64
$GBGSV,6,5,21,38,02,046,36,50,01,030,,37,01,224,38,36,09,321,40*60
$GBGSV,6,6,21,02,08,105,34*51
$GPGGA,211542.00,,,,,0,00,,,M,,M,,*49
$PTNL,GGK,211542.00,010125,4742.1604055,N,01618.1003603,E,1,37,0.8,EHT751.9573,M*43
$GPGGQ,211542.00,010125,4742.1604055,N,01618.1003603,E,1,37,0.947,708.7507,M*3E
$GPGFA,211542.00,4.729,6.017,0.497,0.333,13.853,0.734,,VVV*3F
$GPLLK,211542.00,010125,,M,,M,1,37,0.9,,M*07
$GNGMP,211542.00,,,,,DAAA,37,0.4,,,,*57
$GPGMP,211542.00,,,,,,08,,,,2.9,136*7B
$GLGMP,211542.00,,,,,,09,,,,,*77
$GAGMP,211542.00,,,,,,08,,,,,*7B
$GBGMP,211542.00,,,,,,12,,,,,*73
$PSSN,SNC,[0,335760000,2347]*40
$GPZDA,211547.00,01,01,2025,,*67
$GPDTM,W84,,00.0000000,N,00.0000000,E,00.0000000,W84*5F
$PSSN,TFM,211547.00,,,,*6B
$GPRMC,211547.00,A,4742.1604071,N,01618.1003603,E,0.0,,010125,5.1,E,D*10
$GPGLL,4742.1604071,N,01618.1003603,E,211547.00,A,D*61
$GPGGA,211547.00,4742.1604071,N,01618.1003603,E,2,37,0.4,708.7576,M,43.2066,M,1.9,0136*49
$GNGNS,211547.00,4742.1604071,N,01618.1003603,E,DAAA,37,0.4,708.7576,43.2066,,*59
$GPGNS,211547.00,,,,,,08,,,,1.9,136*7D
$GLGNS,211547.00,,,,,,09,,,,,*72
$GAGNS,211547.00,,,,,,08,,,,,*7E
$GBGNS,211547.00,,,,,,12,,,,,*76
$GPLLQ,211547.00,010125,,M,,M,1,37,0.946,,M*1A
$GPVTG,,T,,M,0.00,N,0.00,K,D*26
$GPHDT,,T*1B
$GPTHS,,V*0E
$GPROT,,V*08
$PSSN,HRP,211547.00,010125,,,,,,,00,0,,*65
$PTNL,AVR,211547.00,,Yaw,,Tilt,,,,0,,00*33
$GPGSA,A,3,02,08,10,16,21,23,27,32,,,,,0.8,0.4,0.6*32
$GPGSA,A,3,67,68,69,74,75,82,83,84,85,,,,0.8,0.4,0.6*39
$GPGSA,A,3,03,07,08,13,21,26,31,33,,,,,0.8,0.4,0.6*33
$GPGSA,A,3,05,08,13,14,27,28,33,36,41,42,43,60,0.8,0.4,0.6*3A
$GPGST,211547.00,1.997,0.494,0.333,14.081,0.486,0.345,0.734*6B
$GPGBS,211547.00,3.515,2.265,4.023,67,0.0001,5.410,6.219*53
$GPGRS,211547.00,1,0.0,-0.2,0.2,0.7,0.2,0.0,-0.4,0.0,,,,*4B
$GPGRS,211547.00,1,5.4,5.2,0.3,-4.5,-4.5,-1.8,-1.9,-1.9,2.0,,,*47
$GPGRS,211547.00,1,-0.4,0.1,-0.0,0.2,-0.1,-0.2,-0.2,-0.0,,,,*4C
$GPGRS,211547.00,1,1.7,0.0,-0.5,-0.5,0.2,-0.1,-1.1,-0.4,-0.7,0.3,0.3,-1.5*65
$GPGSV,5,1,19,10,70,078,51,16,16,194,40,32,23,134,43,02,20,276,42*74
$GPGSV,5,2,19,23,30,049,43,21,40,280,42,27,70,159,50,08,67,288,50*71
$GPGSV,5,3,19,18,01,083,35,14,00,336,36,36,35,170,44,58,13,245,38*76
$GPGSV,5,4,19,57,11,108,37,34,31,208,42,40,24,132,36,49,34,195,43*71
$GPGSV,5,5,19,41,07,108,33,61,03,257,38*75
$GLGSV,3,1,10,68,54,090,51,69,31,158,49,67,25,032,45,75,23,317,46*6A
$GLGSV,3,2,10,74,23,260,42,83,44,077,40,84,53,318,41,73,03,222,42*6C
$GLGSV,3,3,10,82,07,097,41,85,06,291,42*65
$GAGSV,3,1,09,26,72,300,48,03,10,030,37,21,19,196,40,33,24,269,41*67
$GAGSV,3,2,09,07,20,134,39,08,28,078,42,31,26,311,42,23,42,250,*61
$GAGSV,3,3,09,13,46,069,45*5F
$GBGSV,6,1,21,28,77,089,51,41,34,172,46,08,16,043,37,60,11,108,40*63
$GBGSV,6,2,21,05,23,128,39,42,21,042,43,31,16,066,,43,15,111,42*6C
$GBGSV,6,3,21,13,24,046,41,46,14,272,,58,22,264,,57,37,240,*63
$GBGSV,6,4,21,27,52,298,50,14,42,062,45,33,56,101,50,30,04,294,39*6C
$GBGSV,6,5,21,38,02,046,36,50,01,030,,37,01,224,38,36,09,321,40*60
$GBGSV,6,6,21,02,08,105,34*51
$GPGGA,211547.00,,,,,0,00,,,M,,M,,*4C
$PTNL,GGK,211547.00,010125,4742.1604071,N,01618.1003603,E,1,37,0.8,EHT751.9641,M*42
$GPGGQ,211547.00,010125,4742.1604071,N,01618.1003603,E,1,37,0.946,708.7576,M*3A
$GPGFA,211547.00,4.697,6.023,0.494,0.333,14.081,0.734,,VVV*3A
$GPLLK,211547.00,010125,,M,,M,1,37,0.9,,M*02
$GNGMP,211547.00,,,,,DAAA,37,0.4,,,,*52
$GPGMP,211547.00,,,,,,08,,,,1.9,136*7D
$GLGMP,211547.00,,,,,,09,,,,,*72
$GAGMP,211547.00,,,,,,08,,,,,*7E
$GBGMP,211547.00,,,,,,12,,,,,*76
$PSSN,SNC,[0,335765000,2347]*45
$GPZDA,211552.00,01,01,2025,,*63
$GPDTM,W84,,00.0000000,N,00.0000000,E,00.0000000,W84*5F
$PSSN,TFM,211552.00,,,,*6F
$GPRMC,211552.00,A,4742.1604060,N,01618.1003574,E,0.0,,010125,5.1,E,D*17
$GPGLL,4742.1604060,N,01618.1003574,E,211552.00,A,D*66
$GPGGA,211552.00,4742.1604060,N,01618.1003574,E,2,37,0.4,708.7620,M,43.2066,M,2.9,0136*4D
$GNGNS,211552.00,4742.1604060,N,01618.1003574,E,DAAA,37,0.4,708.7620,43.2066,,*5E
$GPGNS,211552.00,,,,,,08,,,,2.9,136*7A
$GLGNS,211552.00,,,,,,09,,,,,*76
$GAGNS,211552.00,,,,,,08,,,,,*7A
$GBGNS,211552.00,,,,,,12,,,,,*72
$GPLLQ,211552.00,010125,,M,,M,1,37,0.939,,M*16
$GPVTG,,T,,M,0.00,N,0.01,K,D*27
$GPHDT,,T*1B
$GPTHS,,V*0E
$GPROT,,V*08
$PSSN,HRP,211552.00,010125,,,,,,,00,0,,*61
$PTNL,AVR,211552.00,,Yaw,,Tilt,,,,0,,00*37
$GPGSA,A,3,02,08,10,16,21,23,27,32,,,,,0.8,0.4,0.6*32
$GPGSA,A,3,67,68,69,74,75,82,83,84,85,,,,0.8,0.4,0.6*39
$GPGSA,A,3,03,07,08,13,21,26,31,33,,,,,0.8,0.4,0.6*33
$GPGSA,A,3,05,08,13,14,27,28,33,36,41,42,43,60,0.8,0.4,0.6*3A
$GPGST,211552.00,1.999,0.486,0.332,13.988,0.478,0.343,0.732*65
$GPGBS,211552.00,3.553,2.292,4.064,67,0.0001,5.564,6.219*5C
$GPGRS,211552.00,1,0.2,-0.1,0.3,0.5,-0.4,0.4,-0.4,0.1,,,,*63
$GPGRS,211552.00,1,5.6,5.1,0.3,-4.7,-3.8,-1.3,-2.3,-2.8,2.1,,,*4B
$GPGRS,211552.00,1,-0.1,0.2,-0.0,0.4,-0.0,0.0,0.1,-0.2,,,,*4A
$GPGRS,211552.00,1,1.1,0.7,-0.3,-0.8,0.3,-0.0,-1.0,-0.6,0.4,-0.0,0.3,-1.4*69
$GPGSV,5,1,19,10,70,078,51,16,16,194,40,32,23,134,43,02,20,276,42*74
$GPGSV,5,2,19,23,30,049,43,21,40,280,42,27,70,159,50,08,67,287,50*7E
$GPGSV,5,3,19,18,01,083,35,14,00,336,36,36,35,170,44,58,13,245,37*79
$GPGSV,5,4,19,57,11,108,37,34,31,208,42,40,24,132,36,49,34,195,43*71
$GPGSV,5,5,19,41,07,108,34,61,03,257,37*7D
$GLGSV,3,1,10,68,54,090,51,69,31,158,48,67,25,032,46,75,24,317,46*6F
$GLGSV,3,2,10,74,23,260,42,83,44,077,40,84,53,318,41,73,03,222,43*6D
$GLGSV,3,3,10,82,07,098,41,85,06,291,43*6B
$GAGSV,3,1,09,26,72,300,48,03,10,030,37,21,19,196,39,33,24,269,41*69
$GAGSV,3,2,09,07,20,134,39,08,28,078,42,31,26,311,41,23,42,250,*62
$GAGSV,3,3,09,13,46,069,45*5F
$GBGSV,6,1,21,28,77,089,51,41,34,172,46,08,16,043,36,60,11,108,40*62
$GBGSV,6,2,21,05,23,128,39,42,21,042,43,31,16,066,,43,15,111,42*6C
$GBGSV,6,3,21,13,24,046,40,46,14,272,,58,22,264,,57,37,240,*62
$GBGSV,6,4,21,27,52,298,49,14,42,062,45,33,56,100,50,30,04,294,39*65
$GBGSV,6,5,21,38,02,046,35,50,00,030,,37,01,224,38,36,09,321,40*62
$GBGSV,6,6,21,02,08,105,34*51
$GPGGA,211552.00,,,,,0,00,,,M,,M,,*48
$PTNL,GGK,211552.00,010125,4742.1604060,N,01618.1003574,E,1,37,0.8,EHT751.9686,M*4E
$GPGGQ,211552.00,010125,4742.1604060,N,01618.1003574,E,1,37,0.939,708.7620,M*35
$GPGFA,211552.00,4.621,6.002,0.486,0.332,13.988,0.732,,VVV*33
$GPLLK,211552.00,010125,,M,,M,1,37,0.9,,M*06
$GNGMP,211552.00,,,,,DAAA,37,0.4,,,,*56
$GPGMP,211552.00,,,,,,08,,,,2.9,136*7A
$GLGMP,211552.00,,,,,,09,,,,,*76
$GAGMP,211552.00,,,,,,08,,,,,*7A
$GBGMP,211552.00,,,,,,12,,,,,*72
$PSSN,SNC,[0,335770000,2347]*41
$GPZDA,211557.00,01,01,2025,,*66
$GPDTM,W84,,00.0000000,N,00.0000000,E,00.0000000,W84*5F
$PSSN,TFM,211557.00,,,,*6A
$GPRMC,211557.00,A,4742.1604055,N,01618.1003541,E,0.0,,010125,5.1,E,D*12
$GPGLL,4742.1604055,N,01618.1003541,E,211557.00,A,D*63
$GPGGA,211557.00,4742.1604055,N,01618.1003541,E,2,37,0.4,708.7678,M,43.2066,M,2.4,0136*48
$GNGNS,211557.00,4742.1604055,N,01618.1003541,E,DAAA,37,0.4,708.7678,43.2066,,*56
$GPGNS,211557.00,,,,,,08,,,,2.4,136*72
$GLGNS,211557.00,,,,,,09,,,,,*73
$GAGNS,211557.00,,,,,,08,,,,,*7F
$GBGNS,211557.00,,,,,,12,,,,,*77
$GPLLQ,211557.00,010125,,M,,M,1,37,0.946,,M*1B
$GPVTG,,T,,M,0.00,N,0.00,K,D*26
$GPHDT,,T*1B
$GPTHS,,V*0E
$GPROT,,V*08
$PSSN,HRP,211557.00,010125,,,,,,,00,0,,*64
$PTNL,AVR,211557.00,,Yaw,,Tilt,,,,0,,00*32
$GPGSA,A,3,02,08,10,16,21,23,27,32,,,,,0.8,0.4,0.6*32
$GPGSA,A,3,67,68,69,74,75,82,83,84,85,,,,0.8,0.4,0.6*39
$GPGSA,A,3,03,07,08,13,21,26,31,33,,,,,0.8,0.4,0.6*33
$GPGSA,A,3,05,08,13,14,27,28,33,36,41,42,43,60,0.8,0.4,0.6*3A
$GPGST,211557.00,1.944,0.492,0.335,13.746,0.484,0.346,0.736*6C
$GPGBS,211557.00,3.556,2.275,4.148,68,0.0001,5.244,6.071*5C
$GPGRS,211557.00,1,-0.2,0.0,0.3,0.3,-0.2,-0.0,-0.4,0.3,,,,*4C
$GPGRS,211557.00,1,5.3,5.2,-0.7,-4.9,-3.7,-1.2,-1.2,-2.4,2.3,,,*6D
$GPGRS,211557.00,1,0.1,-0.1,-0.4,0.5,0.2,-0.0,0.1,-0.1,,,,*48
$GPGRS,211557.00,1,1.2,0.1,-0.3,-0.2,0.2,-0.1,-0.9,-0.1,0.4,-0.1,-0.2,-1.5*40
$GPGSV,5,1,19,10,70,078,51,16,16,194,41,32,23,134,43,02,20,276,41*76
$GPGSV,5,2,19,23,30,049,42,21,40,280,43,27,70,159,50,08,67,287,50*7E
$GPGSV,5,3,19,18,01,083,36,14,00,336,36,36,35,170,44,58,13,245,37*7A
$GPGSV,5,4,19,57,11,108,37,34,31,208,42,40,24,132,36,49,34,195,43*71
$GPGSV,5,5,19,41,07,108,34,61,03,257,38*72
$GLGSV,3,1,10,68,54,090,51,69,31,158,48,67,25,032,46,75,24,317,46*6F
$GLGSV,3,2,10,74,23,260,42,83,44,077,40,84,53,318,41,73,03,222,43*6D
$GLGSV,3,3,10,82,07,098,41,85,06,291,43*6B
$GAGSV,3,1,09,26,72,300,48,03,10,030,37,21,19,196,39,33,24,269,41*69
$GAGSV,3,2,09,07,20,134,40,08,28,078,42,31,26,311,41,23,42,250,*6C
$GAGSV,3,3,09,13,46,069,45*5F
$GBGSV,6,1,21,28,77,089,51,41,34,172,47,08,16,043,36,60,11,108,40*63
$GBGSV,6,2,21,05,23,128,39,42,21,042,43,31,16,066,,43,15,111,42*6C
$GBGSV,6,3,21,13,24,046,40,46,14,272,,58,22,264,,57,37,240,*62
$GBGSV,6,4,21,27,52,298,49,14,42,062,45,33,56,100,50,30,04,294,39*65
$GBGSV,6,5,21,38,02,046,36,50,00,030,,37,01,224,38,36,09,321,41*60
$GBGSV,6,6,21,02,08,105,34*51
$GPGGA,211557.00,,,,,0,00,,,M,,M,,*4D
$PTNL,GGK,211557.00,010125,4742.1604055,N,01618.1003541,E,1,37,0.8,EHT751.9743,M*43
$GPGGQ,211557.00,010125,4742.1604055,N,01618.1003541,E,1,37,0.946,708.7678,M*35
$GPGFA,211557.00,4.674,6.035,0.492,0.335,13.746,0.736,,VVV*38
$GPLLK,211557.00,010125,,M,,M,1,37,0.9,,M*03
$GNGMP,211557.00,,,,,DAAA,37,0.4,,,,*53
$GPGMP,211557.00,,,,,,08,,,,2.4,136*72
$GLGMP,211557.00,,,,,,09,,,,,*73
$GAGMP,211557.00,,,,,,08,,,,,*7F
$GBGMP,211557.00,,,,,,12,,,,,*77
$PSSN,SNC,[0,335775000,2347]*44
$GPZDA,211602.00,01,01,2025,,*65
$GPDTM,W84,,00.0000000,N,00.0000000,E,00.0000000,W84*5F
$PSSN,TFM,211602.00,,,,*69
$GPRMC,211602.00,A,4742.1604061,N,01618.1003501,E,0.0,,010125,5.1,E,D*12
$GPGLL,4742.1604061,N,01618.1003501,E,211602.00,A,D*63
$GPGGA,211602.00,4742.1604061,N,01618.1003501,E,2,37,0.4,708.7673,M,43.2066,M,2.9,0136*4E
$GNGNS,211602.00,4742.1604061,N,01618.1003501,E,DAAA,37,0.4,708.7673,43.2066,,*5D
$GPGNS,211602.00,,,,,,08,,,,2.9,136*7C
$GLGNS,211602.00,,,,,,09,,,,,*70
$GAGNS,211602.00,,,,,,08,,,,,*7C
$GBGNS,211602.00,,,,,,12,,,,,*74
$GPLLQ,211602.00,010125,,M,,M,1,37,0.947,,M*19
$GPVTG,,T,,M,0.00,N,0.01,K,D*27
$GPHDT,,T*1B
$GPTHS,,V*0E
$GPROT,,V*08
$PSSN,HRP,211602.00,010125,,,,,,,00,0,,*67
$PTNL,AVR,211602.00,,Yaw,,Tilt,,,,0,,00*31
$GPGSA,A,3,02,08,10,16,21,23,27,32,,,,,0.8,0.4,0.6*32
$GPGSA,A,3,67,68,69,74,75,82,83,84,85,,,,0.8,0.4,0.6*39
$GPGSA,A,3,03,07,08,13,21,26,31,33,,,,,0.8,0.4,0.6*33
$GPGSA,A,3,05,08,13,14,27,28,33,36,41,42,43,60,0.8,0.4,0.6*3A
$GPGST,211602.00,1.867,0.497,0.333,13.901,0.489,0.345,0.734*6D
$GPGBS,211602.00,3.635,2.269,4.144,68,0.0001,5.183,6.071*50
$GPGRS,211602.00,1,-0.2,0.1,0.1,0.3,0.1,-0.0,-0.2,-0.2,,,,*48
$GPGRS,211602.00,1,5.2,5.2,-0.2,-3.7,-4.0,-2.2,-1.6,-2.7,1.1,,,*66
$GPGRS,211602.00,1,0.4,-0.2,-0.1,0.4,-0.1,0.0,0.1,-0.4,,,,*4F
$GPGRS,211602.00,1,1.4,0.3,-0.0,0.2,0.4,0.2,-0.9,-0.0,-0.2,0.4,0.4,-1.1*6C
$GPGSV,5,1,19,10,70,078,51,16,16,194,41,32,23,134,43,02,20,276,42*75
$GPGSV,5,2,19,23,29,049,42,21,40,280,43,27,70,159,50,08,67,287,50*76
$GPGSV,5,3,19,18,01,083,36,14,00,336,35,36,35,170,44,58,13,245,37*79
$GPGSV,5,4,19,57,11,108,37,34,31,208,42,40,24,132,36,49,34,195,43*71
$GPGSV,5,5,19,41,07,108,34,61,03,257,38*72
$GLGSV,3,1,10,68,54,090,51,69,31,158,48,67,25,032,46,75,24,317,46*6F
$GLGSV,3,2,10,74,23,260,42,83,44,077,40,84,53,318,41,73,03,222,43*6D
$GLGSV,3,3,10,82,07,098,41,85,07,291,43*6A
$GAGSV,3,1,09,26,72,300,48,21,19,196,39,33,24,269,41,07,20,134,40*6B
$GAGSV,3,2,09,08,29,078,42,31,26,311,41,23,42,250,,13,46,069,45*64
$GAGSV,3,3,09,03,10,030,38*5B
$GBGSV,6,1,21,28,77,089,51,41,34,172,46,08,16,043,36,60,11,108,40*62
$GBGSV,6,2,21,05,23,128,38,42,21,042,43,31,16,066,,43,15,111,42*6D
$GBGSV,6,3,21,13,24,046,40,46,14,272,,58,22,264,,57,37,240,*62
$GBGSV,6,4,21,27,52,298,49,14,42,062,46,33,56,100,50,30,04,294,39*66
$GBGSV,6,5,21,38,02,046,35,50,00,030,,37,01,224,38,36,09,321,40*62
$GBGSV,6,6,21,02,08,105,34*51
$GPGGA,211602.00,,,,,0,00,,,M,,M,,*4E
$PTNL,GGK,211602.00,010125,4742.1604061,N,01618.1003501,E,1,37,0.8,EHT751.9738,M*4F
$GPGGQ,211602.00,010125,4742.1604061,N,01618.1003501,E,1,37,0.947,708.7673,M*3F
$GPGFA,211602.00,4.727,6.018,0.497,0.333,13.901,0.734,,VVV*3F
$GPLLK,211602.00,010125,,M,,M,1,37,0.9,,M*00
$GNGMP,211602.00,,,,,DAAA,37,0.4,,,,*50
$GPGMP,211602.00,,,,,,08,,,,2.9,136*7C
$GLGMP,211602.00,,,,,,09,,,,,*70
$GAGMP,211602.00,,,,,,08,,,,,*7C
$GBGMP,211602.00,,,,,,12,,,,,*74
$PSSN,SNC,[0,335780000,2347]*4E
$GPZDA,211607.00,01,01,2025,,*60
$GPDTM,W84,,00.0000000,N,00.0000000,E,00.0000000,W84*5F
$PSSN,TFM,211607.00,,,,*6C
$GPRMC,211607.00,A,4742.1604022,N,01618.1003514,E,0.0,,010125,5.1,E,D*14
$GPGLL,4742.1604022,N,01618.1003514,E,211607.00,A,D*65
$GPGGA,211607.00,4742.1604022,N,01618.1003514,E,2,37,0.4,708.7688,M,43.2066,M,1.9,0136*4F
$GNGNS,211607.00,4742.1604022,N,01618.1003514,E,DAAA,37,0.4,708.7688,43.2066,,*5F
$GPGNS,211607.00,,,,,,08,,,,1.9,136*7A
$GLGNS,211607.00,,,,,,09,,,,,*75
$GAGNS,211607.00,,,,,,08,,,,,*79
$GBGNS,211607.00,,,,,,12,,,,,*71
$GPLLQ,211607.00,010125,,M,,M,1,37,0.945,,M*1E
$GPVTG,,T,,M,0.01,N,0.01,K,D*26
$GPHDT,,T*1B
$GPTHS,,V*0E
$GPROT,,V*08
$PSSN,HRP,211607.00,010125,,,,,,,00,0,,*62
$PTNL,AVR,211607.00,,Yaw,,Tilt,,,,0,,00*34
$GPGSA,A,3,02,08,10,16,21,23,27,32,,,,,0.8,0.4,0.6*32
$GPGSA,A,3,67,68,69,74,75,82,83,84,85,,,,0.8,0.4,0.6*39
$GPGSA,A,3,03,07,08,13,21,26,31,33,,,,,0.8,0.4,0.6*33
$GPGSA,A,3,05,08,13,14,27,28,33,36,41,42,43,60,0.8,0.4,0.6*3A
$GPGST,211607.00,1.977,0.494,0.333,14.126,0.486,0.345,0.734*6E
$GPGBS,211607.00,3.510,2.260,4.024,67,0.0001,5.723,6.220*5A
$GPGRS,211607.00,1,0.4,-0.0,0.1,-0.2,0.2,0.2,-0.3,-0.4,,,,*4D
$GPGRS,211607.00,1,5.7,5.2,-0.5,-4.6,-3.4,-1.9,-1.2,-3.2,1.9,,,*64
$GPGRS,211607.00,1,0.0,-0.2,0.1,0.3,0.1,0.1,0.1,-0.5,,,,*49
$GPGRS,211607.00,1,1.3,0.3,-0.2,-0.3,0.1,0.0,-0.9,-0.1,-0.4,0.0,0.7,-1.0*46
$GPGSV,5,1,19,10,70,078,51,16,16,194,40,32,23,134,42,02,20,276,42*75
$GPGSV,5,2,19,23,29,049,43,21,40,280,43,27,70,159,50,08,67,287,50*77
$GPGSV,5,3,19,18,01,083,35,14,00,336,34,36,35,170,44,58,13,245,38*74
$GPGSV,5,4,19,57,11,108,37,34,31,208,42,40,24,132,36,49,34,195,43*71
$GPGSV,5,5,19,41,07,108,34,61,03,257,38*72
$GLGSV,3,1,10,68,54,089,51,69,31,158,48,67,25,032,47,75,24,317,46*66
$GLGSV,3,2,10,74,23,260,42,83,44,077,40,84,53,318,41,73,03,222,43*6D
$GLGSV,3,3,10,82,07,098,40,85,07,291,42*6A
$GAGSV,3,1,09,26,72,300,48,21,19,196,40,33,24,269,41,07,20,134,39*6B
$GAGSV,3,2,09,08,29,078,42,31,26,311,41,23,42,250,,13,46,069,45*64
$GAGSV,3,3,09,03,10,030,38*5B
$GBGSV,6,1,21,28,77,089,51,41,34,172,46,08,16,043,36,60,11,108,40*62
$GBGSV,6,2,21,05,23,128,38,42,21,042,43,31,16,066,,43,15,111,42*6D
$GBGSV,6,3,21,13,24,046,40,46,14,272,,58,22,264,,57,37,240,*62
$GBGSV,6,4,21,27,52,298,49,14,42,062,45,33,56,100,50,30,05,294,40*6A
$GBGSV,6,5,21,38,02,046,34,50,00,030,,37,01,224,37,36,09,321,40*6C
$GBGSV,6,6,21,02,08,105,34*51
$GPGGA,211607.00,,,,,0,00,,,M,,M,,*4B
$PTNL,GGK,211607.00,010125,4742.1604022,N,01618.1003514,E,1,37,0.8,EHT751.9754,M*43
$GPGGQ,211607.00,010125,4742.1604022,N,01618.1003514,E,1,37,0.945,708.7688,M*3F
$GPGFA,211607.00,4.694,6.022,0.494,0.333,14.126,0.734,,VVV*33
$GPLLK,211607.00,010125,,M,,M,1,37,0.9,,M*05
$GNGMP,211607.00,,,,,DAAA,37,0.4,,,,*55
$GPGMP,211607.00,,,,,,08,,,,1.9,136*7A
$GLGMP,211607.00,,,,,,09,,,,,*75
$GAGMP,211607.00,,,,,,08,,,,,*79
$GBGMP,211607.00,,,,,,12,,,,,*71
$PSSN,SNC,[0,335785000,2347]*4B
$GPZDA,211612.00,01,01,2025,,*64
$GPDTM,W84,,00.0000000,N,00.0000000,E,00.0000000,W84*5F
$PSSN,TFM,211612.00,,,,*68
$GPRMC,211612.00,A,4742.1603992,N,01618.1003518,E,0.0,,010125,5.1,E,D*19
$GPGLL,4742.1603992,N,01618.1003518,E,211612.00,A,D*68
$GPGGA,211612.00,4742.1603992,N,01618.1003518,E,2,37,0.4,708.7761,M,43.2066,M,2.9,0136*47
$GNGNS,211612.00,4742.1603992,N,01618.1003518,E,DAAA,37,0.4,708.7761,43.2066,,*54
$GPGNS,211612.00,,,,,,08,,,,2.9,136*7D
$GLGNS,211612.00,,,,,,09,,,,,*71
$GAGNS,211612.00,,,,,,08,,,,,*7D
$GBGNS,211612.00,,,,,,12,,,,,*75
$GPLLQ,211612.00,010125,,M,,M,1,37,0.940,,M*1F
$GPVTG,,T,,M,0.00,N,0.01,K,D*27
$GPHDT,,T*1B
$GPTHS,,V*0E
$GPROT,,V*08
$PSSN,HRP,211612.00,010125,,,,,,,00,0,,*66
$PTNL,AVR,211612.00,,Yaw,,Tilt,,,,0,,00*30
$GPGSA,A,3,02,08,10,16,21,23,27,32,,,,,0.8,0.4,0.6*32
$GPGSA,A,3,67,68,69,74,75,82,83,84,85,,,,0.8,0.4,0.6*39
$GPGSA,A,3,03,07,08,13,21,26,31,33,,,,,0.8,0.4,0.6*33
$GPGSA,A,3,05,08,13,14,27,28,33,36,41,42,43,60,0.8,0.4,0.6*3A
$GPGST,211612.00,2.024,0.486,0.332,14.024,0.478,0.343,0.732*66
$GPGBS,211612.00,3.549,2.287,4.066,67,0.0001,6.156,6.220*5A
$GPGRS,211612.00,1,0.2,-0.0,0.2,-0.1,-0.2,0.7,-0.4,0.1,,,,*48
$GPGRS,211612.00,1,6.2,5.4,0.3,-4.7,-3.8,-1.4,-1.9,-2.2,1.8,,,*40
$GPGRS,211612.00,1,-0.2,-0.7,0.1,0.4,-0.1,0.1,-0.0,-0.4,,,,*60
$GPGRS,211612.00,1,0.9,-0.0,0.2,0.1,0.0,-0.0,-0.8,0.2,0.1,-0.3,0.6,-1.4*65
$GPGSV,5,1,19,10,70,078,51,16,16,194,40,32,23,134,42,02,20,276,42*75
$GPGSV,5,2,19,23,29,049,43,21,40,280,43,27,70,159,50,08,67,287,50*77
$GPGSV,5,3,19,18,01,084,36,14,00,336,35,36,35,170,44,58,13,245,38*71
$GPGSV,5,4,19,57,11,108,37,34,31,208,42,40,24,132,36,49,34,195,44*76
$GPGSV,5,5,19,41,07,108,34,61,03,257,38*72
$GLGSV,3,1,10,68,54,089,51,69,31,158,49,67,25,032,47,75,24,317,46*67
$GLGSV,3,2,10,74,23,260,42,83,44,077,40,84,53,318,41,73,03,222,43*6D
$GLGSV,3,3,10,82,07,098,41,85,07,291,43*6A
$GAGSV,3,1,09,26,72,300,48,21,19,196,40,33,24,269,41,07,20,133,38*6D
$GAGSV,3,2,09,08,29,078,42,31,26,311,41,23,42,250,,13,46,069,45*64
$GAGSV,3,3,09,03,10,030,37*54
$GBGSV,6,1,21,28,77,089,51,41,34,172,46,08,16,043,36,60,11,108,40*62
$GBGSV,6,2,21,05,23,128,38,42,21,042,42,31,16,066,,43,15,112,42*6F
$GBGSV,6,3,21,13,24,046,40,46,14,272,,58,22,264,,57,37,240,*62
$GBGSV,6,4,21,27,52,298,49,14,42,062,46,33,56,100,50,30,05,294,40*69
$GBGSV,6,5,21,38,02,046,35,50,00,030,,37,01,224,37,36,09,321,40*6D
$GBGSV,6,6,21,02,08,105,34*51
$GPGGA,211612.00,,,,,0,00,,,M,,M,,*4F
$PTNL,GGK,211612.00,010125,4742.1603992,N,01618.1003518,E,1,37,0.8,EHT751.9827,M*45
$GPGGQ,211612.00,010125,4742.1603992,N,01618.1003518,E,1,37,0.940,708.7761,M*31
$GPGFA,211612.00,4.621,6.004,0.486,0.332,14.024,0.732,,VVV*3A
$GPLLK,211612.00,010125,,M,,M,1,37,0.8,,M*00
$GNGMP,211612.00,,,,,DAAA,37,0.4,,,,*51
$GPGMP,211612.00,,,,,,08,,,,2.9,136*7D
$GLGMP,211612.00,,,,,,09,,,,,*71
$GAGMP,211612.00,,,,,,08,,,,,*7D
$GBGMP,211612.00,,,,,,12,,,,,*75
$PSSN,SNC,[0,335790000,2347]*4F
$GPZDA,211617.00,01,01,2025,,*61
$GPDTM,W84,,00.0000000,N,00.0000000,E,00.0000000,W84*5F
$PSSN,TFM,211617.00,,,,*6D
$GPRMC,211617.00,A,4742.1603969,N,01618.1003461,E,0.0,,010125,5.1,E,D*17
$GPGLL,4742.1603969,N,01618.1003461,E,211617.00,A,D*66
$GPGGA,211617.00,4742.1603969,N,01618.1003461,E,2,37,0.4,708.7812,M,43.2066,M,2.4,0136*4F
$GNGNS,211617.00,4742.1603969,N,01618.1003461,E,DAAA,37,0.4,708.7812,43.2066,,*51
$GPGNS,211617.00,,,,,,08,,,,2.4,136*75
$GLGNS,211617.00,,,,,,09,,,,,*74
$GAGNS,211617.00,,,,,,08,,,,,*78
$GBGNS,211617.00,,,,,,12,,,,,*70
$GPLLQ,211617.00,010125,,M,,M,1,37,0.946,,M*1C
$GPVTG,,T,,M,0.00,N,0.01,K,D*27
$GPHDT,,T*1B
$GPTHS,,V*0E
$GPROT,,V*08
$PSSN,HRP,211617.00,010125,,,,,,,00,0,,*63
$PTNL,AVR,211617.00,,Yaw,,Tilt,,,,0,,00*35
$GPGSA,A,3,02,08,10,16,21,23,27,32,,,,,0.8,0.4,0.6*32
$GPGSA,A,3,67,68,69,74,75,82,83,84,85,,,,0.8,0.4,0.6*39
$GPGSA,A,3,03,07,08,13,21,26,31,33,,,,,0.8,0.4,0.6*33
$GPGSA,A,3,05,08,13,14,27,28,33,36,41,42,43,60,0.8,0.4,0.6*3A
$GPGST,211617.00,2.042,0.492,0.335,13.778,0.484,0.345,0.736*69
$GPGBS,211617.00,3.551,2.269,4.150,67,0.0001,5.643,6.221*53
$GPGRS,211617.00,1,0.2,-0.1,0.1,-0.0,-0.2,0.5,-0.4,0.5,,,,*48
$GPGRS,211617.00,1,5.6,5.1,0.5,-5.1,-4.2,-1.6,-0.9,-1.9,2.7,,,*4C
$GPGRS,211617.00,1,-0.1,-0.4,-0.1,0.3,0.1,0.1,-0.0,-0.0,,,,*66
$GPGRS,211617.00,1,1.3,0.2,0.6,0.1,0.2,-0.1,-1.0,0.8,0.7,-0.1,0.7,-1.5*44
$GPGSV,5,1,19,10,70,078,51,16,16,194,40,32,24,134,42,02,20,276,42*72
$GPGSV,5,2,19,23,29,049,43,21,40,280,43,27,69,159,50,08,67,287,50*7F
$GPGSV,5,3,19,18,01,084,35,14,00,336,35,36,35,170,45,58,13,245,38*73
$GPGSV,5,4,19,57,11,108,38,34,31,208,42,40,24,132,36,49,34,195,44*79
$GPGSV,5,5,19,41,07,108,34,61,03,257,38*72
$GLGSV,3,1,10,68,54,089,50,69,31,158,49,67,25,032,46,75,24,317,46*67
$GLGSV,3,2,10,74,23,260,42,83,44,077,40,84,53,318,41,73,03,222,42*6C
$GLGSV,3,3,10,82,07,098,41,85,07,291,43*6A
$GAGSV,3,1,09,26,72,300,48,21,19,196,40,33,24,269,41,07,20,133,39*6C
$GAGSV,3,2,09,08,29,078,42,31,26,311,41,23,42,250,,13,46,069,45*64
$GAGSV,3,3,09,03,10,030,37*54
$GBGSV,6,1,21,28,77,089,51,41,34,172,46,08,16,043,36,60,11,108,40*62
$GBGSV,6,2,21,05,23,128,38,42,21,041,42,31,16,066,,43,15,112,42*6C
$GBGSV,6,3,21,13,24,046,40,46,14,272,,58,22,264,,57,37,240,*62
$GBGSV,6,4,21,27,52,298,49,14,42,062,45,33,56,100,50,30,05,294,39*64
$GBGSV,6,5,21,38,02,046,35,50,00,030,,37,01,224,37,36,09,321,41*6C
$GBGSV,6,6,21,02,08,105,34*51
$GPGGA,211617.00,,,,,0,00,,,M,,M,,*4A
$PTNL,GGK,211617.00,010125,4742.1603969,N,01618.1003461,E,1,37,0.8,EHT751.9878,M*41
$GPGGQ,211617.00,010125,4742.1603969,N,01618.1003461,E,1,37,0.946,708.7812,M*32
$GPGFA,211617.00,4.675,6.037,0.492,0.335,13.778,0.736,,VVV*31
$GPLLK,211617.00,010125,,M,,M,1,37,0.8,,M*05
$GNGMP,211617.00,,,,,DAAA,37,0.4,,,,*54
$GPGMP,211617.00,,,,,,08,,,,2.4,136*75
$GLGMP,211617.00,,,,,,09,,,,,*74
$GAGMP,211617.00,,,,,,08,,,,,*78
$GBGMP,211617.00,,,,,,12,,,,,*70
$PSSN,SNC,[0,335795000,2347]*4A
$GPZDA,211622.00,01,01,2025,,*67
$GPDTM,W84,,00.0000000,N,00.0000000,E,00.0000000,W84*5F
$PSSN,TFM,211622.00,,,,*6B
$GPRMC,211622.00,A,4742.1603964,N,01618.1003408,E,0.0,,010125,5.1,E,D*13
$GPGLL,4742.1603964,N,01618.1003408,E,211622.00,A,D*62
$GPGGA,211622.00,4742.1603964,N,01618.1003408,E,2,37,0.4,708.7865,M,43.2066,M,2.9,0136*46
$GNGNS,211622.00,4742.1603964,N,01618.1003408,E,DAAA,37,0.4,708.7865,43.2066,,*55
$GPGNS,211622.00,,,,,,08,,,,2.9,136*7E
$GLGNS,211622.00,,,,,,09,,,,,*72
$GAGNS,211622.00,,,,,,08,,,,,*7E
$GBGNS,211622.00,,,,,,12,,,,,*76
$GPLLQ,211622.00,010125,,M,,M,1,37,0.947,,M*1B
$GPVTG,,T,,M,0.00,N,0.00,K,D*26
$GPHDT,,T*1B
$GPTHS,,V*0E
$GPROT,,V*08
$PSSN,HRP,211622.00,010125,,,,,,,00,0,,*65
$PTNL,AVR,211622.00,,Yaw,,Tilt,,,,0,,00*33
$GPGSA,A,3,02,08,10,16,21,23,27,32,,,,,0.8,0.4,0.6*32
$GPGSA,A,3,67,68,69,74,75,82,83,84,85,,,,0.8,0.4,0.6*39
$GPGSA,A,3,03,07,08,13,21,26,31,33,,,,,0.8,0.4,0.6*33
$GPGSA,A,3,05,08,13,14,27,28,33,36,41,42,43,60,0.8,0.4,0.6*3A
$GPGST,211622.00,1.873,0.497,0.333,13.877,0.489,0.345,0.734*6A
$GPGBS,211622.00,3.629,2.262,4.143,68,0.0001,5.267,6.071*5A
$GPGRS,211622.00,1,0.1,-0.0,0.2,0.1,-0.3,0.3,-0.3,0.3,,,,*65
$GPGRS,211622.00,1,5.0,5.3,0.4,-3.9,-4.1,-1.9,-1.8,-2.0,1.7,,,*44
$GPGRS,211622.00,1,-0.2,-0.1,0.3,0.5,0.1,0.1,0.2,0.2,,,,*4F
$GPGRS,211622.00,1,1.0,0.9,0.2,-0.4,0.3,-0.0,-0.8,0.8,0.5,-0.3,0.6,-1.1*6A
$GPGSV,5,1,19,10,70,078,51,16,16,194,40,32,24,134,43,02,20,276,42*73
$GPGSV,5,2,19,23,29,049,44,21,40,280,43,27,69,159,50,08,67,287,50*78
$GPGSV,5,3,19,18,01,084,36,14,00,336,35,36,35,170,44,58,13,245,37*7E
$GPGSV,5,4,19,57,11,108,37,34,31,208,42,40,24,132,37,49,34,195,44*77
