$GPZDA,125942.00,01,01,2025,,*6A
$GPDTM,W84,,00.0000000,N,00.0000000,E,00.0000000,W84*5F
$PSSN,TFM,125942.00,,,,*66
$GPRMC,125942.00,A,4742.1603530,N,01618.1008244,E,0.0,,010125,5.1,E,D*16
$GPGLL,4742.1603530,N,01618.1008244,E,125942.00,A,D*67
$GPGGA,125942.00,4742.1603530,N,01618.1008244,E,2,39,0.4,708.2668,M,43.2066,M,3.0,0136*43
$GNGNS,125942.00,4742.1603530,N,01618.1008244,E,DAAA,39,0.4,708.2668,43.2066,,*58
$GPGNS,125942.00,,,,,,08,,,,3.0,136*7B
$GLGNS,125942.00,,,,,,09,,,,,*7F
$GAGNS,125942.00,,,,,,08,,,,,*73
$GBGNS,125942.00,,,,,,14,,,,,*7D
$GPLLQ,125942.00,010125,,M,,M,1,39,1.159,,M*1E
$GPVTG,,T,,M,0.00,N,0.00,K,D*26
$GPHDT,,T*1B
$GPTHS,,V*0E
$GPROT,,V*08
$PSSN,HRP,125942.00,010125,,,,,,,00,0,,*68
$PTNL,AVR,125942.00,,Yaw,,Tilt,,,,0,,00*3E
$GPGSA,A,3,06,11,12,19,24,25,29,32,,,,,0.8,0.4,0.7*3F
$GPGSA,A,3,67,68,69,76,77,78,86,87,88,,,,0.8,0.4,0.7*36
$GPGSA,A,3,02,07,08,27,29,30,34,36,,,,,0.8,0.4,0.7*3B
$GPGSA,A,3,05,07,10,12,24,25,26,33,34,35,40,41,0.8,0.4,0.7*3C
$GPGSA,A,3,44,60,,,,,,,,,,,0.8,0.4,0.7*3F
$GPGST,125942.00,2.255,0.558,0.383,13.152,0.550,0.394,0.941*68
$GPGBS,125942.00,3.262,2.358,6.573,68,0.0001,6.821,6.245*5F
$GPGRS,125942.00,1,-0.4,1.1,0.2,-0.1,-0.1,-0.2,-1.3,0.0,,,,*6C
$GPGRS,125942.00,1,6.0,6.8,1.9,-1.8,-5.8,-2.1,0.9,-1.7,-3.4,,,*4B
$GPGRS,125942.00,1,0.4,-0.1,-0.8,-0.6,1.0,0.4,-0.3,0.4,,,,*4E
$GPGRS,125942.00,1,1.2,1.6,0.4,-0.4,0.6,-0.2,0.1,-1.5,0.3,-1.3,0.3,0.3*43
$GPGRS,125942.00,1,0.3,-2.2,,,,,,,,,,*69
$GPGSV,5,1,19,12,81,343,50,06,27,077,42,29,12,208,40,11,22,118,42*73
$GPGSV,5,2,19,19,27,048,43,32,31,301,45,25,44,273,46,24,55,150,48*7D
$GPGSV,5,3,19,17,01,040,21,28,03,310,40,36,35,170,45,58,13,245,36*75
$GPGSV,5,4,19,40,23,133,36,34,31,208,43,49,34,195,44,57,08,111,37*71
$GPGSV,5,5,19,41,07,108,35,61,03,257,38*73
$GLGSV,3,1,10,77,57,065,47,69,21,330,47,67,14,226,46,88,19,163,46*65
$GLGSV,3,2,10,76,16,092,44,86,29,037,46,68,32,275,50,78,46,306,52*6E
$GLGSV,3,3,10,87,50,098,48,79,00,286,*61
$GAGSV,3,1,09,30,76,294,49,11,12,029,34,34,16,131,39,08,19,191,40*68
$GAGSV,3,2,09,27,24,264,42,36,27,078,43,29,26,311,42,07,45,246,46*63
$GAGSV,3,3,09,02,44,070,46*56
$GBGSV,6,1,21,24,85,015,51,31,12,097,,34,14,186,42,41,18,294,43*64
$GBGSV,6,2,21,07,12,055,38,05,20,130,39,33,13,245,43,12,34,164,45*6C
$GBGSV,6,3,21,10,25,058,39,23,31,284,,56,32,052,,25,32,293,46*68
$GBGSV,6,4,21,26,36,105,47,44,50,137,50,35,41,065,48,14,04,222,37*62
$GBGSV,6,5,21,40,06,044,38,02,04,109,33,20,00,346,,32,03,343,40*6D
$GBGSV,6,6,21,60,08,111,39*5D
$GPGGA,125942.00,,,,,0,00,,,M,,M,,*41
$PTNL,GGK,125942.00,010125,4742.1603530,N,01618.1008244,E,1,39,0.8,EHT751.4733,M*43
$GPGGQ,125942.00,010125,4742.1603530,N,01618.1008244,E,1,39,1.159,708.2668,M*3C
$GPGFA,125942.00,5.303,7.712,0.558,0.383,13.152,0.941,,VVV*34
$GPLLK,125942.00,010125,,M,,M,1,39,0.9,,M*01
$GNGMP,125942.00,,,,,DAAA,39,0.4,,,,*51
$GPGMP,125942.00,,,,,,08,,,,3.0,136*7B
$GLGMP,125942.00,,,,,,09,,,,,*7F
$GAGMP,125942.00,,,,,,08,,,,,*73
$GBGMP,125942.00,,,,,,14,,,,,*7D
$PSSN,SNC,[0,306000000,2347]*41
$GPZDA,125947.00,01,01,2025,,*6F
$GPDTM,W84,,00.0000000,N,00.0000000,E,00.0000000,W84*5F
$PSSN,TFM,125947.00,,,,*63
$GPRMC,125947.00,A,4742.1603511,N,01618.1008226,E,0.0,,010125,5.1,E,D*14
$GPGLL,4742.1603511,N,01618.1008226,E,125947.00,A,D*65
$GPGGA,125947.00,4742.1603511,N,01618.1008226,E,2,39,0.4,708.2668,M,43.2066,M,2.5,0136*45
$GNGNS,125947.00,4742.1603511,N,01618.1008226,E,DAAA,39,0.4,708.2668,43.2066,,*5A
$GPGNS,125947.00,,,,,,08,,,,2.5,136*7A
$GLGNS,125947.00,,,,,,09,,,,,*7A
$GAGNS,125947.00,,,,,,08,,,,,*76
$GBGNS,125947.00,,,,,,14,,,,,*78
$GPLLQ,125947.00,010125,,M,,M,1,39,1.162,,M*13
$GPVTG,,T,,M,0.00,N,0.01,K,D*27
$GPHDT,,T*1B
$GPTHS,,V*0E
$GPROT,,V*08
$PSSN,HRP,125947.00,010125,,,,,,,00,0,,*6D
$PTNL,AVR,125947.00,,Yaw,,Tilt,,,,0,,00*3B
$GPGSA,A,3,06,11,12,19,24,25,29,32,,,,,0.8,0.4,0.7*3F
$GPGSA,A,3,67,68,69,76,77,78,86,87,88,,,,0.8,0.4,0.7*36
$GPGSA,A,3,02,07,08,27,29,30,34,36,,,,,0.8,0.4,0.7*3B
$GPGSA,A,3,05,07,10,12,24,25,26,33,34,35,40,41,0.8,0.4,0.7*3C
$GPGSA,A,3,44,60,,,,,,,,,,,0.8,0.4,0.7*3F
$GPGST,125947.00,2.198,0.562,0.386,12.705,0.554,0.396,0.941*60
$GPGBS,125947.00,3.320,2.358,6.559,11,0.0001,1.271,1.096*58
$GPGRS,125947.00,1,-0.4,1.3,0.1,-0.6,-0.1,0.1,-1.5,0.4,,,,*43
$GPGRS,125947.00,1,5.1,6.3,2.1,-2.2,-6.6,-2.0,0.8,-1.6,-2.5,,,*49
$GPGRS,125947.00,1,0.6,-0.1,-0.8,-0.5,1.2,0.3,-0.5,0.1,,,,*4C
$GPGRS,125947.00,1,1.2,1.7,0.8,-1.0,0.6,0.1,0.5,-1.6,0.6,-0.9,-0.1,0.6*43
$GPGRS,125947.00,1,0.3,-2.1,,,,,,,,,,*6F
$GPGSV,5,1,19,12,81,343,50,06,27,077,42,29,12,208,39,11,22,118,43*7C
$GPGSV,5,2,19,19,27,048,42,32,31,301,45,25,44,273,46,24,55,150,48*7C
$GPGSV,5,3,19,17,01,040,22,28,03,310,38,36,35,170,45,58,13,245,36*79
$GPGSV,5,4,19,40,23,133,36,34,31,208,42,49,34,195,44,57,08,111,37*70
$GPGSV,5,5,19,41,07,108,35,61,03,257,37*7C
$GLGSV,3,1,10,77,57,065,47,69,21,330,46,67,14,226,45,88,19,163,46*67
$GLGSV,3,2,10,76,16,092,43,86,29,037,47,68,32,275,49,78,46,306,52*60
$GLGSV,3,3,10,87,50,098,48,79,00,286,*61
$GAGSV,3,1,09,30,76,294,49,11,12,029,34,34,16,131,39,08,19,191,40*68
$GAGSV,3,2,09,27,24,264,42,36,27,078,43,29,26,311,42,07,45,246,46*63
$GAGSV,3,3,09,02,44,070,46*56
$GBGSV,6,1,21,24,85,015,51,31,12,097,,34,14,186,42,41,18,294,43*64
$GBGSV,6,2,21,07,12,055,37,05,20,130,39,33,13,245,42,12,34,164,44*63
$GBGSV,6,3,21,10,25,058,40,23,31,284,,56,32,052,,25,32,293,46*66
$GBGSV,6,4,21,26,36,105,47,44,50,137,49,35,41,065,48,14,04,222,37*6A
$GBGSV,6,5,21,40,06,044,38,02,04,109,32,20,00,346,,32,03,343,40*6C
$GBGSV,6,6,21,60,08,111,39*5D
$GPGGA,125947.00,,,,,0,00,,,M,,M,,*44
$PTNL,GGK,125947.00,010125,4742.1603511,N,01618.1008226,E,1,39,0.8,EHT751.4734,M*46
$GPGGQ,125947.00,010125,4742.1603511,N,01618.1008226,E,1,39,1.162,708.2668,M*36
$GPGFA,125947.00,5.340,7.716,0.562,0.386,12.705,0.941,,VVV*3B
$GPLLK,125947.00,010125,,M,,M,1,39,0.9,,M*04
$GNGMP,125947.00,,,,,DAAA,39,0.4,,,,*54
$GPGMP,125947.00,,,,,,08,,,,2.5,136*7A
$GLGMP,125947.00,,,,,,09,,,,,*7A
$GAGMP,125947.00,,,,,,08,,,,,*76
$GBGMP,125947.00,,,,,,14,,,,,*78
$PSSN,SNC,[0,306005000,2347]*44
$GPZDA,125952.00,01,01,2025,,*6B
$GPDTM,W84,,00.0000000,N,00.0000000,E,00.0000000,W84*5F
$PSSN,TFM,125952.00,,,,*67
$GPRMC,125952.00,A,4742.1603488,N,01618.1008247,E,0.0,,010125,5.1,E,D*16
$GPGLL,4742.1603488,N,01618.1008247,E,125952.00,A,D*67
$GPGGA,125952.00,4742.1603488,N,01618.1008247,E,2,39,0.4,708.2677,M,43.2066,M,2.5,0136*49
$GNGNS,125952.00,4742.1603488,N,01618.1008247,E,DAAA,39,0.4,708.2677,43.2066,,*56
$GPGNS,125952.00,,,,,,08,,,,2.5,136*7E
$GLGNS,125952.00,,,,,,09,,,,,*7E
$GAGNS,125952.00,,,,,,08,,,,,*72
$GBGNS,125952.00,,,,,,14,,,,,*7C
$GPLLQ,125952.00,010125,,M,,M,1,39,1.154,,M*12
$GPVTG,,T,,M,0.01,N,0.01,K,D*26
$GPHDT,,T*1B
$GPTHS,,V*0E
$GPROT,,V*08
$PSSN,HRP,125952.00,010125,,,,,,,00,0,,*69
$PTNL,AVR,125952.00,,Yaw,,Tilt,,,,0,,00*3F
$GPGSA,A,3,06,11,12,19,24,25,29,32,,,,,0.8,0.4,0.7*3F
$GPGSA,A,3,67,68,69,76,77,78,86,87,88,,,,0.8,0.4,0.7*36
$GPGSA,A,3,02,07,08,27,29,30,34,36,,,,,0.8,0.4,0.7*3B
$GPGSA,A,3,05,07,10,12,24,25,26,33,34,35,40,41,0.8,0.4,0.7*3C
$GPGSA,A,3,44,60,,,,,,,,,,,0.8,0.4,0.7*3F
$GPGST,125952.00,2.110,0.562,0.386,12.389,0.555,0.396,0.931*62
$GPGBS,125952.00,3.279,2.300,6.607,29,0.0001,-1.486,1.424*71
$GPGRS,125952.00,1,-0.3,0.8,-0.0,-0.4,0.2,0.0,-1.5,0.5,,,,*4A
$GPGRS,125952.00,1,4.9,5.3,2.3,-3.2,-6.0,-2.1,0.9,-1.1,-2.6,,,*46
$GPGRS,125952.00,1,0.3,-0.2,-0.9,-0.6,1.3,0.1,-1.0,-0.1,,,,*66
$GPGRS,125952.00,1,1.5,1.8,0.2,-2.0,0.4,0.2,0.2,-1.5,0.7,-1.2,0.1,0.4*67
$GPGRS,125952.00,1,0.3,-2.0,,,,,,,,,,*6A
$GPGSV,5,1,19,12,81,344,50,06,27,077,43,29,12,208,39,11,22,118,43*7A
$GPGSV,5,2,19,19,27,048,42,32,31,301,45,25,44,273,46,24,55,150,48*7C
$GPGSV,5,3,19,17,01,040,20,28,03,310,35,36,35,170,45,58,13,245,36*76
$GPGSV,5,4,19,40,23,133,36,34,31,208,43,49,34,195,44,57,08,111,37*71
$GPGSV,5,5,19,41,07,108,35,61,03,257,38*73
$GLGSV,3,1,10,77,57,065,47,69,21,330,47,67,13,226,45,88,19,163,46*61
$GLGSV,3,2,10,76,15,092,43,86,29,037,47,68,32,275,49,78,46,306,51*60
$GLGSV,3,3,10,87,50,098,48,79,00,286,*61
$GAGSV,3,1,09,30,76,294,49,11,12,029,34,34,16,131,38,08,19,191,40*69
$GAGSV,3,2,09,27,24,264,42,36,27,078,42,29,26,311,41,07,45,246,46*61
$GAGSV,3,3,09,02,44,070,46*56
$GBGSV,6,1,21,24,85,016,51,31,12,097,,34,14,186,43,41,18,294,43*66
$GBGSV,6,2,21,07,12,055,38,05,20,130,39,33,13,245,42,12,34,164,44*6C
$GBGSV,6,3,21,10,25,058,40,23,31,284,,56,32,052,,25,32,293,46*66
$GBGSV,6,4,21,26,36,105,47,44,50,137,49,35,41,065,48,14,04,222,37*6A
$GBGSV,6,5,21,40,06,044,38,02,04,109,32,20,00,346,,32,03,343,40*6C
$GBGSV,6,6,21,60,08,111,39*5D
$GPGGA,125952.00,,,,,0,00,,,M,,M,,*40
$PTNL,GGK,125952.00,010125,4742.1603488,N,01618.1008247,E,1,39,0.8,EHT751.4742,M*45
$GPGGQ,125952.00,010125,4742.1603488,N,01618.1008247,E,1,39,1.154,708.2677,M*3F
$GPGFA,125952.00,5.345,7.635,0.562,0.386,12.389,0.931,,VVV*3D
$GPLLK,125952.00,010125,,M,,M,1,39,0.9,,M*00
$GNGMP,125952.00,,,,,DAAA,39,0.4,,,,*50
$GPGMP,125952.00,,,,,,08,,,,2.5,136*7E
$GLGMP,125952.00,,,,,,09,,,,,*7E
$GAGMP,125952.00,,,,,,08,,,,,*72
$GBGMP,125952.00,,,,,,14,,,,,*7C
$PSSN,SNC,[0,306010000,2347]*40
$GPZDA,125957.00,01,01,2025,,*6E
$GPDTM,W84,,00.0000000,N,00.0000000,E,00.0000000,W84*5F
$PSSN,TFM,125957.00,,,,*62
$GPRMC,125957.00,A,4742.1603489,N,01618.1008227,E,0.0,,010125,5.1,E,D*14
$GPGLL,4742.1603489,N,01618.1008227,E,125957.00,A,D*65
$GPGGA,125957.00,4742.1603489,N,01618.1008227,E,2,39,0.4,708.2633,M,43.2066,M,2.0,0136*4E
$GNGNS,125957.00,4742.1603489,N,01618.1008227,E,DAAA,39,0.4,708.2633,43.2066,,*54
$GPGNS,125957.00,,,,,,08,,,,2.0,136*7E
$GLGNS,125957.00,,,,,,09,,,,,*7B
$GAGNS,125957.00,,,,,,08,,,,,*77
$GBGNS,125957.00,,,,,,14,,,,,*79
$GPLLQ,125957.00,010125,,M,,M,1,39,1.156,,M*15
$GPVTG,,T,,M,0.00,N,0.00,K,D*26
$GPHDT,,T*1B
$GPTHS,,V*0E
$GPROT,,V*08
$PSSN,HRP,125957.00,010125,,,,,,,00,0,,*6C
$PTNL,AVR,125957.00,,Yaw,,Tilt,,,,0,,00*3A
$GPGSA,A,3,06,11,12,19,24,25,29,32,,,,,0.8,0.4,0.7*3F
$GPGSA,A,3,67,68,69,76,77,78,86,87,88,,,,0.8,0.4,0.7*36
$GPGSA,A,3,02,07,08,27,29,30,34,36,,,,,0.8,0.4,0.7*3B
$GPGSA,A,3,05,07,10,12,24,25,26,33,34,35,40,41,0.8,0.4,0.7*3C
$GPGSA,A,3,44,60,,,,,,,,,,,0.8,0.4,0.7*3F
$GPGST,125957.00,2.086,0.560,0.384,12.811,0.552,0.394,0.935*62
$GPGBS,125957.00,3.255,2.342,6.514,77,0.0001,-5.741,6.118*77
$GPGRS,125957.00,1,-0.4,0.2,0.1,-0.2,0.3,-0.1,-1.0,0.0,,,,*45
$GPGRS,125957.00,1,5.4,5.3,2.1,-1.8,-5.7,-2.4,1.6,-1.2,-3.3,,,*4D
$GPGRS,125957.00,1,0.1,-0.1,-0.8,-0.3,1.4,0.1,-0.8,0.3,,,,*47
$GPGRS,125957.00,1,1.4,1.8,0.6,-1.5,0.5,-0.2,0.1,-1.7,0.6,-1.2,0.0,0.4*4C
$GPGRS,125957.00,1,0.4,-1.9,,,,,,,,,,*62
$GPGSV,5,1,19,12,81,344,50,06,27,077,43,29,12,208,40,11,22,118,43*74
$GPGSV,5,2,19,19,27,048,43,32,31,301,45,25,44,273,46,24,55,150,48*7D
$GPGSV,5,3,19,17,01,040,22,28,03,310,37,36,35,170,45,58,13,245,36*76
$GPGSV,5,4,19,40,23,133,36,34,31,208,43,49,34,195,44,57,08,111,37*71
$GPGSV,5,5,19,41,07,108,35,61,03,257,38*73
$GLGSV,3,1,10,77,57,065,47,69,21,330,46,67,13,226,44,88,19,163,46*61
$GLGSV,3,2,10,76,15,092,44,86,29,037,48,68,32,275,48,78,46,306,51*69
$GLGSV,3,3,10,87,50,098,48,79,00,286,*61
$GAGSV,3,1,09,30,76,294,49,11,12,029,34,34,16,131,38,08,19,191,40*69
$GAGSV,3,2,09,27,24,264,42,36,27,078,42,29,26,311,42,07,45,246,46*62
$GAGSV,3,3,09,02,44,070,46*56
$GBGSV,6,1,21,24,85,016,51,31,12,097,,34,14,186,43,41,18,294,43*66
$GBGSV,6,2,21,07,12,055,37,05,20,130,39,33,13,245,42,12,34,164,44*63
$GBGSV,6,3,21,10,25,058,40,23,31,284,,25,32,293,46,56,32,052,*66
$GBGSV,6,4,21,26,36,105,47,44,50,137,50,35,41,065,48,32,03,343,39*69
$GBGSV,6,5,21,40,06,044,38,02,04,109,32,20,00,346,,14,04,222,37*69
$GBGSV,6,6,21,60,08,111,39*5D
$GPGGA,125957.00,,,,,0,00,,,M,,M,,*45
$PTNL,GGK,125957.00,010125,4742.1603489,N,01618.1008227,E,1,39,0.8,EHT751.4699,M*40
$GPGGQ,125957.00,010125,4742.1603489,N,01618.1008227,E,1,39,1.156,708.2633,M*3F
$GPGFA,125957.00,5.322,7.669,0.560,0.384,12.811,0.935,,VVV*3E
$GPLLK,125957.00,010125,,M,,M,1,39,0.9,,M*05
$GNGMP,125957.00,,,,,DAAA,39,0.4,,,,*55
$GPGMP,125957.00,,,,,,08,,,,2.0,136*7E
$GLGMP,125957.00,,,,,,09,,,,,*7B
$GAGMP,125957.00,,,,,,08,,,,,*77
$GBGMP,125957.00,,,,,,14,,,,,*79
$PSSN,SNC,[0,306015000,2347]*45
$GPZDA,130002.00,01,01,2025,,*63
$GPDTM,W84,,00.0000000,N,00.0000000,E,00.0000000,W84*5F
$PSSN,TFM,130002.00,,,,*6F
$GPRMC,130002.00,A,4742.1603490,N,01618.1008236,E,0.0,,010125,5.1,E,D*11
$GPGLL,4742.1603490,N,01618.1008236,E,130002.00,A,D*60
$GPGGA,130002.00,4742.1603490,N,01618.1008236,E,2,39,0.4,708.2627,M,43.2066,M,3.0,0136*4F
$GNGNS,130002.00,4742.1603490,N,01618.1008236,E,DAAA,39,0.4,708.2627,43.2066,,*54
$GPGNS,130002.00,,,,,,08,,,,3.0,136*72
$GLGNS,130002.00,,,,,,09,,,,,*76
$GAGNS,130002.00,,,,,,08,,,,,*7A
$GBGNS,130002.00,,,,,,14,,,,,*74
$GPLLQ,130002.00,010125,,M,,M,1,39,1.159,,M*17
$GPVTG,,T,,M,0.00,N,0.00,K,D*26
$GPHDT,,T*1B
$GPTHS,,V*0E
$GPROT,,V*08
$PSSN,HRP,130002.00,010125,,,,,,,00,0,,*61
$PTNL,AVR,130002.00,,Yaw,,Tilt,,,,0,,00*37
$GPGSA,A,3,06,11,12,19,24,25,29,32,,,,,0.8,0.4,0.7*3F
$GPGSA,A,3,67,68,69,76,77,78,86,87,88,,,,0.8,0.4,0.7*36
$GPGSA,A,3,02,07,08,27,29,30,34,36,,,,,0.8,0.4,0.7*3B
$GPGSA,A,3,05,07,10,12,24,25,26,33,34,35,40,41,0.8,0.4,0.7*3C
$GPGSA,A,3,44,60,,,,,,,,,,,0.8,0.4,0.7*3F
$GPGST,130002.00,2.100,0.557,0.383,13.143,0.549,0.393,0.942*61
$GPGBS,130002.00,3.267,2.351,6.593,68,0.0001,6.054,6.246*5D
$GPGRS,130002.00,1,-0.2,0.1,-0.1,-0.0,0.3,-0.1,-0.6,0.1,,,,*64
$GPGRS,130002.00,1,5.7,6.1,2.0,-1.3,-5.7,-2.8,2.1,-1.1,-2.0,,,*41
$GPGRS,130002.00,1,0.2,-0.1,-0.9,-0.2,1.3,0.2,-0.7,0.2,,,,*43
$GPGRS,130002.00,1,1.3,1.4,0.9,-1.4,0.5,0.0,0.1,-1.4,0.3,-0.8,0.1,0.1*62
$GPGRS,130002.00,1,0.5,-2.0,,,,,,,,,,*64
$GPGSV,5,1,19,12,81,344,50,06,27,077,43,29,12,208,40,11,22,118,42*75
$GPGSV,5,2,19,19,27,048,43,32,31,300,45,25,44,273,46,24,55,150,48*7C
$GPGSV,5,3,19,17,01,040,20,28,03,310,39,36,35,170,45,58,13,245,36*7A
$GPGSV,5,4,19,40,23,133,36,34,31,208,42,49,34,195,44,57,08,111,37*70
$GPGSV,5,5,19,41,07,108,35,61,03,257,38*73
$GLGSV,3,1,10,77,57,065,47,69,21,330,47,67,13,226,45,88,19,163,47*60
$GLGSV,3,2,10,76,15,092,44,86,29,037,47,68,32,275,49,78,46,306,52*64
$GLGSV,3,3,10,87,50,097,49,79,00,286,35*69
$GAGSV,3,1,09,30,76,294,49,11,12,029,34,34,16,131,38,08,19,191,40*69
$GAGSV,3,2,09,27,24,264,42,36,27,078,42,29,26,311,41,07,45,246,46*61
$GAGSV,3,3,09,02,44,070,46*56
$GBGSV,6,1,21,24,85,016,51,31,12,097,,34,14,186,43,41,18,294,43*66
$GBGSV,6,2,21,07,12,055,37,05,20,130,39,33,13,245,42,12,34,164,44*63
$GBGSV,6,3,21,10,25,058,40,23,31,284,,25,32,293,46,56,32,052,*66
$GBGSV,6,4,21,26,36,105,47,44,50,137,50,35,41,065,48,32,03,343,38*68
$GBGSV,6,5,21,40,06,044,38,02,04,109,33,20,00,346,,14,04,222,36*69
$GBGSV,6,6,21,60,08,111,39*5D
$GPGGA,130002.00,,,,,0,00,,,M,,M,,*48
$PTNL,GGK,130002.00,010125,4742.1603490,N,01618.1008236,E,1,39,0.8,EHT751.4692,M*4E
$GPGGQ,130002.00,010125,4742.1603490,N,01618.1008236,E,1,39,1.159,708.2627,M*30
$GPGFA,130002.00,5.297,7.724,0.557,0.383,13.143,0.942,,VVV*38
$GPLLK,130002.00,010125,,M,,M,1,39,0.9,,M*08
$GNGMP,130002.00,,,,,DAAA,39,0.4,,,,*58
$GPGMP,130002.00,,,,,,08,,,,3.0,136*72
$GLGMP,130002.00,,,,,,09,,,,,*76
$GAGMP,130002.00,,,,,,08,,,,,*7A
$GBGMP,130002.00,,,,,,14,,,,,*74
$PSSN,SNC,[0,306020000,2347]*43
$GPZDA,130007.00,01,01,2025,,*66
$GPDTM,W84,,00.0000000,N,00.0000000,E,00.0000000,W84*5F
$PSSN,TFM,130007.00,,,,*6A
$GPRMC,130007.00,A,4742.1603488,N,01618.1008226,E,0.0,,010125,5.1,E,D*1C
$GPGLL,4742.1603488,N,01618.1008226,E,130007.00,A,D*6D
$GPGGA,130007.00,4742.1603488,N,01618.1008226,E,2,39,0.4,708.2602,M,43.2066,M,2.5,0136*41
$GNGNS,130007.00,4742.1603488,N,01618.1008226,E,DAAA,39,0.4,708.2602,43.2066,,*5E
$GPGNS,130007.00,,,,,,08,,,,2.5,136*73
$GLGNS,130007.00,,,,,,09,,,,,*73
$GAGNS,130007.00,,,,,,08,,,,,*7F
$GBGNS,130007.00,,,,,,14,,,,,*71
$GPLLQ,130007.00,010125,,M,,M,1,39,1.162,,M*1A
$GPVTG,,T,,M,0.00,N,0.00,K,D*26
$GPHDT,,T*1B
$GPTHS,,V*0E
$GPROT,,V*08
$PSSN,HRP,130007.00,010125,,,,,,,00,0,,*64
$PTNL,AVR,130007.00,,Yaw,,Tilt,,,,0,,00*32
$GPGSA,A,3,06,11,12,19,24,25,29,32,,,,,0.8,0.4,0.7*3F
$GPGSA,A,3,67,68,69,76,77,78,86,87,88,,,,0.8,0.4,0.7*36
$GPGSA,A,3,02,07,08,27,29,30,34,36,,,,,0.8,0.4,0.7*3B
$GPGSA,A,3,05,07,10,12,24,25,26,33,34,35,40,41,0.8,0.4,0.7*3C
$GPGSA,A,3,44,60,,,,,,,,,,,0.8,0.4,0.7*3F
$GPGST,130007.00,2.153,0.561,0.386,12.664,0.554,0.396,0.942*68
$GPGBS,130007.00,3.323,2.351,6.576,68,0.0001,6.772,6.247*50
$GPGRS,130007.00,1,-0.4,0.3,0.2,-0.4,0.1,-0.1,-0.6,0.2,,,,*4E
$GPGRS,130007.00,1,5.5,6.8,2.5,-1.3,-5.9,-2.1,1.3,-0.9,-2.2,,,*47
$GPGRS,130007.00,1,0.4,-0.1,-0.9,-0.3,1.1,0.2,-0.4,0.1,,,,*43
$GPGRS,130007.00,1,1.0,1.2,1.5,-1.1,0.6,0.1,-0.2,-1.2,-0.6,-0.9,0.5,0.1*6D
$GPGRS,130007.00,1,0.5,-2.1,,,,,,,,,,*60
$GPGSV,5,1,19,12,81,344,50,06,27,077,42,29,12,208,40,11,22,117,42*7B
$GPGSV,5,2,19,19,27,048,43,32,31,300,45,25,44,273,46,24,54,150,48*7D
$GPGSV,5,3,19,17,01,040,22,28,03,310,38,36,35,170,45,58,13,245,36*79
$GPGSV,5,4,19,40,23,133,36,34,31,208,43,49,34,195,44,57,08,111,37*71
$GPGSV,5,5,19,41,07,108,35,61,03,257,38*73
$GLGSV,3,1,10,77,57,065,47,69,21,330,47,67,13,226,45,88,19,163,46*61
$GLGSV,3,2,10,76,15,092,45,86,29,037,48,68,32,275,49,78,46,306,52*6A
$GLGSV,3,3,10,87,50,097,48,79,00,286,37*6A
$GAGSV,3,1,09,30,76,294,49,11,12,029,34,34,16,131,39,08,19,191,40*68
$GAGSV,3,2,09,27,24,264,42,36,27,077,43,29,26,311,42,07,45,246,46*6C
$GAGSV,3,3,09,02,44,070,46*56
$GBGSV,6,1,21,24,85,017,51,31,12,097,,34,14,186,42,41,18,294,43*66
$GBGSV,6,2,21,07,12,055,37,05,20,130,39,33,13,245,41,12,34,164,44*60
$GBGSV,6,3,21,10,25,058,40,23,31,284,,25,32,293,46,56,32,052,*66
$GBGSV,6,4,21,26,36,105,47,44,50,137,50,35,41,065,48,32,03,343,39*69
$GBGSV,6,5,21,40,06,044,38,02,04,109,32,20,00,346,,14,04,222,36*68
$GBGSV,6,6,21,60,08,111,39*5D
$GPGGA,130007.00,,,,,0,00,,,M,,M,,*4D
$PTNL,GGK,130007.00,010125,4742.1603488,N,01618.1008226,E,1,39,0.8,EHT751.4668,M*46
$GPGGQ,130007.00,010125,4742.1603488,N,01618.1008226,E,1,39,1.162,708.2602,M*32
$GPGFA,130007.00,5.333,7.727,0.561,0.386,12.664,0.942,,VVV*32
$GPLLK,130007.00,010125,,M,,M,1,39,0.9,,M*0D
$GNGMP,130007.00,,,,,DAAA,39,0.4,,,,*5D
$GPGMP,130007.00,,,,,,08,,,,2.5,136*73
$GLGMP,130007.00,,,,,,09,,,,,*73
$GAGMP,130007.00,,,,,,08,,,,,*7F
$GBGMP,130007.00,,,,,,14,,,,,*71
$PSSN,SNC,[0,306025000,2347]*46
$GPZDA,130012.00,01,01,2025,,*62
$GPDTM,W84,,00.0000000,N,00.0000000,E,00.0000000,W84*5F
$PSSN,TFM,130012.00,,,,*6E
$GPRMC,130012.00,A,4742.1603471,N,01618.1008251,E,0.0,,010125,5.1,E,D*1E
$GPGLL,4742.1603471,N,01618.1008251,E,130012.00,A,D*6F
$GPGGA,130012.00,4742.1603471,N,01618.1008251,E,2,39,0.4,708.2610,M,43.2066,M,2.5,0136*40
$GNGNS,130012.00,4742.1603471,N,01618.1008251,E,DAAA,39,0.4,708.2610,43.2066,,*5F
$GPGNS,130012.00,,,,,,08,,,,2.5,136*77
$GLGNS,130012.00,,,,,,09,,,,,*77
$GAGNS,130012.00,,,,,,08,,,,,*7B
$GBGNS,130012.00,,,,,,14,,,,,*75
$GPLLQ,130012.00,010125,,M,,M,1,39,1.166,,M*1A
$GPVTG,,T,,M,0.00,N,0.01,K,D*27
$GPHDT,,T*1B
$GPTHS,,V*0E
$GPROT,,V*08
$PSSN,HRP,130012.00,010125,,,,,,,00,0,,*60
$PTNL,AVR,130012.00,,Yaw,,Tilt,,,,0,,00*36
$GPGSA,A,3,06,11,12,19,24,25,29,32,,,,,0.8,0.4,0.7*3F
$GPGSA,A,3,67,68,69,76,77,78,86,87,88,,,,0.8,0.4,0.7*36
$GPGSA,A,3,02,07,08,27,29,30,34,36,,,,,0.8,0.4,0.7*3B
$GPGSA,A,3,05,07,10,12,24,25,26,33,34,35,40,41,0.8,0.4,0.7*3C
$GPGSA,A,3,44,60,,,,,,,,,,,0.8,0.4,0.7*3F
$GPGST,130012.00,2.395,0.564,0.394,10.884,0.559,0.401,0.942*64
$GPGBS,130012.00,3.350,2.369,6.630,77,0.0001,-7.664,6.119*76
$GPGRS,130012.00,1,-0.4,0.2,0.2,-0.5,0.1,-0.1,-0.7,0.7,,,,*4E
$GPGRS,130012.00,1,5.5,7.1,2.4,-1.8,-7.7,-2.8,1.5,-1.9,-1.8,,,*4A
$GPGRS,130012.00,1,0.2,-0.3,-1.1,-0.1,1.1,0.3,-0.2,0.2,,,,*4C
$GPGRS,130012.00,1,1.1,0.4,1.2,-0.9,0.6,0.5,0.2,-2.0,-0.9,-0.9,0.9,0.2*49
$GPGRS,130012.00,1,0.1,-1.9,,,,,,,,,,*6B
$GPGSV,5,1,19,12,81,344,50,06,27,077,42,29,12,208,40,11,22,117,42*7B
$GPGSV,5,2,19,19,27,048,43,32,31,300,45,25,44,273,46,24,54,150,48*7D
$GPGSV,5,3,19,17,01,040,19,28,03,310,37,36,35,170,45,58,13,245,36*7E
$GPGSV,5,4,19,40,23,133,36,34,31,208,43,49,34,195,44,57,08,111,37*71
$GPGSV,5,5,19,41,07,108,35,61,03,257,38*73
$GLGSV,3,1,10,77,57,065,47,69,21,330,47,67,13,226,45,88,19,163,46*61
$GLGSV,3,2,10,76,15,092,44,86,29,037,48,68,32,275,49,78,46,306,52*6B
$GLGSV,3,3,10,87,50,097,49,79,00,286,41*6A
$GAGSV,3,1,09,30,76,294,49,11,12,029,34,34,16,131,39,08,19,191,40*68
$GAGSV,3,2,09,27,24,264,41,36,27,077,42,29,26,311,42,07,45,246,46*6E
$GAGSV,3,3,09,02,44,070,45*55
$GBGSV,6,1,21,24,85,017,51,31,12,097,,34,14,186,42,41,18,294,43*66
$GBGSV,6,2,21,07,12,055,37,05,20,130,39,33,13,245,42,12,34,164,44*63
$GBGSV,6,3,21,10,25,058,40,23,31,284,,25,32,293,46,56,32,052,*66
$GBGSV,6,4,21,26,36,105,47,44,50,137,49,35,41,065,48,32,03,343,39*61
$GBGSV,6,5,21,40,06,044,37,02,04,109,32,20,00,346,,14,04,222,36*67
$GBGSV,6,6,21,60,08,111,39*5D
$GPGGA,130012.00,,,,,0,00,,,M,,M,,*49
$PTNL,GGK,130012.00,010125,4742.1603471,N,01618.1008251,E,1,39,0.8,EHT751.4675,M*48
$GPGGQ,130012.00,010125,4742.1603471,N,01618.1008251,E,1,39,1.166,708.2610,M*37
$GPGFA,130012.00,5.363,7.720,0.564,0.394,10.884,0.942,,VVV*30
$GPLLK,130012.00,010125,,M,,M,1,39,0.9,,M*09
$GNGMP,130012.00,,,,,DAAA,39,0.4,,,,*59
$GPGMP,130012.00,,,,,,08,,,,2.5,136*77
$GLGMP,130012.00,,,,,,09,,,,,*77
$GAGMP,130012.00,,,,,,08,,,,,*7B
$GBGMP,130012.00,,,,,,14,,,,,*75
$PSSN,SNC,[0,306030000,2347]*42
$GPZDA,130017.00,01,01,2025,,*67
$GPDTM,W84,,00.0000000,N,00.0000000,E,00.0000000,W84*5F
$PSSN,TFM,130017.00,,,,*6B
$GPRMC,130017.00,A,4742.1603464,N,01618.1008273,E,0.0,,010125,5.1,E,D*1F
$GPGLL,4742.1603464,N,01618.1008273,E,130017.00,A,D*6E
$GPGGA,130017.00,4742.1603464,N,01618.1008273,E,2,39,0.4,708.2565,M,43.2066,M,2.0,0136*45
$GNGNS,130017.00,4742.1603464,N,01618.1008273,E,DAAA,39,0.4,708.2565,43.2066,,*5F
$GPGNS,130017.00,,,,,,08,,,,2.0,136*77
$GLGNS,130017.00,,,,,,09,,,,,*72
$GAGNS,130017.00,,,,,,08,,,,,*7E
$GBGNS,130017.00,,,,,,14,,,,,*70
$GPLLQ,130017.00,010125,,M,,M,1,39,1.167,,M*1E
$GPVTG,,T,,M,0.00,N,0.01,K,D*27
$GPHDT,,T*1B
$GPTHS,,V*0E
$GPROT,,V*08
$PSSN,HRP,130017.00,010125,,,,,,,00,0,,*65
$PTNL,AVR,130017.00,,Yaw,,Tilt,,,,0,,00*33
$GPGSA,A,3,06,11,12,19,24,25,29,32,,,,,0.8,0.4,0.7*3F
$GPGSA,A,3,67,68,69,76,77,78,86,87,88,,,,0.8,0.4,0.7*36
$GPGSA,A,3,02,07,08,27,29,30,34,36,,,,,0.8,0.4,0.7*3B
$GPGSA,A,3,05,07,10,12,24,25,26,33,34,35,40,41,0.8,0.4,0.7*3C
$GPGSA,A,3,44,60,,,,,,,,,,,0.8,0.4,0.7*3F
$GPGST,130017.00,2.306,0.562,0.392,11.429,0.556,0.400,0.946*6B
$GPGBS,130017.00,3.326,2.412,6.545,77,0.0001,-7.504,6.119*7D
$GPGRS,130017.00,1,-0.3,0.2,0.1,-0.3,0.2,-0.1,-0.6,0.4,,,,*48
$GPGRS,130017.00,1,5.4,6.3,2.4,-2.4,-7.5,-3.2,1.4,-1.4,-1.7,,,*48
$GPGRS,130017.00,1,0.1,-0.5,-1.0,-0.2,0.8,0.3,-0.2,-0.1,,,,*68
$GPGRS,130017.00,1,1.1,1.2,1.0,-1.3,-0.7,-0.4,0.8,-1.1,-1.3,-0.8,0.0,0.1*4A
$GPGRS,130017.00,1,-0.1,-1.7,,,,,,,,,,*4D
$GPGSV,5,1,19,12,81,345,50,06,27,077,43,29,12,208,40,11,22,117,43*7A
$GPGSV,5,2,19,19,27,048,43,32,31,300,45,25,44,273,46,24,54,150,48*7D
$GPGSV,5,3,19,17,01,040,21,28,03,310,38,36,35,170,45,58,13,245,36*7A
$GPGSV,5,4,19,40,23,133,36,34,31,208,43,49,34,195,45,57,08,111,37*70
$GPGSV,5,5,19,41,07,108,35,61,03,257,38*73
$GLGSV,3,1,10,77,57,065,47,69,21,330,47,67,13,226,45,88,19,163,46*61
$GLGSV,3,2,10,76,15,092,45,86,29,037,47,68,32,275,49,78,46,306,51*66
$GLGSV,3,3,10,87,50,097,49,79,00,286,41*6A
$GAGSV,3,1,09,30,76,294,48,11,12,029,33,34,16,131,39,08,19,191,39*60
$GAGSV,3,2,09,27,25,264,42,36,27,077,42,29,26,311,42,07,45,246,46*6C
$GAGSV,3,3,09,02,44,070,45*55
$GBGSV,6,1,21,24,85,018,51,31,12,097,,34,14,186,42,41,18,294,43*69
$GBGSV,6,2,21,07,12,055,37,05,20,130,39,33,13,245,43,12,34,164,44*62
$GBGSV,6,3,21,10,25,058,41,23,31,284,,25,32,293,46,56,32,052,*67
$GBGSV,6,4,21,26,36,105,47,44,50,137,49,35,41,065,48,32,03,343,39*61
$GBGSV,6,5,21,40,06,044,38,02,04,109,33,20,00,346,,14,04,222,37*68
$GBGSV,6,6,21,60,08,111,39*5D
$GPGGA,130017.00,,,,,0,00,,,M,,M,,*4C
$PTNL,GGK,130017.00,010125,4742.1603464,N,01618.1008273,E,1,39,0.8,EHT751.4630,M*48
$GPGGQ,130017.00,010125,4742.1603464,N,01618.1008273,E,1,39,1.167,708.2565,M*36
$GPGFA,130017.00,5.339,7.753,0.562,0.392,11.429,0.946,,VVV*30
$GPLLK,130017.00,010125,,M,,M,1,39,0.9,,M*0C
$GNGMP,130017.00,,,,,DAAA,39,0.4,,,,*5C
$GPGMP,130017.00,,,,,,08,,,,2.0,136*77
$GLGMP,130017.00,,,,,,09,,,,,*72
$GAGMP,130017.00,,,,,,08,,,,,*7E
$GBGMP,130017.00,,,,,,14,,,,,*70
$PSSN,SNC,[0,306035000,2347]*47
$GPZDA,130022.00,01,01,2025,,*61
$GPDTM,W84,,00.0000000,N,00.0000000,E,00.0000000,W84*5F
$PSSN,TFM,130022.00,,,,*6D
$GPRMC,130022.00,A,4742.1603453,N,01618.1008296,E,0.0,,010125,5.1,E,D*16
$GPGLL,4742.1603453,N,01618.1008296,E,130022.00,A,D*67
$GPGGA,130022.00,4742.1603453,N,01618.1008296,E,2,39,0.4,708.2562,M,43.2066,M,3.0,0136*4A
$GNGNS,130022.00,4742.1603453,N,01618.1008296,E,DAAA,39,0.4,708.2562,43.2066,,*51
$GPGNS,130022.00,,,,,,08,,,,3.0,136*70
$GLGNS,130022.00,,,,,,09,,,,,*74
$GAGNS,130022.00,,,,,,08,,,,,*78
$GBGNS,130022.00,,,,,,14,,,,,*76
$GPLLQ,130022.00,010125,,M,,M,1,39,1.171,,M*1F
$GPVTG,,T,,M,0.00,N,0.01,K,D*27
$GPHDT,,T*1B
$GPTHS,,V*0E
$GPROT,,V*08
$PSSN,HRP,130022.00,010125,,,,,,,00,0,,*63
$PTNL,AVR,130022.00,,Yaw,,Tilt,,,,0,,00*35
$GPGSA,A,3,06,11,12,19,24,25,29,32,,,,,0.8,0.4,0.7*3F
$GPGSA,A,3,67,68,69,76,77,78,86,87,88,,,,0.8,0.4,0.7*36
$GPGSA,A,3,02,07,08,27,29,30,34,36,,,,,0.8,0.4,0.7*3B
$GPGSA,A,3,05,07,10,12,24,25,26,33,34,35,40,41,0.8,0.4,0.7*3C
$GPGSA,A,3,44,60,,,,,,,,,,,0.8,0.4,0.7*3F
$GPGST,130022.00,2.337,0.559,0.390,11.790,0.553,0.398,0.953*63
$GPGBS,130022.00,3.340,2.424,6.623,77,0.0001,-8.023,6.119*72
$GPGRS,130022.00,1,-0.2,0.4,0.0,-0.4,0.1,-0.1,-1.2,0.7,,,,*4A
$GPGRS,130022.00,1,5.1,6.3,2.1,-2.0,-8.0,-2.9,0.8,-1.9,-1.0,,,*4D
$GPGRS,130022.00,1,0.2,-0.3,-1.2,-0.1,0.7,0.2,-0.3,0.1,,,,*48
$GPGRS,130022.00,1,1.3,1.4,1.5,-1.6,-0.8,-0.4,0.9,-1.4,-1.3,-1.0,0.0,0.4*4F
$GPGRS,130022.00,1,0.1,-2.0,,,,,,,,,,*62
$GPGSV,5,1,19,12,81,345,50,06,27,077,43,29,12,208,40,11,22,117,43*7A
$GPGSV,5,2,19,19,27,048,42,32,31,300,45,25,44,273,46,24,54,150,48*7C
$GPGSV,5,3,19,17,01,040,21,28,03,310,39,36,35,170,45,58,13,245,36*7B
$GPGSV,5,4,19,40,23,133,36,34,31,208,43,49,34,195,44,57,08,111,37*71
$GPGSV,5,5,19,41,07,108,35,61,03,257,38*73
$GLGSV,3,1,10,77,57,065,46,69,21,330,46,67,13,226,45,88,20,163,45*68
$GLGSV,3,2,10,76,15,092,44,86,29,037,47,68,32,275,49,78,46,306,52*64
$GLGSV,3,3,10,87,50,097,49,79,00,286,36*6A
$GAGSV,3,1,09,30,76,294,49,11,12,029,33,34,16,131,40,08,19,191,39*6F
$GAGSV,3,2,09,27,25,264,42,36,27,077,42,29,26,311,42,07,45,246,46*6C
$GAGSV,3,3,09,02,44,070,45*55
$GBGSV,6,1,21,24,85,018,51,31,12,097,,34,14,186,41,41,18,294,43*6A
$GBGSV,6,2,21,07,12,055,37,05,20,130,39,33,13,245,42,12,34,164,44*63
$GBGSV,6,3,21,10,25,058,40,23,31,284,,25,32,293,46,56,32,052,*66
$GBGSV,6,4,21,26,36,105,47,44,50,137,49,35,41,065,48,32,03,343,39*61
$GBGSV,6,5,21,40,06,044,37,02,04,109,33,20,00,346,,14,04,222,36*66
$GBGSV,6,6,21,60,08,111,39*5D
$GPGGA,130022.00,,,,,0,00,,,M,,M,,*4A
$PTNL,GGK,130022.00,010125,4742.1603453,N,01618.1008296,E,1,39,0.8,EHT751.4627,M*47
$GPGGQ,130022.00,010125,4742.1603453,N,01618.1008296,E,1,39,1.171,708.2562,M*3F
$GPGFA,130022.00,5.313,7.811,0.559,0.390,11.790,0.953,,VVV*38
$GPLLK,130022.00,010125,,M,,M,1,39,0.9,,M*0A
$GNGMP,130022.00,,,,,DAAA,39,0.4,,,,*5A
$GPGMP,130022.00,,,,,,08,,,,3.0,136*70
$GLGMP,130022.00,,,,,,09,,,,,*74
$GAGMP,130022.00,,,,,,08,,,,,*78
$GBGMP,130022.00,,,,,,14,,,,,*76
$PSSN,SNC,[0,306040000,2347]*45
$GPZDA,130027.00,01,01,2025,,*64
$GPDTM,W84,,00.0000000,N,00.0000000,E,00.0000000,W84*5F
$PSSN,TFM,130027.00,,,,*68
$GPRMC,130027.00,A,4742.1603436,N,01618.1008293,E,0.0,,010125,5.1,E,D*15
$GPGLL,4742.1603436,N,01618.1008293,E,130027.00,A,D*64
$GPGGA,130027.00,4742.1603436,N,01618.1008293,E,2,39,0.4,708.2555,M,43.2066,M,2.5,0136*49
$GNGNS,130027.00,4742.1603436,N,01618.1008293,E,DAAA,39,0.4,708.2555,43.2066,,*56
$GPGNS,130027.00,,,,,,08,,,,2.5,136*71
$GLGNS,130027.00,,,,,,09,,,,,*71
$GAGNS,130027.00,,,,,,08,,,,,*7D
$GBGNS,130027.00,,,,,,14,,,,,*73
$GPLLQ,130027.00,010125,,M,,M,1,39,1.175,,M*1E
$GPVTG,,T,,M,0.00,N,0.00,K,D*26
$GPHDT,,T*1B
$GPTHS,,V*0E
$GPROT,,V*08
$PSSN,HRP,130027.00,010125,,,,,,,00,0,,*66
$PTNL,AVR,130027.00,,Yaw,,Tilt,,,,0,,00*30
$GPGSA,A,3,06,11,12,19,24,25,29,32,,,,,0.8,0.4,0.7*3F
$GPGSA,A,3,67,68,69,76,77,78,86,87,88,,,,0.8,0.4,0.7*36
$GPGSA,A,3,02,07,08,27,29,30,34,36,,,,,0.8,0.4,0.7*3B
$GPGSA,A,3,05,07,10,12,24,25,26,33,34,35,40,41,0.8,0.4,0.7*3C
$GPGSA,A,3,44,60,,,,,,,,,,,0.8,0.4,0.7*3F
$GPGST,130027.00,2.388,0.563,0.393,11.261,0.557,0.401,0.953*60
$GPGBS,130027.00,3.398,2.425,6.603,77,0.0001,-7.413,6.119*79
$GPGRS,130027.00,1,-0.1,0.4,-0.1,0.3,-0.0,-0.2,-1.3,0.8,,,,*6B
$GPGRS,130027.00,1,6.1,6.3,1.9,-2.7,-7.4,-2.9,1.6,-1.2,-1.4,,,*4C
$GPGRS,130027.00,1,0.2,-0.1,-0.7,-0.2,0.8,0.2,-0.2,-0.0,,,,*6A
$GPGRS,130027.00,1,1.4,1.5,1.4,-1.5,-0.6,-0.1,1.0,-2.3,-0.8,-1.3,-0.1,0.1*69
$GPGRS,130027.00,1,0.0,-2.3,,,,,,,,,,*65
$GPGSV,5,1,19,12,81,345,50,06,27,077,43,29,12,208,40,11,22,117,42*7B
$GPGSV,5,2,19,19,27,048,43,32,31,300,45,25,44,273,46,24,54,150,48*7D
$GPGSV,5,3,19,17,01,040,21,28,03,310,37,36,35,170,45,58,13,245,36*75
$GPGSV,5,4,19,40,23,133,36,34,31,208,43,49,34,195,45,57,08,111,37*70
$GPGSV,5,5,19,41,07,108,35,61,03,257,38*73
$GLGSV,3,1,10,77,57,065,47,69,21,330,46,67,13,226,46,88,20,163,45*6A
$GLGSV,3,2,10,76,15,092,44,86,29,037,47,68,32,275,48,78,46,306,52*65
$GLGSV,3,3,10,87,50,097,49,79,00,286,38*64
$GAGSV,3,1,09,30,76,294,49,11,12,029,33,34,16,131,40,08,19,191,39*6F
$GAGSV,3,2,09,27,25,264,42,36,27,077,42,29,26,311,42,07,45,246,46*6C
$GAGSV,3,3,09,02,44,070,46*56
$GBGSV,6,1,21,24,85,018,51,31,12,097,,34,14,186,41,41,18,294,43*6A
$GBGSV,6,2,21,07,12,055,37,05,20,130,39,33,13,245,42,12,34,164,44*63
$GBGSV,6,3,21,10,25,058,40,23,31,284,,25,32,293,46,56,32,052,*66
$GBGSV,6,4,21,26,36,105,47,44,50,137,49,35,41,065,48,32,03,343,39*61
$GBGSV,6,5,21,40,06,044,38,02,04,109,32,20,00,346,,14,04,222,37*69
$GBGSV,6,6,21,60,08,111,39*5D
$GPGGA,130027.00,,,,,0,00,,,M,,M,,*4F
$PTNL,GGK,130027.00,010125,4742.1603436,N,01618.1008293,E,1,39,0.8,EHT751.4621,M*42
$GPGGQ,130027.00,010125,4742.1603436,N,01618.1008293,E,1,39,1.175,708.2555,M*3C
$GPGFA,130027.00,5.351,7.815,0.563,0.393,11.261,0.953,,VVV*3E
$GPLLK,130027.00,010125,,M,,M,1,39,0.9,,M*0F
$GNGMP,130027.00,,,,,DAAA,39,0.4,,,,*5F
$GPGMP,130027.00,,,,,,08,,,,2.5,136*71
$GLGMP,130027.00,,,,,,09,,,,,*71
$GAGMP,130027.00,,,,,,08,,,,,*7D
$GBGMP,130027.00,,,,,,14,,,,,*73
$PSSN,SNC,[0,306045000,2347]*40
$GPZDA,130032.00,01,01,2025,,*60
$GPDTM,W84,,00.0000000,N,00.0000000,E,00.0000000,W84*5F
$PSSN,TFM,130032.00,,,,*6C
$GPRMC,130032.00,A,4742.1603405,N,01618.1008297,E,0.0,,010125,5.1,E,D*15
$GPGLL,4742.1603405,N,01618.1008297,E,130032.00,A,D*64
$GPGGA,130032.00,4742.1603405,N,01618.1008297,E,2,39,0.4,708.2581,M,43.2066,M,2.5,0136*40
$GNGNS,130032.00,4742.1603405,N,01618.1008297,E,DAAA,39,0.4,708.2581,43.2066,,*5F
$GPGNS,130032.00,,,,,,08,,,,2.5,136*75
$GLGNS,130032.00,,,,,,09,,,,,*75
$GAGNS,130032.00,,,,,,08,,,,,*79
$GBGNS,130032.00,,,,,,14,,,,,*77
$GPLLQ,130032.00,010125,,M,,M,1,39,1.167,,M*19
$GPVTG,,T,,M,0.00,N,0.01,K,D*27
$GPHDT,,T*1B
$GPTHS,,V*0E
$GPROT,,V*08
$PSSN,HRP,130032.00,010125,,,,,,,00,0,,*62
$PTNL,AVR,130032.00,,Yaw,,Tilt,,,,0,,00*34
$GPGSA,A,3,06,11,12,19,24,25,29,32,,,,,0.8,0.4,0.7*3F
$GPGSA,A,3,67,68,69,76,77,78,86,87,88,,,,0.8,0.4,0.7*36
$GPGSA,A,3,02,07,08,27,29,30,34,36,,,,,0.8,0.4,0.7*3B
$GPGSA,A,3,05,07,10,12,24,25,26,33,34,35,40,41,0.8,0.4,0.7*3C
$GPGSA,A,3,44,60,,,,,,,,,,,0.8,0.4,0.7*3F
$GPGST,130032.00,2.368,0.563,0.394,10.895,0.558,0.401,0.943*63
$GPGBS,130032.00,3.355,2.362,6.647,77,0.0001,-7.179,6.119*71
$GPGRS,130032.00,1,-0.2,0.3,-0.0,0.3,0.0,0.1,-1.0,0.0,,,,*62
$GPGRS,130032.00,1,5.9,7.0,2.1,-2.4,-7.2,-2.5,2.2,-1.0,-1.8,,,*4A
$GPGRS,130032.00,1,0.0,0.1,-0.4,-0.2,1.0,0.3,-0.0,0.0,,,,*65
$GPGRS,130032.00,1,1.1,1.9,1.7,-0.8,-0.4,0.3,1.0,-1.7,-0.2,-1.0,0.4,0.6*67
$GPGRS,130032.00,1,0.5,-1.7,,,,,,,,,,*63
$GPGSV,5,1,19,12,81,346,50,06,27,077,43,29,12,208,41,11,22,117,42*79
$GPGSV,5,2,19,19,27,048,43,32,31,300,45,25,45,273,46,24,54,150,48*7C
$GPGSV,5,3,19,17,01,040,20,28,03,310,39,36,35,170,45,58,13,245,36*7A
$GPGSV,5,4,19,40,23,133,36,34,31,208,43,49,34,195,45,57,08,111,37*70
$GPGSV,5,5,19,41,07,108,35,61,03,257,38*73
$GLGSV,3,1,10,77,57,065,47,69,21,330,46,67,13,226,45,88,20,163,45*69
$GLGSV,3,2,10,76,15,092,44,86,29,037,48,68,32,275,49,78,46,306,52*6B
$GLGSV,3,3,10,87,50,097,49,79,00,286,40*6B
$GAGSV,3,1,09,30,76,294,49,11,12,029,33,34,16,131,39,08,19,191,40*6F
$GAGSV,3,2,09,27,25,264,42,36,27,077,42,29,26,311,42,07,45,246,46*6C
$GAGSV,3,3,09,02,44,070,46*56
$GBGSV,6,1,21,24,85,019,51,31,12,097,,34,14,186,41,41,18,294,43*6B
$GBGSV,6,2,21,07,12,055,37,05,20,130,39,33,13,245,43,12,34,164,45*63
$GBGSV,6,3,21,10,25,058,40,23,31,284,,25,32,293,47,56,32,052,*67
$GBGSV,6,4,21,26,36,105,47,44,50,137,49,35,41,064,48,32,03,343,39*60
$GBGSV,6,5,21,40,06,044,38,02,04,109,33,20,00,346,,14,04,222,37*68
$GBGSV,6,6,21,60,08,111,39*5D
$GPGGA,130032.00,,,,,0,00,,,M,,M,,*4B
$PTNL,GGK,130032.00,010125,4742.1603405,N,01618.1008297,E,1,39,0.8,EHT751.4647,M*42
$GPGGQ,130032.00,010125,4742.1603405,N,01618.1008297,E,1,39,1.167,708.2581,M*36
$GPGFA,130032.00,5.355,7.731,0.563,0.394,10.895,0.943,,VVV*31
$GPLLK,130032.00,010125,,M,,M,1,39,0.9,,M*0B
$GNGMP,130032.00,,,,,DAAA,39,0.4,,,,*5B
$GPGMP,130032.00,,,,,,08,,,,2.5,136*75
$GLGMP,130032.00,,,,,,09,,,,,*75
$GAGMP,130032.00,,,,,,08,,,,,*79
$GBGMP,130032.00,,,,,,14,,,,,*77
$PSSN,SNC,[0,306050000,2347]*44
$GPZDA,130037.00,01,01,2025,,*65
$GPDTM,W84,,00.0000000,N,00.0000000,E,00.0000000,W84*5F
$PSSN,TFM,130037.00,,,,*69
$GPRMC,130037.00,A,4742.1603389,N,01618.1008311,E,0.0,,010125,5.1,E,D*1C
$GPGLL,4742.1603389,N,01618.1008311,E,130037.00,A,D*6D
$GPGGA,130037.00,4742.1603389,N,01618.1008311,E,2,39,0.4,708.2579,M,43.2066,M,2.0,0136*4B
$GNGNS,130037.00,4742.1603389,N,01618.1008311,E,DAAA,39,0.4,708.2579,43.2066,,*51
$GPGNS,130037.00,,,,,,08,,,,2.0,136*75
$GLGNS,130037.00,,,,,,09,,,,,*70
$GAGNS,130037.00,,,,,,08,,,,,*7C
$GBGNS,130037.00,,,,,,14,,,,,*72
$GPLLQ,130037.00,010125,,M,,M,1,39,1.168,,M*13
$GPVTG,,T,,M,0.00,N,0.01,K,D*27
$GPHDT,,T*1B
$GPTHS,,V*0E
$GPROT,,V*08
$PSSN,HRP,130037.00,010125,,,,,,,00,0,,*67
$PTNL,AVR,130037.00,,Yaw,,Tilt,,,,0,,00*31
$GPGSA,A,3,06,11,12,19,24,25,29,32,,,,,0.8,0.4,0.7*3F
$GPGSA,A,3,67,68,69,76,77,78,86,87,88,,,,0.8,0.4,0.7*36
$GPGSA,A,3,02,07,08,27,29,30,34,36,,,,,0.8,0.4,0.7*3B
$GPGSA,A,3,05,07,10,12,24,25,26,33,34,35,40,41,0.8,0.4,0.7*3C
$GPGSA,A,3,44,60,,,,,,,,,,,0.8,0.4,0.7*3F
$GPGST,130037.00,2.324,0.561,0.391,11.403,0.555,0.399,0.947*64
$GPGBS,130037.00,3.331,2.405,6.564,77,0.0001,-7.351,6.119*7A
$GPGRS,130037.00,1,-0.6,0.3,0.1,-0.2,0.2,-0.3,-1.0,0.5,,,,*4B
$GPGRS,130037.00,1,4.6,7.0,2.0,-2.5,-7.4,-3.1,1.6,-1.8,-1.8,,,*4D
$GPGRS,130037.00,1,0.1,-0.0,-0.3,-0.6,1.3,0.3,-0.3,0.3,,,,*4D
$GPGRS,130037.00,1,1.1,1.8,1.0,-0.5,-0.7,-0.0,1.1,-1.1,-0.1,-0.9,0.2,1.0*49
$GPGRS,130037.00,1,0.5,-2.2,,,,,,,,,,*60
$GPGSV,5,1,19,12,81,346,50,06,28,077,43,29,13,208,40,11,22,117,42*76
$GPGSV,5,2,19,19,27,048,43,32,31,300,46,25,45,273,46,24,54,150,48*7F
$GPGSV,5,3,19,17,00,040,22,28,03,310,39,36,35,170,45,58,13,245,36*79
$GPGSV,5,4,19,40,23,133,36,34,31,208,43,49,34,195,45,57,08,111,37*70
$GPGSV,5,5,19,41,07,108,35,61,03,257,38*73
$GLGSV,3,1,10,77,57,065,47,88,20,163,45,76,15,092,43,69,21,330,47*65
$GLGSV,3,2,10,67,13,226,44,86,29,037,47,68,32,275,49,78,46,307,51*6D
$GLGSV,3,3,10,87,50,097,48,79,00,286,40*6A
$GAGSV,3,1,09,30,76,295,49,11,12,029,33,34,17,131,39,08,19,191,40*6F
$GAGSV,3,2,09,27,25,264,42,36,27,077,42,29,26,311,42,07,45,246,46*6C
$GAGSV,3,3,09,02,44,070,45*55
$GBGSV,6,1,21,24,85,019,51,41,18,294,43,07,12,055,37,05,20,130,39*63
$GBGSV,6,2,21,34,14,186,42,31,12,097,,33,13,245,42,12,34,164,44*68
$GBGSV,6,3,21,10,25,058,40,23,31,284,,25,32,293,46,56,32,052,*66
$GBGSV,6,4,21,26,36,105,47,44,50,137,49,35,41,064,48,32,04,343,39*67
$GBGSV,6,5,21,40,06,044,38,02,04,109,33,20,00,346,,14,04,222,37*68
$GBGSV,6,6,21,60,08,111,39*5D
$GPGGA,130037.00,,,,,0,00,,,M,,M,,*4E
$PTNL,GGK,130037.00,010125,4742.1603389,N,01618.1008311,E,1,39,0.8,EHT751.4644,M*48
$GPGGQ,130037.00,010125,4742.1603389,N,01618.1008311,E,1,39,1.168,708.2579,M*37
$GPGFA,130037.00,5.332,7.765,0.561,0.391,11.403,0.947,,VVV*35
$GPLLK,130037.00,010125,,M,,M,1,39,0.9,,M*0E
$GNGMP,130037.00,,,,,DAAA,39,0.4,,,,*5E
$GPGMP,130037.00,,,,,,08,,,,2.0,136*75
$GLGMP,130037.00,,,,,,09,,,,,*70
$GAGMP,130037.00,,,,,,08,,,,,*7C
$GBGMP,130037.00,,,,,,14,,,,,*72
$PSSN,SNC,[0,306055000,2347]*41
$GPZDA,130042.00,01,01,2025,,*67
$GPDTM,W84,,00.0000000,N,00.0000000,E,00.0000000,W84*5F
$PSSN,TFM,130042.00,,,,*6B
$GPRMC,130042.00,A,4742.1603394,N,01618.1008309,E,0.0,,010125,5.1,E,D*1B
$GPGLL,4742.1603394,N,01618.1008309,E,130042.00,A,D*6A
$GPGGA,130042.00,4742.1603394,N,01618.1008309,E,2,39,0.4,708.2545,M,43.2066,M,3.0,0136*42
$GNGNS,130042.00,4742.1603394,N,01618.1008309,E,DAAA,39,0.4,708.2545,43.2066,,*59
$GPGNS,130042.00,,,,,,08,,,,3.0,136*76
$GLGNS,130042.00,,,,,,09,,,,,*72
$GAGNS,130042.00,,,,,,08,,,,,*7E
$GBGNS,130042.00,,,,,,14,,,,,*70
$GPLLQ,130042.00,010125,,M,,M,1,39,1.172,,M*1A
$GPVTG,,T,,M,0.01,N,0.01,K,D*26
$GPHDT,,T*1B
$GPTHS,,V*0E
$GPROT,,V*08
$PSSN,HRP,130042.00,010125,,,,,,,00,0,,*65
$PTNL,AVR,130042.00,,Yaw,,Tilt,,,,0,,00*33
$GPGSA,A,3,06,11,12,19,24,25,29,32,,,,,0.8,0.4,0.7*3F
$GPGSA,A,3,67,68,69,76,77,78,86,87,88,,,,0.8,0.4,0.7*36
$GPGSA,A,3,02,07,08,27,29,30,34,36,,,,,0.8,0.4,0.7*3B
$GPGSA,A,3,05,07,10,12,24,25,26,33,34,35,40,41,0.8,0.4,0.7*3C
$GPGSA,A,3,44,60,,,,,,,,,,,0.8,0.4,0.7*3F
$GPGST,130042.00,2.337,0.558,0.390,11.772,0.552,0.398,0.954*6E
$GPGBS,130042.00,3.344,2.417,6.641,77,0.0001,-7.476,6.119*7F
$GPGRS,130042.00,1,-0.5,0.3,-0.1,-0.1,0.2,0.1,-1.0,0.6,,,,*48
$GPGRS,130042.00,1,4.6,6.7,2.3,-1.9,-7.5,-3.4,1.6,-1.5,-2.3,,,*44
$GPGRS,130042.00,1,0.1,-0.0,-0.8,-0.5,1.2,0.2,-0.6,0.1,,,,*40
$GPGRS,130042.00,1,1.0,1.8,1.6,-1.2,-0.6,-0.2,1.1,-1.6,-0.0,-1.1,0.1,0.1*45
$GPGRS,130042.00,1,0.6,-2.2,,,,,,,,,,*61
$GPGSV,5,1,19,12,81,346,50,06,28,077,43,29,13,208,40,11,22,117,42*76
$GPGSV,5,2,19,19,27,048,43,32,31,300,46,25,45,273,46,24,54,150,48*7F
$GPGSV,5,3,19,17,00,040,23,28,03,310,38,36,35,170,45,58,13,245,36*79
$GPGSV,5,4,19,40,23,133,36,34,31,208,43,49,34,195,44,57,08,111,37*71
$GPGSV,5,5,19,41,07,108,35,61,03,257,38*73
$GLGSV,3,1,10,77,57,065,47,88,20,163,45,76,15,092,44,69,21,329,47*6A
$GLGSV,3,2,10,67,13,226,44,86,29,037,48,68,32,275,49,78,46,307,51*62
$GLGSV,3,3,10,87,50,097,49,79,00,286,39*65
$GAGSV,3,1,09,30,76,295,49,11,12,029,33,34,17,131,39,08,19,191,41*6E
$GAGSV,3,2,09,27,25,264,42,36,27,077,42,29,26,311,42,07,45,246,46*6C
$GAGSV,3,3,09,02,44,070,45*55
$GBGSV,6,1,21,24,85,019,51,41,18,294,42,07,12,055,37,05,20,130,39*62
$GBGSV,6,2,21,34,14,186,41,31,12,097,,33,13,245,42,12,34,164,44*6B
$GBGSV,6,3,21,10,25,058,40,23,31,284,,25,32,293,47,56,32,052,*67
$GBGSV,6,4,21,26,36,105,47,44,50,137,50,35,41,064,48,32,04,343,40*61
$GBGSV,6,5,21,40,06,044,38,02,04,109,33,20,00,346,,14,04,222,38*67
$GBGSV,6,6,21,60,08,111,39*5D
$GPGGA,130042.00,,,,,0,00,,,M,,M,,*4C
$PTNL,GGK,130042.00,010125,4742.1603394,N,01618.1008309,E,1,39,0.8,EHT751.4611,M*4F
$GPGGQ,130042.00,010125,4742.1603394,N,01618.1008309,E,1,39,1.172,708.2545,M*34
$GPGFA,130042.00,5.306,7.822,0.558,0.390,11.772,0.954,,VVV*30
$GPLLK,130042.00,010125,,M,,M,1,39,0.9,,M*0C
$GNGMP,130042.00,,,,,DAAA,39,0.4,,,,*5C
$GPGMP,130042.00,,,,,,08,,,,3.0,136*76
$GLGMP,130042.00,,,,,,09,,,,,*72
$GAGMP,130042.00,,,,,,08,,,,,*7E
$GBGMP,130042.00,,,,,,14,,,,,*70
$PSSN,SNC,[0,306060000,2347]*47
$GPZDA,130047.00,01,01,2025,,*62
$GPDTM,W84,,00.0000000,N,00.0000000,E,00.0000000,W84*5F
$PSSN,TFM,130047.00,,,,*6E
$GPRMC,130047.00,A,4742.1603371,N,01618.1008344,E,0.0,,010125,5.1,E,D*1C
$GPGLL,4742.1603371,N,01618.1008344,E,130047.00,A,D*6D
$GPGGA,130047.00,4742.1603371,N,01618.1008344,E,2,39,0.4,708.2551,M,43.2066,M,2.5,0136*44
$GNGNS,130047.00,4742.1603371,N,01618.1008344,E,DAAA,39,0.4,708.2551,43.2066,,*5B
$GPGNS,130047.00,,,,,,08,,,,2.5,136*77
$GLGNS,130047.00,,,,,,09,,,,,*77
$GAGNS,130047.00,,,,,,08,,,,,*7B
$GBGNS,130047.00,,,,,,14,,,,,*75
$GPLLQ,130047.00,010125,,M,,M,1,39,1.175,,M*18
$GPVTG,,T,,M,0.00,N,0.00,K,D*26
$GPHDT,,T*1B
$GPTHS,,V*0E
$GPROT,,V*08
$PSSN,HRP,130047.00,010125,,,,,,,00,0,,*60
$PTNL,AVR,130047.00,,Yaw,,Tilt,,,,0,,00*36
$GPGSA,A,3,06,11,12,19,24,25,29,32,,,,,0.8,0.4,0.7*3F
$GPGSA,A,3,67,68,69,76,77,78,86,87,88,,,,0.8,0.4,0.7*36
$GPGSA,A,3,02,07,08,27,29,30,34,36,,,,,0.8,0.4,0.7*3B
$GPGSA,A,3,05,07,10,12,24,25,26,33,34,35,40,41,0.8,0.4,0.7*3C
$GPGSA,A,3,44,60,,,,,,,,,,,0.8,0.4,0.7*3F
$GPGST,130047.00,2.477,0.562,0.393,11.242,0.557,0.401,0.954*66
$GPGBS,130047.00,3.402,2.418,6.620,77,0.0001,-7.549,6.119*7A
$GPGRS,130047.00,1,-0.6,0.4,-0.0,-0.2,0.1,0.3,-1.1,0.1,,,,*4C
$GPGRS,130047.00,1,6.2,6.7,2.2,-2.3,-7.5,-3.4,1.7,-1.4,-2.4,,,*48
$GPGRS,130047.00,1,0.4,-0.3,-0.7,-0.7,1.1,0.2,-0.6,0.1,,,,*4D
$GPGRS,130047.00,1,1.0,1.9,1.0,-1.4,-0.5,-0.1,1.1,-1.6,0.3,-1.0,0.3,0.5*68
$GPGRS,130047.00,1,0.4,-2.5,,,,,,,,,,*61
$GPGSV,5,1,19,12,81,346,50,06,28,077,42,29,13,208,41,11,22,117,42*76
$GPGSV,5,2,19,19,27,048,43,32,31,300,45,25,45,273,47,24,54,150,49*7C
$GPGSV,5,3,19,17,00,040,21,28,03,310,39,36,35,170,45,58,13,245,36*7A
$GPGSV,5,4,19,40,23,133,36,34,31,208,43,49,34,195,44,57,08,111,38*7E
$GPGSV,5,5,19,41,07,108,35,61,03,257,38*73
$GLGSV,3,1,10,77,57,066,47,88,20,163,46,76,15,092,44,69,21,329,46*6B
$GLGSV,3,2,10,67,13,226,45,86,29,037,48,68,32,275,49,78,46,307,51*63
$GLGSV,3,3,10,87,50,097,48,79,00,286,40*6A
$GAGSV,3,1,09,30,76,295,49,11,12,029,33,34,17,131,39,08,19,191,41*6E
$GAGSV,3,2,09,27,25,264,42,36,27,077,42,29,26,311,42,07,45,246,46*6C
$GAGSV,3,3,09,02,44,070,46*56
$GBGSV,6,1,21,24,85,020,52,41,18,294,43,07,12,055,37,05,20,130,39*6A
$GBGSV,6,2,21,34,14,186,42,31,12,097,,33,13,245,42,12,34,164,45*69
$GBGSV,6,3,21,10,25,058,40,23,31,284,,25,32,293,47,56,32,052,*67
$GBGSV,6,4,21,26,36,105,48,44,50,137,50,35,41,064,49,32,04,343,39*61
$GBGSV,6,5,21,40,06,044,38,02,04,109,33,20,00,346,,14,03,222,38*60
$GBGSV,6,6,21,60,08,111,40*53
$GPGGA,130047.00,,,,,0,00,,,M,,M,,*49
$PTNL,GGK,130047.00,010125,4742.1603371,N,01618.1008344,E,1,39,0.8,EHT751.4617,M*4E
$GPGGQ,130047.00,010125,4742.1603371,N,01618.1008344,E,1,39,1.175,708.2551,M*31
$GPGFA,130047.00,5.344,7.827,0.562,0.393,11.242,0.954,,VVV*3A
$GPLLK,130047.00,010125,,M,,M,1,39,0.9,,M*09
$GNGMP,130047.00,,,,,DAAA,39,0.4,,,,*59
$GPGMP,130047.00,,,,,,08,,,,2.5,136*77
$GLGMP,130047.00,,,,,,09,,,,,*77
$GAGMP,130047.00,,,,,,08,,,,,*7B
$GBGMP,130047.00,,,,,,14,,,,,*75
$PSSN,SNC,[0,306065000,2347]*42
$GPZDA,130052.00,01,01,2025,,*66
$GPDTM,W84,,00.0000000,N,00.0000000,E,00.0000000,W84*5F
$PSSN,TFM,130052.00,,,,*6A
$GPRMC,130052.00,A,4742.1603364,N,01618.1008361,E,0.0,,010125,5.1,E,D*1B
$GPGLL,4742.1603364,N,01618.1008361,E,130052.00,A,D*6A
$GPGGA,130052.00,4742.1603364,N,01618.1008361,E,2,39,0.4,708.2486,M,43.2066,M,2.5,0136*48
$GNGNS,130052.00,4742.1603364,N,01618.1008361,E,DAAA,39,0.4,708.2486,43.2066,,*57
$GPGNS,130052.00,,,,,,08,,,,2.5,136*73
$GLGNS,130052.00,,,,,,09,,,,,*73
$GAGNS,130052.00,,,,,,08,,,,,*7F
$GBGNS,130052.00,,,,,,14,,,,,*71
$GPLLQ,130052.00,010125,,M,,M,1,39,1.167,,M*1F
$GPVTG,,T,,M,0.00,N,0.01,K,D*27
$GPHDT,,T*1B
$GPTHS,,V*0E
$GPROT,,V*08
$PSSN,HRP,130052.00,010125,,,,,,,00,0,,*64
$PTNL,AVR,130052.00,,Yaw,,Tilt,,,,0,,00*32
$GPGSA,A,3,06,11,12,19,24,25,29,32,,,,,0.8,0.4,0.7*3F
$GPGSA,A,3,67,68,69,76,77,78,86,87,88,,,,0.8,0.4,0.7*36
$GPGSA,A,3,02,07,08,27,29,30,34,36,,,,,0.8,0.4,0.7*3B
$GPGSA,A,3,05,07,10,12,24,25,26,33,34,35,40,41,0.8,0.4,0.7*3C
$GPGSA,A,3,44,60,,,,,,,,,,,0.8,0.4,0.7*3F
$GPGST,130052.00,2.386,0.563,0.394,10.871,0.557,0.401,0.944*67
$GPGBS,130052.00,3.358,2.355,6.665,77,0.0001,-7.535,6.119*72
$GPGRS,130052.00,1,-0.5,0.4,0.1,-0.3,0.0,-0.0,-1.0,0.4,,,,*4D
$GPGRS,130052.00,1,6.6,6.2,1.9,-2.2,-7.5,-2.7,1.3,-1.8,-1.6,,,*4F
$GPGRS,130052.00,1,0.5,-0.2,-0.8,-0.3,1.2,0.4,-0.7,0.4,,,,*43
$GPGRS,130052.00,1,1.5,1.1,1.0,-0.7,-0.4,-0.4,1.1,-1.5,0.4,-0.5,0.6,0.7*60
$GPGRS,130052.00,1,0.3,-2.2,,,,,,,,,,*65
$GPGSV,5,1,19,12,81,347,50,06,28,077,42,29,13,208,41,11,22,117,42*77
$GPGSV,5,2,19,19,26,048,43,32,31,300,46,25,45,273,47,24,54,150,48*7F
$GPGSV,5,3,19,17,00,040,22,28,04,310,38,36,35,170,45,58,13,245,36*7F
$GPGSV,5,4,19,40,23,133,36,34,31,208,43,49,34,195,45,57,08,111,38*7F
$GPGSV,5,5,19,41,07,108,35,61,03,257,38*73
$GLGSV,3,1,10,77,57,066,47,88,20,163,46,76,15,093,43,69,21,329,46*6D
$GLGSV,3,2,10,67,13,226,46,86,29,037,47,68,32,275,49,78,46,307,52*6C
$GLGSV,3,3,10,87,50,097,48,79,01,286,38*64
$GAGSV,3,1,09,30,76,295,49,11,12,029,34,34,17,131,39,08,19,191,41*69
$GAGSV,3,2,09,27,25,264,42,36,27,077,42,29,26,311,42,07,45,246,46*6C
$GAGSV,3,3,09,02,44,070,46*56
$GBGSV,6,1,21,24,85,020,52,41,18,294,43,07,12,055,37,05,20,130,39*6A
$GBGSV,6,2,21,34,14,186,42,31,12,097,,33,12,245,42,12,34,164,45*68
$GBGSV,6,3,21,10,25,058,40,23,31,284,,25,33,293,46,56,32,052,*67
$GBGSV,6,4,21,26,36,105,47,44,50,137,50,35,41,064,48,32,04,343,40*61
$GBGSV,6,5,21,40,06,044,38,02,04,109,32,20,00,346,,14,03,222,38*61
$GBGSV,6,6,21,60,08,111,39*5D
$GPGGA,130052.00,,,,,0,00,,,M,,M,,*4D
$PTNL,GGK,130052.00,010125,4742.1603364,N,01618.1008361,E,1,39,0.8,EHT751.4552,M*4B
$GPGGQ,130052.00,010125,4742.1603364,N,01618.1008361,E,1,39,1.167,708.2486,M*3E
$GPGFA,130052.00,5.349,7.742,0.563,0.394,10.871,0.944,,VVV*33
$GPLLK,130052.00,010125,,M,,M,1,39,0.9,,M*0D
$GNGMP,130052.00,,,,,DAAA,39,0.4,,,,*5D
$GPGMP,130052.00,,,,,,08,,,,2.5,136*73
$GLGMP,130052.00,,,,,,09,,,,,*73
$GAGMP,130052.00,,,,,,08,,,,,*7F
$GBGMP,130052.00,,,,,,14,,,,,*71
$PSSN,SNC,[0,306070000,2347]*46
$GPZDA,130057.00,01,01,2025,,*63
$GPDTM,W84,,00.0000000,N,00.0000000,E,00.0000000,W84*5F
$PSSN,TFM,130057.00,,,,*6F
$GPRMC,130057.00,A,4742.1603352,N,01618.1008386,E,0.0,,010125,5.1,E,D*12
$GPGLL,4742.1603352,N,01618.1008386,E,130057.00,A,D*63
$GPGGA,130057.00,4742.1603352,N,01618.1008386,E,2,39,0.4,708.2515,M,43.2066,M,2.0,0136*4F
$GNGNS,130057.00,4742.1603352,N,01618.1008386,E,DAAA,39,0.4,708.2515,43.2066,,*55
$GPGNS,130057.00,,,,,,08,,,,2.0,136*73
$GLGNS,130057.00,,,,,,09,,,,,*76
$GAGNS,130057.00,,,,,,08,,,,,*7A
$GBGNS,130057.00,,,,,,14,,,,,*74
$GPLLQ,130057.00,010125,,M,,M,1,39,1.169,,M*14
$GPVTG,,T,,M,0.00,N,0.01,K,D*27
$GPHDT,,T*1B
$GPTHS,,V*0E
$GPROT,,V*08
$PSSN,HRP,130057.00,010125,,,,,,,00,0,,*61
$PTNL,AVR,130057.00,,Yaw,,Tilt,,,,0,,00*37
$GPGSA,A,3,06,11,12,19,24,25,29,32,,,,,0.8,0.4,0.7*3F
$GPGSA,A,3,67,68,69,76,77,78,86,87,88,,,,0.8,0.4,0.7*36
$GPGSA,A,3,02,07,08,27,29,30,34,36,,,,,0.8,0.4,0.7*3B
$GPGSA,A,3,05,07,10,12,24,25,26,33,34,35,40,41,0.8,0.4,0.7*3C
$GPGSA,A,3,44,60,,,,,,,,,,,0.8,0.4,0.7*3F
$GPGST,130057.00,2.269,0.560,0.391,11.375,0.555,0.399,0.948*62
$GPGBS,130057.00,3.335,2.399,6.580,77,0.0001,-7.197,6.119*78
$GPGRS,130057.00,1,-0.2,0.6,0.1,-0.1,-0.0,-0.1,-0.7,0.3,,,,*62
$GPGRS,130057.00,1,5.7,6.4,1.6,-2.7,-7.2,-2.2,1.3,-1.6,-1.1,,,*4F
$GPGRS,130057.00,1,0.2,-0.1,-0.9,-0.4,1.3,0.2,-0.6,0.4,,,,*42
$GPGRS,130057.00,1,1.7,1.2,0.8,-1.0,-0.5,-0.2,1.0,-1.7,0.6,-0.8,0.1,0.4*64
$GPGRS,130057.00,1,0.2,-2.2,,,,,,,,,,*61
$GPGSV,5,1,19,12,81,347,50,06,28,077,43,29,13,208,41,11,22,117,43*77
$GPGSV,5,2,19,19,26,048,43,32,31,300,46,25,45,273,46,24,54,150,48*7E
$GPGSV,5,3,19,17,00,040,23,28,04,310,37,36,35,170,45,58,13,245,36*71
$GPGSV,5,4,19,40,23,133,36,34,31,208,43,49,34,195,45,57,08,111,38*7F
$GPGSV,5,5,19,41,07,108,35,61,03,257,38*73
$GLGSV,3,1,10,77,57,066,47,88,20,163,46,76,15,093,43,69,21,329,46*6D
$GLGSV,3,2,10,67,13,226,45,86,29,037,47,68,32,275,48,78,46,307,52*6E
$GLGSV,3,3,10,87,50,097,49,79,01,286,39*64
$GAGSV,3,1,09,30,76,295,49,11,12,029,34,34,17,131,39,08,19,191,41*69
$GAGSV,3,2,09,27,25,264,43,36,27,077,43,29,27,311,42,07,45,246,46*6D
$GAGSV,3,3,09,02,44,070,46*56
$GBGSV,6,1,21,24,85,021,52,41,18,294,43,07,12,055,37,05,20,130,39*6B
$GBGSV,6,2,21,34,14,186,43,31,12,097,,33,12,245,42,12,34,164,44*68
$GBGSV,6,3,21,10,25,058,40,23,31,284,,25,33,293,46,56,32,052,*67
$GBGSV,6,4,21,26,36,105,47,44,50,137,50,35,41,064,48,32,04,343,39*6F
$GBGSV,6,5,21,40,06,044,38,02,04,109,33,20,00,346,,14,03,222,37*6F
$GBGSV,6,6,21,60,08,111,39*5D
$GPGGA,130057.00,,,,,0,00,,,M,,M,,*48
$PTNL,GGK,130057.00,010125,4742.1603352,N,01618.1008386,E,1,39,0.8,EHT751.4581,M*4C
$GPGGQ,130057.00,010125,4742.1603352,N,01618.1008386,E,1,39,1.169,708.2515,M*32
$GPGFA,130057.00,5.326,7.776,0.560,0.391,11.375,0.948,,VVV*3C
$GPLLK,130057.00,010125,,M,,M,1,39,0.9,,M*08
$GNGMP,130057.00,,,,,DAAA,39,0.4,,,,*58
$GPGMP,130057.00,,,,,,08,,,,2.0,136*73
$GLGMP,130057.00,,,,,,09,,,,,*76
$GAGMP,130057.00,,,,,,08,,,,,*7A
$GBGMP,130057.00,,,,,,14,,,,,*74
$PSSN,SNC,[0,306075000,2347]*43
$GPZDA,130102.00,01,01,2025,,*62
$GPDTM,W84,,00.0000000,N,00.0000000,E,00.0000000,W84*5F
$PSSN,TFM,130102.00,,,,*6E
$GPRMC,130102.00,A,4742.1603343,N,01618.1008375,E,0.0,,010125,5.1,E,D*1F
$GPGLL,4742.1603343,N,01618.1008375,E,130102.00,A,D*6E
$GPGGA,130102.00,4742.1603343,N,01618.1008375,E,2,39,0.4,708.2497,M,43.2066,M,3.0,0136*48
$GNGNS,130102.00,4742.1603343,N,01618.1008375,E,DAAA,39,0.4,708.2497,43.2066,,*53
$GPGNS,130102.00,,,,,,08,,,,3.0,136*73
$GLGNS,130102.00,,,,,,09,,,,,*77
$GAGNS,130102.00,,,,,,08,,,,,*7B
$GBGNS,130102.00,,,,,,14,,,,,*75
$GPLLQ,130102.00,010125,,M,,M,1,39,1.173,,M*1E
$GPVTG,,T,,M,0.00,N,0.01,K,D*27
$GPHDT,,T*1B
$GPTHS,,V*0E
$GPROT,,V*08
$PSSN,HRP,130102.00,010125,,,,,,,00,0,,*60
$PTNL,AVR,130102.00,,Yaw,,Tilt,,,,0,,00*36
$GPGSA,A,3,06,11,12,19,24,25,29,32,,,,,0.8,0.4,0.7*3F
$GPGSA,A,3,67,68,69,76,77,78,86,87,88,,,,0.8,0.4,0.7*36
$GPGSA,A,3,02,07,08,27,29,30,34,36,,,,,0.8,0.4,0.7*3B
$GPGSA,A,3,05,07,10,12,24,25,26,33,34,35,40,41,0.8,0.4,0.7*3C
$GPGSA,A,3,44,60,,,,,,,,,,,0.8,0.4,0.7*3F
$GPGST,130102.00,2.298,0.557,0.390,11.752,0.551,0.398,0.955*60
$GPGBS,130102.00,3.348,2.410,6.659,77,0.0001,-7.527,6.119*7D
$GPGRS,130102.00,1,0.1,0.4,0.0,0.0,0.2,-0.3,-1.0,0.5,,,,*4F
$GPGRS,130102.00,1,4.7,6.1,3.1,-3.0,-7.5,-2.8,1.7,-1.0,-1.1,,,*46
$GPGRS,130102.00,1,0.2,-0.1,-1.1,-0.4,1.1,0.1,-0.5,0.0,,,,*4C
$GPGRS,130102.00,1,1.3,1.6,0.9,-1.2,-0.6,-0.3,0.8,-1.7,0.5,-1.0,0.2,0.6*66
$GPGRS,130102.00,1,0.3,-2.1,,,,,,,,,,*62
$GPGSV,5,1,19,12,81,347,50,06,28,077,44,29,13,208,40,11,22,117,43*71
$GPGSV,5,2,19,19,26,048,43,32,31,300,46,25,45,273,46,24,54,150,48*7E
$GPGSV,5,3,19,17,00,040,23,28,04,310,39,36,35,170,45,58,13,245,36*7F
$GPGSV,5,4,19,40,23,133,36,34,31,208,43,49,34,195,44,57,08,111,37*71
$GPGSV,5,5,19,41,07,108,35,61,03,257,38*73
$GLGSV,3,1,10,77,57,066,47,88,20,163,45,76,15,093,42,69,21,329,47*6E
$GLGSV,3,2,10,67,13,226,44,86,28,037,48,68,32,275,49,78,47,307,52*61
$GLGSV,3,3,10,87,50,097,49,79,01,286,39*64
$GAGSV,3,1,09,30,76,295,49,11,12,029,34,34,17,131,39,08,19,191,40*68
$GAGSV,3,2,09,27,25,264,42,36,27,077,42,29,27,311,43,07,45,246,46*6C
$GAGSV,3,3,09,02,44,070,46*56
$GBGSV,6,1,21,24,85,021,51,41,18,294,43,07,12,055,37,05,20,130,39*68
$GBGSV,6,2,21,34,14,186,43,31,12,097,,33,12,245,42,12,34,164,44*68
$GBGSV,6,3,21,10,25,058,40,23,31,284,,25,33,293,46,56,32,052,*67
$GBGSV,6,4,21,26,36,105,47,44,51,137,50,35,41,064,48,32,04,343,39*6E
$GBGSV,6,5,21,40,06,044,38,02,04,109,33,20,00,346,,14,03,222,37*6F
$GBGSV,6,6,21,60,08,111,39*5D
$GPGGA,130102.00,,,,,0,00,,,M,,M,,*49
$PTNL,GGK,130102.00,010125,4742.1603343,N,01618.1008375,E,1,39,0.8,EHT751.4562,M*4C
$GPGGQ,130102.00,010125,4742.1603343,N,01618.1008375,E,1,39,1.173,708.2497,M*3F
$GPGFA,130102.00,5.300,7.834,0.557,0.390,11.752,0.955,,VVV*38
$GPLLK,130102.00,010125,,M,,M,1,39,0.9,,M*09
$GNGMP,130102.00,,,,,DAAA,39,0.4,,,,*59
$GPGMP,130102.00,,,,,,08,,,,3.0,136*73
$GLGMP,130102.00,,,,,,09,,,,,*77
$GAGMP,130102.00,,,,,,08,,,,,*7B
$GBGMP,130102.00,,,,,,14,,,,,*75
$PSSN,SNC,[0,306080000,2347]*49
$GPZDA,130107.00,01,01,2025,,*67
$GPDTM,W84,,00.0000000,N,00.0000000,E,00.0000000,W84*5F
$PSSN,TFM,130107.00,,,,*6B
$GPRMC,130107.00,A,4742.1603312,N,01618.1008373,E,0.0,,010125,5.1,E,D*18
$GPGLL,4742.1603312,N,01618.1008373,E,130107.00,A,D*69
$GPGGA,130107.00,4742.1603312,N,01618.1008373,E,2,39,0.4,708.2505,M,43.2066,M,2.5,0136*41
$GNGNS,130107.00,4742.1603312,N,01618.1008373,E,DAAA,39,0.4,708.2505,43.2066,,*5E
$GPGNS,130107.00,,,,,,08,,,,2.5,136*72
$GLGNS,130107.00,,,,,,09,,,,,*72
$GAGNS,130107.00,,,,,,08,,,,,*7E
$GBGNS,130107.00,,,,,,14,,,,,*70
$GPLLQ,130107.00,010125,,M,,M,1,39,1.169,,M*10
$GPVTG,,T,,M,0.00,N,0.01,K,D*27
$GPHDT,,T*1B
$GPTHS,,V*0E
$GPROT,,V*08
$PSSN,HRP,130107.00,010125,,,,,,,00,0,,*65
$PTNL,AVR,130107.00,,Yaw,,Tilt,,,,0,,00*33
$GPGSA,A,3,06,11,12,19,24,25,29,32,,,,,0.8,0.4,0.7*3F
$GPGSA,A,3,67,68,69,76,77,78,86,87,88,,,,0.8,0.4,0.7*36
$GPGSA,A,3,02,07,08,27,29,30,34,36,,,,,0.8,0.4,0.7*3B
$GPGSA,A,3,05,07,10,12,24,25,26,33,34,35,40,41,0.8,0.4,0.7*3C
$GPGSA,A,3,44,60,,,,,,,,,,,0.8,0.4,0.7*3F
$GPGST,130107.00,2.383,0.559,0.388,12.324,0.552,0.397,0.951*67
$GPGBS,130107.00,3.358,2.342,6.660,77,0.0001,-7.278,6.119*7E
$GPGRS,130107.00,1,-0.3,0.5,0.2,0.1,-0.2,-0.3,-1.1,0.5,,,,*4B
$GPGRS,130107.00,1,5.2,6.6,3.0,-2.1,-7.3,-3.1,2.3,-1.8,-1.7,,,*46
$GPGRS,130107.00,1,0.4,0.0,-1.1,-0.4,0.9,0.3,-0.4,0.1,,,,*68
$GPGRS,130107.00,1,1.5,1.9,0.6,-1.0,-0.6,0.3,1.1,-1.5,0.3,-0.8,0.5,1.2*4D
$GPGRS,130107.00,1,0.2,-2.1,,,,,,,,,,*66
$GPGSV,5,1,19,12,81,347,51,06,28,077,43,29,13,208,40,11,22,117,43*77
$GPGSV,5,2,19,19,26,048,43,32,31,300,45,25,45,274,46,24,54,150,48*7A
$GPGSV,5,3,19,17,00,040,22,28,04,310,38,36,35,170,45,58,13,245,36*7F
$GPGSV,5,4,19,40,23,133,36,34,31,208,43,49,34,195,44,57,08,111,38*7E
$GPGSV,5,5,19,41,07,108,35,61,03,257,38*73
$GLGSV,3,1,10,77,57,066,47,88,20,163,44,76,15,093,43,69,21,329,47*6E
$GLGSV,3,2,10,67,13,226,44,86,28,037,48,68,32,275,49,78,47,307,52*61
$GLGSV,3,3,10,87,50,097,48,79,01,286,40*6B
$GAGSV,3,1,09,30,76,295,49,11,12,029,34,34,17,131,39,08,19,191,41*69
$GAGSV,3,2,09,27,25,264,43,36,27,077,42,29,27,311,42,07,45,246,46*6C
$GAGSV,3,3,09,02,44,070,46*56
$GBGSV,6,1,21,24,85,021,51,41,18,294,43,07,12,055,37,05,20,130,39*68
$GBGSV,6,2,21,34,14,186,42,31,12,097,,33,12,244,42,12,34,164,44*68
$GBGSV,6,3,21,10,25,058,40,23,31,285,,25,33,293,46,56,32,052,*66
$GBGSV,6,4,21,26,36,105,47,44,51,137,50,35,41,064,48,32,04,343,38*6F
$GBGSV,6,5,21,40,06,044,37,02,04,109,32,20,00,345,,14,03,222,36*63
$GBGSV,6,6,21,60,08,111,39*5D
$GPGGA,130107.00,,,,,0,00,,,M,,M,,*4C
$PTNL,GGK,130107.00,010125,4742.1603312,N,01618.1008373,E,1,39,0.8,EHT751.4570,M*48
$GPGGQ,130107.00,010125,4742.1603312,N,01618.1008373,E,1,39,1.169,708.2505,M*39
$GPGFA,130107.00,5.316,7.798,0.559,0.388,12.324,0.951,,VVV*36
$GPLLK,130107.00,010125,,M,,M,1,39,0.9,,M*0C
$GNGMP,130107.00,,,,,DAAA,39,0.4,,,,*5C
$GPGMP,130107.00,,,,,,08,,,,2.5,136*72
$GLGMP,130107.00,,,,,,09,,,,,*72
$GAGMP,130107.00,,,,,,08,,,,,*7E
$GBGMP,130107.00,,,,,,14,,,,,*70
$PSSN,SNC,[0,306085000,2347]*4C
$GPZDA,130112.00,01,01,2025,,*63
$GPDTM,W84,,00.0000000,N,00.0000000,E,00.0000000,W84*5F
$PSSN,TFM,130112.00,,,,*6F
$GPRMC,130112.00,A,4742.1603293,N,01618.1008373,E,0.0,,010125,5.1,E,D*14
$GPGLL,4742.1603293,N,01618.1008373,E,130112.00,A,D*65
$GPGGA,130112.00,4742.1603293,N,01618.1008373,E,2,39,0.4,708.2491,M,43.2066,M,2.5,0136*41
$GNGNS,130112.00,4742.1603293,N,01618.1008373,E,DAAA,39,0.4,708.2491,43.2066,,*5E
$GPGNS,130112.00,,,,,,08,,,,2.5,136*76
$GLGNS,130112.00,,,,,,09,,,,,*76
$GAGNS,130112.00,,,,,,08,,,,,*7A
$GBGNS,130112.00,,,,,,14,,,,,*74
$GPLLQ,130112.00,010125,,M,,M,1,39,1.168,,M*15
$GPVTG,,T,,M,0.00,N,0.01,K,D*27
$GPHDT,,T*1B
$GPTHS,,V*0E
$GPROT,,V*08
$PSSN,HRP,130112.00,010125,,,,,,,00,0,,*61
$PTNL,AVR,130112.00,,Yaw,,Tilt,,,,0,,00*37
$GPGSA,A,3,06,11,12,19,24,25,29,32,,,,,0.8,0.4,0.7*3F
$GPGSA,A,3,67,68,69,76,77,78,86,87,88,,,,0.8,0.4,0.7*36
$GPGSA,A,3,02,07,08,27,29,30,34,36,,,,,0.8,0.4,0.7*3B
$GPGSA,A,3,05,07,10,12,24,25,26,33,34,35,40,41,0.8,0.4,0.7*3C
$GPGSA,A,3,44,60,,,,,,,,,,,0.8,0.4,0.7*3F
$GPGST,130112.00,2.352,0.562,0.393,10.826,0.557,0.401,0.945*6E
$GPGBS,130112.00,3.362,2.348,6.681,77,0.0001,-7.441,6.119*7A
$GPGRS,130112.00,1,-0.6,0.3,0.2,-0.4,0.2,-0.0,-0.8,0.2,,,,*45
$GPGRS,130112.00,1,5.8,6.3,2.0,-1.2,-7.4,-2.8,2.1,-1.8,-2.5,,,*40
$GPGRS,130112.00,1,0.7,-0.2,-0.7,-0.4,0.9,0.2,-0.6,0.4,,,,*41
$GPGRS,130112.00,1,1.3,1.3,1.0,-0.6,-0.3,0.2,1.2,-1.7,-0.1,-1.3,0.4,0.5*62
$GPGRS,130112.00,1,0.2,-2.2,,,,,,,,,,*61
$GPGSV,5,1,19,12,81,348,51,06,28,077,43,29,13,208,40,11,22,117,43*78
$GPGSV,5,2,19,19,26,048,43,32,31,300,45,25,45,274,46,24,54,150,48*7A
$GPGSV,5,3,19,17,00,040,21,28,04,310,37,36,35,170,45,58,13,245,36*73
$GPGSV,5,4,19,40,23,133,36,34,31,208,43,49,34,195,45,57,08,111,38*7F
$GPGSV,5,5,19,41,07,108,35,61,03,257,38*73
$GLGSV,3,1,10,77,57,066,46,88,20,163,45,76,15,093,43,69,21,329,47*6E
$GLGSV,3,2,10,67,13,226,44,86,28,037,48,68,32,275,49,78,47,307,52*61
$GLGSV,3,3,10,87,50,097,49,79,01,286,39*64
$GAGSV,3,1,09,30,76,295,49,11,12,029,34,34,17,131,39,08,19,191,41*69
$GAGSV,3,2,09,27,25,264,43,36,27,077,42,29,27,311,43,07,45,246,46*6D
$GAGSV,3,3,09,02,44,070,46*56
$GBGSV,6,1,21,24,85,022,51,41,18,294,43,07,12,055,37,05,20,130,39*6B
$GBGSV,6,2,21,34,14,186,42,31,12,097,,33,12,244,42,12,34,164,44*68
$GBGSV,6,3,21,10,25,058,40,23,31,285,,25,33,293,46,56,32,052,*66
$GBGSV,6,4,21,26,36,105,47,44,51,137,49,35,41,064,48,32,04,343,39*66
$GBGSV,6,5,21,40,06,044,37,02,04,109,33,20,00,345,,14,03,222,36*62
$GBGSV,6,6,21,60,08,111,39*5D
$GPGGA,130112.00,,,,,0,00,,,M,,M,,*48
$PTNL,GGK,130112.00,010125,4742.1603293,N,01618.1008373,E,1,39,0.8,EHT751.4556,M*40
$GPGGQ,130112.00,010125,4742.1603293,N,01618.1008373,E,1,39,1.168,708.2491,M*38
$GPGFA,130112.00,5.342,7.753,0.562,0.393,10.826,0.945,,VVV*38
$GPLLK,130112.00,010125,,M,,M,1,39,0.9,,M*08
$GNGMP,130112.00,,,,,DAAA,39,0.4,,,,*58
$GPGMP,130112.00,,,,,,08,,,,2.5,136*76
$GLGMP,130112.00,,,,,,09,,,,,*76
$GAGMP,130112.00,,,,,,08,,,,,*7A
$GBGMP,130112.00,,,,,,14,,,,,*74
$PSSN,SNC,[0,306090000,2347]*48
$GPZDA,130117.00,01,01,2025,,*66
$GPDTM,W84,,00.0000000,N,00.0000000,E,00.0000000,W84*5F
$PSSN,TFM,130117.00,,,,*6A
$GPRMC,130117.00,A,4742.1603298,N,01618.1008401,E,0.0,,010125,5.1,E,D*18
$GPGLL,4742.1603298,N,01618.1008401,E,130117.00,A,D*69
$GPGGA,130117.00,4742.1603298,N,01618.1008401,E,2,39,0.4,708.2465,M,43.2066,M,2.0,0136*43
$GNGNS,130117.00,4742.1603298,N,01618.1008401,E,DAAA,39,0.4,708.2465,43.2066,,*59
$GPGNS,130117.00,,,,,,08,,,,2.0,136*76
$GLGNS,130117.00,,,,,,09,,,,,*73
$GAGNS,130117.00,,,,,,08,,,,,*7F
$GBGNS,130117.00,,,,,,14,,,,,*71
$GPLLQ,130117.00,010125,,M,,M,1,39,1.220,,M*1F
$GPVTG,,T,,M,0.00,N,0.00,K,D*26
$GPHDT,,T*1B
$GPTHS,,V*0E
$GPROT,,V*08
$PSSN,HRP,130117.00,010125,,,,,,,00,0,,*64
$PTNL,AVR,130117.00,,Yaw,,Tilt,,,,0,,00*32
$GPGSA,A,3,06,11,12,19,24,25,29,32,,,,,0.8,0.4,0.7*3F
$GPGSA,A,3,67,68,69,76,77,78,86,87,88,,,,0.8,0.4,0.7*36
$GPGSA,A,3,02,07,08,27,29,30,34,36,,,,,0.8,0.4,0.7*3B
$GPGSA,A,3,05,07,10,12,24,25,26,33,34,35,40,41,0.8,0.4,0.7*3C
$GPGSA,A,3,44,60,,,,,,,,,,,0.8,0.4,0.7*3F
$GPGST,130117.00,2.364,0.567,0.424,7.544,0.565,0.426,0.994*57
$GPGBS,130117.00,3.400,2.511,6.559,77,0.0001,-7.774,6.119*75
$GPGRS,130117.00,1,-0.7,0.5,-0.0,-0.1,0.2,0.0,-0.9,0.4,,,,*47
$GPGRS,130117.00,1,5.6,6.6,2.4,-1.4,-7.8,-2.9,1.7,-1.2,-1.7,,,*4F
$GPGRS,130117.00,1,0.4,0.4,-0.8,-0.5,1.2,0.1,-0.7,0.3,,,,*6D
$GPGRS,130117.00,1,0.9,1.5,1.5,-1.0,-0.4,0.2,1.0,-1.6,-0.5,-0.9,0.3,0.3*62
$GPGRS,130117.00,1,0.4,-2.0,,,,,,,,,,*60
$GPGSV,5,1,19,12,81,348,50,06,28,077,43,29,13,208,40,11,22,117,43*79
$GPGSV,5,2,19,19,26,048,43,32,31,300,45,25,45,274,46,24,54,150,48*7A
$GPGSV,5,3,19,17,00,040,22,28,04,310,39,36,35,170,45,58,13,245,36*7E
$GPGSV,5,4,19,40,23,133,36,34,31,208,43,49,34,195,45,57,08,111,37*70
$GPGSV,5,5,19,41,07,108,35,61,03,257,38*73
$GLGSV,3,1,10,77,57,066,47,88,20,163,46,76,15,093,44,69,21,329,47*6B
$GLGSV,3,2,10,67,13,226,45,86,28,037,47,68,32,275,49,78,47,307,51*6C
$GLGSV,3,3,10,87,50,096,49,79,01,286,40*6B
$GAGSV,3,1,09,30,76,295,49,11,12,029,34,34,17,130,40,08,19,191,40*67
$GAGSV,3,2,09,27,25,264,42,36,27,077,43,29,27,311,42,07,45,246,46*6C
$GAGSV,3,3,09,02,44,070,46*56
$GBGSV,6,1,21,24,85,022,51,41,18,294,43,07,12,055,37,05,20,130,39*6B
$GBGSV,6,2,21,34,14,186,42,31,12,097,,33,12,244,42,12,34,164,44*68
$GBGSV,6,3,21,10,25,058,40,23,31,285,,25,33,293,47,56,32,052,*67
$GBGSV,6,4,21,26,36,105,47,44,51,137,49,35,41,064,48,32,04,343,38*67
$GBGSV,6,5,21,40,06,044,37,02,04,109,32,20,00,345,,14,03,222,36*63
$GBGSV,6,6,21,60,08,111,39*5D
$GPGGA,130117.00,,,,,0,00,,,M,,M,,*4D
$PTNL,GGK,130117.00,010125,4742.1603298,N,01618.1008401,E,1,39,0.8,EHT751.4530,M*4C
$GPGGQ,130117.00,010125,4742.1603298,N,01618.1008401,E,1,39,1.220,708.2465,M*30
$GPGFA,130117.00,5.388,8.154,0.567,0.424,7.544,0.994,,VVV*08
$GPLLK,130117.00,010125,,M,,M,1,39,0.9,,M*0D
