$GPZDA,105942.00,01,01,2025,,*68
$GPDTM,W84,,00.0000000,N,00.0000000,E,00.0000000,W84*5F
$PSSN,TFM,105942.00,,,,*64
$GPRMC,105942.00,A,4742.1600713,N,01618.1000085,E,0.0,,010125,5.1,E,D*13
$GPGLL,4742.1600713,N,01618.1000085,E,105942.00,A,D*62
$GPGGA,105942.00,4742.1600713,N,01618.1000085,E,2,37,0.4,708.4045,M,43.2066,M,2.3,0136*45
$GNGNS,105942.00,4742.1600713,N,01618.1000085,E,DAAA,37,0.4,708.4045,43.2066,,*5C
$GPGNS,105942.00,,,,,,09,,,,2.3,136*7A
$GLGNS,105942.00,,,,,,08,,,,,*7C
$GAGNS,105942.00,,,,,,07,,,,,*7E
$GBGNS,105942.00,,,,,,13,,,,,*78
$GPLLQ,105942.00,010125,,M,,M,1,37,1.043,,M*18
$GPVTG,,T,,M,0.00,N,0.00,K,D*26
$GPHDT,,T*1B
$GPTHS,,V*0E
$GPROT,,V*08
$PSSN,HRP,105942.00,010125,,,,,,,00,0,,*6A
$PTNL,AVR,105942.00,,Yaw,,Tilt,,,,0,,00*3C
$GPGSA,A,3,10,12,13,14,15,17,19,23,24,,,,0.8,0.4,0.7*31
$GPGSA,A,3,66,67,68,75,76,77,85,86,,,,,0.8,0.4,0.7*36
$GPGSA,A,3,02,03,07,08,10,25,30,,,,,,0.8,0.4,0.7*32
$GPGSA,A,3,05,07,10,14,21,24,26,33,35,40,42,45,0.8,0.4,0.7*3B
$GPGSA,A,3,60,,,,,,,,,,,,0.8,0.4,0.7*3F
$GPGST,105942.00,2.350,0.413,0.318,355.637,0.412,0.318,0.903*52
$GPGBS,105942.00,2.299,1.742,7.146,77,0.0001,-7.029,6.063*73
$GPGRS,105942.00,1,0.4,0.2,-0.1,0.4,0.0,-0.4,0.4,-0.4,-0.3,,,*6F
$GPGRS,105942.00,1,-2.9,6.6,4.7,-1.7,-1.7,-7.0,4.1,0.8,,,,*47
$GPGRS,105942.00,1,-0.2,-0.3,0.3,0.2,0.7,-0.1,0.2,,,,,*42
$GPGRS,105942.00,1,0.1,0.4,-0.2,2.3,0.8,-0.0,-0.4,0.5,-2.4,-0.7,0.0,0.7*61
$GPGRS,105942.00,1,-1.8,,,,,,,,,,,*4F
$GPGSV,5,1,20,24,66,299,50,14,17,059,41,13,31,159,45,23,17,272,42*7E
$GPGSV,5,2,20,10,15,314,42,12,36,235,46,15,47,202,48,17,39,065,47*7E
$GPGSV,5,3,20,22,38,057,,19,46,110,47,02,03,021,38,36,35,170,45*70
$GPGSV,5,4,20,58,13,245,36,40,23,133,36,34,31,208,43,49,34,195,44*7D
$GPGSV,5,5,20,57,07,111,38,41,07,108,35,61,03,257,38*46
$GLGSV,3,1,11,76,61,032,51,86,19,104,45,68,14,336,44,85,24,046,46*60
$GLGSV,3,2,11,67,50,295,52,66,42,209,51,77,54,285,46,78,01,258,42*6B
$GLGSV,3,3,11,84,03,000,30,75,08,067,42,65,02,180,*5C
$GAGSV,3,1,10,02,85,074,49,03,24,159,42,25,31,057,43,07,40,305,45*60
$GAGSV,3,2,10,30,38,234,45,08,66,210,49,12,05,020,32,16,07,056,*64
$GAGSV,3,3,10,11,06,068,35,10,07,042,37*63
$GBGSV,6,1,21,26,78,044,51,05,20,130,39,50,21,200,,35,26,122,45*69
$GBGSV,6,2,21,40,22,039,42,45,23,079,43,33,35,294,47,07,24,052,39*6B
$GBGSV,6,3,21,42,35,225,47,24,44,272,48,10,35,060,42,56,38,066,*69
$GBGSV,6,4,21,25,43,262,,14,42,260,46,02,04,109,30,44,04,162,*65
$GBGSV,6,5,21,21,05,184,37,41,05,334,,29,02,018,,57,02,347,*60
$GBGSV,6,6,21,60,07,111,40*5C
$GPGGA,105942.00,,,,,0,00,,,M,,M,,*43
$PTNL,GGK,105942.00,010125,4742.1600713,N,01618.1000085,E,1,37,0.8,EHT751.6111,M*4C
$GPGGQ,105942.00,010125,4742.1600713,N,01618.1000085,E,1,37,1.043,708.4045,M*32
$GPGFA,105942.00,3.922,7.408,0.413,0.318,355.637,0.903,,VVV*0E
$GPLLK,105942.00,010125,,M,,M,1,37,0.9,,M*0D
$GNGMP,105942.00,,,,,DAAA,37,0.4,,,,*5D
$GPGMP,105942.00,,,,,,09,,,,2.3,136*7A
$GLGMP,105942.00,,,,,,08,,,,,*7C
$GAGMP,105942.00,,,,,,07,,,,,*7E
$GBGMP,105942.00,,,,,,13,,,,,*78
$PSSN,SNC,[0,298800000,2347]*4F
$GPZDA,105947.00,01,01,2025,,*6D
$GPDTM,W84,,00.0000000,N,00.0000000,E,00.0000000,W84*5F
$PSSN,TFM,105947.00,,,,*61
$GPRMC,105947.00,A,4742.1600699,N,01618.1000081,E,0.0,,010125,5.1,E,D*11
$GPGLL,4742.1600699,N,01618.1000081,E,105947.00,A,D*60
$GPGGA,105947.00,4742.1600699,N,01618.1000081,E,2,37,0.4,708.4066,M,43.2066,M,1.6,0136*40
$GNGNS,105947.00,4742.1600699,N,01618.1000081,E,DAAA,37,0.4,708.4066,43.2066,,*5F
$GPGNS,105947.00,,,,,,09,,,,1.6,136*79
$GLGNS,105947.00,,,,,,08,,,,,*79
$GAGNS,105947.00,,,,,,07,,,,,*7B
$GBGNS,105947.00,,,,,,13,,,,,*7D
$GPLLQ,105947.00,010125,,M,,M,1,37,1.018,,M*13
$GPVTG,,T,,M,0.00,N,0.01,K,D*27
$GPHDT,,T*1B
$GPTHS,,V*0E
$GPROT,,V*08
$PSSN,HRP,105947.00,010125,,,,,,,00,0,,*6F
$PTNL,AVR,105947.00,,Yaw,,Tilt,,,,0,,00*39
$GPGSA,A,3,10,12,13,14,15,17,19,23,24,,,,0.8,0.4,0.7*31
$GPGSA,A,3,66,67,68,75,76,77,85,86,,,,,0.8,0.4,0.7*36
$GPGSA,A,3,02,03,07,08,10,25,30,,,,,,0.8,0.4,0.7*32
$GPGSA,A,3,05,07,10,14,21,24,26,33,35,40,42,45,0.8,0.4,0.7*3B
$GPGSA,A,3,60,,,,,,,,,,,,0.8,0.4,0.7*3F
$GPGST,105947.00,2.332,0.404,0.312,355.743,0.403,0.312,0.882*5F
$GPGBS,105947.00,2.335,1.709,7.170,77,0.0001,-7.742,6.063*71
$GPGRS,105947.00,1,0.0,-0.0,0.1,0.1,-0.1,-0.1,0.1,0.0,0.1,,,*43
$GPGRS,105947.00,1,-2.5,6.5,4.6,-1.2,-2.0,-7.7,3.4,-0.3,,,,*6E
$GPGRS,105947.00,1,-0.1,-0.6,0.2,0.1,0.8,-0.2,0.2,,,,,*4F
$GPGRS,105947.00,1,0.5,0.8,0.0,2.1,0.9,-0.1,-0.2,0.5,-2.3,-0.6,-0.2,0.7*6E
$GPGRS,105947.00,1,-1.8,,,,,,,,,,,*4A
$GPGSV,5,1,20,24,66,299,50,14,17,059,41,13,31,159,45,23,17,272,42*7E
$GPGSV,5,2,20,10,15,314,40,12,36,235,46,15,47,202,48,17,39,065,46*7D
$GPGSV,5,3,20,22,38,057,,19,46,110,47,02,03,021,38,36,35,170,45*70
$GPGSV,5,4,20,58,13,245,36,40,23,133,37,34,31,208,43,49,34,195,44*7C
$GPGSV,5,5,20,57,07,111,38,41,07,108,35,61,03,257,38*46
$GLGSV,3,1,11,76,61,032,52,86,19,104,44,68,14,336,44,85,24,046,46*62
$GLGSV,3,2,11,67,50,295,52,66,42,209,51,77,54,285,46,78,01,258,42*6B
$GLGSV,3,3,11,84,03,000,30,75,08,067,43,65,01,180,*5E
$GAGSV,3,1,10,02,85,074,49,03,24,159,42,25,31,057,43,07,41,305,45*61
$GAGSV,3,2,10,30,38,234,45,08,66,210,49,12,05,020,32,16,07,056,*64
$GAGSV,3,3,10,11,06,068,35,10,07,042,37*63
$GBGSV,6,1,21,26,78,044,51,05,20,130,39,50,21,200,,35,26,122,45*69
$GBGSV,6,2,21,40,22,039,42,45,23,079,43,33,35,294,47,07,24,052,39*6B
$GBGSV,6,3,21,42,35,225,47,24,44,272,48,10,35,060,42,56,38,066,*69
$GBGSV,6,4,21,25,43,262,,14,42,260,46,02,04,109,31,44,04,162,*64
$GBGSV,6,5,21,21,05,184,38,41,05,334,,29,02,018,,57,02,347,*6F
$GBGSV,6,6,21,60,07,111,40*5C
$GPGGA,105947.00,,,,,0,00,,,M,,M,,*46
$PTNL,GGK,105947.00,010125,4742.1600699,N,01618.1000081,E,1,37,0.8,EHT751.6131,M*4C
$GPGGQ,105947.00,010125,4742.1600699,N,01618.1000081,E,1,37,1.018,708.4066,M*3F
$GPGFA,105947.00,3.839,7.228,0.404,0.312,355.743,0.882,,VVV*02
$GPLLK,105947.00,010125,,M,,M,1,37,0.9,,M*08
$GNGMP,105947.00,,,,,DAAA,37,0.4,,,,*58
$GPGMP,105947.00,,,,,,09,,,,1.6,136*79
$GLGMP,105947.00,,,,,,08,,,,,*79
$GAGMP,105947.00,,,,,,07,,,,,*7B
$GBGMP,105947.00,,,,,,13,,,,,*7D
$PSSN,SNC,[0,298805000,2347]*4A
$GPZDA,105952.00,01,01,2025,,*69
$GPDTM,W84,,00.0000000,N,00.0000000,E,00.0000000,W84*5F
$PSSN,TFM,105952.00,,,,*65
$GPRMC,105952.00,A,4742.1600707,N,01618.1000078,E,0.0,,010125,5.1,E,D*15
$GPGLL,4742.1600707,N,01618.1000078,E,105952.00,A,D*64
$GPGGA,105952.00,4742.1600707,N,01618.1000078,E,2,37,0.4,708.4041,M,43.2066,M,2.6,0136*42
$GNGNS,105952.00,4742.1600707,N,01618.1000078,E,DAAA,37,0.4,708.4041,43.2066,,*5E
$GPGNS,105952.00,,,,,,09,,,,2.6,136*7E
$GLGNS,105952.00,,,,,,08,,,,,*7D
$GAGNS,105952.00,,,,,,07,,,,,*7F
$GBGNS,105952.00,,,,,,13,,,,,*79
$GPLLQ,105952.00,010125,,M,,M,1,37,1.027,,M*1B
$GPVTG,,T,,M,0.00,N,0.00,K,D*26
$GPHDT,,T*1B
$GPTHS,,V*0E
$GPROT,,V*08
$PSSN,HRP,105952.00,010125,,,,,,,00,0,,*6B
$PTNL,AVR,105952.00,,Yaw,,Tilt,,,,0,,00*3D
$GPGSA,A,3,10,12,13,14,15,17,19,23,24,,,,0.8,0.4,0.7*31
$GPGSA,A,3,66,67,68,75,76,77,85,86,,,,,0.8,0.4,0.7*36
$GPGSA,A,3,02,03,07,08,10,25,30,,,,,,0.8,0.4,0.7*32
$GPGSA,A,3,05,07,10,14,21,24,26,33,35,40,42,45,0.8,0.4,0.7*3B
$GPGSA,A,3,60,,,,,,,,,,,,0.8,0.4,0.7*3F
$GPGST,105952.00,2.388,0.405,0.314,355.698,0.404,0.314,0.891*59
$GPGBS,105952.00,2.384,1.721,7.284,77,0.0001,-7.831,6.063*76
$GPGRS,105952.00,1,-0.5,0.1,-0.0,-0.2,0.3,-0.1,0.1,-0.0,-0.0,,,*6F
$GPGRS,105952.00,1,-3.2,6.6,3.6,-1.8,-1.8,-7.8,3.7,-0.2,,,,*64
$GPGRS,105952.00,1,-0.0,-0.8,0.2,-0.1,1.0,-0.2,0.2,,,,,*60
$GPGRS,105952.00,1,1.1,0.8,0.3,2.8,1.3,0.1,-0.4,0.5,-2.4,-0.5,-0.1,0.4*41
$GPGRS,105952.00,1,-1.8,,,,,,,,,,,*4E
$GPGSV,5,1,20,24,66,299,50,14,17,059,41,13,31,159,45,23,17,272,41*7D
$GPGSV,5,2,20,10,15,314,40,12,36,235,46,15,47,202,48,22,38,057,*79
$GPGSV,5,3,20,17,39,065,46,19,46,110,47,02,03,021,38,36,35,170,45*74
$GPGSV,5,4,20,58,13,245,36,40,23,133,37,34,31,208,43,49,34,195,45*7D
$GPGSV,5,5,20,57,07,111,38,41,07,108,35,61,03,257,38*46
$GLGSV,3,1,11,76,61,032,52,86,19,104,44,68,14,336,43,85,24,046,47*64
$GLGSV,3,2,11,67,50,295,51,66,42,209,51,77,54,285,46,78,01,258,42*68
$GLGSV,3,3,11,84,03,000,31,75,08,067,43,65,01,180,*5F
$GAGSV,3,1,10,02,85,073,49,03,24,159,42,25,31,057,43,07,41,305,45*66
$GAGSV,3,2,10,30,38,234,45,08,66,210,49,12,05,020,32,16,07,056,*64
$GAGSV,3,3,10,11,06,067,35,10,07,042,37*6C
$GBGSV,6,1,21,26,78,044,51,05,20,130,39,50,21,200,,35,26,122,45*69
$GBGSV,6,2,21,40,22,039,42,45,23,079,43,33,35,294,47,07,24,052,39*6B
$GBGSV,6,3,21,42,35,225,47,24,44,272,49,10,35,060,42,56,38,066,*68
$GBGSV,6,4,21,25,43,262,,14,42,260,46,02,04,109,31,44,04,162,*64
$GBGSV,6,5,21,21,05,184,37,41,05,334,,29,02,018,,57,02,347,*60
$GBGSV,6,6,21,60,07,111,41*5D
$GPGGA,105952.00,,,,,0,00,,,M,,M,,*42
$PTNL,GGK,105952.00,010125,4742.1600707,N,01618.1000078,E,1,37,0.8,EHT751.6107,M*4D
$GPGGQ,105952.00,010125,4742.1600707,N,01618.1000078,E,1,37,1.027,708.4041,M*32
$GPGFA,105952.00,3.847,7.304,0.405,0.314,355.698,0.891,,VVV*02
$GPLLK,105952.00,010125,,M,,M,1,37,0.9,,M*0C
$GNGMP,105952.00,,,,,DAAA,37,0.4,,,,*5C
$GPGMP,105952.00,,,,,,09,,,,2.6,136*7E
$GLGMP,105952.00,,,,,,08,,,,,*7D
$GAGMP,105952.00,,,,,,07,,,,,*7F
$GBGMP,105952.00,,,,,,13,,,,,*79
$PSSN,SNC,[0,298810000,2347]*4E
$GPZDA,105957.00,01,01,2025,,*6C
$GPDTM,W84,,00.0000000,N,00.0000000,E,00.0000000,W84*5F
$PSSN,TFM,105957.00,,,,*60
$GPRMC,105957.00,A,4742.1600729,N,01618.1000086,E,0.0,,010125,5.1,E,D*1D
$GPGLL,4742.1600729,N,01618.1000086,E,105957.00,A,D*6C
$GPGGA,105957.00,4742.1600729,N,01618.1000086,E,2,37,0.4,708.4075,M,43.2066,M,3.6,0136*4C
$GNGNS,105957.00,4742.1600729,N,01618.1000086,E,DAAA,37,0.4,708.4075,43.2066,,*51
$GPGNS,105957.00,,,,,,09,,,,3.6,136*7A
$GLGNS,105957.00,,,,,,08,,,,,*78
$GAGNS,105957.00,,,,,,07,,,,,*7A
$GBGNS,105957.00,,,,,,13,,,,,*7C
$GPLLQ,105957.00,010125,,M,,M,1,37,1.076,,M*1A
$GPVTG,,T,,M,0.00,N,0.00,K,D*26
$GPHDT,,T*1B
$GPTHS,,V*0E
$GPROT,,V*08
$PSSN,HRP,105957.00,010125,,,,,,,00,0,,*6E
$PTNL,AVR,105957.00,,Yaw,,Tilt,,,,0,,00*38
$GPGSA,A,3,10,12,13,14,15,17,19,23,24,,,,0.8,0.4,0.7*31
$GPGSA,A,3,66,67,68,75,76,77,85,86,,,,,0.8,0.4,0.7*36
$GPGSA,A,3,02,03,07,08,10,25,30,,,,,,0.8,0.4,0.7*32
$GPGSA,A,3,05,07,10,14,21,24,26,33,35,40,42,45,0.8,0.4,0.7*3B
$GPGSA,A,3,60,,,,,,,,,,,,0.8,0.4,0.7*3F
$GPGST,105957.00,2.315,0.427,0.323,355.940,0.426,0.324,0.933*5C
$GPGBS,105957.00,2.604,1.723,7.681,77,0.0001,-7.710,6.078*7B
$GPGRS,105957.00,1,0.2,0.4,0.0,-0.0,-0.1,-0.3,0.2,0.2,-0.3,,,*68
$GPGRS,105957.00,1,-3.5,6.4,3.3,-1.3,-2.0,-7.7,3.3,-0.2,,,,*6A
$GPGRS,105957.00,1,-0.2,-0.8,0.2,-0.2,1.2,-0.3,0.1,,,,,*64
$GPGRS,105957.00,1,0.9,0.6,0.4,2.5,0.5,0.0,-0.3,0.1,-2.4,-0.4,-0.4,0.4*48
$GPGRS,105957.00,1,-1.9,,,,,,,,,,,*4A
$GPGSV,5,1,20,24,66,299,49,14,17,059,40,13,31,159,45,23,17,272,41*74
$GPGSV,5,2,20,10,15,314,40,12,36,235,46,15,47,202,48,22,38,057,*79
$GPGSV,5,3,20,17,39,065,46,19,47,109,47,02,03,021,38,36,35,170,45*7D
$GPGSV,5,4,20,58,13,245,36,40,23,133,37,34,31,208,43,49,34,195,44*7C
$GPGSV,5,5,20,57,07,111,38,41,07,108,35,61,03,257,38*46
$GLGSV,3,1,11,76,61,032,51,86,19,104,44,68,14,336,44,85,24,046,47*60
$GLGSV,3,2,11,67,50,295,52,66,42,209,51,77,54,285,46,78,01,258,42*6B
$GLGSV,3,3,11,84,03,000,31,75,08,067,44,65,01,180,*58
$GAGSV,3,1,10,02,85,073,49,03,24,159,41,25,31,057,43,07,41,305,45*65
$GAGSV,3,2,10,30,38,234,45,08,66,210,49,12,05,020,33,16,07,056,*65
$GAGSV,3,3,10,11,06,067,34,10,07,042,36*6C
$GBGSV,6,1,21,26,78,044,51,05,20,130,39,50,21,200,,35,26,122,45*69
$GBGSV,6,2,21,40,22,039,42,45,23,079,43,33,35,294,47,07,24,052,39*6B
$GBGSV,6,3,21,42,35,225,47,24,44,272,48,10,35,060,42,56,38,066,*69
$GBGSV,6,4,21,25,43,262,,14,42,260,46,02,04,109,31,44,04,162,*64
$GBGSV,6,5,21,21,05,184,37,41,05,334,,29,02,018,,57,02,347,*60
$GBGSV,6,6,21,60,07,111,40*5C
$GPGGA,105957.00,,,,,0,00,,,M,,M,,*47
$PTNL,GGK,105957.00,010125,4742.1600729,N,01618.1000086,E,1,37,0.8,EHT751.6141,M*47
$GPGGQ,105957.00,010125,4742.1600729,N,01618.1000086,E,1,37,1.076,708.4075,M*39
$GPGFA,105957.00,4.057,7.651,0.427,0.323,355.940,0.933,,VVV*0B
$GPLLK,105957.00,010125,,M,,M,1,37,0.9,,M*09
$GNGMP,105957.00,,,,,DAAA,37,0.4,,,,*59
$GPGMP,105957.00,,,,,,09,,,,3.6,136*7A
$GLGMP,105957.00,,,,,,08,,,,,*78
$GAGMP,105957.00,,,,,,07,,,,,*7A
$GBGMP,105957.00,,,,,,13,,,,,*7C
$PSSN,SNC,[0,298815000,2347]*4B
$GPZDA,110002.00,01,01,2025,,*61
$GPDTM,W84,,00.0000000,N,00.0000000,E,00.0000000,W84*5F
$PSSN,TFM,110002.00,,,,*6D
$GPRMC,110002.00,A,4742.1600728,N,01618.1000096,E,0.0,,010125,5.1,E,D*10
$GPGLL,4742.1600728,N,01618.1000096,E,110002.00,A,D*61
$GPGGA,110002.00,4742.1600728,N,01618.1000096,E,2,37,0.4,708.4120,M,43.2066,M,2.3,0136*44
$GNGNS,110002.00,4742.1600728,N,01618.1000096,E,DAAA,37,0.4,708.4120,43.2066,,*5D
$GPGNS,110002.00,,,,,,09,,,,2.3,136*73
$GLGNS,110002.00,,,,,,08,,,,,*75
$GAGNS,110002.00,,,,,,07,,,,,*77
$GBGNS,110002.00,,,,,,13,,,,,*71
$GPLLQ,110002.00,010125,,M,,M,1,37,1.071,,M*10
$GPVTG,,T,,M,0.00,N,0.00,K,D*26
$GPHDT,,T*1B
$GPTHS,,V*0E
$GPROT,,V*08
$PSSN,HRP,110002.00,010125,,,,,,,00,0,,*63
$PTNL,AVR,110002.00,,Yaw,,Tilt,,,,0,,00*35
$GPGSA,A,3,10,12,13,14,15,17,19,23,24,,,,0.8,0.4,0.7*31
$GPGSA,A,3,66,67,68,75,76,77,85,86,,,,,0.8,0.4,0.7*36
$GPGSA,A,3,02,03,07,08,10,25,30,,,,,,0.8,0.4,0.7*32
$GPGSA,A,3,05,07,10,14,21,24,26,33,35,40,42,45,0.8,0.4,0.7*3B
$GPGSA,A,3,60,,,,,,,,,,,,0.8,0.4,0.7*3F
$GPGST,110002.00,2.394,0.428,0.322,355.888,0.427,0.323,0.928*5F
$GPGBS,110002.00,2.485,1.730,7.424,77,0.0001,-7.207,6.078*71
$GPGRS,110002.00,1,0.3,0.3,-0.0,0.6,-0.3,-0.3,0.0,0.2,-0.2,,,*64
$GPGRS,110002.00,1,-3.3,6.2,5.4,-1.1,-2.2,-7.2,4.0,0.4,,,,*4C
$GPGRS,110002.00,1,-0.1,-0.8,0.2,-0.3,1.1,-0.2,0.1,,,,,*69
$GPGRS,110002.00,1,0.5,0.7,1.0,2.2,0.6,-0.1,-0.3,0.1,-2.4,-0.6,-0.5,0.2*60
$GPGRS,110002.00,1,-1.9,,,,,,,,,,,*47
$GPGSV,5,1,20,24,66,299,49,14,17,059,40,13,31,159,45,23,17,272,42*77
$GPGSV,5,2,20,10,15,314,41,12,36,235,46,15,47,202,48,22,38,057,*78
$GPGSV,5,3,20,17,39,065,46,19,47,109,47,02,03,021,38,36,35,170,45*7D
$GPGSV,5,4,20,58,13,245,36,40,23,133,37,34,31,208,42,49,34,195,44*7D
$GPGSV,5,5,20,57,07,111,38,41,07,108,35,61,03,257,38*46
$GLGSV,3,1,11,76,61,032,51,86,19,104,45,68,14,336,45,85,24,046,47*60
$GLGSV,3,2,11,67,50,295,52,66,42,209,51,77,54,285,46,78,01,258,41*68
$GLGSV,3,3,11,84,03,000,30,75,08,067,44,65,01,180,*59
$GAGSV,3,1,10,02,85,073,49,03,24,159,41,25,30,057,43,07,41,305,45*64
$GAGSV,3,2,10,30,38,234,45,08,66,210,49,12,05,020,33,16,07,056,*65
$GAGSV,3,3,10,11,06,067,34,10,07,042,37*6D
$GBGSV,6,1,21,26,77,044,51,05,20,130,39,50,21,200,,35,26,122,45*66
$GBGSV,6,2,21,40,22,039,42,45,23,079,43,33,35,294,47,07,24,052,39*6B
$GBGSV,6,3,21,42,35,225,47,24,44,272,48,10,35,060,43,56,38,066,*68
$GBGSV,6,4,21,14,42,260,46,25,43,262,,02,04,109,31,44,04,162,*64
$GBGSV,6,5,21,21,05,184,37,41,05,334,,29,02,018,,57,02,347,*60
$GBGSV,6,6,21,60,07,111,40*5C
$GPGGA,110002.00,,,,,0,00,,,M,,M,,*4A
$PTNL,GGK,110002.00,010125,4742.1600728,N,01618.1000096,E,1,37,0.8,EHT751.6186,M*41
$GPGGQ,110002.00,010125,4742.1600728,N,01618.1000096,E,1,37,1.071,708.4120,M*32
$GPGFA,110002.00,4.067,7.610,0.428,0.322,355.888,0.928,,VVV*01
$GPLLK,110002.00,010125,,M,,M,1,37,0.9,,M*04
$GNGMP,110002.00,,,,,DAAA,37,0.4,,,,*54
$GPGMP,110002.00,,,,,,09,,,,2.3,136*73
$GLGMP,110002.00,,,,,,08,,,,,*75
$GAGMP,110002.00,,,,,,07,,,,,*77
$GBGMP,110002.00,,,,,,13,,,,,*71
$PSSN,SNC,[0,298820000,2347]*4D
$GPZDA,110007.00,01,01,2025,,*64
$GPDTM,W84,,00.0000000,N,00.0000000,E,00.0000000,W84*5F
$PSSN,TFM,110007.00,,,,*68
$GPRMC,110007.00,A,4742.1600702,N,01618.1000114,E,0.0,,010125,5.1,E,D*16
$GPGLL,4742.1600702,N,01618.1000114,E,110007.00,A,D*67
$GPGGA,110007.00,4742.1600702,N,01618.1000114,E,2,36,0.5,708.4191,M,43.2066,M,1.6,0136*4E
$GNGNS,110007.00,4742.1600702,N,01618.1000114,E,DAAA,36,0.5,708.4191,43.2066,,*51
$GPGNS,110007.00,,,,,,09,,,,1.6,136*70
$GLGNS,110007.00,,,,,,08,,,,,*70
$GAGNS,110007.00,,,,,,07,,,,,*72
$GBGNS,110007.00,,,,,,12,,,,,*75
$GPLLQ,110007.00,010125,,M,,M,1,36,1.051,,M*16
$GPVTG,,T,,M,0.00,N,0.00,K,D*26
$GPHDT,,T*1B
$GPTHS,,V*0E
$GPROT,,V*08
$PSSN,HRP,110007.00,010125,,,,,,,00,0,,*66
$PTNL,AVR,110007.00,,Yaw,,Tilt,,,,0,,00*30
$GPGSA,A,3,10,12,13,14,15,17,19,23,24,,,,0.9,0.5,0.8*3E
$GPGSA,A,3,66,67,68,75,76,77,85,86,,,,,0.9,0.5,0.8*39
$GPGSA,A,3,02,03,07,08,10,25,30,,,,,,0.9,0.5,0.8*3D
$GPGSA,A,3,05,07,10,14,24,26,33,35,40,42,45,60,0.9,0.5,0.8*31
$GPGST,110007.00,2.512,0.421,0.316,356.088,0.421,0.317,0.910*5D
$GPGBS,110007.00,2.531,1.701,7.493,77,0.0001,-7.199,6.078*70
$GPGRS,110007.00,1,0.7,0.1,-0.1,0.5,-0.4,-0.2,0.1,0.4,-0.2,,,*64
$GPGRS,110007.00,1,-3.7,6.3,5.2,-2.1,-2.6,-7.2,4.4,0.4,,,,*49
$GPGRS,110007.00,1,-0.0,-0.3,0.3,-0.2,1.1,-0.1,0.1,,,,,*65
$GPGRS,110007.00,1,0.6,0.5,1.0,1.9,0.2,-0.3,0.2,-2.8,-0.9,-0.2,0.2,-1.6*69
$GPGSV,5,1,20,24,66,299,49,14,17,059,40,13,31,159,45,23,17,272,41*74
$GPGSV,5,2,20,10,15,314,41,12,36,235,46,15,47,202,48,22,38,057,*78
$GPGSV,5,3,20,17,38,065,46,19,47,109,47,02,03,021,39,36,35,170,45*7D
$GPGSV,5,4,20,58,13,245,36,40,23,133,36,34,31,208,42,49,34,195,44*7C
$GPGSV,5,5,20,57,07,111,38,41,07,108,35,61,03,257,38*46
$GLGSV,3,1,11,76,61,032,51,86,19,104,45,68,14,336,44,85,24,046,47*61
$GLGSV,3,2,11,67,50,295,52,66,42,209,51,77,54,285,46,78,01,258,42*6B
$GLGSV,3,3,11,84,03,000,30,75,08,067,43,65,01,180,*5E
$GAGSV,3,1,10,02,85,073,49,03,24,159,41,25,30,057,43,07,41,305,45*64
$GAGSV,3,2,10,30,38,234,45,08,66,210,49,12,05,020,33,16,07,056,*65
$GAGSV,3,3,10,11,06,067,34,10,07,042,37*6D
$GBGSV,6,1,21,26,77,044,51,05,20,130,39,50,21,200,,35,26,122,45*66
$GBGSV,6,2,21,40,22,039,42,45,23,079,44,33,35,294,47,07,24,052,39*6C
$GBGSV,6,3,21,42,35,225,47,10,35,060,43,24,44,272,48,56,38,066,*68
$GBGSV,6,4,21,14,42,259,46,25,43,262,,02,04,109,31,44,04,162,*6E
$GBGSV,6,5,21,21,05,184,37,41,05,334,,29,02,018,,57,02,347,*60
$GBGSV,6,6,21,60,07,111,40*5C
$GPGGA,110007.00,,,,,0,00,,,M,,M,,*4F
$PTNL,GGK,110007.00,010125,4742.1600702,N,01618.1000114,E,1,36,0.9,EHT751.6256,M*49
$GPGGQ,110007.00,010125,4742.1600702,N,01618.1000114,E,1,36,1.051,708.4191,M*3D
$GPGFA,110007.00,4.003,7.462,0.421,0.316,356.088,0.910,,VVV*0F
$GPLLK,110007.00,010125,,M,,M,1,36,1.0,,M*08
$GNGMP,110007.00,,,,,DAAA,36,0.5,,,,*51
$GPGMP,110007.00,,,,,,09,,,,1.6,136*70
$GLGMP,110007.00,,,,,,08,,,,,*70
$GAGMP,110007.00,,,,,,07,,,,,*72
$GBGMP,110007.00,,,,,,12,,,,,*75
$PSSN,SNC,[0,298825000,2347]*48
$GPZDA,110012.00,01,01,2025,,*60
$GPDTM,W84,,00.0000000,N,00.0000000,E,00.0000000,W84*5F
$PSSN,TFM,110012.00,,,,*6C
$GPRMC,110012.00,A,4742.1600684,N,01618.1000109,E,0.0,,010125,5.1,E,D*11
$GPGLL,4742.1600684,N,01618.1000109,E,110012.00,A,D*60
$GPGGA,110012.00,4742.1600684,N,01618.1000109,E,2,36,0.5,708.4259,M,43.2066,M,2.6,0136*4D
$GNGNS,110012.00,4742.1600684,N,01618.1000109,E,DAAA,36,0.5,708.4259,43.2066,,*51
$GPGNS,110012.00,,,,,,09,,,,2.6,136*77
$GLGNS,110012.00,,,,,,08,,,,,*74
$GAGNS,110012.00,,,,,,07,,,,,*76
$GBGNS,110012.00,,,,,,12,,,,,*71
$GPLLQ,110012.00,010125,,M,,M,1,36,1.059,,M*1A
$GPVTG,,T,,M,0.00,N,0.00,K,D*26
$GPHDT,,T*1B
$GPTHS,,V*0E
$GPROT,,V*08
$PSSN,HRP,110012.00,010125,,,,,,,00,0,,*62
$PTNL,AVR,110012.00,,Yaw,,Tilt,,,,0,,00*34
$GPGSA,A,3,10,12,13,14,15,17,19,23,24,,,,0.9,0.5,0.8*3E
$GPGSA,A,3,66,67,68,75,76,77,85,86,,,,,0.9,0.5,0.8*39
$GPGSA,A,3,02,03,07,08,10,25,30,,,,,,0.9,0.5,0.8*3D
$GPGSA,A,3,05,07,10,14,24,26,33,35,40,42,45,60,0.9,0.5,0.8*31
$GPGST,110012.00,2.716,0.421,0.318,356.044,0.421,0.319,0.919*56
$GPGBS,110012.00,2.576,1.712,7.597,77,0.0001,-8.399,6.078*7D
$GPGRS,110012.00,1,0.3,0.2,0.2,0.8,-0.3,0.1,-0.0,0.1,-0.2,,,*44
$GPGRS,110012.00,1,-4.0,6.3,4.4,-3.8,-2.4,-8.4,4.6,-0.2,,,,*60
$GPGRS,110012.00,1,-0.3,-0.8,-0.0,-0.3,0.8,-0.1,-0.1,,,,,*63
$GPGRS,110012.00,1,1.0,0.3,0.6,1.7,-0.0,-0.5,-0.3,-3.8,-1.0,-0.2,0.4,-1.8*61
$GPGSV,5,1,20,24,66,299,50,14,17,059,39,13,31,159,45,23,17,272,42*71
$GPGSV,5,2,20,10,15,314,40,12,36,235,46,15,47,202,48,22,38,057,*79
$GPGSV,5,3,20,17,38,065,47,19,47,109,47,02,03,021,39,36,35,170,45*7C
$GPGSV,5,4,20,58,13,245,36,40,23,133,36,34,31,208,42,49,34,195,44*7C
$GPGSV,5,5,20,57,07,111,38,41,07,108,34,61,03,257,38*47
$GLGSV,3,1,11,76,61,032,52,86,19,104,46,68,14,336,44,85,24,046,47*61
$GLGSV,3,2,11,67,50,295,51,66,42,209,51,77,54,285,46,78,01,258,41*6B
$GLGSV,3,3,11,84,03,000,30,75,08,067,42,65,01,180,*5F
$GAGSV,3,1,10,02,85,073,49,03,24,159,41,25,30,057,43,07,41,305,45*64
$GAGSV,3,2,10,30,38,234,45,08,66,210,49,12,05,020,33,16,07,056,*65
$GAGSV,3,3,10,11,06,067,34,10,07,042,37*6D
$GBGSV,6,1,21,26,77,044,51,05,20,130,39,50,20,200,,35,26,122,44*66
$GBGSV,6,2,21,40,22,039,42,45,23,079,44,33,35,294,47,07,24,052,39*6C
$GBGSV,6,3,21,42,35,225,47,10,35,060,43,24,44,272,48,56,38,066,*68
$GBGSV,6,4,21,14,42,259,46,25,43,262,,02,04,109,31,44,04,162,*6E
$GBGSV,6,5,21,21,05,184,37,41,05,334,,29,02,018,,57,02,347,*60
$GBGSV,6,6,21,60,07,111,40*5C
$GPGGA,110012.00,,,,,0,00,,,M,,M,,*4B
$PTNL,GGK,110012.00,010125,4742.1600684,N,01618.1000109,E,1,36,0.9,EHT751.6324,M*4A
$GPGGQ,110012.00,010125,4742.1600684,N,01618.1000109,E,1,36,1.059,708.4259,M*35
$GPGFA,110012.00,4.005,7.532,0.421,0.318,356.044,0.919,,VVV*0E
$GPLLK,110012.00,010125,,M,,M,1,36,1.0,,M*0C
$GNGMP,110012.00,,,,,DAAA,36,0.5,,,,*55
$GPGMP,110012.00,,,,,,09,,,,2.6,136*77
$GLGMP,110012.00,,,,,,08,,,,,*74
$GAGMP,110012.00,,,,,,07,,,,,*76
$GBGMP,110012.00,,,,,,12,,,,,*71
$PSSN,SNC,[0,298830000,2347]*4C
$GPZDA,110017.00,01,01,2025,,*65
$GPDTM,W84,,00.0000000,N,00.0000000,E,00.0000000,W84*5F
$PSSN,TFM,110017.00,,,,*69
$GPRMC,110017.00,A,4742.1600670,N,01618.1000092,E,0.0,,010125,5.1,E,D*1C
$GPGLL,4742.1600670,N,01618.1000092,E,110017.00,A,D*6D
$GPGGA,110017.00,4742.1600670,N,01618.1000092,E,2,36,0.5,708.4321,M,43.2066,M,3.6,0136*4F
$GNGNS,110017.00,4742.1600670,N,01618.1000092,E,DAAA,36,0.5,708.4321,43.2066,,*52
$GPGNS,110017.00,,,,,,09,,,,3.6,136*73
$GLGNS,110017.00,,,,,,08,,,,,*71
$GAGNS,110017.00,,,,,,07,,,,,*73
$GBGNS,110017.00,,,,,,12,,,,,*74
$GPLLQ,110017.00,010125,,M,,M,1,36,1.077,,M*13
$GPVTG,,T,,M,0.00,N,0.00,K,D*26
$GPHDT,,T*1B
$GPTHS,,V*0E
$GPROT,,V*08
$PSSN,HRP,110017.00,010125,,,,,,,00,0,,*67
$PTNL,AVR,110017.00,,Yaw,,Tilt,,,,0,,00*31
$GPGSA,A,3,10,12,13,14,15,17,19,23,24,,,,0.9,0.5,0.8*3E
$GPGSA,A,3,66,67,68,75,76,77,85,86,,,,,0.9,0.5,0.8*39
$GPGSA,A,3,02,03,07,08,10,25,30,,,,,,0.9,0.5,0.8*3D
$GPGSA,A,3,05,07,10,14,24,26,33,35,40,42,45,60,0.9,0.5,0.8*31
$GPGST,110017.00,2.628,0.428,0.323,355.874,0.428,0.324,0.933*59
$GPGBS,110017.00,2.628,1.726,7.718,77,0.0001,-8.030,6.078*72
$GPGRS,110017.00,1,0.3,0.1,0.2,1.2,-0.3,-0.2,-0.0,-0.4,-0.1,,,*4C
$GPGRS,110017.00,1,-3.5,6.6,4.8,-3.1,-2.0,-8.0,4.6,-0.1,,,,*64
$GPGRS,110017.00,1,-0.1,-0.7,-0.1,-0.2,1.1,-0.1,-0.2,,,,,*60
$GPGRS,110017.00,1,1.0,0.8,0.7,1.7,0.2,-1.4,0.2,-2.7,-0.9,-0.3,0.4,-1.9*6B
$GPGSV,5,1,20,24,66,299,50,14,17,059,40,13,31,159,45,23,17,272,41*7C
$GPGSV,5,2,20,10,15,314,41,12,36,235,47,15,47,202,48,22,38,057,*79
$GPGSV,5,3,20,17,38,065,46,19,47,109,47,02,03,021,38,36,35,170,45*7C
$GPGSV,5,4,20,58,13,245,36,40,23,133,37,34,31,208,42,49,34,195,44*7D
$GPGSV,5,5,20,57,07,111,38,41,07,108,35,61,03,257,38*46
$GLGSV,3,1,11,76,61,032,52,86,19,104,45,68,14,336,44,85,24,046,47*62
$GLGSV,3,2,11,67,50,295,51,66,42,208,51,77,54,285,46,78,01,258,40*6B
$GLGSV,3,3,11,84,03,000,31,75,08,067,42,65,01,180,*5E
$GAGSV,3,1,10,02,85,072,49,03,24,159,41,25,30,057,43,07,41,305,44*64
$GAGSV,3,2,10,30,38,234,45,08,66,210,49,12,05,020,33,16,07,056,*65
$GAGSV,3,3,10,11,06,067,34,10,07,042,37*6D
$GBGSV,6,1,21,26,77,045,51,05,20,130,39,50,20,200,,35,26,122,44*67
$GBGSV,6,2,21,40,22,039,42,45,23,079,44,33,35,294,47,07,24,052,39*6C
$GBGSV,6,3,21,42,35,225,47,24,44,272,48,10,35,060,43,56,38,066,*68
$GBGSV,6,4,21,14,42,259,46,25,43,262,,02,04,109,31,44,04,162,*6E
$GBGSV,6,5,21,21,05,184,37,41,05,334,,29,02,018,,57,02,347,*60
$GBGSV,6,6,21,60,07,111,40*5C
$GPGGA,110017.00,,,,,0,00,,,M,,M,,*4E
$PTNL,GGK,110017.00,010125,4742.1600670,N,01618.1000092,E,1,36,0.9,EHT751.6387,M*4E
$GPGGQ,110017.00,010125,4742.1600670,N,01618.1000092,E,1,36,1.077,708.4321,M*3A
$GPGFA,110017.00,4.071,7.654,0.428,0.323,355.874,0.933,,VVV*0A
$GPLLK,110017.00,010125,,M,,M,1,36,1.0,,M*09
$GNGMP,110017.00,,,,,DAAA,36,0.5,,,,*50
$GPGMP,110017.00,,,,,,09,,,,3.6,136*73
$GLGMP,110017.00,,,,,,08,,,,,*71
$GAGMP,110017.00,,,,,,07,,,,,*73
$GBGMP,110017.00,,,,,,12,,,,,*74
$PSSN,SNC,[0,298835000,2347]*49
$GPZDA,110022.00,01,01,2025,,*63
$GPDTM,W84,,00.0000000,N,00.0000000,E,00.0000000,W84*5F
$PSSN,TFM,110022.00,,,,*6F
$GPRMC,110022.00,A,4742.1600648,N,01618.1000084,E,0.0,,010125,5.1,E,D*16
$GPGLL,4742.1600648,N,01618.1000084,E,110022.00,A,D*67
$GPGGA,110022.00,4742.1600648,N,01618.1000084,E,2,36,0.5,708.4338,M,43.2066,M,2.3,0136*49
$GNGNS,110022.00,4742.1600648,N,01618.1000084,E,DAAA,36,0.5,708.4338,43.2066,,*50
$GPGNS,110022.00,,,,,,09,,,,2.3,136*71
$GLGNS,110022.00,,,,,,08,,,,,*77
$GAGNS,110022.00,,,,,,07,,,,,*75
$GBGNS,110022.00,,,,,,12,,,,,*72
$GPLLQ,110022.00,010125,,M,,M,1,36,1.081,,M*1C
$GPVTG,,T,,M,0.01,N,0.01,K,D*26
$GPHDT,,T*1B
$GPTHS,,V*0E
$GPROT,,V*08
$PSSN,HRP,110022.00,010125,,,,,,,00,0,,*61
$PTNL,AVR,110022.00,,Yaw,,Tilt,,,,0,,00*37
$GPGSA,A,3,10,12,13,14,15,17,19,23,24,,,,0.9,0.5,0.8*3E
$GPGSA,A,3,66,67,68,75,76,77,85,86,,,,,0.9,0.5,0.8*39
$GPGSA,A,3,02,03,07,08,10,25,30,,,,,,0.9,0.5,0.8*3D
$GPGSA,A,3,05,07,10,14,24,26,33,35,40,42,45,60,0.9,0.5,0.8*31
$GPGST,110022.00,2.694,0.431,0.324,355.286,0.430,0.325,0.937*5C
$GPGBS,110022.00,2.514,1.753,7.453,77,0.0001,-8.308,6.078*7E
$GPGRS,110022.00,1,0.1,0.2,0.1,1.1,0.1,-0.5,0.0,-0.2,-0.1,,,*48
$GPGRS,110022.00,1,-3.4,6.8,5.7,-2.4,-2.5,-8.3,4.6,0.2,,,,*4F
$GPGRS,110022.00,1,-0.1,-0.2,0.3,-0.1,1.0,-0.1,-0.3,,,,,*4F
$GPGRS,110022.00,1,0.7,0.2,0.9,2.0,0.3,-1.3,0.5,-1.8,-1.0,-0.3,0.5,-2.0*65
$GPGSV,5,1,20,24,67,299,50,14,17,059,40,13,31,159,45,23,17,272,42*7E
$GPGSV,5,2,20,10,15,314,41,12,36,236,46,15,47,202,49,22,38,057,*7A
$GPGSV,5,3,20,17,38,065,46,19,47,109,47,02,03,020,38,36,35,170,45*7D
$GPGSV,5,4,20,58,13,245,36,40,23,133,37,34,31,208,42,49,34,195,44*7D
$GPGSV,5,5,20,57,07,111,38,41,07,108,35,61,03,257,38*46
$GLGSV,3,1,11,76,61,032,51,86,19,104,45,68,14,336,43,85,24,046,47*66
$GLGSV,3,2,11,67,50,295,52,66,42,208,51,77,54,285,46,78,02,258,41*6A
$GLGSV,3,3,11,84,03,000,30,75,08,067,43,65,01,180,*5E
$GAGSV,3,1,10,02,85,072,49,03,24,159,42,25,30,057,43,07,41,305,45*66
$GAGSV,3,2,10,30,38,234,45,08,66,209,49,12,05,020,32,16,07,056,*6C
$GAGSV,3,3,10,11,06,067,34,10,07,042,37*6D
$GBGSV,6,1,21,26,77,045,51,05,20,130,39,50,20,200,,35,26,122,45*66
$GBGSV,6,2,21,40,22,039,42,45,22,079,44,33,35,294,47,07,24,052,39*6D
$GBGSV,6,3,21,42,35,225,47,24,44,272,48,10,35,060,42,56,38,066,*69
$GBGSV,6,4,21,14,42,259,46,25,43,262,,02,04,109,31,44,04,162,*6E
$GBGSV,6,5,21,21,05,184,36,41,05,334,,29,02,018,,57,02,347,*61
$GBGSV,6,6,21,60,07,111,40*5C
$GPGGA,110022.00,,,,,0,00,,,M,,M,,*48
$PTNL,GGK,110022.00,010125,4742.1600648,N,01618.1000084,E,1,36,0.9,EHT751.6404,M*48
$GPGGQ,110022.00,010125,4742.1600648,N,01618.1000084,E,1,36,1.081,708.4338,M*31
$GPGFA,110022.00,4.098,7.679,0.431,0.324,355.286,0.937,,VVV*08
$GPLLK,110022.00,010125,,M,,M,1,36,1.0,,M*0F
$GNGMP,110022.00,,,,,DAAA,36,0.5,,,,*56
$GPGMP,110022.00,,,,,,09,,,,2.3,136*71
$GLGMP,110022.00,,,,,,08,,,,,*77
$GAGMP,110022.00,,,,,,07,,,,,*75
$GBGMP,110022.00,,,,,,12,,,,,*72
$PSSN,SNC,[0,298840000,2347]*4B
$GPZDA,110027.00,01,01,2025,,*66
$GPDTM,W84,,00.0000000,N,00.0000000,E,00.0000000,W84*5F
$PSSN,TFM,110027.00,,,,*6A
$GPRMC,110027.00,A,4742.1600681,N,01618.1000102,E,0.0,,010125,5.1,E,D*19
$GPGLL,4742.1600681,N,01618.1000102,E,110027.00,A,D*68
$GPGGA,110027.00,4742.1600681,N,01618.1000102,E,2,36,0.5,708.4435,M,43.2066,M,1.6,0136*4A
$GNGNS,110027.00,4742.1600681,N,01618.1000102,E,DAAA,36,0.5,708.4435,43.2066,,*55
$GPGNS,110027.00,,,,,,09,,,,1.6,136*72
$GLGNS,110027.00,,,,,,08,,,,,*72
$GAGNS,110027.00,,,,,,07,,,,,*70
$GBGNS,110027.00,,,,,,12,,,,,*77
$GPLLQ,110027.00,010125,,M,,M,1,36,1.058,,M*1D
$GPVTG,,T,,M,0.01,N,0.01,K,D*26
$GPHDT,,T*1B
$GPTHS,,V*0E
$GPROT,,V*08
$PSSN,HRP,110027.00,010125,,,,,,,00,0,,*64
$PTNL,AVR,110027.00,,Yaw,,Tilt,,,,0,,00*32
$GPGSA,A,3,10,12,13,14,15,17,19,23,24,,,,0.9,0.5,0.8*3E
$GPGSA,A,3,66,67,68,75,76,77,85,86,,,,,0.9,0.5,0.8*39
$GPGSA,A,3,02,03,07,08,10,25,30,,,,,,0.9,0.5,0.8*3D
$GPGSA,A,3,05,07,10,14,24,26,33,35,40,42,45,60,0.9,0.5,0.8*31
$GPGST,110027.00,2.587,0.423,0.318,355.397,0.422,0.319,0.916*5A
$GPGBS,110027.00,2.542,1.723,7.466,77,0.0001,-8.274,6.078*73
$GPGRS,110027.00,1,0.0,0.3,0.1,0.5,0.1,0.1,-0.4,0.1,-0.3,,,*64
$GPGRS,110027.00,1,-4.1,6.7,5.0,-2.2,-2.5,-8.3,3.7,-0.4,,,,*6B
$GPGRS,110027.00,1,-0.1,-0.2,-0.1,-0.1,1.1,-0.2,-0.1,,,,,*65
$GPGRS,110027.00,1,0.8,0.2,0.5,1.7,0.5,-1.3,0.4,-1.7,-0.9,-0.2,0.5,-1.2*67
$GPGSV,5,1,20,24,67,299,50,14,17,059,39,13,31,159,45,23,17,272,41*73
$GPGSV,5,2,20,10,15,314,41,12,36,236,47,15,47,202,48,22,38,057,*7A
$GPGSV,5,3,20,17,38,065,46,19,47,109,47,02,03,020,38,36,35,170,45*7D
$GPGSV,5,4,20,58,13,245,36,40,23,133,37,34,31,208,42,49,34,195,44*7D
$GPGSV,5,5,20,57,07,111,38,41,07,108,35,61,03,257,38*46
$GLGSV,3,1,11,76,61,032,51,86,19,104,45,68,14,336,44,85,24,046,46*60
$GLGSV,3,2,11,67,50,294,52,66,42,208,51,77,54,285,46,78,02,258,40*6A
$GLGSV,3,3,11,84,03,000,31,75,08,067,42,65,01,180,*5E
$GAGSV,3,1,10,02,85,072,49,03,24,159,41,25,30,057,42,07,41,305,45*64
$GAGSV,3,2,10,30,39,234,45,08,66,209,49,12,05,020,32,16,07,056,*6D
$GAGSV,3,3,10,11,06,067,34,10,07,042,38*62
$GBGSV,6,1,21,26,77,045,51,05,20,130,39,50,20,200,,35,26,122,45*66
$GBGSV,6,2,21,40,22,039,42,45,22,079,44,33,35,294,47,07,24,052,39*6D
$GBGSV,6,3,21,42,35,225,47,10,35,060,42,24,44,272,49,56,38,066,*68
$GBGSV,6,4,21,14,42,259,46,25,43,262,,02,04,109,31,44,04,162,*6E
$GBGSV,6,5,21,21,05,184,36,41,05,334,,29,02,018,,57,02,347,*61
$GBGSV,6,6,21,60,07,111,40*5C
$GPGGA,110027.00,,,,,0,00,,,M,,M,,*4D
$PTNL,GGK,110027.00,010125,4742.1600681,N,01618.1000102,E,1,36,0.9,EHT751.6501,M*43
$GPGGQ,110027.00,010125,4742.1600681,N,01618.1000102,E,1,36,1.058,708.4435,M*30
$GPGFA,110027.00,4.020,7.510,0.423,0.318,355.397,0.916,,VVV*0C
$GPLLK,110027.00,010125,,M,,M,1,36,1.0,,M*0A
$GNGMP,110027.00,,,,,DAAA,36,0.5,,,,*53
$GPGMP,110027.00,,,,,,09,,,,1.6,136*72
$GLGMP,110027.00,,,,,,08,,,,,*72
$GAGMP,110027.00,,,,,,07,,,,,*70
$GBGMP,110027.00,,,,,,12,,,,,*77
$PSSN,SNC,[0,298845000,2347]*4E
$GPZDA,110032.00,01,01,2025,,*62
$GPDTM,W84,,00.0000000,N,00.0000000,E,00.0000000,W84*5F
$PSSN,TFM,110032.00,,,,*6E
$GPRMC,110032.00,A,4742.1600669,N,01618.1000085,E,0.0,,010125,5.1,E,D*15
$GPGLL,4742.1600669,N,01618.1000085,E,110032.00,A,D*64
$GPGGA,110032.00,4742.1600669,N,01618.1000085,E,2,36,0.5,708.4496,M,43.2066,M,2.6,0136*4C
$GNGNS,110032.00,4742.1600669,N,01618.1000085,E,DAAA,36,0.5,708.4496,43.2066,,*50
$GPGNS,110032.00,,,,,,09,,,,2.6,136*75
$GLGNS,110032.00,,,,,,08,,,,,*76
$GAGNS,110032.00,,,,,,07,,,,,*74
$GBGNS,110032.00,,,,,,12,,,,,*73
$GPLLQ,110032.00,010125,,M,,M,1,36,1.107,,M*12
$GPVTG,,T,,M,0.00,N,0.01,K,D*27
$GPHDT,,T*1B
$GPTHS,,V*0E
$GPROT,,V*08
$PSSN,HRP,110032.00,010125,,,,,,,00,0,,*60
$PTNL,AVR,110032.00,,Yaw,,Tilt,,,,0,,00*36
$GPGSA,A,3,10,12,13,14,15,17,19,23,24,,,,0.9,0.5,0.8*3E
$GPGSA,A,3,66,67,68,75,76,77,85,86,,,,,0.9,0.5,0.8*39
$GPGSA,A,3,02,03,07,08,10,25,30,,,,,,0.9,0.5,0.8*3D
$GPGSA,A,3,05,07,10,14,24,26,33,35,40,42,45,60,0.9,0.5,0.8*31
$GPGST,110032.00,2.682,0.440,0.333,355.336,0.439,0.333,0.960*5C
$GPGBS,110032.00,2.587,1.734,7.568,77,0.0001,-8.351,6.078*71
$GPGRS,110032.00,1,-0.3,0.3,0.2,1.1,-0.4,0.0,0.1,-0.0,-0.3,,,*65
$GPGRS,110032.00,1,-3.8,7.1,5.5,-2.8,-2.1,-8.4,3.7,0.3,,,,*40
$GPGRS,110032.00,1,-0.1,-0.5,0.0,0.1,1.0,-0.3,-0.2,,,,,*64
$GPGRS,110032.00,1,1.0,0.1,0.4,2.1,0.2,-1.4,0.3,-1.8,-0.7,-0.1,0.2,-1.6*6B
$GPGSV,5,1,20,24,67,299,50,14,17,059,40,13,31,159,44,23,17,271,41*7F
$GPGSV,5,2,20,10,15,314,40,12,36,236,46,15,47,202,48,22,38,057,*7A
$GPGSV,5,3,20,17,38,065,46,19,47,109,47,02,03,020,38,36,35,170,45*7D
$GPGSV,5,4,20,58,13,245,36,40,23,133,37,34,31,208,42,49,34,195,44*7D
$GPGSV,5,5,20,57,07,111,38,41,07,108,35,61,03,257,38*46
$GLGSV,3,1,11,76,61,033,52,86,19,104,45,68,14,336,43,85,24,046,46*65
$GLGSV,3,2,11,67,50,294,51,66,42,208,52,77,54,285,46,78,02,258,41*6B
$GLGSV,3,3,11,84,03,000,30,75,08,067,42,65,01,180,*5F
$GAGSV,3,1,10,02,85,072,49,03,24,160,41,25,30,057,42,07,41,305,45*6E
$GAGSV,3,2,10,30,39,234,45,08,66,209,49,12,05,020,32,16,07,056,*6D
$GAGSV,3,3,10,11,06,067,34,10,07,042,38*62
$GBGSV,6,1,21,26,77,045,51,05,20,130,39,50,20,200,,35,26,122,45*66
$GBGSV,6,2,21,40,22,039,42,45,22,079,43,33,35,293,47,07,24,052,40*63
$GBGSV,6,3,21,42,35,225,47,10,35,060,42,24,44,272,48,56,38,066,*69
$GBGSV,6,4,21,14,42,259,46,25,43,262,,02,04,109,30,44,05,162,*6E
$GBGSV,6,5,21,21,05,184,36,41,05,334,,29,02,018,,57,02,347,*61
$GBGSV,6,6,21,60,07,111,40*5C
$GPGGA,110032.00,,,,,0,00,,,M,,M,,*49
$PTNL,GGK,110032.00,010125,4742.1600669,N,01618.1000085,E,1,36,0.9,EHT751.6561,M*49
$GPGGQ,110032.00,010125,4742.1600669,N,01618.1000085,E,1,36,1.107,708.4496,M*3E
$GPGFA,110032.00,4.179,7.872,0.440,0.333,355.336,0.960,,VVV*0A
$GPLLK,110032.00,010125,,M,,M,1,36,1.0,,M*0E
$GNGMP,110032.00,,,,,DAAA,36,0.5,,,,*57
$GPGMP,110032.00,,,,,,09,,,,2.6,136*75
$GLGMP,110032.00,,,,,,08,,,,,*76
$GAGMP,110032.00,,,,,,07,,,,,*74
$GBGMP,110032.00,,,,,,12,,,,,*73
$PSSN,SNC,[0,298850000,2347]*4A
$GPZDA,110037.00,01,01,2025,,*67
$GPDTM,W84,,00.0000000,N,00.0000000,E,00.0000000,W84*5F
$PSSN,TFM,110037.00,,,,*6B
$GPRMC,110037.00,A,4742.1600668,N,01618.1000040,E,0.0,,010125,5.1,E,D*18
$GPGLL,4742.1600668,N,01618.1000040,E,110037.00,A,D*69
$GPGGA,110037.00,4742.1600668,N,01618.1000040,E,2,36,0.5,708.4538,M,43.2066,M,3.6,0136*45
$GNGNS,110037.00,4742.1600668,N,01618.1000040,E,DAAA,36,0.5,708.4538,43.2066,,*58
$GPGNS,110037.00,,,,,,09,,,,3.6,136*71
$GLGNS,110037.00,,,,,,08,,,,,*73
$GAGNS,110037.00,,,,,,07,,,,,*71
$GBGNS,110037.00,,,,,,12,,,,,*76
$GPLLQ,110037.00,010125,,M,,M,1,36,1.085,,M*1C
$GPVTG,,T,,M,0.00,N,0.00,K,D*26
$GPHDT,,T*1B
$GPTHS,,V*0E
$GPROT,,V*08
$PSSN,HRP,110037.00,010125,,,,,,,00,0,,*65
$PTNL,AVR,110037.00,,Yaw,,Tilt,,,,0,,00*33
$GPGSA,A,3,10,12,13,14,15,17,19,23,24,,,,0.9,0.5,0.8*3E
$GPGSA,A,3,66,67,68,75,76,77,85,86,,,,,0.9,0.5,0.8*39
$GPGSA,A,3,02,03,07,08,10,25,30,,,,,,0.9,0.5,0.8*3D
$GPGSA,A,3,05,07,10,14,24,26,33,35,40,42,45,60,0.9,0.5,0.8*31
$GPGST,110037.00,2.579,0.431,0.326,355.187,0.430,0.327,0.941*5B
$GPGBS,110037.00,2.639,1.748,7.690,77,0.0001,-8.129,6.078*70
$GPGRS,110037.00,1,-0.5,0.1,0.2,1.0,-0.1,-0.2,0.2,0.2,-0.3,,,*63
$GPGRS,110037.00,1,-3.0,6.7,5.5,-2.6,-2.2,-8.1,4.2,0.2,,,,*41
$GPGRS,110037.00,1,0.0,-0.3,-0.1,0.0,0.9,0.1,0.2,,,,,*6C
$GPGRS,110037.00,1,0.7,0.6,0.6,2.1,0.5,-1.3,0.4,-1.5,-0.7,0.0,0.2,-1.2*4F
$GPGSV,5,1,20,24,67,299,50,14,16,059,40,13,30,159,44,23,17,271,41*7F
$GPGSV,5,2,20,10,15,314,41,12,36,236,46,15,47,202,48,22,38,057,*7B
$GPGSV,5,3,20,17,38,065,46,19,47,109,47,02,03,020,38,36,35,170,45*7D
$GPGSV,5,4,20,58,13,245,36,40,23,133,37,34,31,208,43,49,34,195,45*7D
$GPGSV,5,5,20,57,07,111,38,41,07,108,35,61,03,257,38*46
$GLGSV,3,1,11,76,61,033,51,86,19,104,45,68,14,336,43,85,24,046,46*66
$GLGSV,3,2,11,67,50,294,52,66,41,208,51,77,54,285,46,78,02,258,41*68
$GLGSV,3,3,11,84,03,359,30,75,08,067,43,65,01,180,*51
$GAGSV,3,1,10,02,85,072,49,03,24,160,41,25,30,057,42,07,41,305,45*6E
$GAGSV,3,2,10,30,39,234,45,08,66,209,49,12,05,020,32,16,07,056,*6D
$GAGSV,3,3,10,11,06,067,33,10,07,042,37*6A
$GBGSV,6,1,21,26,77,045,51,05,20,130,39,50,20,200,,35,26,122,45*66
$GBGSV,6,2,21,40,22,039,42,45,22,079,43,33,35,293,47,07,24,052,40*63
$GBGSV,6,3,21,42,35,225,47,10,35,060,42,24,44,272,49,56,38,066,*68
$GBGSV,6,4,21,14,42,259,46,25,43,262,,02,04,109,30,44,05,162,*6E
$GBGSV,6,5,21,21,05,184,36,41,05,334,,29,02,018,,57,02,347,*61
$GBGSV,6,6,21,60,07,111,40*5C
$GPGGA,110037.00,,,,,0,00,,,M,,M,,*4C
$PTNL,GGK,110037.00,010125,4742.1600668,N,01618.1000040,E,1,36,0.9,EHT751.6604,M*44
$GPGGQ,110037.00,010125,4742.1600668,N,01618.1000040,E,1,36,1.085,708.4538,M*3D
$GPGFA,110037.00,4.097,7.713,0.431,0.326,355.187,0.941,,VVV*0F
$GPLLK,110037.00,010125,,M,,M,1,36,1.0,,M*0B
$GNGMP,110037.00,,,,,DAAA,36,0.5,,,,*52
$GPGMP,110037.00,,,,,,09,,,,3.6,136*71
$GLGMP,110037.00,,,,,,08,,,,,*73
$GAGMP,110037.00,,,,,,07,,,,,*71
$GBGMP,110037.00,,,,,,12,,,,,*76
$PSSN,SNC,[0,298855000,2347]*4F
$GPZDA,110042.00,01,01,2025,,*65
$GPDTM,W84,,00.0000000,N,00.0000000,E,00.0000000,W84*5F
$PSSN,TFM,110042.00,,,,*69
$GPRMC,110042.00,A,4742.1600684,N,01618.1000029,E,0.0,,010125,5.1,E,D*17
$GPGLL,4742.1600684,N,01618.1000029,E,110042.00,A,D*66
$GPGGA,110042.00,4742.1600684,N,01618.1000029,E,2,36,0.5,708.4644,M,43.2066,M,2.3,0136*46
$GNGNS,110042.00,4742.1600684,N,01618.1000029,E,DAAA,36,0.5,708.4644,43.2066,,*5F
$GPGNS,110042.00,,,,,,09,,,,2.3,136*77
$GLGNS,110042.00,,,,,,08,,,,,*71
$GAGNS,110042.00,,,,,,07,,,,,*73
$GBGNS,110042.00,,,,,,12,,,,,*74
$GPLLQ,110042.00,010125,,M,,M,1,36,1.114,,M*17
$GPVTG,,T,,M,0.00,N,0.00,K,D*26
$GPHDT,,T*1B
$GPTHS,,V*0E
$GPROT,,V*08
$PSSN,HRP,110042.00,010125,,,,,,,00,0,,*67
$PTNL,AVR,110042.00,,Yaw,,Tilt,,,,0,,00*31
$GPGSA,A,3,10,12,13,14,15,17,19,23,24,,,,0.9,0.5,0.8*3E
$GPGSA,A,3,66,67,68,75,76,77,85,86,,,,,0.9,0.5,0.8*39
$GPGSA,A,3,02,03,07,08,10,25,30,,,,,,0.9,0.5,0.8*3D
$GPGSA,A,3,05,07,10,14,24,26,33,35,40,42,45,60,0.9,0.5,0.8*31
$GPGST,110042.00,2.633,0.445,0.335,355.134,0.444,0.336,0.964*59
$GPGBS,110042.00,2.517,1.757,7.430,77,0.0001,-8.314,6.078*77
$GPGRS,110042.00,1,0.5,0.3,0.5,1.2,0.0,-0.3,-0.1,0.2,-0.6,,,*4D
$GPGRS,110042.00,1,-4.1,7.0,4.8,-2.0,-3.0,-8.3,3.5,-0.5,,,,*62
$GPGRS,110042.00,1,-0.2,-0.5,-0.0,-0.3,0.7,0.0,-0.2,,,,,*4A
$GPGRS,110042.00,1,0.7,0.6,0.9,1.8,0.2,-1.7,0.3,-1.5,-0.6,-0.2,0.0,-1.9*6B
$GPGSV,5,1,20,24,67,299,49,14,16,059,40,13,30,159,44,23,17,271,42*74
$GPGSV,5,2,20,10,15,314,41,12,36,236,46,15,47,202,48,22,37,057,*74
$GPGSV,5,3,20,17,38,065,46,19,47,109,47,02,03,020,38,36,35,170,45*7D
$GPGSV,5,4,20,58,13,245,36,40,23,133,37,34,31,208,43,49,34,195,44*7C
$GPGSV,5,5,20,57,07,111,38,41,07,108,35,61,03,257,38*46
$GLGSV,3,1,11,76,61,033,51,86,19,104,44,68,14,336,44,85,24,046,46*60
$GLGSV,3,2,11,67,50,294,52,66,41,208,51,77,54,285,46,78,02,258,40*69
$GLGSV,3,3,11,84,03,359,30,75,08,067,43,65,01,180,*51
$GAGSV,3,1,10,02,85,072,49,03,24,160,41,25,30,057,43,07,41,305,45*6F
$GAGSV,3,2,10,30,39,234,45,08,66,209,49,12,05,020,32,16,07,056,*6D
$GAGSV,3,3,10,11,06,067,33,10,07,042,37*6A
$GBGSV,6,1,21,26,77,045,51,05,20,130,39,50,20,200,,35,26,122,45*66
$GBGSV,6,2,21,40,22,039,43,45,22,079,43,33,35,293,47,07,24,052,39*6C
$GBGSV,6,3,21,42,35,225,47,10,35,060,42,24,44,272,49,56,38,066,*68
$GBGSV,6,4,21,14,42,259,46,25,43,262,,02,04,109,31,44,05,162,*6F
$GBGSV,6,5,21,21,05,184,35,41,05,334,,29,02,018,,57,02,347,*62
$GBGSV,6,6,21,60,07,111,40*5C
$GPGGA,110042.00,,,,,0,00,,,M,,M,,*4E
$PTNL,GGK,110042.00,010125,4742.1600684,N,01618.1000029,E,1,36,0.9,EHT751.6709,M*47
$GPGGQ,110042.00,010125,4742.1600684,N,01618.1000029,E,1,36,1.114,708.4644,M*33
$GPGFA,110042.00,4.231,7.908,0.445,0.335,355.134,0.964,,VVV*09
$GPLLK,110042.00,010125,,M,,M,1,36,1.0,,M*09
$GNGMP,110042.00,,,,,DAAA,36,0.5,,,,*50
$GPGMP,110042.00,,,,,,09,,,,2.3,136*77
$GLGMP,110042.00,,,,,,08,,,,,*71
$GAGMP,110042.00,,,,,,07,,,,,*73
$GBGMP,110042.00,,,,,,12,,,,,*74
$PSSN,SNC,[0,298860000,2347]*49
$GPZDA,110047.00,01,01,2025,,*60
$GPDTM,W84,,00.0000000,N,00.0000000,E,00.0000000,W84*5F
$PSSN,TFM,110047.00,,,,*6C
$GPRMC,110047.00,A,4742.1600689,N,01618.1000031,E,0.0,,010125,5.1,E,D*16
$GPGLL,4742.1600689,N,01618.1000031,E,110047.00,A,D*67
$GPGGA,110047.00,4742.1600689,N,01618.1000031,E,2,36,0.5,708.4780,M,43.2066,M,1.6,0136*48
$GNGNS,110047.00,4742.1600689,N,01618.1000031,E,DAAA,36,0.5,708.4780,43.2066,,*57
$GPGNS,110047.00,,,,,,09,,,,1.6,136*74
$GLGNS,110047.00,,,,,,08,,,,,*74
$GAGNS,110047.00,,,,,,07,,,,,*76
$GBGNS,110047.00,,,,,,12,,,,,*71
$GPLLQ,110047.00,010125,,M,,M,1,36,1.069,,M*19
$GPVTG,,T,,M,0.00,N,0.00,K,D*26
$GPHDT,,T*1B
$GPTHS,,V*0E
$GPROT,,V*08
$PSSN,HRP,110047.00,010125,,,,,,,00,0,,*62
$PTNL,AVR,110047.00,,Yaw,,Tilt,,,,0,,00*34
$GPGSA,A,3,10,12,13,14,15,17,19,23,24,,,,0.9,0.5,0.8*3E
$GPGSA,A,3,66,67,68,75,76,77,85,86,,,,,0.9,0.5,0.8*39
$GPGSA,A,3,02,03,07,08,10,25,30,,,,,,0.9,0.5,0.8*3D
$GPGSA,A,3,05,07,10,14,24,26,33,35,40,42,45,60,0.9,0.5,0.8*31
$GPGST,110047.00,2.666,0.428,0.323,355.196,0.428,0.323,0.925*53
$GPGBS,110047.00,2.544,1.727,7.442,77,0.0001,-8.513,6.078*77
$GPGRS,110047.00,1,0.3,0.1,0.3,1.1,-0.2,-0.0,-0.2,0.4,-0.5,,,*63
$GPGRS,110047.00,1,-4.1,6.9,4.9,-2.7,-2.5,-8.5,3.7,-1.1,,,,*6C
$GPGRS,110047.00,1,0.1,-0.6,0.3,0.0,0.7,0.2,-0.3,,,,,*61
$GPGRS,110047.00,1,0.8,0.3,0.6,2.1,0.3,-1.5,0.2,-1.2,-0.4,0.1,0.3,-1.6*44
$GPGSV,5,1,20,24,67,299,49,14,16,059,41,13,30,159,44,23,17,271,42*75
$GPGSV,5,2,20,10,15,313,40,12,36,236,47,15,47,202,48,22,37,057,*73
$GPGSV,5,3,20,17,38,064,46,19,47,109,47,02,03,020,37,36,35,170,45*73
$GPGSV,5,4,20,58,13,245,36,40,23,133,37,34,31,208,43,49,34,195,44*7C
$GPGSV,5,5,20,57,07,111,38,41,07,108,35,61,03,257,38*46
$GLGSV,3,1,11,76,61,033,51,86,19,104,45,68,14,336,43,85,24,046,46*66
$GLGSV,3,2,11,67,51,294,52,66,41,208,50,77,54,285,46,78,02,258,40*69
$GLGSV,3,3,11,84,03,359,30,75,08,067,43,65,01,180,*51
$GAGSV,3,1,10,02,85,071,49,03,24,160,41,25,30,057,43,07,41,305,45*6C
$GAGSV,3,2,10,30,39,234,45,08,66,209,49,12,05,019,32,16,07,056,*67
$GAGSV,3,3,10,11,06,067,33,10,07,042,37*6A
$GBGSV,6,1,21,26,77,045,51,05,20,130,39,50,20,200,,35,26,122,45*66
$GBGSV,6,2,21,40,22,039,43,45,22,079,43,33,35,293,47,07,24,052,40*62
$GBGSV,6,3,21,42,35,225,47,10,35,060,42,24,44,272,49,56,39,066,*69
$GBGSV,6,4,21,14,42,259,46,25,43,263,,02,04,109,30,44,05,162,*6F
$GBGSV,6,5,21,21,05,184,35,41,06,334,,29,02,018,,57,02,347,*61
$GBGSV,6,6,21,60,07,111,40*5C
$GPGGA,110047.00,,,,,0,00,,,M,,M,,*4B
$PTNL,GGK,110047.00,010125,4742.1600689,N,01618.1000031,E,1,36,0.9,EHT751.6846,M*42
$GPGGQ,110047.00,010125,4742.1600689,N,01618.1000031,E,1,36,1.069,708.4780,M*30
$GPGFA,110047.00,4.073,7.587,0.428,0.323,355.196,0.925,,VVV*02
$GPLLK,110047.00,010125,,M,,M,1,36,1.0,,M*0C
$GNGMP,110047.00,,,,,DAAA,36,0.5,,,,*55
$GPGMP,110047.00,,,,,,09,,,,1.6,136*74
$GLGMP,110047.00,,,,,,08,,,,,*74
$GAGMP,110047.00,,,,,,07,,,,,*76
$GBGMP,110047.00,,,,,,12,,,,,*71
$PSSN,SNC,[0,298865000,2347]*4C
$GPZDA,110052.00,01,01,2025,,*64
$GPDTM,W84,,00.0000000,N,00.0000000,E,00.0000000,W84*5F
$PSSN,TFM,110052.00,,,,*68
$GPRMC,110052.00,A,4742.1600676,N,01618.1000019,E,0.0,,010125,5.1,E,D*18
$GPGLL,4742.1600676,N,01618.1000019,E,110052.00,A,D*69
$GPGGA,110052.00,4742.1600676,N,01618.1000019,E,2,36,0.5,708.4892,M,43.2066,M,2.6,0136*49
$GNGNS,110052.00,4742.1600676,N,01618.1000019,E,DAAA,36,0.5,708.4892,43.2066,,*55
$GPGNS,110052.00,,,,,,09,,,,2.6,136*73
$GLGNS,110052.00,,,,,,08,,,,,*70
$GAGNS,110052.00,,,,,,07,,,,,*72
$GBGNS,110052.00,,,,,,12,,,,,*75
$GPLLQ,110052.00,010125,,M,,M,1,36,1.064,,M*10
$GPVTG,,T,,M,0.00,N,0.00,K,D*26
$GPHDT,,T*1B
$GPTHS,,V*0E
$GPROT,,V*08
$PSSN,HRP,110052.00,010125,,,,,,,00,0,,*66
$PTNL,AVR,110052.00,,Yaw,,Tilt,,,,0,,00*30
$GPGSA,A,3,10,12,13,14,15,17,19,23,24,,,,0.9,0.5,0.8*3E
$GPGSA,A,3,66,67,68,75,76,77,85,86,,,,,0.9,0.5,0.8*39
$GPGSA,A,3,02,03,07,08,10,25,30,,,,,,0.9,0.5,0.8*3D
$GPGSA,A,3,05,07,10,14,24,26,33,35,40,42,45,60,0.9,0.5,0.8*31
$GPGST,110052.00,2.637,0.423,0.320,355.164,0.423,0.321,0.922*58
$GPGBS,110052.00,2.589,1.738,7.544,77,0.0001,-8.495,6.078*74
$GPGRS,110052.00,1,0.1,0.2,0.2,0.4,-0.3,0.2,0.2,0.0,-0.3,,,*62
$GPGRS,110052.00,1,-3.6,7.0,4.9,-3.3,-2.1,-8.5,3.6,0.4,,,,*49
$GPGRS,110052.00,1,-0.0,-0.3,0.2,0.0,1.2,0.2,0.0,,,,,*67
$GPGRS,110052.00,1,0.5,0.6,0.4,2.4,0.2,-1.1,0.2,-1.3,-0.3,0.1,0.1,-1.6*4E
$GPGSV,5,1,20,24,67,299,49,14,16,059,41,13,30,159,45,23,17,271,41*77
$GPGSV,5,2,20,10,15,313,40,12,36,236,46,15,46,202,48,22,37,057,*73
$GPGSV,5,3,20,17,38,064,46,19,47,109,47,02,03,020,38,36,35,170,45*7C
$GPGSV,5,4,20,58,13,245,36,40,23,133,37,34,31,208,43,49,34,195,45*7D
$GPGSV,5,5,20,57,07,111,38,41,07,108,35,61,03,257,38*46
$GLGSV,3,1,11,76,61,033,51,86,19,104,45,68,14,336,44,85,24,046,46*61
$GLGSV,3,2,11,67,51,294,52,66,41,208,51,77,54,286,45,78,02,259,41*68
$GLGSV,3,3,11,84,03,359,30,75,08,067,43,65,01,180,*51
$GAGSV,3,1,10,02,85,071,49,03,24,160,40,25,30,057,43,07,41,305,45*6D
$GAGSV,3,2,10,30,39,234,45,08,66,209,49,12,05,019,33,16,07,056,*66
$GAGSV,3,3,10,11,06,067,33,10,07,042,37*6A
$GBGSV,6,1,21,26,77,045,51,05,20,130,39,50,20,200,,35,26,122,46*65
$GBGSV,6,2,21,40,22,039,42,45,22,079,43,33,35,293,47,07,24,052,40*63
$GBGSV,6,3,21,42,35,225,46,10,35,060,42,24,44,272,48,56,39,066,*69
$GBGSV,6,4,21,14,42,259,46,25,43,263,,02,04,109,31,44,05,162,*6E
$GBGSV,6,5,21,21,05,184,35,41,06,334,,29,02,018,,57,02,347,*61
$GBGSV,6,6,21,60,07,111,40*5C
$GPGGA,110052.00,,,,,0,00,,,M,,M,,*4F
$PTNL,GGK,110052.00,010125,4742.1600676,N,01618.1000019,E,1,36,0.9,EHT751.6958,M*42
$GPGGQ,110052.00,010125,4742.1600676,N,01618.1000019,E,1,36,1.064,708.4892,M*3F
$GPGFA,110052.00,4.024,7.560,0.423,0.320,355.164,0.922,,VVV*0F
$GPLLK,110052.00,010125,,M,,M,1,36,1.0,,M*08
$GNGMP,110052.00,,,,,DAAA,36,0.5,,,,*51
$GPGMP,110052.00,,,,,,09,,,,2.6,136*73
$GLGMP,110052.00,,,,,,08,,,,,*70
$GAGMP,110052.00,,,,,,07,,,,,*72
$GBGMP,110052.00,,,,,,12,,,,,*75
$PSSN,SNC,[0,298870000,2347]*48
$GPZDA,110057.00,01,01,2025,,*61
$GPDTM,W84,,00.0000000,N,00.0000000,E,00.0000000,W84*5F
$PSSN,TFM,110057.00,,,,*6D
$GPRMC,110057.00,A,4742.1600687,N,01618.1000006,E,0.0,,010125,5.1,E,D*1D
$GPGLL,4742.1600687,N,01618.1000006,E,110057.00,A,D*6C
$GPGGA,110057.00,4742.1600687,N,01618.1000006,E,2,36,0.5,708.4942,M,43.2066,M,3.6,0136*41
$GNGNS,110057.00,4742.1600687,N,01618.1000006,E,DAAA,36,0.5,708.4942,43.2066,,*5C
$GPGNS,110057.00,,,,,,09,,,,3.6,136*77
$GLGNS,110057.00,,,,,,08,,,,,*75
$GAGNS,110057.00,,,,,,07,,,,,*77
$GBGNS,110057.00,,,,,,12,,,,,*70
$GPLLQ,110057.00,010125,,M,,M,1,36,1.081,,M*1E
$GPVTG,,T,,M,0.00,N,0.01,K,D*27
$GPHDT,,T*1B
$GPTHS,,V*0E
$GPROT,,V*08
$PSSN,HRP,110057.00,010125,,,,,,,00,0,,*63
$PTNL,AVR,110057.00,,Yaw,,Tilt,,,,0,,00*35
$GPGSA,A,3,10,12,13,14,15,17,19,23,24,,,,0.9,0.5,0.8*3E
$GPGSA,A,3,66,67,68,75,76,77,85,86,,,,,0.9,0.5,0.8*39
$GPGSA,A,3,02,03,07,08,10,25,30,,,,,,0.9,0.5,0.8*3D
$GPGSA,A,3,05,07,10,14,24,26,33,35,40,42,45,60,0.9,0.5,0.8*31
$GPGST,110057.00,2.652,0.430,0.326,354.871,0.429,0.327,0.937*5E
$GPGBS,110057.00,2.648,1.733,7.676,77,0.0001,-8.281,6.078*75
$GPGRS,110057.00,1,-0.0,0.3,0.6,0.4,-0.1,0.0,-0.3,-0.2,-0.4,,,*4A
$GPGRS,110057.00,1,-3.6,6.5,5.2,-3.6,-2.3,-8.3,3.8,-0.5,,,,*61
$GPGRS,110057.00,1,-0.1,0.0,0.1,-0.1,0.7,0.2,0.0,,,,,*66
$GPGRS,110057.00,1,0.8,1.2,1.0,2.4,0.5,-1.2,0.0,-1.9,-0.6,0.0,0.3,-1.7*4D
$GPGSV,5,1,20,24,67,299,49,14,16,059,41,13,30,159,44,23,17,271,41*76
$GPGSV,5,2,20,10,15,313,40,12,36,236,46,15,46,202,48,22,37,057,*73
$GPGSV,5,3,20,17,38,064,46,19,47,109,47,02,03,020,37,36,35,170,45*73
$GPGSV,5,4,20,58,13,245,36,40,23,133,37,34,31,208,43,49,34,195,44*7C
$GPGSV,5,5,20,57,07,111,38,41,07,108,35,61,03,257,38*46
$GLGSV,3,1,11,76,61,033,51,86,19,104,44,68,14,336,44,85,24,046,46*60
$GLGSV,3,2,11,67,51,294,52,66,41,208,51,77,54,286,46,78,02,259,41*6B
$GLGSV,3,3,11,84,03,359,30,75,08,067,43,65,01,180,*51
$GAGSV,3,1,10,02,85,071,49,03,23,160,41,25,30,057,43,07,41,305,45*6B
$GAGSV,3,2,10,30,39,234,45,08,66,209,49,12,05,019,33,16,07,056,*66
$GAGSV,3,3,10,11,06,067,33,10,07,042,37*6A
$GBGSV,6,1,21,26,77,045,51,05,20,130,39,50,20,200,,35,26,122,45*66
$GBGSV,6,2,21,40,22,039,42,45,22,079,43,33,35,293,47,07,24,052,40*63
$GBGSV,6,3,21,42,35,225,46,10,35,060,42,24,44,272,48,56,39,066,*69
$GBGSV,6,4,21,14,42,259,46,25,44,263,,02,04,109,30,44,05,162,*68
$GBGSV,6,5,21,21,05,184,35,41,06,334,,29,02,018,,57,02,347,*61
$GBGSV,6,6,21,60,07,111,40*5C
$GPGGA,110057.00,,,,,0,00,,,M,,M,,*4A
$PTNL,GGK,110057.00,010125,4742.1600687,N,01618.1000006,E,1,36,0.9,EHT751.7007,M*45
$GPGGQ,110057.00,010125,4742.1600687,N,01618.1000006,E,1,36,1.081,708.4942,M*3D
$GPGFA,110057.00,4.090,7.683,0.430,0.326,354.871,0.937,,VVV*07
$GPLLK,110057.00,010125,,M,,M,1,36,1.0,,M*0D
$GNGMP,110057.00,,,,,DAAA,36,0.5,,,,*54
$GPGMP,110057.00,,,,,,09,,,,3.6,136*77
$GLGMP,110057.00,,,,,,08,,,,,*75
$GAGMP,110057.00,,,,,,07,,,,,*77
$GBGMP,110057.00,,,,,,12,,,,,*70
$PSSN,SNC,[0,298875000,2347]*4D
$GPZDA,110102.00,01,01,2025,,*60
$GPDTM,W84,,00.0000000,N,00.0000000,E,00.0000000,W84*5F
$PSSN,TFM,110102.00,,,,*6C
$GPRMC,110102.00,A,4742.1600695,N,01618.1000024,E,0.0,,010125,5.1,E,D*1F
$GPGLL,4742.1600695,N,01618.1000024,E,110102.00,A,D*6E
$GPGGA,110102.00,4742.1600695,N,01618.1000024,E,2,36,0.5,708.5017,M,43.2066,M,2.3,0136*4F
$GNGNS,110102.00,4742.1600695,N,01618.1000024,E,DAAA,36,0.5,708.5017,43.2066,,*56
$GPGNS,110102.00,,,,,,09,,,,2.3,136*72
$GLGNS,110102.00,,,,,,08,,,,,*74
$GAGNS,110102.00,,,,,,07,,,,,*76
$GBGNS,110102.00,,,,,,12,,,,,*71
$GPLLQ,110102.00,010125,,M,,M,1,36,1.085,,M*1B
$GPVTG,,T,,M,0.00,N,0.01,K,D*27
$GPHDT,,T*1B
$GPTHS,,V*0E
$GPROT,,V*08
$PSSN,HRP,110102.00,010125,,,,,,,00,0,,*62
$PTNL,AVR,110102.00,,Yaw,,Tilt,,,,0,,00*34
$GPGSA,A,3,10,12,13,14,15,17,19,23,24,,,,0.9,0.5,0.8*3E
$GPGSA,A,3,66,67,68,75,76,77,85,86,,,,,0.9,0.5,0.8*39
$GPGSA,A,3,02,03,07,08,10,25,30,,,,,,0.9,0.5,0.8*3D
$GPGSA,A,3,05,07,10,14,24,26,33,35,40,42,45,60,0.9,0.5,0.8*31
$GPGST,110102.00,2.615,0.438,0.328,353.774,0.437,0.329,0.937*56
$GPGBS,110102.00,2.494,1.773,7.501,77,0.0001,-7.895,6.078*70
$GPGRS,110102.00,1,0.2,0.5,-0.0,0.3,-0.1,-0.1,-0.3,0.5,-0.3,,,*4F
$GPGRS,110102.00,1,-3.8,6.6,5.5,-2.4,-2.3,-7.9,4.1,0.3,,,,*49
$GPGRS,110102.00,1,-0.0,-0.6,0.2,0.1,0.7,0.0,-0.5,,,,,*49
$GPGRS,110102.00,1,0.8,1.2,1.0,2.1,0.4,-1.3,0.5,-2.4,-0.6,-0.3,0.3,-1.5*6E
$GPGSV,5,1,20,24,67,299,50,14,16,059,40,13,30,159,44,23,17,271,40*7E
$GPGSV,5,2,20,10,15,313,41,12,36,236,46,15,46,202,48,22,37,057,*72
$GPGSV,5,3,20,17,38,064,47,19,47,109,47,02,03,020,37,36,35,170,45*72
$GPGSV,5,4,20,58,13,245,36,40,23,133,37,34,31,208,43,49,34,195,44*7C
$GPGSV,5,5,20,57,07,111,38,41,07,108,35,61,03,257,38*46
$GLGSV,3,1,11,76,61,033,51,86,19,104,45,68,14,336,44,85,24,045,47*63
$GLGSV,3,2,11,67,51,294,52,66,41,208,51,77,54,286,46,78,02,259,40*6A
$GLGSV,3,3,11,84,03,359,30,75,08,067,43,65,01,180,*51
$GAGSV,3,1,10,02,85,071,49,03,23,160,42,25,30,057,43,07,41,305,45*68
$GAGSV,3,2,10,30,39,234,45,08,66,209,49,12,05,019,33,16,07,056,*66
$GAGSV,3,3,10,11,06,067,34,10,07,041,37*6E
$GBGSV,6,1,21,26,77,046,51,05,20,130,38,50,20,200,,35,26,122,45*64
$GBGSV,6,2,21,40,22,039,42,45,22,079,44,33,35,293,47,07,24,052,40*64
$GBGSV,6,3,21,42,35,224,47,10,35,060,42,24,45,272,48,56,39,066,*68
$GBGSV,6,4,21,14,42,259,46,25,44,263,,02,04,109,31,44,05,162,*69
$GBGSV,6,5,21,21,05,184,34,41,06,334,,29,02,018,,57,02,347,*60
$GBGSV,6,6,21,60,07,111,40*5C
$GPGGA,110102.00,,,,,0,00,,,M,,M,,*4B
$PTNL,GGK,110102.00,010125,4742.1600695,N,01618.1000024,E,1,36,0.9,EHT751.7083,M*4B
$GPGGQ,110102.00,010125,4742.1600695,N,01618.1000024,E,1,36,1.085,708.5017,M*33
$GPGFA,110102.00,4.166,7.680,0.438,0.328,353.774,0.937,,VVV*06
$GPLLK,110102.00,010125,,M,,M,1,36,1.0,,M*0C
$GNGMP,110102.00,,,,,DAAA,36,0.5,,,,*55
$GPGMP,110102.00,,,,,,09,,,,2.3,136*72
$GLGMP,110102.00,,,,,,08,,,,,*74
$GAGMP,110102.00,,,,,,07,,,,,*76
$GBGMP,110102.00,,,,,,12,,,,,*71
$PSSN,SNC,[0,298880000,2347]*47
$GPZDA,110107.00,01,01,2025,,*65
$GPDTM,W84,,00.0000000,N,00.0000000,E,00.0000000,W84*5F
$PSSN,TFM,110107.00,,,,*69
$GPRMC,110107.00,A,4742.1600672,N,01618.1000084,E,0.0,,010125,5.1,E,D*19
$GPGLL,4742.1600672,N,01618.1000084,E,110107.00,A,D*68
$GPGGA,110107.00,4742.1600672,N,01618.1000084,E,2,36,0.5,708.5114,M,43.2066,M,1.6,0136*4D
$GNGNS,110107.00,4742.1600672,N,01618.1000084,E,DAAA,36,0.5,708.5114,43.2066,,*52
$GPGNS,110107.00,,,,,,09,,,,1.6,136*71
$GLGNS,110107.00,,,,,,08,,,,,*71
$GAGNS,110107.00,,,,,,07,,,,,*73
$GBGNS,110107.00,,,,,,12,,,,,*74
$GPLLQ,110107.00,010125,,M,,M,1,36,1.062,,M*17
$GPVTG,,T,,M,0.01,N,0.02,K,D*25
$GPHDT,,T*1B
$GPTHS,,V*0E
$GPROT,,V*08
$PSSN,HRP,110107.00,010125,,,,,,,00,0,,*67
$PTNL,AVR,110107.00,,Yaw,,Tilt,,,,0,,00*31
$GPGSA,A,3,10,12,13,14,15,17,19,23,24,,,,0.9,0.5,0.8*3E
$GPGSA,A,3,66,67,68,75,76,77,85,86,,,,,0.9,0.5,0.8*39
$GPGSA,A,3,02,03,07,08,10,25,30,,,,,,0.9,0.5,0.8*3D
$GPGSA,A,3,05,07,10,14,24,26,33,35,40,42,45,60,0.9,0.5,0.8*31
$GPGST,110107.00,2.574,0.430,0.322,353.835,0.429,0.324,0.916*5E
$GPGBS,110107.00,2.523,1.745,7.524,77,0.0001,-7.834,6.078*71
$GPGRS,110107.00,1,0.8,0.5,-0.2,0.0,0.1,-0.1,-0.3,0.3,-0.3,,,*6A
$GPGRS,110107.00,1,-3.9,6.8,4.6,-3.1,-2.5,-7.8,4.0,0.1,,,,*41
$GPGRS,110107.00,1,0.1,-0.5,0.3,0.0,0.5,-0.0,-0.4,,,,,*4D
$GPGRS,110107.00,1,0.7,0.9,0.7,1.8,0.2,-1.4,0.6,-1.6,-0.5,0.0,0.8,-1.6*44
$GPGSV,5,1,20,24,67,299,50,14,16,059,40,13,30,159,45,23,17,271,41*7E
$GPGSV,5,2,20,10,15,313,42,12,36,236,47,15,46,202,48,22,37,057,*70
$GPGSV,5,3,20,17,38,064,47,19,47,109,47,02,03,020,36,36,35,170,45*73
$GPGSV,5,4,20,58,13,245,36,40,23,133,37,34,31,208,43,49,34,195,44*7C
$GPGSV,5,5,20,57,07,111,38,41,07,108,35,61,03,257,38*46
$GLGSV,3,1,11,76,61,033,51,86,19,103,45,68,14,336,45,85,24,045,46*64
$GLGSV,3,2,11,67,51,294,52,66,41,208,51,77,54,286,46,78,02,259,41*6B
$GLGSV,3,3,11,84,03,359,31,75,08,067,43,65,01,180,*50
$GAGSV,3,1,10,02,85,071,49,03,23,160,42,25,30,057,43,07,41,305,45*68
$GAGSV,3,2,10,30,39,234,45,08,66,209,49,12,05,019,32,16,07,056,*67
$GAGSV,3,3,10,11,06,067,34,10,07,041,37*6E
$GBGSV,6,1,21,26,77,046,51,05,20,130,39,50,20,200,,35,26,122,45*65
$GBGSV,6,2,21,40,22,039,42,45,22,079,43,33,35,293,47,07,24,052,40*63
$GBGSV,6,3,21,42,35,224,47,10,35,060,42,24,45,272,48,56,39,066,*68
$GBGSV,6,4,21,14,41,259,46,25,44,263,,02,04,109,30,44,05,162,*6B
$GBGSV,6,5,21,21,05,184,35,41,06,334,,29,02,018,,57,02,346,*60
$GBGSV,6,6,21,60,07,111,40*5C
$GPGGA,110107.00,,,,,0,00,,,M,,M,,*4E
$PTNL,GGK,110107.00,010125,4742.1600672,N,01618.1000084,E,1,36,0.9,EHT751.7180,M*4F
$GPGGQ,110107.00,010125,4742.1600672,N,01618.1000084,E,1,36,1.062,708.5114,M*3E
$GPGFA,110107.00,4.089,7.512,0.430,0.322,353.835,0.916,,VVV*00
$GPLLK,110107.00,010125,,M,,M,1,36,1.0,,M*09
$GNGMP,110107.00,,,,,DAAA,36,0.5,,,,*50
$GPGMP,110107.00,,,,,,09,,,,1.6,136*71
$GLGMP,110107.00,,,,,,08,,,,,*71
$GAGMP,110107.00,,,,,,07,,,,,*73
$GBGMP,110107.00,,,,,,12,,,,,*74
$PSSN,SNC,[0,298885000,2347]*42
$GPZDA,110112.00,01,01,2025,,*61
$GPDTM,W84,,00.0000000,N,00.0000000,E,00.0000000,W84*5F
$PSSN,TFM,110112.00,,,,*6D
$GPRMC,110112.00,A,4742.1600685,N,01618.1000110,E,0.0,,010125,5.1,E,D*19
$GPGLL,4742.1600685,N,01618.1000110,E,110112.00,A,D*68
$GPGGA,110112.00,4742.1600685,N,01618.1000110,E,2,36,0.5,708.5183,M,43.2066,M,2.6,0136*40
$GNGNS,110112.00,4742.1600685,N,01618.1000110,E,DAAA,36,0.5,708.5183,43.2066,,*5C
$GPGNS,110112.00,,,,,,09,,,,2.6,136*76
$GLGNS,110112.00,,,,,,08,,,,,*75
$GAGNS,110112.00,,,,,,07,,,,,*77
$GBGNS,110112.00,,,,,,12,,,,,*70
$GPLLQ,110112.00,010125,,M,,M,1,36,1.070,,M*10
$GPVTG,,T,,M,0.01,N,0.01,K,D*26
$GPHDT,,T*1B
$GPTHS,,V*0E
$GPROT,,V*08
$PSSN,HRP,110112.00,010125,,,,,,,00,0,,*63
$PTNL,AVR,110112.00,,Yaw,,Tilt,,,,0,,00*35
$GPGSA,A,3,10,12,13,14,15,17,19,23,24,,,,0.9,0.5,0.8*3E
$GPGSA,A,3,66,67,68,75,76,77,85,86,,,,,0.9,0.5,0.8*39
$GPGSA,A,3,02,03,07,08,10,25,30,,,,,,0.9,0.5,0.8*3D
$GPGSA,A,3,05,07,10,14,24,26,33,35,40,42,45,60,0.9,0.5,0.8*31
$GPGST,110112.00,2.615,0.431,0.324,353.712,0.430,0.325,0.924*5B
$GPGBS,110112.00,2.569,1.756,7.625,77,0.0001,-8.067,6.078*7A
$GPGRS,110112.00,1,-0.4,0.2,0.3,0.7,-0.1,-0.1,0.0,0.5,-0.4,,,*61
$GPGRS,110112.00,1,-3.4,7.1,4.6,-2.9,-2.4,-8.1,4.4,-0.1,,,,*67
$GPGRS,110112.00,1,0.1,-0.3,0.4,-0.1,0.6,-0.1,-0.2,,,,,*60
$GPGRS,110112.00,1,0.0,1.0,0.6,2.3,0.5,-1.3,0.5,-1.4,-0.3,0.1,0.8,-1.6*40
$GPGSV,5,1,20,24,67,299,50,14,16,059,40,13,30,159,44,23,17,271,41*7F
$GPGSV,5,2,20,10,15,313,41,12,36,236,46,15,46,202,48,22,37,057,*72
$GPGSV,5,3,20,17,38,064,47,19,47,109,47,02,03,020,37,36,35,170,45*72
$GPGSV,5,4,20,58,13,245,36,40,23,133,37,34,31,208,43,49,34,195,44*7C
$GPGSV,5,5,20,57,07,111,38,41,07,108,35,61,03,257,38*46
$GLGSV,3,1,11,76,61,033,51,86,19,103,45,68,14,336,45,85,24,045,47*65
$GLGSV,3,2,11,67,51,294,52,66,41,208,51,77,54,286,46,78,02,259,41*6B
$GLGSV,3,3,11,84,03,359,29,75,08,067,43,65,01,180,*59
$GAGSV,3,1,10,02,85,070,49,03,23,160,42,25,30,057,43,07,41,305,45*69
$GAGSV,3,2,10,30,39,234,45,08,66,209,49,12,05,019,32,16,07,056,*67
$GAGSV,3,3,10,11,06,067,34,10,07,041,37*6E
$GBGSV,6,1,21,26,77,046,51,05,20,130,39,50,20,200,,35,26,122,46*66
$GBGSV,6,2,21,40,22,039,42,45,22,079,43,33,35,293,47,07,24,052,40*63
$GBGSV,6,3,21,42,35,224,46,10,35,060,42,24,45,272,48,56,39,066,*69
$GBGSV,6,4,21,14,41,259,46,25,44,263,,02,04,109,30,44,05,162,*6B
$GBGSV,6,5,21,21,05,184,34,41,06,334,,29,02,018,,57,02,346,*61
$GBGSV,6,6,21,60,07,111,40*5C
$GPGGA,110112.00,,,,,0,00,,,M,,M,,*4A
$PTNL,GGK,110112.00,010125,4742.1600685,N,01618.1000110,E,1,36,0.9,EHT751.7249,M*49
$GPGGQ,110112.00,010125,4742.1600685,N,01618.1000110,E,1,36,1.070,708.5183,M*33
$GPGFA,110112.00,4.095,7.581,0.431,0.324,353.712,0.924,,VVV*0F
$GPLLK,110112.00,010125,,M,,M,1,36,1.0,,M*0D
$GNGMP,110112.00,,,,,DAAA,36,0.5,,,,*54
$GPGMP,110112.00,,,,,,09,,,,2.6,136*76
$GLGMP,110112.00,,,,,,08,,,,,*75
$GAGMP,110112.00,,,,,,07,,,,,*77
$GBGMP,110112.00,,,,,,12,,,,,*70
$PSSN,SNC,[0,298890000,2347]*46
$GPZDA,110117.00,01,01,2025,,*64
$GPDTM,W84,,00.0000000,N,00.0000000,E,00.0000000,W84*5F
$PSSN,TFM,110117.00,,,,*68
$GPRMC,110117.00,A,4742.1600695,N,01618.1000116,E,0.0,,010125,5.1,E,D*1B
$GPGLL,4742.1600695,N,01618.1000116,E,110117.00,A,D*6A
$GPGGA,110117.00,4742.1600695,N,01618.1000116,E,2,36,0.5,708.5247,M,43.2066,M,3.6,0136*48
$GNGNS,110117.00,4742.1600695,N,01618.1000116,E,DAAA,36,0.5,708.5247,43.2066,,*55
$GPGNS,110117.00,,,,,,09,,,,3.6,136*72
$GLGNS,110117.00,,,,,,08,,,,,*70
$GAGNS,110117.00,,,,,,07,,,,,*72
$GBGNS,110117.00,,,,,,12,,,,,*75
$GPLLQ,110117.00,010125,,M,,M,1,36,1.087,,M*1D
$GPVTG,,T,,M,0.01,N,0.01,K,D*26
$GPHDT,,T*1B
$GPTHS,,V*0E
$GPROT,,V*08
$PSSN,HRP,110117.00,010125,,,,,,,00,0,,*66
$PTNL,AVR,110117.00,,Yaw,,Tilt,,,,0,,00*30
$GPGSA,A,3,10,12,13,14,15,17,19,23,24,,,,0.9,0.5,0.8*3E
$GPGSA,A,3,66,67,68,75,76,77,85,86,,,,,0.9,0.5,0.8*39
$GPGSA,A,3,02,03,07,08,10,25,30,,,,,,0.9,0.5,0.8*3D
$GPGSA,A,3,05,07,10,14,24,26,33,35,40,42,45,60,0.9,0.5,0.8*31
$GPGST,110117.00,2.722,0.438,0.329,353.619,0.436,0.330,0.939*5B
$GPGBS,110117.00,2.622,1.769,7.743,77,0.0001,-8.123,6.078*7F
$GPGRS,110117.00,1,-0.2,0.4,0.2,0.7,-0.3,-0.2,-0.2,0.6,-0.2,,,*4E
$GPGRS,110117.00,1,-3.1,7.1,6.0,-2.9,-2.3,-8.1,4.4,0.3,,,,*4B
$GPGRS,110117.00,1,0.1,-0.6,0.5,0.2,0.6,0.2,-0.2,,,,,*61
$GPGRS,110117.00,1,0.6,1.0,0.8,2.6,0.5,-1.1,0.4,-2.3,-0.1,-0.2,0.4,-1.6*6F
$GPGSV,5,1,20,24,67,299,50,14,16,059,41,13,30,159,44,23,17,271,41*7E
$GPGSV,5,2,20,10,15,313,40,12,36,236,46,15,46,202,48,22,37,057,*73
$GPGSV,5,3,20,17,38,064,45,19,47,109,48,02,03,020,36,36,35,170,45*7E
$GPGSV,5,4,20,58,13,245,36,40,23,133,37,34,31,208,43,49,34,195,45*7D
$GPGSV,5,5,20,57,07,111,38,41,07,108,35,61,03,257,38*46
$GLGSV,3,1,11,76,61,033,51,86,19,103,45,68,14,336,45,85,24,045,47*65
$GLGSV,3,2,11,67,51,294,52,66,41,208,51,77,54,286,46,78,02,259,42*68
$GLGSV,3,3,11,84,03,359,30,75,08,067,43,65,01,180,*51
$GAGSV,3,1,10,02,85,070,49,03,23,160,41,25,30,057,43,07,41,305,45*6A
$GAGSV,3,2,10,30,39,234,45,08,66,209,49,12,05,019,32,16,07,056,*67
$GAGSV,3,3,10,11,06,067,34,10,07,041,36*6F
$GBGSV,6,1,21,26,77,046,51,05,20,130,39,50,20,200,,35,26,122,45*65
$GBGSV,6,2,21,40,22,039,42,45,22,079,43,33,35,293,47,07,24,052,40*63
$GBGSV,6,3,21,42,35,224,47,10,35,060,42,24,45,273,48,56,39,066,*69
$GBGSV,6,4,21,14,41,259,46,25,44,263,,02,04,109,31,44,05,162,*6A
$GBGSV,6,5,21,21,05,184,34,41,06,334,,29,02,018,,57,02,346,*61
$GBGSV,6,6,21,60,07,111,40*5C
$GPGGA,110117.00,,,,,0,00,,,M,,M,,*4F
$PTNL,GGK,110117.00,010125,4742.1600695,N,01618.1000116,E,1,36,0.9,EHT751.7313,M*45
$GPGGQ,110117.00,010125,4742.1600695,N,01618.1000116,E,1,36,1.087,708.5247,M*32
$GPGFA,110117.00,4.160,7.700,0.438,0.329,353.619,0.939,,VVV*08
$GPLLK,110117.00,010125,,M,,M,1,36,1.0,,M*08
$GNGMP,110117.00,,,,,DAAA,36,0.5,,,,*51
$GPGMP,110117.00,,,,,,09,,,,3.6,136*72
$GLGMP,110117.00,,,,,,08,,,,,*70
$GAGMP,110117.00,,,,,,07,,,,,*72
$GBGMP,110117.00,,,,,,12,,,,,*75
$PSSN,SNC,[0,298895000,2347]*43
$GPZDA,110122.00,01,01,2025,,*62
$GPDTM,W84,,00.0000000,N,00.0000000,E,00.0000000,W84*5F
$PSSN,TFM,110122.00,,,,*6E
$GPRMC,110122.00,A,4742.1600688,N,01618.1000133,E,0.0,,010125,5.1,E,D*16
$GPGLL,4742.1600688,N,01618.1000133,E,110122.00,A,D*67
$GPGGA,110122.00,4742.1600688,N,01618.1000133,E,2,36,0.5,708.5302,M,43.2066,M,2.3,0136*41
$GNGNS,110122.00,4742.1600688,N,01618.1000133,E,DAAA,36,0.5,708.5302,43.2066,,*58
$GPGNS,110122.00,,,,,,09,,,,2.3,136*70
$GLGNS,110122.00,,,,,,08,,,,,*76
$GAGNS,110122.00,,,,,,07,,,,,*74
$GBGNS,110122.00,,,,,,12,,,,,*73
$GPLLQ,110122.00,010125,,M,,M,1,36,1.083,,M*1F
