$GPZDA,204442.00,01,01,2025,,*67
$GPDTM,W84,,00.0000000,N,00.0000000,E,00.0000000,W84*5F
$PSSN,TFM,204442.00,,,,*6B
$GPRMC,204442.00,A,4742.1604416,N,01618.1005401,E,0.0,,010125,5.1,E,D*13
$GPGLL,4742.1604416,N,01618.1005401,E,204442.00,A,D*62
$GPGGA,204442.00,4742.1604416,N,01618.1005401,E,2,41,0.4,708.1151,M,43.2066,M,1.9,0136*4C
$GNGNS,204442.00,4742.1604416,N,01618.1005401,E,DAAA,41,0.4,708.1151,43.2066,,*5C
$GPGNS,204442.00,,,,,,11,,,,1.9,136*75
$GLGNS,204442.00,,,,,,09,,,,,*72
$GAGNS,204442.00,,,,,,09,,,,,*7F
$GBGNS,204442.00,,,,,,12,,,,,*76
$GPLLQ,204442.00,010125,,M,,M,1,41,0.796,,M*18
$GPVTG,,T,,M,0.01,N,0.01,K,D*26
$GPHDT,,T*1B
$GPTHS,,V*0E
$GPROT,,V*08
$PSSN,HRP,204442.00,010125,,,,,,,00,0,,*65
$PTNL,AVR,204442.00,,Yaw,,Tilt,,,,0,,00*33
$GPGSA,A,3,02,08,10,15,16,18,21,23,26,27,32,,0.7,0.4,0.6*34
$GPGSA,A,3,67,68,69,73,74,75,82,83,84,,,,0.7,0.4,0.6*3F
$GPGSA,A,3,03,07,08,13,15,21,26,31,33,,,,0.7,0.4,0.6*38
$GPGSA,A,3,05,08,13,14,27,28,33,37,38,42,43,60,0.7,0.4,0.6*3A
$GPGST,204442.00,2.123,0.404,0.333,349.035,0.402,0.336,0.599*5F
$GPGBS,204442.00,2.439,1.928,3.488,67,0.0001,5.656,6.145*54
$GPGRS,204442.00,1,1.1,-0.1,0.1,-1.0,0.2,-0.0,-0.0,0.1,-0.7,-0.1,-0.2,*4F
$GPGRS,204442.00,1,5.7,5.1,0.1,4.8,-4.8,-3.4,-0.4,-4.1,-2.1,,,*4B
$GPGRS,204442.00,1,0.7,-1.0,0.2,0.1,-2.2,0.2,-0.3,0.1,-0.4,,,*65
$GPGRS,204442.00,1,0.2,0.6,0.9,1.2,-0.5,-0.4,-0.3,-0.2,-0.7,-0.6,0.8,-0.9*69
$GPGSV,6,1,21,27,85,184,50,18,12,076,38,32,12,142,40,21,28,271,41*74
$GPGSV,6,2,21,16,30,198,44,23,42,054,46,08,54,300,48,10,72,126,51*7D
$GPGSV,6,3,21,26,05,184,35,02,09,267,38,30,00,322,35,15,07,031,36*74
$GPGSV,6,4,21,36,35,170,44,58,13,245,37,57,11,108,37,34,31,208,42*73
$GPGSV,6,5,21,40,24,132,36,49,34,195,43,41,07,108,34,61,03,257,37*72
$GPGSV,6,6,21*7A
$GLGSV,3,1,09,83,55,056,40,75,19,332,44,82,18,085,44,69,15,161,44*69
$GLGSV,3,2,09,73,17,229,46,74,33,275,44,67,35,045,48,84,41,300,40*63
$GLGSV,3,3,09,68,45,114,50*52
$GAGSV,3,1,10,26,64,277,48,21,31,198,43,31,20,319,40,03,14,039,38*6D
$GAGSV,3,2,10,33,16,260,40,08,23,089,41,23,48,265,,13,56,060,47*6A
$GAGSV,3,3,10,07,09,139,38,15,05,073,36*67
$GBGSV,6,1,23,28,83,012,51,60,11,108,40,50,10,034,,46,20,284,*6D
$GBGSV,6,2,23,41,21,174,,37,11,231,41,05,23,128,37,31,19,061,*6D
$GBGSV,6,3,23,08,20,039,38,43,25,103,44,58,29,277,,57,25,231,*67
$GBGSV,6,4,23,13,28,044,42,27,41,292,47,42,30,050,44,30,39,286,*69
$GBGSV,6,5,23,33,49,121,49,14,46,079,46,10,00,134,,02,08,105,34*6E
$GBGSV,6,6,23,38,07,042,36,36,07,332,,11,04,101,38*5A
$GPGGA,204442.00,,,,,0,00,,,M,,M,,*4C
$PTNL,GGK,204442.00,010125,4742.1604416,N,01618.1005401,E,1,41,0.7,EHT751.3217,M*42
$GPGGQ,204442.00,010125,4742.1604416,N,01618.1005401,E,1,41,0.796,708.1151,M*3C
$GPGFA,204442.00,3.845,4.914,0.404,0.333,349.035,0.599,,VVV*0B
$GPLLK,204442.00,010125,,M,,M,1,41,0.8,,M*02
$GNGMP,204442.00,,,,,DAAA,41,0.4,,,,*53
$GPGMP,204442.00,,,,,,11,,,,1.9,136*75
$GLGMP,204442.00,,,,,,09,,,,,*72
$GAGMP,204442.00,,,,,,09,,,,,*7F
$GBGMP,204442.00,,,,,,12,,,,,*76
$PSSN,SNC,[0,333900000,2347]*4E
$GPZDA,204447.00,01,01,2025,,*62
$GPDTM,W84,,00.0000000,N,00.0000000,E,00.0000000,W84*5F
$PSSN,TFM,204447.00,,,,*6E
$GPRMC,204447.00,A,4742.1604439,N,01618.1005395,E,0.0,,010125,5.1,E,D*11
$GPGLL,4742.1604439,N,01618.1005395,E,204447.00,A,D*60
$GPGGA,204447.00,4742.1604439,N,01618.1005395,E,2,41,0.4,708.1149,M,43.2066,M,1.8,0136*46
$GNGNS,204447.00,4742.1604439,N,01618.1005395,E,DAAA,41,0.4,708.1149,43.2066,,*57
$GPGNS,204447.00,,,,,,11,,,,1.8,136*71
$GLGNS,204447.00,,,,,,09,,,,,*77
$GAGNS,204447.00,,,,,,09,,,,,*7A
$GBGNS,204447.00,,,,,,12,,,,,*73
$GPLLQ,204447.00,010125,,M,,M,1,41,0.789,,M*13
$GPVTG,,T,,M,0.00,N,0.00,K,D*26
$GPHDT,,T*1B
$GPTHS,,V*0E
$GPROT,,V*08
$PSSN,HRP,204447.00,010125,,,,,,,00,0,,*60
$PTNL,AVR,204447.00,,Yaw,,Tilt,,,,0,,00*36
$GPGSA,A,3,02,08,10,15,16,18,21,23,26,27,32,,0.7,0.4,0.6*34
$GPGSA,A,3,67,68,69,73,74,75,82,83,84,,,,0.7,0.4,0.6*3F
$GPGSA,A,3,03,07,08,13,15,21,26,31,33,,,,0.7,0.4,0.6*38
$GPGSA,A,3,05,08,13,14,27,28,33,37,38,42,43,60,0.7,0.4,0.6*3A
$GPGST,204447.00,2.108,0.400,0.329,349.382,0.397,0.331,0.596*50
$GPGBS,204447.00,2.441,1.831,3.278,67,0.0001,5.539,6.145*54
$GPGRS,204447.00,1,0.0,-0.2,0.1,-1.1,0.2,0.1,0.2,0.4,-0.2,-0.1,-0.1,*48
$GPGRS,204447.00,1,5.5,4.9,-0.4,5.2,-4.6,-3.4,-0.7,-3.7,-2.9,,,*62
$GPGRS,204447.00,1,0.7,-0.9,0.1,-0.1,-2.1,0.0,-0.1,-0.1,-0.3,,,*6F
$GPGRS,204447.00,1,0.5,0.2,1.2,0.4,-0.4,-0.3,-0.2,-0.4,-1.1,-0.1,0.9,-1.1*6B
$GPGSV,6,1,21,27,85,184,50,18,12,076,38,32,12,142,40,21,28,271,41*74
$GPGSV,6,2,21,16,30,198,44,23,42,054,46,08,54,300,48,10,72,126,51*7D
$GPGSV,6,3,21,26,05,184,35,02,09,267,38,30,00,322,35,15,07,031,36*74
$GPGSV,6,4,21,36,35,170,44,58,13,245,37,57,11,108,37,34,31,208,42*73
$GPGSV,6,5,21,40,24,132,36,49,34,195,43,41,07,108,33,61,03,257,37*75
$GPGSV,6,6,21*7A
$GLGSV,3,1,09,83,55,056,41,75,19,332,46,82,18,086,43,69,15,161,45*6F
$GLGSV,3,2,09,73,17,229,47,74,33,275,44,67,35,045,49,84,42,300,40*60
$GLGSV,3,3,09,68,45,114,50*52
$GAGSV,3,1,10,26,64,277,48,21,31,198,43,31,20,319,40,03,14,039,38*6D
$GAGSV,3,2,10,33,16,260,40,08,23,089,40,23,48,265,,13,56,060,46*6A
$GAGSV,3,3,10,07,09,139,38,15,05,073,36*67
$GBGSV,6,1,23,28,83,012,51,60,11,108,40,50,10,034,,46,20,284,*6D
$GBGSV,6,2,23,41,21,174,,37,11,231,40,05,23,128,37,31,19,061,*6C
$GBGSV,6,3,23,08,20,039,37,43,25,103,44,58,29,277,,57,25,231,*68
$GBGSV,6,4,23,13,28,044,42,27,41,292,47,42,30,050,45,30,39,286,*68
$GBGSV,6,5,23,33,50,121,49,14,46,079,46,10,00,134,,02,08,105,34*66
$GBGSV,6,6,23,38,07,042,37,36,07,332,,11,04,101,38*5B
$GPGGA,204447.00,,,,,0,00,,,M,,M,,*49
$PTNL,GGK,204447.00,010125,4742.1604439,N,01618.1005395,E,1,41,0.7,EHT751.3215,M*42
$GPGGQ,204447.00,010125,4742.1604439,N,01618.1005395,E,1,41,0.789,708.1149,M*39
$GPGFA,204447.00,3.800,4.887,0.400,0.329,349.382,0.596,,VVV*0B
$GPLLK,204447.00,010125,,M,,M,1,41,0.8,,M*07
$GNGMP,204447.00,,,,,DAAA,41,0.4,,,,*56
$GPGMP,204447.00,,,,,,11,,,,1.8,136*71
$GLGMP,204447.00,,,,,,09,,,,,*77
$GAGMP,204447.00,,,,,,09,,,,,*7A
$GBGMP,204447.00,,,,,,12,,,,,*73
$PSSN,SNC,[0,333905000,2347]*4B
$GPZDA,204452.00,01,01,2025,,*66
$GPDTM,W84,,00.0000000,N,00.0000000,E,00.0000000,W84*5F
$PSSN,TFM,204452.00,,,,*6A
$GPRMC,204452.00,A,4742.1604441,N,01618.1005375,E,0.0,,010125,5.1,E,D*14
$GPGLL,4742.1604441,N,01618.1005375,E,204452.00,A,D*65
$GPGGA,204452.00,4742.1604441,N,01618.1005375,E,2,40,0.4,708.1108,M,43.2066,M,2.8,0136*44
$GNGNS,204452.00,4742.1604441,N,01618.1005375,E,DAAA,40,0.4,708.1108,43.2066,,*56
$GPGNS,204452.00,,,,,,10,,,,2.8,136*77
$GLGNS,204452.00,,,,,,09,,,,,*73
$GAGNS,204452.00,,,,,,09,,,,,*7E
$GBGNS,204452.00,,,,,,12,,,,,*77
$GPLLQ,204452.00,010125,,M,,M,1,40,0.826,,M*1C
$GPVTG,,T,,M,0.00,N,0.01,K,D*27
$GPHDT,,T*1B
$GPTHS,,V*0E
$GPROT,,V*08
$PSSN,HRP,204452.00,010125,,,,,,,00,0,,*64
$PTNL,AVR,204452.00,,Yaw,,Tilt,,,,0,,00*32
$GPGSA,A,3,02,08,10,15,16,18,21,23,27,32,,,0.7,0.4,0.6*30
$GPGSA,A,3,67,68,69,73,74,75,82,83,84,,,,0.7,0.4,0.6*3F
$GPGSA,A,3,03,07,08,13,15,21,26,31,33,,,,0.7,0.4,0.6*38
$GPGSA,A,3,05,08,13,14,27,28,33,37,38,42,43,60,0.7,0.4,0.6*3A
$GPGST,204452.00,2.288,0.428,0.330,351.278,0.426,0.333,0.625*54
$GPGBS,204452.00,3.030,1.829,3.434,67,0.0001,5.701,6.145*5D
$GPGRS,204452.00,1,0.5,-0.0,0.1,-1.1,0.3,0.1,-0.4,0.4,-0.0,-0.5,,*65
$GPGRS,204452.00,1,5.7,5.5,-0.4,5.2,-5.0,-3.2,-1.7,-4.1,-3.7,,,*67
$GPGRS,204452.00,1,1.1,-1.0,0.3,-0.0,-2.2,-0.1,-0.2,-0.0,-0.7,,,*4E
$GPGRS,204452.00,1,0.2,0.5,0.9,0.9,-0.1,-0.4,-0.2,-0.2,-0.9,0.0,0.9,-0.8*41
$GPGSV,6,1,21,27,84,184,50,18,12,076,38,32,12,142,40,21,28,271,41*75
$GPGSV,6,2,21,16,30,198,44,23,42,054,46,08,54,300,48,10,72,125,51*7E
$GPGSV,6,3,21,26,05,184,35,02,09,267,40,30,00,322,34,15,07,031,36*7A
$GPGSV,6,4,21,36,35,170,44,58,13,245,37,57,11,108,37,34,31,208,41*70
$GPGSV,6,5,21,40,24,132,36,49,34,195,43,41,07,108,34,61,03,257,37*72
$GPGSV,6,6,21*7A
$GLGSV,3,1,09,83,55,056,41,75,19,332,45,82,18,086,43,69,15,161,45*6C
$GLGSV,3,2,09,73,17,229,46,74,33,275,44,67,35,045,48,84,42,300,40*60
$GLGSV,3,3,09,68,45,114,50*52
$GAGSV,3,1,10,26,64,277,48,21,31,198,43,31,20,319,40,03,14,039,38*6D
$GAGSV,3,2,10,33,16,260,39,08,23,089,40,23,48,265,,13,55,060,47*66
$GAGSV,3,3,10,07,09,139,38,15,05,073,37*66
$GBGSV,6,1,23,28,83,012,51,60,11,108,40,50,10,034,,46,20,284,*6D
$GBGSV,6,2,23,41,21,174,,37,11,231,40,05,23,128,37,31,19,061,*6C
$GBGSV,6,3,23,08,20,039,37,43,25,103,44,58,29,277,,57,25,232,*6B
$GBGSV,6,4,23,13,28,044,42,27,41,292,47,42,30,050,45,30,40,286,*66
$GBGSV,6,5,23,33,50,121,49,14,46,079,46,10,00,134,,02,08,105,34*66
$GBGSV,6,6,23,38,07,042,37,36,07,332,,11,04,102,38*58
$GPGGA,204452.00,,,,,0,00,,,M,,M,,*4D
$PTNL,GGK,204452.00,010125,4742.1604441,N,01618.1005375,E,1,40,0.7,EHT751.3174,M*42
$GPGGQ,204452.00,010125,4742.1604441,N,01618.1005375,E,1,40,0.826,708.1108,M*32
$GPGFA,204452.00,4.065,5.126,0.428,0.330,351.278,0.625,,VVV*04
$GPLLK,204452.00,010125,,M,,M,1,40,0.8,,M*02
$GNGMP,204452.00,,,,,DAAA,40,0.4,,,,*53
$GPGMP,204452.00,,,,,,10,,,,2.8,136*77
$GLGMP,204452.00,,,,,,09,,,,,*73
$GAGMP,204452.00,,,,,,09,,,,,*7E
$GBGMP,204452.00,,,,,,12,,,,,*77
$PSSN,SNC,[0,333910000,2347]*4F
$GPZDA,204457.00,01,01,2025,,*63
$GPDTM,W84,,00.0000000,N,00.0000000,E,00.0000000,W84*5F
$PSSN,TFM,204457.00,,,,*6F
$GPRMC,204457.00,A,4742.1604475,N,01618.1005355,E,0.0,,010125,5.1,E,D*14
$GPGLL,4742.1604475,N,01618.1005355,E,204457.00,A,D*65
$GPGGA,204457.00,4742.1604475,N,01618.1005355,E,2,40,0.4,708.1106,M,43.2066,M,3.4,0136*47
$GNGNS,204457.00,4742.1604475,N,01618.1005355,E,DAAA,40,0.4,708.1106,43.2066,,*58
$GPGNS,204457.00,,,,,,10,,,,3.4,136*7F
$GLGNS,204457.00,,,,,,09,,,,,*76
$GAGNS,204457.00,,,,,,09,,,,,*7B
$GBGNS,204457.00,,,,,,12,,,,,*72
$GPLLQ,204457.00,010125,,M,,M,1,40,0.837,,M*19
$GPVTG,,T,,M,0.00,N,0.01,K,D*27
$GPHDT,,T*1B
$GPTHS,,V*0E
$GPROT,,V*08
$PSSN,HRP,204457.00,010125,,,,,,,00,0,,*61
$PTNL,AVR,204457.00,,Yaw,,Tilt,,,,0,,00*37
$GPGSA,A,3,02,08,10,15,16,18,21,23,27,32,,,0.7,0.4,0.6*30
$GPGSA,A,3,67,68,69,73,74,75,82,83,84,,,,0.7,0.4,0.6*3F
$GPGSA,A,3,03,07,08,13,15,21,26,31,33,,,,0.7,0.4,0.6*38
$GPGSA,A,3,05,08,13,14,27,28,33,37,38,42,43,60,0.7,0.4,0.6*3A
$GPGST,204457.00,2.218,0.433,0.335,351.473,0.431,0.337,0.633*5F
$GPGBS,204457.00,3.028,1.852,3.471,74,0.0001,-5.609,6.121*78
$GPGRS,204457.00,1,0.7,-0.2,0.0,-0.8,0.2,0.3,-0.3,0.2,0.0,0.3,,*6D
$GPGRS,204457.00,1,5.4,4.7,-0.4,4.9,-5.6,-3.8,-1.5,-3.5,-3.0,,,*62
$GPGRS,204457.00,1,0.9,-1.2,0.8,-0.1,-2.3,-0.0,-0.3,-0.2,-0.2,,,*4C
$GPGRS,204457.00,1,0.2,0.8,0.8,1.1,-0.0,-0.5,-0.6,-0.1,-1.5,-0.1,1.1,-1.1*66
$GPGSV,6,1,21,27,84,183,50,18,12,076,39,32,12,142,41,21,28,271,40*73
$GPGSV,6,2,21,16,30,198,44,23,42,054,46,08,54,300,48,10,72,125,51*7E
$GPGSV,6,3,21,26,05,184,34,02,09,267,41,30,00,322,34,15,07,031,37*7B
$GPGSV,6,4,21,36,35,170,44,58,13,245,37,57,11,108,37,34,31,208,42*73
$GPGSV,6,5,21,40,24,132,36,49,34,195,43,41,07,108,34,61,03,257,38*7D
$GPGSV,6,6,21*7A
$GLGSV,3,1,09,83,55,056,41,75,19,332,44,82,18,086,43,69,15,161,45*6D
$GLGSV,3,2,09,73,17,229,46,74,33,275,43,67,35,045,49,84,42,300,40*66
$GLGSV,3,3,09,68,45,114,50*52
$GAGSV,3,1,10,26,64,277,48,21,31,198,43,31,20,319,40,03,14,039,38*6D
$GAGSV,3,2,10,33,16,260,40,08,23,089,41,23,48,265,,13,55,060,47*69
$GAGSV,3,3,10,07,09,139,38,15,05,073,36*67
$GBGSV,6,1,23,28,83,013,51,60,11,108,40,50,10,034,,46,20,284,*6C
$GBGSV,6,2,23,41,21,174,,37,11,231,40,05,23,128,37,31,19,061,*6C
$GBGSV,6,3,23,08,20,039,37,43,25,103,44,58,29,277,,57,25,232,*6B
$GBGSV,6,4,23,13,28,044,42,27,41,292,47,42,30,050,45,30,40,286,*66
$GBGSV,6,5,23,33,50,121,49,14,46,079,46,10,00,134,,02,08,105,34*66
$GBGSV,6,6,23,38,07,042,37,36,07,332,,11,04,102,38*58
$GPGGA,204457.00,,,,,0,00,,,M,,M,,*48
$PTNL,GGK,204457.00,010125,4742.1604475,N,01618.1005355,E,1,40,0.7,EHT751.3172,M*44
$GPGGQ,204457.00,010125,4742.1604475,N,01618.1005355,E,1,40,0.837,708.1106,M*3C
$GPGFA,204457.00,4.120,5.195,0.433,0.335,351.473,0.633,,VVV*0C
$GPLLK,204457.00,010125,,M,,M,1,40,0.8,,M*07
$GNGMP,204457.00,,,,,DAAA,40,0.4,,,,*56
$GPGMP,204457.00,,,,,,10,,,,3.4,136*7F
$GLGMP,204457.00,,,,,,09,,,,,*76
$GAGMP,204457.00,,,,,,09,,,,,*7B
$GBGMP,204457.00,,,,,,12,,,,,*72
$PSSN,SNC,[0,333915000,2347]*4A
$GPZDA,204502.00,01,01,2025,,*62
$GPDTM,W84,,00.0000000,N,00.0000000,E,00.0000000,W84*5F
$PSSN,TFM,204502.00,,,,*6E
$GPRMC,204502.00,A,4742.1604498,N,01618.1005347,E,0.0,,010125,5.1,E,D*15
$GPGLL,4742.1604498,N,01618.1005347,E,204502.00,A,D*64
$GPGGA,204502.00,4742.1604498,N,01618.1005347,E,2,40,0.4,708.1127,M,43.2066,M,2.0,0136*40
$GNGNS,204502.00,4742.1604498,N,01618.1005347,E,DAAA,40,0.4,708.1127,43.2066,,*5A
$GPGNS,204502.00,,,,,,10,,,,2.0,136*7B
$GLGNS,204502.00,,,,,,09,,,,,*77
$GAGNS,204502.00,,,,,,09,,,,,*7A
$GBGNS,204502.00,,,,,,12,,,,,*73
$GPLLQ,204502.00,010125,,M,,M,1,40,0.836,,M*19
$GPVTG,,T,,M,0.00,N,0.00,K,D*26
$GPHDT,,T*1B
$GPTHS,,V*0E
$GPROT,,V*08
$PSSN,HRP,204502.00,010125,,,,,,,00,0,,*60
$PTNL,AVR,204502.00,,Yaw,,Tilt,,,,0,,00*36
$GPGSA,A,3,02,08,10,15,16,18,21,23,27,32,,,0.7,0.4,0.6*30
$GPGSA,A,3,67,68,69,73,74,75,82,83,84,,,,0.7,0.4,0.6*3F
$GPGSA,A,3,03,07,08,13,15,21,26,31,33,,,,0.7,0.4,0.6*38
$GPGSA,A,3,05,08,13,14,27,28,33,37,38,42,43,60,0.7,0.4,0.6*3A
$GPGST,204502.00,2.150,0.432,0.334,350.255,0.430,0.337,0.633*53
$GPGBS,204502.00,3.014,1.901,3.639,67,0.0001,6.120,6.145*5D
$GPGRS,204502.00,1,0.1,-0.0,0.0,-0.7,0.1,-0.2,-0.1,0.3,-0.1,-0.2,,*4B
$GPGRS,204502.00,1,6.1,5.5,-0.1,4.2,-5.1,-3.7,0.3,-2.8,-2.1,,,*46
$GPGRS,204502.00,1,0.8,-1.0,0.7,0.1,-2.4,0.1,-0.3,0.0,0.1,,,*46
$GPGRS,204502.00,1,0.2,-0.0,1.1,1.2,-0.2,-0.4,-0.7,-0.1,-1.2,0.1,0.8,-1.2*6A
$GPGSV,6,1,21,27,84,183,50,18,12,076,39,32,12,141,41,21,28,271,40*70
$GPGSV,6,2,21,16,30,198,43,23,42,054,46,08,54,300,48,10,72,125,51*79
$GPGSV,6,3,21,26,05,184,34,02,09,267,40,30,00,322,34,15,07,030,37*7B
$GPGSV,6,4,21,36,35,170,44,58,13,245,37,57,11,108,38,34,31,208,42*7C
$GPGSV,6,5,21,40,24,132,36,49,34,195,43,41,07,108,34,61,03,257,37*72
$GPGSV,6,6,21*7A
$GLGSV,3,1,09,83,55,056,41,75,19,332,45,82,18,086,44,69,15,161,44*6A
$GLGSV,3,2,09,73,17,229,46,74,33,275,43,67,35,045,49,84,42,300,40*66
$GLGSV,3,3,09,68,45,114,50*52
$GAGSV,3,1,10,26,64,277,48,21,31,198,43,31,20,319,40,03,14,039,38*6D
$GAGSV,3,2,10,33,16,260,40,08,23,089,41,23,48,265,,13,55,060,47*69
$GAGSV,3,3,10,07,09,139,37,15,05,073,36*68
$GBGSV,6,1,23,28,83,013,51,60,11,108,40,50,10,034,,46,20,283,*6B
$GBGSV,6,2,23,41,21,174,,37,11,231,41,05,23,128,37,31,19,061,*6D
$GBGSV,6,3,23,08,20,039,36,43,25,103,44,58,29,277,,57,25,232,*6A
$GBGSV,6,4,23,13,28,044,42,27,41,292,48,42,30,050,45,30,40,286,*69
$GBGSV,6,5,23,33,50,121,49,14,46,079,46,10,00,134,,02,08,105,34*66
$GBGSV,6,6,23,38,07,042,37,36,07,332,,11,04,102,37*57
$GPGGA,204502.00,,,,,0,00,,,M,,M,,*49
$PTNL,GGK,204502.00,010125,4742.1604498,N,01618.1005347,E,1,40,0.7,EHT751.3192,M*4B
$GPGGQ,204502.00,010125,4742.1604498,N,01618.1005347,E,1,40,0.836,708.1127,M*3F
$GPGFA,204502.00,4.111,5.190,0.432,0.334,350.255,0.633,,VVV*09
$GPLLK,204502.00,010125,,M,,M,1,40,0.8,,M*06
$GNGMP,204502.00,,,,,DAAA,40,0.4,,,,*57
$GPGMP,204502.00,,,,,,10,,,,2.0,136*7B
$GLGMP,204502.00,,,,,,09,,,,,*77
$GAGMP,204502.00,,,,,,09,,,,,*7A
$GBGMP,204502.00,,,,,,12,,,,,*73
$PSSN,SNC,[0,333920000,2347]*4C
$GPZDA,204507.00,01,01,2025,,*67
$GPDTM,W84,,00.0000000,N,00.0000000,E,00.0000000,W84*5F
$PSSN,TFM,204507.00,,,,*6B
$GPRMC,204507.00,A,4742.1604489,N,01618.1005331,E,0.0,,010125,5.1,E,D*11
$GPGLL,4742.1604489,N,01618.1005331,E,204507.00,A,D*60
$GPGGA,204507.00,4742.1604489,N,01618.1005331,E,2,40,0.4,708.1069,M,43.2066,M,1.8,0136*44
$GNGNS,204507.00,4742.1604489,N,01618.1005331,E,DAAA,40,0.4,708.1069,43.2066,,*55
$GPGNS,204507.00,,,,,,10,,,,1.8,136*75
$GLGNS,204507.00,,,,,,09,,,,,*72
$GAGNS,204507.00,,,,,,09,,,,,*7F
$GBGNS,204507.00,,,,,,12,,,,,*76
$GPLLQ,204507.00,010125,,M,,M,1,40,0.823,,M*18
$GPVTG,,T,,M,0.00,N,0.01,K,D*27
$GPHDT,,T*1B
$GPTHS,,V*0E
$GPROT,,V*08
$PSSN,HRP,204507.00,010125,,,,,,,00,0,,*65
$PTNL,AVR,204507.00,,Yaw,,Tilt,,,,0,,00*33
$GPGSA,A,3,02,08,10,15,16,18,21,23,27,32,,,0.7,0.4,0.6*30
$GPGSA,A,3,67,68,69,73,74,75,82,83,84,,,,0.7,0.4,0.6*3F
$GPGSA,A,3,03,07,08,13,15,21,26,31,33,,,,0.7,0.4,0.6*38
$GPGSA,A,3,05,08,13,14,27,28,33,37,38,42,43,60,0.7,0.4,0.6*3A
$GPGST,204507.00,2.239,0.426,0.329,349.511,0.423,0.333,0.623*5B
$GPGBS,204507.00,2.997,1.808,3.394,67,0.0001,5.812,6.145*5A
$GPGRS,204507.00,1,-0.2,-0.1,-0.1,-0.9,0.2,-0.6,0.2,0.2,0.1,-0.4,,*40
$GPGRS,204507.00,1,5.8,5.6,0.2,5.0,-5.6,-3.2,0.6,-3.7,-2.3,,,*6C
$GPGRS,204507.00,1,0.2,-1.2,0.6,-0.1,-2.1,0.0,-0.4,0.0,-0.1,,,*49
$GPGRS,204507.00,1,0.0,-0.5,0.9,0.8,-0.4,-0.6,-0.6,-0.0,-1.2,-0.3,0.5,-1.0*4E
$GPGSV,6,1,21,27,84,183,50,18,12,076,39,32,12,141,41,21,28,271,41*71
$GPGSV,6,2,21,16,30,198,44,23,42,054,46,08,55,300,48,10,72,125,52*7C
$GPGSV,6,3,21,26,05,184,34,02,09,268,40,30,00,322,34,15,07,030,37*74
$GPGSV,6,4,21,36,35,170,44,58,13,245,37,57,11,108,37,34,31,208,42*73
$GPGSV,6,5,21,40,24,132,36,49,34,195,43,41,07,108,34,61,03,257,37*72
$GPGSV,6,6,21*7A
$GLGSV,3,1,09,83,55,056,41,75,19,332,45,82,18,086,45,69,15,161,44*6B
$GLGSV,3,2,09,73,17,229,46,74,33,275,44,67,35,045,49,84,42,300,40*61
$GLGSV,3,3,09,68,45,114,51*53
$GAGSV,3,1,10,26,64,277,48,21,31,198,43,31,20,319,40,03,14,038,38*6C
$GAGSV,3,2,10,33,16,260,40,08,23,089,41,23,48,265,,13,55,060,46*68
$GAGSV,3,3,10,07,09,139,37,15,05,073,36*68
$GBGSV,6,1,22,28,83,013,51,60,11,108,40,50,10,034,,46,20,283,*6A
$GBGSV,6,2,22,41,21,174,,37,11,231,40,05,23,128,37,31,19,061,*6D
$GBGSV,6,3,22,08,20,039,36,43,25,103,44,58,29,277,,13,28,044,42*63
$GBGSV,6,4,22,57,25,232,,27,41,292,47,42,30,050,45,30,40,286,*6F
$GBGSV,6,5,22,33,50,121,49,14,46,079,46,36,07,332,,11,04,102,37*6A
$GBGSV,6,6,22,02,08,105,34,38,07,042,37*6C
$GPGGA,204507.00,,,,,0,00,,,M,,M,,*4C
$PTNL,GGK,204507.00,010125,4742.1604489,N,01618.1005331,E,1,40,0.7,EHT751.3135,M*42
$GPGGQ,204507.00,010125,4742.1604489,N,01618.1005331,E,1,40,0.823,708.1069,M*34
$GPGFA,204507.00,4.050,5.109,0.426,0.329,349.511,0.623,,VVV*0F
$GPLLK,204507.00,010125,,M,,M,1,40,0.8,,M*03
$GNGMP,204507.00,,,,,DAAA,40,0.4,,,,*52
$GPGMP,204507.00,,,,,,10,,,,1.8,136*75
$GLGMP,204507.00,,,,,,09,,,,,*72
$GAGMP,204507.00,,,,,,09,,,,,*7F
$GBGMP,204507.00,,,,,,12,,,,,*76
$PSSN,SNC,[0,333925000,2347]*49
$GPZDA,204512.00,01,01,2025,,*63
$GPDTM,W84,,00.0000000,N,00.0000000,E,00.0000000,W84*5F
$PSSN,TFM,204512.00,,,,*6F
$GPRMC,204512.00,A,4742.1604518,N,01618.1005352,E,0.0,,010125,5.1,E,D*19
$GPGLL,4742.1604518,N,01618.1005352,E,204512.00,A,D*68
$GPGGA,204512.00,4742.1604518,N,01618.1005352,E,2,40,0.4,708.1089,M,43.2066,M,2.8,0136*41
$GNGNS,204512.00,4742.1604518,N,01618.1005352,E,DAAA,40,0.4,708.1089,43.2066,,*53
$GPGNS,204512.00,,,,,,10,,,,2.8,136*72
$GLGNS,204512.00,,,,,,09,,,,,*76
$GAGNS,204512.00,,,,,,09,,,,,*7B
$GBGNS,204512.00,,,,,,12,,,,,*72
$GPLLQ,204512.00,010125,,M,,M,1,40,0.826,,M*19
$GPVTG,,T,,M,0.00,N,0.00,K,D*26
$GPHDT,,T*1B
$GPTHS,,V*0E
$GPROT,,V*08
$PSSN,HRP,204512.00,010125,,,,,,,00,0,,*61
$PTNL,AVR,204512.00,,Yaw,,Tilt,,,,0,,00*37
$GPGSA,A,3,02,08,10,15,16,18,21,23,27,32,,,0.7,0.4,0.6*30
$GPGSA,A,3,67,68,69,73,74,75,82,83,84,,,,0.7,0.4,0.6*3F
$GPGSA,A,3,03,07,08,13,15,21,26,31,33,,,,0.7,0.4,0.6*38
$GPGSA,A,3,05,08,13,14,27,28,33,37,38,42,43,60,0.7,0.4,0.6*3A
$GPGST,204512.00,2.104,0.428,0.330,351.373,0.426,0.333,0.625*5C
$GPGBS,204512.00,3.031,1.831,3.430,67,0.0001,5.574,6.145*54
$GPGRS,204512.00,1,0.7,-0.2,0.2,-1.2,0.1,-0.0,0.1,0.1,-0.1,-0.0,,*67
$GPGRS,204512.00,1,5.6,5.0,-0.4,5.1,-4.4,-3.3,-0.1,-3.3,-2.7,,,*62
$GPGRS,204512.00,1,0.7,-1.0,0.5,-0.2,-1.8,-0.2,-0.5,-0.2,-0.3,,,*43
$GPGRS,204512.00,1,0.1,-0.1,1.0,0.7,-0.8,-0.5,-0.4,-0.5,-1.9,-0.1,0.4,-1.0*48
$GPGSV,6,1,21,27,84,183,50,18,12,076,39,32,12,141,41,21,28,271,41*71
$GPGSV,6,2,21,16,30,198,44,23,42,054,46,08,55,300,48,10,72,125,52*7C
$GPGSV,6,3,21,26,05,184,34,02,09,268,39,30,00,322,34,15,07,030,37*7A
$GPGSV,6,4,21,36,35,170,44,58,13,245,37,57,11,108,37,34,31,208,42*73
$GPGSV,6,5,21,40,24,132,36,49,34,195,43,41,07,108,33,61,03,257,37*75
$GPGSV,6,6,21*7A
$GLGSV,3,1,09,83,55,056,40,75,19,332,44,82,18,086,45,69,15,161,44*6B
$GLGSV,3,2,09,73,17,229,46,74,33,275,44,67,35,045,49,84,42,300,40*61
$GLGSV,3,3,09,68,45,114,51*53
$GAGSV,3,1,10,26,64,277,48,21,31,198,43,31,20,319,40,03,14,038,38*6C
$GAGSV,3,2,10,33,16,260,40,08,23,089,41,23,48,265,,13,55,060,46*68
$GAGSV,3,3,10,07,09,139,37,15,05,073,36*68
$GBGSV,6,1,22,28,83,013,51,60,11,108,40,50,10,034,,46,20,283,*6A
$GBGSV,6,2,22,41,21,174,,37,11,231,40,05,23,128,37,31,19,061,*6D
$GBGSV,6,3,22,43,25,103,44,08,20,040,37,58,29,277,,13,28,044,42*6C
$GBGSV,6,4,22,57,25,232,,27,41,292,47,42,30,050,45,30,40,286,*6F
$GBGSV,6,5,22,33,50,121,49,14,46,079,46,02,08,105,34,11,04,102,38*6C
$GBGSV,6,6,22,36,07,332,,38,07,042,37*65
$GPGGA,204512.00,,,,,0,00,,,M,,M,,*48
$PTNL,GGK,204512.00,010125,4742.1604518,N,01618.1005352,E,1,40,0.7,EHT751.3155,M*4C
$GPGGQ,204512.00,010125,4742.1604518,N,01618.1005352,E,1,40,0.826,708.1089,M*37
$GPGFA,204512.00,4.066,5.124,0.428,0.330,351.373,0.625,,VVV*0A
$GPLLK,204512.00,010125,,M,,M,1,40,0.8,,M*07
$GNGMP,204512.00,,,,,DAAA,40,0.4,,,,*56
$GPGMP,204512.00,,,,,,10,,,,2.8,136*72
$GLGMP,204512.00,,,,,,09,,,,,*76
$GAGMP,204512.00,,,,,,09,,,,,*7B
$GBGMP,204512.00,,,,,,12,,,,,*72
$PSSN,SNC,[0,333930000,2347]*4D
$GPZDA,204517.00,01,01,2025,,*66
$GPDTM,W84,,00.0000000,N,00.0000000,E,00.0000000,W84*5F
$PSSN,TFM,204517.00,,,,*6A
$GPRMC,204517.00,A,4742.1604531,N,01618.1005363,E,0.0,,010125,5.1,E,D*15
$GPGLL,4742.1604531,N,01618.1005363,E,204517.00,A,D*64
$GPGGA,204517.00,4742.1604531,N,01618.1005363,E,2,40,0.4,708.1080,M,43.2066,M,3.4,0136*49
$GNGNS,204517.00,4742.1604531,N,01618.1005363,E,DAAA,40,0.4,708.1080,43.2066,,*56
$GPGNS,204517.00,,,,,,10,,,,3.4,136*7A
$GLGNS,204517.00,,,,,,09,,,,,*73
$GAGNS,204517.00,,,,,,09,,,,,*7E
$GBGNS,204517.00,,,,,,12,,,,,*77
$GPLLQ,204517.00,010125,,M,,M,1,40,0.837,,M*1C
$GPVTG,,T,,M,0.00,N,0.01,K,D*27
$GPHDT,,T*1B
$GPTHS,,V*0E
$GPROT,,V*08
$PSSN,HRP,204517.00,010125,,,,,,,00,0,,*64
$PTNL,AVR,204517.00,,Yaw,,Tilt,,,,0,,00*32
$GPGSA,A,3,02,08,10,15,16,18,21,23,27,32,,,0.7,0.4,0.6*30
$GPGSA,A,3,67,68,69,73,74,75,82,83,84,,,,0.7,0.4,0.6*3F
$GPGSA,A,3,03,07,08,13,15,21,26,31,33,,,,0.7,0.4,0.6*38
$GPGSA,A,3,05,08,13,14,27,28,33,37,38,42,43,60,0.7,0.4,0.6*3A
$GPGST,204517.00,2.177,0.433,0.335,351.547,0.432,0.337,0.634*52
$GPGBS,204517.00,3.028,1.855,3.467,67,0.0001,5.940,6.145*52
$GPGRS,204517.00,1,0.1,-0.1,-0.1,-0.9,0.1,-0.2,0.0,0.3,0.0,-0.1,,*6F
$GPGRS,204517.00,1,5.9,5.1,-0.0,4.4,-4.4,-3.8,-1.4,-3.7,-3.3,,,*67
$GPGRS,204517.00,1,0.8,-1.1,0.6,0.0,-2.0,-0.3,-0.4,0.0,-0.3,,,*40
$GPGRS,204517.00,1,0.2,0.4,1.1,0.9,-0.4,-0.5,-0.5,-0.8,-1.5,-0.2,0.5,-1.2*65
$GPGSV,6,1,21,27,84,182,51,18,12,076,40,32,12,141,41,21,28,271,41*7F
$GPGSV,6,2,21,16,30,198,44,23,42,054,46,08,55,300,48,10,72,125,52*7C
$GPGSV,6,3,21,26,05,184,34,02,10,268,38,30,00,321,34,15,07,030,37*70
$GPGSV,6,4,21,36,35,170,44,58,13,245,37,57,11,108,38,34,31,208,42*7C
$GPGSV,6,5,21,40,24,132,36,49,34,195,43,41,07,108,33,61,03,257,37*75
$GPGSV,6,6,21*7A
$GLGSV,3,1,09,83,55,056,41,75,19,332,44,82,18,086,44,69,15,161,44*6B
$GLGSV,3,2,09,73,17,229,46,74,33,275,44,67,35,045,49,84,42,300,40*61
$GLGSV,3,3,09,68,45,114,51*53
$GAGSV,3,1,10,26,64,277,48,21,31,198,43,31,20,319,40,03,14,038,37*63
$GAGSV,3,2,10,33,16,260,40,08,23,089,41,23,48,265,,13,55,060,46*68
$GAGSV,3,3,10,07,10,139,37,15,05,073,36*60
$GBGSV,6,1,22,28,83,014,51,60,11,108,40,50,10,034,,46,20,283,*6D
$GBGSV,6,2,22,41,21,174,,37,11,231,41,05,23,128,37,31,19,061,*6C
$GBGSV,6,3,22,43,25,103,45,08,20,040,37,58,29,277,,13,28,044,42*6D
$GBGSV,6,4,22,57,25,232,,27,41,292,47,42,30,050,45,30,40,286,*6F
$GBGSV,6,5,22,33,50,121,49,14,46,079,46,02,08,105,34,11,04,102,38*6C
$GBGSV,6,6,22,36,07,332,,38,07,042,38*6A
$GPGGA,204517.00,,,,,0,00,,,M,,M,,*4D
$PTNL,GGK,204517.00,010125,4742.1604531,N,01618.1005363,E,1,40,0.7,EHT751.3145,M*41
$GPGGQ,204517.00,010125,4742.1604531,N,01618.1005363,E,1,40,0.837,708.1080,M*32
$GPGFA,204517.00,4.121,5.195,0.433,0.335,351.547,0.634,,VVV*09
$GPLLK,204517.00,010125,,M,,M,1,40,0.8,,M*02
$GNGMP,204517.00,,,,,DAAA,40,0.4,,,,*53
$GPGMP,204517.00,,,,,,10,,,,3.4,136*7A
$GLGMP,204517.00,,,,,,09,,,,,*73
$GAGMP,204517.00,,,,,,09,,,,,*7E
$GBGMP,204517.00,,,,,,12,,,,,*77
$PSSN,SNC,[0,333935000,2347]*48
$GPZDA,204522.00,01,01,2025,,*60
$GPDTM,W84,,00.0000000,N,00.0000000,E,00.0000000,W84*5F
$PSSN,TFM,204522.00,,,,*6C
$GPRMC,204522.00,A,4742.1604547,N,01618.1005326,E,0.0,,010125,5.1,E,D*13
$GPGLL,4742.1604547,N,01618.1005326,E,204522.00,A,D*62
$GPGGA,204522.00,4742.1604547,N,01618.1005326,E,2,40,0.4,708.1062,M,43.2066,M,2.0,0136*46
$GNGNS,204522.00,4742.1604547,N,01618.1005326,E,DAAA,40,0.4,708.1062,43.2066,,*5C
$GPGNS,204522.00,,,,,,10,,,,2.0,136*79
$GLGNS,204522.00,,,,,,09,,,,,*75
$GAGNS,204522.00,,,,,,09,,,,,*78
$GBGNS,204522.00,,,,,,12,,,,,*71
$GPLLQ,204522.00,010125,,M,,M,1,40,0.836,,M*1B
$GPVTG,,T,,M,0.00,N,0.01,K,D*27
$GPHDT,,T*1B
$GPTHS,,V*0E
$GPROT,,V*08
$PSSN,HRP,204522.00,010125,,,,,,,00,0,,*62
$PTNL,AVR,204522.00,,Yaw,,Tilt,,,,0,,00*34
$GPGSA,A,3,02,08,10,15,16,18,21,23,27,32,,,0.7,0.4,0.6*30
$GPGSA,A,3,67,68,69,73,74,75,82,83,84,,,,0.7,0.4,0.6*3F
$GPGSA,A,3,03,07,08,13,15,21,26,31,33,,,,0.7,0.4,0.6*38
$GPGSA,A,3,05,08,13,14,27,28,33,37,38,42,43,60,0.7,0.4,0.6*3A
$GPGST,204522.00,2.308,0.433,0.334,350.337,0.430,0.337,0.633*5A
$GPGBS,204522.00,3.014,1.902,3.636,67,0.0001,6.590,6.145*5C
$GPGRS,204522.00,1,-0.2,0.1,-0.0,-0.5,-0.1,0.0,-0.3,0.3,0.1,-0.5,,*4E
$GPGRS,204522.00,1,6.6,5.6,0.3,5.3,-5.0,-3.5,-1.1,-3.2,-3.1,,,*48
$GPGRS,204522.00,1,1.1,-1.0,0.3,0.1,-2.2,-0.2,-0.1,0.0,0.1,,,*62
$GPGRS,204522.00,1,0.2,0.1,1.0,1.3,-0.2,-0.4,-0.3,-0.8,-1.3,-0.1,1.0,-0.8*67
$GPGSV,6,1,21,27,84,182,51,18,12,076,40,32,12,141,41,21,28,271,40*7E
$GPGSV,6,2,21,16,29,198,43,23,42,054,46,08,55,300,48,10,72,125,52*73
$GPGSV,6,3,21,26,05,184,34,02,10,268,38,30,00,321,35,15,07,030,37*71
$GPGSV,6,4,21,36,35,170,44,58,13,245,37,57,11,108,37,34,31,208,42*73
$GPGSV,6,5,21,40,24,132,36,49,34,195,44,41,07,108,34,61,03,257,37*75
$GPGSV,6,6,21*7A
$GLGSV,3,1,09,83,54,056,41,75,19,332,45,82,18,086,44,69,15,161,44*6B
$GLGSV,3,2,09,73,17,229,46,74,33,275,44,67,35,045,49,84,42,300,40*61
$GLGSV,3,3,09,68,45,114,51*53
$GAGSV,3,1,10,26,64,277,48,21,31,198,42,31,20,319,40,03,14,038,37*62
$GAGSV,3,2,10,33,16,260,39,08,23,089,41,23,48,265,,13,55,060,46*66
$GAGSV,3,3,10,07,10,139,37,15,05,073,35*63
$GBGSV,6,1,22,28,83,014,51,60,11,108,40,50,10,034,,05,23,128,37*6F
$GBGSV,6,2,22,37,11,231,41,46,20,283,,41,21,174,,31,19,061,*6E
$GBGSV,6,3,22,43,25,103,45,08,20,040,37,58,29,277,,13,28,044,42*6D
$GBGSV,6,4,22,57,25,232,,27,41,292,47,42,30,050,45,30,40,286,*6F
$GBGSV,6,5,22,33,50,121,49,14,46,079,46,02,08,105,34,36,07,332,*60
$GBGSV,6,6,22,38,06,042,38,11,04,102,39*66
$GPGGA,204522.00,,,,,0,00,,,M,,M,,*4B
$PTNL,GGK,204522.00,010125,4742.1604547,N,01618.1005326,E,1,40,0.7,EHT751.3128,M*4C
$GPGGQ,204522.00,010125,4742.1604547,N,01618.1005326,E,1,40,0.836,708.1062,M*39
$GPGFA,204522.00,4.113,5.191,0.433,0.334,350.337,0.633,,VVV*0C
$GPLLK,204522.00,010125,,M,,M,1,40,0.8,,M*04
$GNGMP,204522.00,,,,,DAAA,40,0.4,,,,*55
$GPGMP,204522.00,,,,,,10,,,,2.0,136*79
$GLGMP,204522.00,,,,,,09,,,,,*75
$GAGMP,204522.00,,,,,,09,,,,,*78
$GBGMP,204522.00,,,,,,12,,,,,*71
$PSSN,SNC,[0,333940000,2347]*4A
$GPZDA,204527.00,01,01,2025,,*65
$GPDTM,W84,,00.0000000,N,00.0000000,E,00.0000000,W84*5F
$PSSN,TFM,204527.00,,,,*69
$GPRMC,204527.00,A,4742.1604539,N,01618.1005289,E,0.0,,010125,5.1,E,D*1B
$GPGLL,4742.1604539,N,01618.1005289,E,204527.00,A,D*6A
$GPGGA,204527.00,4742.1604539,N,01618.1005289,E,2,40,0.4,708.1039,M,43.2066,M,1.8,0136*4B
$GNGNS,204527.00,4742.1604539,N,01618.1005289,E,DAAA,40,0.4,708.1039,43.2066,,*5A
$GPGNS,204527.00,,,,,,10,,,,1.8,136*77
$GLGNS,204527.00,,,,,,09,,,,,*70
$GAGNS,204527.00,,,,,,09,,,,,*7D
$GBGNS,204527.00,,,,,,12,,,,,*74
$GPLLQ,204527.00,010125,,M,,M,1,40,0.823,,M*1A
$GPVTG,,T,,M,0.00,N,0.00,K,D*26
$GPHDT,,T*1B
$GPTHS,,V*0E
$GPROT,,V*08
$PSSN,HRP,204527.00,010125,,,,,,,00,0,,*67
$PTNL,AVR,204527.00,,Yaw,,Tilt,,,,0,,00*31
$GPGSA,A,3,02,08,10,15,16,18,21,23,27,32,,,0.7,0.4,0.6*30
$GPGSA,A,3,67,68,69,73,74,75,82,83,84,,,,0.7,0.4,0.6*3F
$GPGSA,A,3,03,07,08,13,15,21,26,31,33,,,,0.7,0.4,0.6*38
$GPGSA,A,3,05,08,13,14,27,28,33,37,38,42,43,60,0.7,0.4,0.6*3A
$GPGST,204527.00,2.214,0.426,0.329,349.644,0.423,0.332,0.623*54
$GPGBS,204527.00,2.998,1.809,3.389,67,0.0001,5.574,6.146*54
$GPGRS,204527.00,1,0.4,-0.2,0.1,-0.2,0.1,-0.0,-0.1,0.4,-0.0,-0.5,,*4C
$GPGRS,204527.00,1,5.6,5.1,-0.4,4.9,-5.4,-3.1,-2.2,-3.5,-2.7,,,*68
$GPGRS,204527.00,1,1.0,-1.1,-0.1,-0.0,-2.5,-0.2,-0.0,-0.1,-0.2,,,*60
$GPGRS,204527.00,1,-0.0,0.6,1.0,1.6,-0.1,-0.5,-0.4,-0.8,-1.7,-0.5,0.9,-0.7*4D
$GPGSV,6,1,21,27,84,182,51,18,12,076,40,32,12,141,41,21,28,271,40*7E
$GPGSV,6,2,21,16,29,198,44,23,42,054,46,08,55,300,48,10,72,125,52*74
$GPGSV,6,3,21,26,05,184,33,02,10,268,40,30,00,321,36,15,07,030,36*7B
$GPGSV,6,4,21,36,35,170,44,58,13,245,37,57,11,108,37,34,31,208,42*73
$GPGSV,6,5,21,40,24,132,36,49,34,195,43,41,07,108,34,61,03,257,37*72
$GPGSV,6,6,21*7A
$GLGSV,3,1,09,83,54,056,41,75,19,332,45,82,18,086,43,69,15,161,43*6B
$GLGSV,3,2,09,73,17,229,45,74,33,275,43,67,35,045,48,84,42,300,40*64
$GLGSV,3,3,09,68,45,114,50*52
$GAGSV,3,1,10,26,64,278,48,21,31,198,43,31,20,319,40,03,14,038,38*63
$GAGSV,3,2,10,33,16,260,40,08,23,089,40,23,48,265,,13,55,060,46*69
$GAGSV,3,3,10,07,10,139,37,15,05,073,35*63
$GBGSV,6,1,22,28,83,014,51,60,11,108,40,50,10,034,,05,23,128,37*6F
$GBGSV,6,2,22,37,11,231,41,46,20,283,,41,21,174,,31,19,061,*6E
$GBGSV,6,3,22,43,25,104,45,08,20,040,37,58,29,277,,13,28,044,42*6A
$GBGSV,6,4,22,57,25,232,,27,41,292,47,42,30,050,45,30,40,286,*6F
$GBGSV,6,5,22,33,50,121,49,14,46,078,46,02,08,105,34,36,07,332,*61
$GBGSV,6,6,22,38,06,042,38,11,04,102,38*67
$GPGGA,204527.00,,,,,0,00,,,M,,M,,*4E
$PTNL,GGK,204527.00,010125,4742.1604539,N,01618.1005289,E,1,40,0.7,EHT751.3105,M*4B
$GPGGQ,204527.00,010125,4742.1604539,N,01618.1005289,E,1,40,0.823,708.1039,M*3B
$GPGFA,204527.00,4.050,5.107,0.426,0.329,349.644,0.623,,VVV*00
$GPLLK,204527.00,010125,,M,,M,1,40,0.8,,M*01
$GNGMP,204527.00,,,,,DAAA,40,0.4,,,,*50
$GPGMP,204527.00,,,,,,10,,,,1.8,136*77
$GLGMP,204527.00,,,,,,09,,,,,*70
$GAGMP,204527.00,,,,,,09,,,,,*7D
$GBGMP,204527.00,,,,,,12,,,,,*74
$PSSN,SNC,[0,333945000,2347]*4F
$GPZDA,204532.00,01,01,2025,,*61
$GPDTM,W84,,00.0000000,N,00.0000000,E,00.0000000,W84*5F
$PSSN,TFM,204532.00,,,,*6D
$GPRMC,204532.00,A,4742.1604558,N,01618.1005301,E,0.0,,010125,5.1,E,D*19
$GPGLL,4742.1604558,N,01618.1005301,E,204532.00,A,D*68
$GPGGA,204532.00,4742.1604558,N,01618.1005301,E,2,39,0.4,708.1033,M,43.2066,M,2.8,0136*4E
$GNGNS,204532.00,4742.1604558,N,01618.1005301,E,DAAA,39,0.4,708.1033,43.2066,,*5C
$GPGNS,204532.00,,,,,,10,,,,2.8,136*70
$GLGNS,204532.00,,,,,,09,,,,,*74
$GAGNS,204532.00,,,,,,08,,,,,*78
$GBGNS,204532.00,,,,,,12,,,,,*70
$GPLLQ,204532.00,010125,,M,,M,1,39,0.826,,M*15
$GPVTG,,T,,M,0.00,N,0.00,K,D*26
$GPHDT,,T*1B
$GPTHS,,V*0E
$GPROT,,V*08
$PSSN,HRP,204532.00,010125,,,,,,,00,0,,*63
$PTNL,AVR,204532.00,,Yaw,,Tilt,,,,0,,00*35
$GPGSA,A,3,02,08,10,15,16,18,21,23,27,32,,,0.7,0.4,0.6*30
$GPGSA,A,3,67,68,69,73,74,75,82,83,84,,,,0.7,0.4,0.6*3F
$GPGSA,A,3,03,07,08,13,21,26,31,33,,,,,0.7,0.4,0.6*3C
$GPGSA,A,3,05,08,13,14,27,28,33,37,38,42,43,60,0.7,0.4,0.6*3A
$GPGST,204532.00,2.099,0.428,0.330,351.449,0.426,0.333,0.625*55
$GPGBS,204532.00,3.032,1.832,3.427,02,0.0001,1.542,1.176*55
$GPGRS,204532.00,1,1.5,-0.3,0.1,-0.9,0.4,-0.0,-0.2,0.1,-0.1,-0.3,,*46
$GPGRS,204532.00,1,5.1,5.0,-0.6,4.4,-4.9,-3.1,-1.4,-4.0,-2.0,,,*69
$GPGRS,204532.00,1,1.4,-1.1,0.0,0.1,-0.2,-0.2,-0.0,-0.4,,,,*61
$GPGRS,204532.00,1,0.7,0.0,1.1,0.9,0.0,-0.5,-0.4,-0.4,-1.4,-0.6,0.8,-1.0*4D
$GPGSV,6,1,21,27,84,182,51,18,12,076,40,32,12,141,41,21,28,271,40*7E
$GPGSV,6,2,21,16,29,198,44,23,42,054,46,08,55,300,48,10,72,124,51*76
$GPGSV,6,3,21,26,05,184,33,02,10,268,39,30,00,321,36,15,07,030,36*75
$GPGSV,6,4,21,36,35,170,44,58,13,245,37,57,11,108,37,34,31,208,42*73
$GPGSV,6,5,21,40,24,132,36,49,34,195,43,41,07,108,33,61,03,257,37*75
$GPGSV,6,6,21*7A
$GLGSV,3,1,09,83,54,056,40,75,19,332,45,82,18,086,44,69,15,161,43*6D
$GLGSV,3,2,09,73,17,229,46,74,33,275,44,67,35,045,48,84,42,300,40*60
$GLGSV,3,3,09,68,45,114,51*53
$GAGSV,3,1,10,26,64,278,48,21,30,198,43,31,20,319,40,03,14,038,38*62
$GAGSV,3,2,10,33,16,260,39,08,23,089,40,23,48,265,,13,55,060,46*67
$GAGSV,3,3,10,07,10,139,37,15,05,073,35*63
$GBGSV,6,1,22,28,83,015,51,60,11,108,40,50,10,034,,05,23,128,37*6E
$GBGSV,6,2,22,37,11,231,41,46,20,283,,41,21,174,,31,19,061,*6E
$GBGSV,6,3,22,43,25,104,45,08,20,040,37,58,29,276,,13,28,044,42*6B
$GBGSV,6,4,22,57,25,232,,27,41,292,48,42,30,050,45,30,40,286,*60
$GBGSV,6,5,22,33,50,121,49,14,46,078,46,02,08,105,34,36,07,331,*62
$GBGSV,6,6,22,38,06,042,39,11,04,102,38*66
$GPGGA,204532.00,,,,,0,00,,,M,,M,,*4A
$PTNL,GGK,204532.00,010125,4742.1604558,N,01618.1005301,E,1,39,0.7,EHT751.3099,M*43
$GPGGQ,204532.00,010125,4742.1604558,N,01618.1005301,E,1,39,0.826,708.1033,M*38
$GPGFA,204532.00,4.066,5.123,0.428,0.330,351.449,0.625,,VVV*01
$GPLLK,204532.00,010125,,M,,M,1,39,0.8,,M*0B
$GNGMP,204532.00,,,,,DAAA,39,0.4,,,,*5A
$GPGMP,204532.00,,,,,,10,,,,2.8,136*70
$GLGMP,204532.00,,,,,,09,,,,,*74
$GAGMP,204532.00,,,,,,08,,,,,*78
$GBGMP,204532.00,,,,,,12,,,,,*70
$PSSN,SNC,[0,333950000,2347]*4B
$GPZDA,204537.00,01,01,2025,,*64
$GPDTM,W84,,00.0000000,N,00.0000000,E,00.0000000,W84*5F
$PSSN,TFM,204537.00,,,,*68
$GPRMC,204537.00,A,4742.1604573,N,01618.1005309,E,0.0,,010125,5.1,E,D*1D
$GPGLL,4742.1604573,N,01618.1005309,E,204537.00,A,D*6C
$GPGGA,204537.00,4742.1604573,N,01618.1005309,E,2,40,0.4,708.1054,M,43.2066,M,3.4,0136*48
$GNGNS,204537.00,4742.1604573,N,01618.1005309,E,DAAA,40,0.4,708.1054,43.2066,,*57
$GPGNS,204537.00,,,,,,10,,,,3.4,136*78
$GLGNS,204537.00,,,,,,09,,,,,*71
$GAGNS,204537.00,,,,,,09,,,,,*7C
$GBGNS,204537.00,,,,,,12,,,,,*75
$GPLLQ,204537.00,010125,,M,,M,1,40,0.833,,M*1A
$GPVTG,,T,,M,0.00,N,0.00,K,D*26
$GPHDT,,T*1B
$GPTHS,,V*0E
$GPROT,,V*08
$PSSN,HRP,204537.00,010125,,,,,,,00,0,,*66
$PTNL,AVR,204537.00,,Yaw,,Tilt,,,,0,,00*30
$GPGSA,A,3,02,08,10,15,16,18,21,23,27,32,,,0.7,0.4,0.6*30
$GPGSA,A,3,67,68,69,73,74,75,82,83,84,,,,0.7,0.4,0.6*3F
$GPGSA,A,3,03,07,08,13,15,21,26,31,33,,,,0.7,0.4,0.6*38
$GPGSA,A,3,05,08,13,14,27,28,33,37,38,42,43,60,0.7,0.4,0.6*3A
$GPGST,204537.00,2.203,0.431,0.334,352.692,0.429,0.335,0.630*57
$GPGBS,204537.00,2.982,1.850,3.455,67,0.0001,5.876,6.146*5B
$GPGRS,204537.00,1,0.6,-0.2,-0.1,-0.7,0.3,0.1,0.1,0.4,-0.1,-0.3,,*63
$GPGRS,204537.00,1,5.9,5.5,-0.5,4.8,-4.4,-3.5,-0.1,-4.2,-2.3,,,*62
$GPGRS,204537.00,1,1.1,-1.2,0.6,0.3,-2.6,-0.0,-0.3,0.1,0.2,,,*65
$GPGRS,204537.00,1,0.6,-0.4,1.1,1.0,-0.3,-0.4,-0.2,-0.5,-1.0,-0.1,1.0,-1.1*4B
$GPGSV,6,1,21,27,84,181,50,18,12,076,40,32,12,141,41,21,28,271,40*7C
$GPGSV,6,2,21,16,29,198,44,23,42,054,46,08,55,300,48,10,72,124,51*76
$GPGSV,6,3,21,26,05,184,32,02,10,268,39,30,00,321,35,15,07,030,36*77
$GPGSV,6,4,21,36,35,170,44,58,13,245,37,57,11,108,37,34,31,208,42*73
$GPGSV,6,5,21,40,24,132,36,49,34,195,43,41,07,108,33,61,03,257,37*75
$GPGSV,6,6,21*7A
$GLGSV,3,1,09,83,54,056,40,75,19,332,45,82,18,086,44,69,15,161,43*6D
$GLGSV,3,2,09,73,17,229,45,74,33,275,44,67,35,045,49,84,42,301,41*62
$GLGSV,3,3,09,68,45,114,50*52
$GAGSV,3,1,10,26,64,278,48,21,30,198,43,31,20,319,40,03,14,038,38*62
$GAGSV,3,2,10,33,16,260,39,08,23,089,41,13,55,060,46,23,48,265,*66
$GAGSV,3,3,10,07,10,139,37,15,05,073,35*63
$GBGSV,6,1,22,28,83,015,51,60,11,108,40,50,10,034,,05,23,128,37*6E
$GBGSV,6,2,22,37,11,231,41,46,20,283,,41,21,174,,31,19,061,*6E
$GBGSV,6,3,22,43,25,104,44,08,20,040,37,58,29,276,,13,28,044,42*6A
$GBGSV,6,4,22,57,25,232,,27,41,292,47,42,30,050,45,30,40,286,*6F
$GBGSV,6,5,22,33,50,121,49,14,46,078,46,02,08,105,34,36,07,331,*62
$GBGSV,6,6,22,38,06,042,38,11,04,102,38*67
$GPGGA,204537.00,,,,,0,00,,,M,,M,,*4F
$PTNL,GGK,204537.00,010125,4742.1604573,N,01618.1005309,E,1,40,0.7,EHT751.3120,M*4A
$GPGGQ,204537.00,010125,4742.1604573,N,01618.1005309,E,1,40,0.833,708.1054,M*37
$GPGFA,204537.00,4.096,5.165,0.431,0.334,352.692,0.630,,VVV*06
$GPLLK,204537.00,010125,,M,,M,1,40,0.8,,M*00
$GNGMP,204537.00,,,,,DAAA,40,0.4,,,,*51
$GPGMP,204537.00,,,,,,10,,,,3.4,136*78
$GLGMP,204537.00,,,,,,09,,,,,*71
$GAGMP,204537.00,,,,,,09,,,,,*7C
$GBGMP,204537.00,,,,,,12,,,,,*75
$PSSN,SNC,[0,333955000,2347]*4E
$GPZDA,204542.00,01,01,2025,,*66
$GPDTM,W84,,00.0000000,N,00.0000000,E,00.0000000,W84*5F
$PSSN,TFM,204542.00,,,,*6A
$GPRMC,204542.00,A,4742.1604572,N,01618.1005306,E,0.0,,010125,5.1,E,D*11
$GPGLL,4742.1604572,N,01618.1005306,E,204542.00,A,D*60
$GPGGA,204542.00,4742.1604572,N,01618.1005306,E,2,40,0.4,708.1108,M,43.2066,M,2.0,0136*49
$GNGNS,204542.00,4742.1604572,N,01618.1005306,E,DAAA,40,0.4,708.1108,43.2066,,*53
$GPGNS,204542.00,,,,,,10,,,,2.0,136*7F
$GLGNS,204542.00,,,,,,09,,,,,*73
$GAGNS,204542.00,,,,,,09,,,,,*7E
$GBGNS,204542.00,,,,,,12,,,,,*77
$GPLLQ,204542.00,010125,,M,,M,1,40,0.825,,M*1F
$GPVTG,,T,,M,0.00,N,0.00,K,D*26
$GPHDT,,T*1B
$GPTHS,,V*0E
$GPROT,,V*08
$PSSN,HRP,204542.00,010125,,,,,,,00,0,,*64
$PTNL,AVR,204542.00,,Yaw,,Tilt,,,,0,,00*32
$GPGSA,A,3,02,08,10,15,16,18,21,23,27,32,,,0.7,0.4,0.6*30
$GPGSA,A,3,67,68,69,73,74,75,82,83,84,,,,0.7,0.4,0.6*3F
$GPGSA,A,3,03,07,08,13,15,21,26,31,33,,,,0.7,0.4,0.6*38
$GPGSA,A,3,05,08,13,14,27,28,33,37,38,42,43,60,0.7,0.4,0.6*3A
$GPGST,204542.00,2.188,0.430,0.329,350.956,0.427,0.332,0.623*56
$GPGBS,204542.00,2.969,1.891,3.591,67,0.0001,5.997,6.146*56
$GPGRS,204542.00,1,0.4,0.0,-0.1,-0.4,-0.1,0.0,0.2,0.2,-0.1,-0.3,,*64
$GPGRS,204542.00,1,6.0,5.2,-0.9,4.6,-5.5,-3.4,-0.8,-2.8,-2.3,,,*6B
$GPGRS,204542.00,1,0.8,-1.2,0.5,0.2,-2.5,-0.2,-0.4,0.0,0.1,,,*69
$GPGRS,204542.00,1,0.4,-0.8,0.9,1.0,-0.5,-0.5,-0.5,-0.8,-1.3,-0.2,0.9,-1.0*4A
$GPGSV,6,1,21,27,84,181,50,18,12,076,40,32,12,141,41,21,28,271,40*7C
$GPGSV,6,2,21,16,29,198,44,23,42,054,46,08,55,300,48,10,72,124,51*76
$GPGSV,6,3,21,26,05,184,32,02,10,268,40,30,00,321,35,15,07,030,36*79
$GPGSV,6,4,21,36,35,170,43,58,13,245,37,57,11,108,37,34,31,208,41*77
$GPGSV,6,5,21,40,24,132,36,49,34,195,43,41,07,108,33,61,03,257,37*75
$GPGSV,6,6,21*7A
$GLGSV,3,1,09,83,54,056,41,75,19,332,45,82,18,086,44,69,15,161,43*6C
$GLGSV,3,2,09,73,17,229,45,74,33,275,44,67,35,045,49,84,42,301,41*62
$GLGSV,3,3,09,68,45,114,51*53
$GAGSV,3,1,10,26,64,278,47,21,30,198,43,31,20,319,39,03,14,038,38*63
$GAGSV,3,2,10,33,16,260,39,08,23,089,41,23,48,265,,13,55,060,46*66
$GAGSV,3,3,10,07,10,139,37,15,05,073,35*63
$GBGSV,6,1,22,28,83,015,51,60,11,108,40,50,10,034,,05,23,128,37*6E
$GBGSV,6,2,22,37,11,231,40,46,20,283,,41,21,174,,31,19,061,*6F
$GBGSV,6,3,22,08,20,040,37,43,25,104,44,58,29,276,,13,28,044,42*6A
$GBGSV,6,4,22,57,25,232,,27,41,292,48,42,30,050,45,30,40,286,*60
$GBGSV,6,5,22,33,50,121,49,14,46,078,46,38,06,042,38,36,07,331,*6B
$GBGSV,6,6,22,02,08,105,34,11,04,102,38*6E
$GPGGA,204542.00,,,,,0,00,,,M,,M,,*4D
$PTNL,GGK,204542.00,010125,4742.1604572,N,01618.1005306,E,1,40,0.7,EHT751.3174,M*47
$GPGGQ,204542.00,010125,4742.1604572,N,01618.1005306,E,1,40,0.825,708.1108,M*34
$GPGFA,204542.00,4.085,5.112,0.430,0.329,350.956,0.623,,VVV*0C
$GPLLK,204542.00,010125,,M,,M,1,40,0.8,,M*02
$GNGMP,204542.00,,,,,DAAA,40,0.4,,,,*53
$GPGMP,204542.00,,,,,,10,,,,2.0,136*7F
$GLGMP,204542.00,,,,,,09,,,,,*73
$GAGMP,204542.00,,,,,,09,,,,,*7E
$GBGMP,204542.00,,,,,,12,,,,,*77
$PSSN,SNC,[0,333960000,2347]*48
$GPZDA,204547.00,01,01,2025,,*63
$GPDTM,W84,,00.0000000,N,00.0000000,E,00.0000000,W84*5F
$PSSN,TFM,204547.00,,,,*6F
$GPRMC,204547.00,A,4742.1604563,N,01618.1005320,E,0.0,,010125,5.1,E,D*10
$GPGLL,4742.1604563,N,01618.1005320,E,204547.00,A,D*61
$GPGGA,204547.00,4742.1604563,N,01618.1005320,E,2,40,0.4,708.1104,M,43.2066,M,1.8,0136*4F
$GNGNS,204547.00,4742.1604563,N,01618.1005320,E,DAAA,40,0.4,708.1104,43.2066,,*5E
$GPGNS,204547.00,,,,,,10,,,,1.8,136*71
$GLGNS,204547.00,,,,,,09,,,,,*76
$GAGNS,204547.00,,,,,,09,,,,,*7B
$GBGNS,204547.00,,,,,,12,,,,,*72
$GPLLQ,204547.00,010125,,M,,M,1,40,0.812,,M*1E
$GPVTG,,T,,M,0.00,N,0.01,K,D*27
$GPHDT,,T*1B
$GPTHS,,V*0E
$GPROT,,V*08
$PSSN,HRP,204547.00,010125,,,,,,,00,0,,*61
$PTNL,AVR,204547.00,,Yaw,,Tilt,,,,0,,00*37
$GPGSA,A,3,02,08,10,15,16,18,21,23,27,32,,,0.7,0.4,0.6*30
$GPGSA,A,3,67,68,69,73,74,75,82,83,84,,,,0.7,0.4,0.6*3F
$GPGSA,A,3,03,07,08,13,15,21,26,31,33,,,,0.7,0.4,0.6*38
$GPGSA,A,3,05,08,13,14,27,28,33,37,38,42,43,60,0.7,0.4,0.6*3A
$GPGST,204547.00,2.195,0.423,0.324,350.266,0.420,0.327,0.613*58
$GPGBS,204547.00,2.952,1.800,3.345,67,0.0001,5.705,6.146*59
$GPGRS,204547.00,1,0.5,-0.2,-0.1,-0.1,0.1,-0.4,-0.0,0.4,-0.2,-0.4,,*63
$GPGRS,204547.00,1,5.7,5.1,-1.0,4.7,-5.4,-3.3,-1.5,-3.1,-2.8,,,*69
$GPGRS,204547.00,1,0.9,-1.4,0.2,-0.1,-2.3,-0.2,-0.3,0.1,0.4,,,*47
$GPGRS,204547.00,1,0.6,-1.1,1.0,0.8,-0.5,-0.5,-0.6,-0.8,-1.3,-0.6,0.3,-1.6*4F
$GPGSV,6,1,21,27,84,181,50,18,12,076,40,32,12,141,41,21,28,271,40*7C
$GPGSV,6,2,21,16,29,198,43,23,42,053,46,08,55,300,48,10,72,124,51*76
$GPGSV,6,3,21,26,05,184,33,02,10,268,39,30,00,321,35,15,07,030,37*77
$GPGSV,6,4,21,36,35,170,44,58,13,245,37,57,11,108,37,34,31,208,41*70
$GPGSV,6,5,21,40,24,132,36,49,34,195,43,41,07,108,33,61,03,257,37*75
$GPGSV,6,6,21*7A
$GLGSV,3,1,09,83,54,056,40,75,19,332,44,82,18,086,44,69,15,161,43*6C
$GLGSV,3,2,09,73,17,229,45,74,33,275,43,67,35,045,49,84,42,301,40*64
$GLGSV,3,3,09,68,45,113,50*55
$GAGSV,3,1,10,26,64,278,48,21,30,198,43,31,20,319,39,03,14,038,38*6C
$GAGSV,3,2,10,33,16,260,39,08,23,089,41,23,48,265,,13,55,060,46*66
$GAGSV,3,3,10,07,10,139,37,15,05,073,35*63
$GBGSV,6,1,22,28,83,015,51,60,11,108,40,50,10,034,,05,23,128,37*6E
$GBGSV,6,2,22,37,11,231,41,46,20,283,,41,21,174,,31,19,061,*6E
$GBGSV,6,3,22,43,25,104,43,08,20,040,37,58,29,276,,13,28,044,42*6D
$GBGSV,6,4,22,57,25,232,,27,41,292,47,42,30,050,45,30,40,286,*6F
$GBGSV,6,5,22,33,50,121,49,14,46,078,46,02,08,105,34,36,07,331,*62
$GBGSV,6,6,22,38,06,042,38,11,04,102,38*67
$GPGGA,204547.00,,,,,0,00,,,M,,M,,*48
$PTNL,GGK,204547.00,010125,4742.1604563,N,01618.1005320,E,1,40,0.7,EHT751.3169,M*4A
$GPGGQ,204547.00,010125,4742.1604563,N,01618.1005320,E,1,40,0.812,708.1104,M*3D
$GPGFA,204547.00,4.022,5.029,0.423,0.324,350.266,0.613,,VVV*09
$GPLLK,204547.00,010125,,M,,M,1,40,0.8,,M*07
$GNGMP,204547.00,,,,,DAAA,40,0.4,,,,*56
$GPGMP,204547.00,,,,,,10,,,,1.8,136*71
$GLGMP,204547.00,,,,,,09,,,,,*76
$GAGMP,204547.00,,,,,,09,,,,,*7B
$GBGMP,204547.00,,,,,,12,,,,,*72
$PSSN,SNC,[0,333965000,2347]*4D
$GPZDA,204552.00,01,01,2025,,*67
$GPDTM,W84,,00.0000000,N,00.0000000,E,00.0000000,W84*5F
$PSSN,TFM,204552.00,,,,*6B
$GPRMC,204552.00,A,4742.1604564,N,01618.1005331,E,0.0,,010125,5.1,E,D*13
$GPGLL,4742.1604564,N,01618.1005331,E,204552.00,A,D*62
$GPGGA,204552.00,4742.1604564,N,01618.1005331,E,2,40,0.4,708.1105,M,43.2066,M,2.8,0136*4E
$GNGNS,204552.00,4742.1604564,N,01618.1005331,E,DAAA,40,0.4,708.1105,43.2066,,*5C
$GPGNS,204552.00,,,,,,10,,,,2.8,136*76
$GLGNS,204552.00,,,,,,09,,,,,*72
$GAGNS,204552.00,,,,,,09,,,,,*7F
$GBGNS,204552.00,,,,,,12,,,,,*76
$GPLLQ,204552.00,010125,,M,,M,1,40,0.815,,M*1D
$GPVTG,,T,,M,0.00,N,0.00,K,D*26
$GPHDT,,T*1B
$GPTHS,,V*0E
$GPROT,,V*08
$PSSN,HRP,204552.00,010125,,,,,,,00,0,,*65
$PTNL,AVR,204552.00,,Yaw,,Tilt,,,,0,,00*33
$GPGSA,A,3,02,08,10,15,16,18,21,23,27,32,,,0.7,0.4,0.6*30
$GPGSA,A,3,67,68,69,73,74,75,82,83,84,,,,0.7,0.4,0.6*3F
$GPGSA,A,3,03,07,08,13,15,21,26,31,33,,,,0.7,0.4,0.6*38
$GPGSA,A,3,05,08,13,14,27,28,33,37,38,42,43,60,0.7,0.4,0.6*3A
$GPGST,204552.00,2.233,0.425,0.325,352.072,0.423,0.327,0.615*54
$GPGBS,204552.00,2.984,1.820,3.380,67,0.0001,5.521,6.146*59
$GPGRS,204552.00,1,0.2,-0.2,0.1,-0.4,0.2,0.0,0.5,0.2,-0.1,-1.0,,*4A
$GPGRS,204552.00,1,5.5,4.7,-0.2,5.0,-5.1,-3.7,-1.0,-4.2,-3.3,,,*67
$GPGRS,204552.00,1,0.5,-1.1,0.1,-0.1,-2.5,-0.1,-0.3,0.2,0.7,,,*4C
$GPGRS,204552.00,1,0.6,-0.2,0.8,1.3,-0.6,-0.3,-0.6,-0.4,-1.2,-0.5,0.3,-1.5*42
$GPGSV,6,1,21,27,84,181,51,18,12,076,39,32,12,141,40,21,28,271,40*72
$GPGSV,6,2,21,16,29,198,43,23,42,053,46,08,55,300,48,10,72,124,51*76
$GPGSV,6,3,21,26,05,184,32,02,10,268,40,30,00,321,35,15,07,030,38*77
$GPGSV,6,4,21,36,35,170,44,58,13,245,37,57,11,108,37,34,31,208,41*70
$GPGSV,6,5,21,40,24,132,36,49,34,195,43,41,07,108,33,61,03,257,37*75
$GPGSV,6,6,21*7A
$GLGSV,3,1,09,83,54,057,40,75,19,332,44,82,18,086,44,69,15,161,43*6D
$GLGSV,3,2,09,73,17,229,45,74,33,275,44,67,35,045,49,84,42,301,40*63
$GLGSV,3,3,09,68,45,113,50*55
$GAGSV,3,1,10,26,64,278,48,21,30,198,43,31,20,319,40,03,14,038,38*62
$GAGSV,3,2,10,33,16,260,40,08,23,089,41,13,55,060,46,23,48,265,*68
$GAGSV,3,3,10,07,10,139,37,15,05,073,35*63
$GBGSV,6,1,22,28,83,016,51,60,11,108,40,37,11,231,41,05,23,128,37*6F
$GBGSV,6,2,22,08,20,040,37,46,20,283,,41,21,174,,31,19,061,*65
$GBGSV,6,3,22,43,25,104,44,13,28,044,42,58,29,276,,57,25,232,*66
$GBGSV,6,4,22,27,41,292,47,42,30,050,46,30,40,286,,33,50,121,49*60
$GBGSV,6,5,22,14,46,078,46,02,08,105,34,50,10,034,,36,07,331,*6B
$GBGSV,6,6,22,38,06,042,38,11,04,102,38*67
$GPGGA,204552.00,,,,,0,00,,,M,,M,,*4C
$PTNL,GGK,204552.00,010125,4742.1604564,N,01618.1005331,E,1,40,0.7,EHT751.3171,M*40
$GPGGQ,204552.00,010125,4742.1604564,N,01618.1005331,E,1,40,0.815,708.1105,M*38
$GPGFA,204552.00,4.040,5.041,0.425,0.325,352.072,0.615,,VVV*03
$GPLLK,204552.00,010125,,M,,M,1,40,0.8,,M*03
$GNGMP,204552.00,,,,,DAAA,40,0.4,,,,*52
$GPGMP,204552.00,,,,,,10,,,,2.8,136*76
$GLGMP,204552.00,,,,,,09,,,,,*72
$GAGMP,204552.00,,,,,,09,,,,,*7F
$GBGMP,204552.00,,,,,,12,,,,,*76
$PSSN,SNC,[0,333970000,2347]*49
$GPZDA,204557.00,01,01,2025,,*62
$GPDTM,W84,,00.0000000,N,00.0000000,E,00.0000000,W84*5F
$PSSN,TFM,204557.00,,,,*6E
$GPRMC,204557.00,A,4742.1604562,N,01618.1005332,E,0.0,,010125,5.1,E,D*13
$GPGLL,4742.1604562,N,01618.1005332,E,204557.00,A,D*62
$GPGGA,204557.00,4742.1604562,N,01618.1005332,E,2,40,0.4,708.1113,M,43.2066,M,3.4,0136*44
$GNGNS,204557.00,4742.1604562,N,01618.1005332,E,DAAA,40,0.4,708.1113,43.2066,,*5B
$GPGNS,204557.00,,,,,,10,,,,3.4,136*7E
$GLGNS,204557.00,,,,,,09,,,,,*77
$GAGNS,204557.00,,,,,,09,,,,,*7A
$GBGNS,204557.00,,,,,,12,,,,,*73
$GPLLQ,204557.00,010125,,M,,M,1,40,0.824,,M*1A
$GPVTG,,T,,M,0.00,N,0.01,K,D*27
$GPHDT,,T*1B
$GPTHS,,V*0E
$GPROT,,V*08
$PSSN,HRP,204557.00,010125,,,,,,,00,0,,*60
$PTNL,AVR,204557.00,,Yaw,,Tilt,,,,0,,00*36
$GPGSA,A,3,02,08,10,15,16,18,21,23,27,32,,,0.7,0.4,0.6*30
$GPGSA,A,3,67,68,69,73,74,75,82,83,84,,,,0.7,0.4,0.6*3F
$GPGSA,A,3,03,07,08,13,15,21,26,31,33,,,,0.7,0.4,0.6*38
$GPGSA,A,3,05,08,13,14,27,28,33,37,38,42,43,60,0.7,0.4,0.6*3A
$GPGST,204557.00,2.260,0.429,0.330,351.735,0.427,0.332,0.622*5C
$GPGBS,204557.00,2.968,1.848,3.405,67,0.0001,6.036,6.146*5A
$GPGRS,204557.00,1,0.1,-0.1,0.2,-0.6,0.2,-0.3,0.1,0.2,-0.1,-0.5,,*60
$GPGRS,204557.00,1,6.0,4.8,-0.0,5.5,-4.9,-4.1,0.1,-3.5,-3.2,,,*48
$GPGRS,204557.00,1,0.3,-1.2,0.1,0.0,-2.4,-0.1,-0.4,0.0,-0.1,,,*4F
$GPGRS,204557.00,1,0.2,-0.6,0.8,1.2,-0.7,-0.4,-0.4,0.2,-1.0,-0.1,0.4,-1.5*68
$GPGSV,6,1,21,27,84,181,50,18,12,076,39,32,12,141,40,21,28,271,40*73
$GPGSV,6,2,21,16,29,198,44,23,42,053,46,08,55,300,48,10,72,124,52*72
$GPGSV,6,3,21,26,05,184,32,02,10,268,39,30,00,321,34,15,07,030,38*78
$GPGSV,6,4,21,36,35,170,44,58,13,245,37,57,11,108,37,34,31,208,42*73
$GPGSV,6,5,21,40,24,132,36,49,34,195,43,41,07,108,33,61,03,257,37*75
$GPGSV,6,6,21*7A
$GLGSV,3,1,09,83,54,057,41,75,19,332,45,82,18,086,44,69,15,161,44*6A
$GLGSV,3,2,09,73,17,229,46,74,33,275,44,67,35,045,49,84,42,301,40*60
$GLGSV,3,3,09,68,46,113,50*56
$GAGSV,3,1,10,26,64,278,48,21,30,198,43,31,20,319,40,03,14,038,38*62
$GAGSV,3,2,10,33,16,260,40,08,23,089,41,13,55,060,46,23,48,265,*68
$GAGSV,3,3,10,07,10,139,37,15,05,073,36*60
$GBGSV,6,1,22,28,83,016,51,60,11,108,40,37,11,231,42,05,23,128,37*6C
$GBGSV,6,2,22,08,20,040,37,46,20,283,,41,21,174,,31,19,061,*65
$GBGSV,6,3,22,43,25,104,44,13,28,044,42,58,29,276,,57,25,232,*66
$GBGSV,6,4,22,27,41,292,47,42,30,049,45,30,40,286,,33,50,120,49*6A
$GBGSV,6,5,22,14,46,078,46,02,08,105,34,50,10,034,,36,07,331,*6B
$GBGSV,6,6,22,38,06,042,38,11,04,102,38*67
$GPGGA,204557.00,,,,,0,00,,,M,,M,,*49
$PTNL,GGK,204557.00,010125,4742.1604562,N,01618.1005332,E,1,40,0.7,EHT751.3178,M*49
$GPGGQ,204557.00,010125,4742.1604562,N,01618.1005332,E,1,40,0.824,708.1113,M*3D
$GPGFA,204557.00,4.078,5.100,0.429,0.330,351.735,0.622,,VVV*02
$GPLLK,204557.00,010125,,M,,M,1,40,0.8,,M*06
$GNGMP,204557.00,,,,,DAAA,40,0.4,,,,*57
$GPGMP,204557.00,,,,,,10,,,,3.4,136*7E
$GLGMP,204557.00,,,,,,09,,,,,*77
$GAGMP,204557.00,,,,,,09,,,,,*7A
$GBGMP,204557.00,,,,,,12,,,,,*73
$PSSN,SNC,[0,333975000,2347]*4C
$GPZDA,204602.00,01,01,2025,,*61
$GPDTM,W84,,00.0000000,N,00.0000000,E,00.0000000,W84*5F
$PSSN,TFM,204602.00,,,,*6D
$GPRMC,204602.00,A,4742.1604584,N,01618.1005358,E,0.0,,010125,5.1,E,D*14
$GPGLL,4742.1604584,N,01618.1005358,E,204602.00,A,D*65
$GPGGA,204602.00,4742.1604584,N,01618.1005358,E,2,40,0.4,708.1086,M,43.2066,M,2.0,0136*4B
$GNGNS,204602.00,4742.1604584,N,01618.1005358,E,DAAA,40,0.4,708.1086,43.2066,,*51
$GPGNS,204602.00,,,,,,10,,,,2.0,136*78
$GLGNS,204602.00,,,,,,09,,,,,*74
$GAGNS,204602.00,,,,,,09,,,,,*79
$GBGNS,204602.00,,,,,,12,,,,,*70
$GPLLQ,204602.00,010125,,M,,M,1,40,0.827,,M*1A
$GPVTG,,T,,M,0.00,N,0.01,K,D*27
$GPHDT,,T*1B
$GPTHS,,V*0E
$GPROT,,V*08
$PSSN,HRP,204602.00,010125,,,,,,,00,0,,*63
$PTNL,AVR,204602.00,,Yaw,,Tilt,,,,0,,00*35
$GPGSA,A,3,02,08,10,15,16,18,21,23,27,32,,,0.7,0.4,0.6*30
$GPGSA,A,3,67,68,69,73,74,75,82,83,84,,,,0.7,0.4,0.6*3F
$GPGSA,A,3,03,07,08,13,15,21,26,31,33,,,,0.7,0.4,0.6*38
$GPGSA,A,3,05,08,13,14,27,28,33,37,38,42,43,60,0.7,0.4,0.6*3A
$GPGST,204602.00,2.243,0.431,0.330,349.738,0.428,0.334,0.625*5D
$GPGBS,204602.00,3.004,1.900,3.579,67,0.0001,6.045,6.146*58
$GPGRS,204602.00,1,0.3,0.1,-0.1,-1.1,0.3,-0.5,0.3,0.1,-0.3,-0.1,,*64
$GPGRS,204602.00,1,6.0,5.0,-0.2,5.6,-4.8,-3.3,-1.0,-3.6,-3.1,,,*6A
$GPGRS,204602.00,1,0.6,-0.8,0.0,-0.0,-2.1,-0.1,-0.5,-0.3,-0.3,,,*46
$GPGRS,204602.00,1,0.7,0.4,1.1,1.1,-0.2,-0.6,-0.4,0.1,-1.1,-0.3,0.7,-1.5*4E
$GPGSV,6,1,21,27,84,180,50,18,12,076,38,32,12,141,40,21,28,271,40*73
$GPGSV,6,2,21,16,29,198,43,23,42,053,46,08,55,300,48,10,72,124,52*75
$GPGSV,6,3,21,26,05,184,31,02,10,268,40,30,00,321,33,15,07,030,37*7D
$GPGSV,6,4,21,36,35,170,44,58,13,245,37,57,11,108,37,34,31,208,41*70
$GPGSV,6,5,21,40,24,132,36,49,34,195,43,41,07,108,33,61,03,257,37*75
$GPGSV,6,6,21*7A
$GLGSV,3,1,09,83,54,057,41,75,19,331,45,82,18,086,44,69,15,161,43*6E
$GLGSV,3,2,09,73,17,229,46,74,33,275,44,67,35,045,49,84,42,301,40*60
$GLGSV,3,3,09,68,46,113,50*56
$GAGSV,3,1,10,26,64,278,48,21,30,198,43,31,20,319,40,03,14,038,38*62
$GAGSV,3,2,10,33,16,260,40,08,23,089,40,13,55,060,46,23,48,265,*69
$GAGSV,3,3,10,07,10,139,38,15,05,073,36*6F
$GBGSV,6,1,22,28,83,016,50,60,11,108,40,37,11,231,41,05,23,128,37*6E
$GBGSV,6,2,22,08,20,040,37,46,20,283,,41,21,174,,31,19,061,*65
$GBGSV,6,3,22,43,25,104,44,13,28,044,41,58,29,276,,57,26,232,*66
$GBGSV,6,4,22,27,41,292,47,42,30,049,45,30,40,286,,33,50,120,49*6A
$GBGSV,6,5,22,14,46,078,46,02,08,105,34,50,10,034,,36,07,331,*6B
$GBGSV,6,6,22,38,06,042,38,11,04,102,37*68
$GPGGA,204602.00,,,,,0,00,,,M,,M,,*4A
$PTNL,GGK,204602.00,010125,4742.1604584,N,01618.1005358,E,1,40,0.7,EHT751.3152,M*46
$GPGGQ,204602.00,010125,4742.1604584,N,01618.1005358,E,1,40,0.827,708.1086,M*34
$GPGFA,204602.00,4.095,5.122,0.431,0.330,349.738,0.625,,VVV*08
$GPLLK,204602.00,010125,,M,,M,1,40,0.8,,M*05
$GNGMP,204602.00,,,,,DAAA,40,0.4,,,,*54
$GPGMP,204602.00,,,,,,10,,,,2.0,136*78
$GLGMP,204602.00,,,,,,09,,,,,*74
$GAGMP,204602.00,,,,,,09,,,,,*79
$GBGMP,204602.00,,,,,,12,,,,,*70
$PSSN,SNC,[0,333980000,2347]*46
$GPZDA,204607.00,01,01,2025,,*64
$GPDTM,W84,,00.0000000,N,00.0000000,E,00.0000000,W84*5F
$PSSN,TFM,204607.00,,,,*68
$GPRMC,204607.00,A,4742.1604590,N,01618.1005386,E,0.0,,010125,5.1,E,D*17
$GPGLL,4742.1604590,N,01618.1005386,E,204607.00,A,D*66
$GPGGA,204607.00,4742.1604590,N,01618.1005386,E,2,40,0.4,708.1099,M,43.2066,M,1.8,0136*4D
$GNGNS,204607.00,4742.1604590,N,01618.1005386,E,DAAA,40,0.4,708.1099,43.2066,,*5C
$GPGNS,204607.00,,,,,,10,,,,1.8,136*76
$GLGNS,204607.00,,,,,,09,,,,,*71
$GAGNS,204607.00,,,,,,09,,,,,*7C
$GBGNS,204607.00,,,,,,12,,,,,*75
$GPLLQ,204607.00,010125,,M,,M,1,40,0.815,,M*1E
$GPVTG,,T,,M,0.01,N,0.01,K,D*26
$GPHDT,,T*1B
$GPTHS,,V*0E
$GPROT,,V*08
$PSSN,HRP,204607.00,010125,,,,,,,00,0,,*66
$PTNL,AVR,204607.00,,Yaw,,Tilt,,,,0,,00*30
$GPGSA,A,3,02,08,10,15,16,18,21,23,27,32,,,0.7,0.4,0.6*30
$GPGSA,A,3,67,68,69,73,74,75,82,83,84,,,,0.7,0.4,0.6*3F
$GPGSA,A,3,03,07,08,13,15,21,26,31,33,,,,0.7,0.4,0.6*38
$GPGSA,A,3,05,08,13,14,27,28,33,37,38,42,43,60,0.7,0.4,0.6*3A
$GPGST,204607.00,2.182,0.425,0.325,349.017,0.421,0.329,0.615*5B
$GPGBS,204607.00,2.989,1.808,3.334,67,0.0001,5.393,6.146*5D
$GPGRS,204607.00,1,0.6,-0.1,0.0,-1.2,0.1,-0.7,0.1,0.3,-0.1,-0.3,,*66
$GPGRS,204607.00,1,5.4,5.2,-0.7,4.8,-5.3,-3.9,-1.2,-3.7,-2.1,,,*62
$GPGRS,204607.00,1,0.4,-0.8,0.1,-0.1,-1.9,-0.3,-0.4,-0.2,-0.1,,,*4A
$GPGRS,204607.00,1,0.5,0.8,0.8,0.7,-0.5,-0.7,-0.4,-0.3,-0.8,-0.3,0.6,-1.5*6A
$GPGSV,6,1,21,27,84,180,51,18,12,076,38,32,12,141,40,21,29,271,40*73
$GPGSV,6,2,21,16,29,198,43,23,42,053,46,08,55,300,48,10,73,123,52*73
$GPGSV,6,3,21,26,05,184,32,02,10,268,39,30,00,321,33,15,07,030,37*70
$GPGSV,6,4,21,36,35,170,44,58,13,245,37,57,11,108,37,34,31,208,41*70
$GPGSV,6,5,21,40,24,132,36,49,34,195,43,41,07,108,34,61,03,257,37*72
$GPGSV,6,6,21*7A
$GLGSV,3,1,09,83,54,057,41,75,19,331,44,82,18,086,43,69,15,161,43*68
$GLGSV,3,2,09,73,17,229,46,74,33,275,43,67,35,045,49,84,42,301,40*67
$GLGSV,3,3,09,68,46,113,51*57
$GAGSV,3,1,10,26,64,278,48,21,30,198,43,31,20,319,40,03,14,038,37*6D
$GAGSV,3,2,10,33,16,260,40,08,23,089,41,13,55,060,46,23,48,265,*68
$GAGSV,3,3,10,07,10,139,38,15,05,073,36*6F
$GBGSV,6,1,22,28,83,017,50,60,11,108,40,37,11,231,41,05,23,128,37*6F
$GBGSV,6,2,22,08,20,040,38,46,20,283,,41,21,174,,31,19,061,*6A
$GBGSV,6,3,22,43,25,104,44,13,28,044,42,58,29,276,,57,26,232,*65
$GBGSV,6,4,22,27,41,292,47,42,30,049,45,30,40,286,,33,50,120,49*6A
$GBGSV,6,5,22,14,46,078,46,02,08,105,34,50,10,034,,36,07,331,*6B
$GBGSV,6,6,22,38,06,042,38,11,04,102,38*67
$GPGGA,204607.00,,,,,0,00,,,M,,M,,*4F
$PTNL,GGK,204607.00,010125,4742.1604590,N,01618.1005386,E,1,40,0.7,EHT751.3165,M*41
$GPGGQ,204607.00,010125,4742.1604590,N,01618.1005386,E,1,40,0.815,708.1099,M*38
$GPGFA,204607.00,4.036,5.043,0.425,0.325,349.017,0.615,,VVV*0A
$GPLLK,204607.00,010125,,M,,M,1,40,0.8,,M*00
$GNGMP,204607.00,,,,,DAAA,40,0.4,,,,*51
$GPGMP,204607.00,,,,,,10,,,,1.8,136*76
$GLGMP,204607.00,,,,,,09,,,,,*71
$GAGMP,204607.00,,,,,,09,,,,,*7C
$GBGMP,204607.00,,,,,,12,,,,,*75
$PSSN,SNC,[0,333985000,2347]*43
$GPZDA,204612.00,01,01,2025,,*60
$GPDTM,W84,,00.0000000,N,00.0000000,E,00.0000000,W84*5F
$PSSN,TFM,204612.00,,,,*6C
$GPRMC,204612.00,A,4742.1604628,N,01618.1005403,E,0.0,,010125,5.1,E,D*19
$GPGLL,4742.1604628,N,01618.1005403,E,204612.00,A,D*68
$GPGGA,204612.00,4742.1604628,N,01618.1005403,E,2,40,0.4,708.1090,M,43.2066,M,2.8,0136*49
$GNGNS,204612.00,4742.1604628,N,01618.1005403,E,DAAA,40,0.4,708.1090,43.2066,,*5B
$GPGNS,204612.00,,,,,,10,,,,2.8,136*71
$GLGNS,204612.00,,,,,,09,,,,,*75
$GAGNS,204612.00,,,,,,09,,,,,*78
$GBGNS,204612.00,,,,,,12,,,,,*71
$GPLLQ,204612.00,010125,,M,,M,1,40,0.817,,M*18
$GPVTG,,T,,M,0.00,N,0.01,K,D*27
$GPHDT,,T*1B
$GPTHS,,V*0E
$GPROT,,V*08
$PSSN,HRP,204612.00,010125,,,,,,,00,0,,*62
$PTNL,AVR,204612.00,,Yaw,,Tilt,,,,0,,00*34
$GPGSA,A,3,02,08,10,15,16,18,21,23,27,32,,,0.7,0.4,0.6*30
$GPGSA,A,3,67,68,69,73,74,75,82,83,84,,,,0.7,0.4,0.6*3F
$GPGSA,A,3,03,07,08,13,15,21,26,31,33,,,,0.7,0.4,0.6*38
$GPGSA,A,3,05,08,13,14,27,28,33,37,38,42,43,60,0.7,0.4,0.6*3A
$GPGST,204612.00,2.258,0.426,0.326,350.756,0.424,0.329,0.617*56
$GPGBS,204612.00,3.023,1.829,3.370,67,0.0001,5.969,6.146*5D
$GPGRS,204612.00,1,0.3,-0.2,-0.2,-1.1,0.5,-0.3,-0.3,0.3,0.0,0.1,,*64
$GPGRS,204612.00,1,6.0,5.5,-0.1,4.3,-5.3,-4.0,-1.4,-4.0,-2.6,,,*64
$GPGRS,204612.00,1,0.6,-1.0,0.2,0.1,-2.2,-0.2,-0.4,0.1,-0.4,,,*49
$GPGRS,204612.00,1,-0.0,1.5,1.2,0.7,-0.3,-0.4,-0.3,-0.1,-0.9,-0.2,0.4,-1.5*43
$GPGSV,6,1,21,27,84,180,51,18,12,076,39,32,12,141,41,21,29,271,40*73
$GPGSV,6,2,21,16,29,198,44,23,42,053,46,08,55,300,48,10,73,123,52*74
$GPGSV,6,3,21,26,05,184,30,02,10,268,38,30,00,321,34,15,07,030,37*74
$GPGSV,6,4,21,36,35,170,44,58,13,245,37,57,11,108,37,34,31,208,41*70
$GPGSV,6,5,21,40,24,132,36,49,34,195,43,41,07,108,33,61,03,257,37*75
$GPGSV,6,6,21*7A
$GLGSV,3,1,09,83,54,057,40,75,19,331,44,82,18,086,44,69,15,161,43*6E
$GLGSV,3,2,09,73,16,229,45,74,33,275,44,67,35,045,50,84,42,301,40*6A
$GLGSV,3,3,09,68,46,113,51*57
$GAGSV,3,1,10,26,64,278,48,21,30,198,43,31,20,319,40,03,14,038,37*6D
$GAGSV,3,2,10,33,16,260,40,08,23,089,41,13,55,060,46,23,48,265,*68
$GAGSV,3,3,10,07,10,139,38,15,05,073,36*6F
$GBGSV,6,1,22,28,83,017,51,60,11,108,40,37,11,231,40,05,23,128,37*6F
$GBGSV,6,2,22,08,20,040,38,41,21,174,,46,20,283,,31,19,061,*6A
$GBGSV,6,3,22,43,25,104,44,13,28,044,42,58,29,276,,57,26,232,*65
$GBGSV,6,4,22,27,41,292,47,42,30,049,45,30,40,286,,33,50,120,49*6A
$GBGSV,6,5,22,14,46,078,46,02,08,105,34,50,10,034,,36,07,331,*6B
$GBGSV,6,6,22,38,06,042,38,11,04,102,38*67
$GPGGA,204612.00,,,,,0,00,,,M,,M,,*4B
$PTNL,GGK,204612.00,010125,4742.1604628,N,01618.1005403,E,1,40,0.7,EHT751.3155,M*4C
$GPGGQ,204612.00,010125,4742.1604628,N,01618.1005403,E,1,40,0.817,708.1090,M*3D
$GPGFA,204612.00,4.052,5.056,0.426,0.326,350.756,0.617,,VVV*00
$GPLLK,204612.00,010125,,M,,M,1,40,0.8,,M*04
$GNGMP,204612.00,,,,,DAAA,40,0.4,,,,*55
$GPGMP,204612.00,,,,,,10,,,,2.8,136*71
$GLGMP,204612.00,,,,,,09,,,,,*75
$GAGMP,204612.00,,,,,,09,,,,,*78
$GBGMP,204612.00,,,,,,12,,,,,*71
$PSSN,SNC,[0,333990000,2347]*47
$GPZDA,204617.00,01,01,2025,,*65
$GPDTM,W84,,00.0000000,N,00.0000000,E,00.0000000,W84*5F
$PSSN,TFM,204617.00,,,,*69
$GPRMC,204617.00,A,4742.1604646,N,01618.1005389,E,0.0,,010125,5.1,E,D*11
$GPGLL,4742.1604646,N,01618.1005389,E,204617.00,A,D*60
$GPGGA,204617.00,4742.1604646,N,01618.1005389,E,2,39,0.4,708.1108,M,43.2066,M,3.4,0136*42
$GNGNS,204617.00,4742.1604646,N,01618.1005389,E,DAAA,39,0.4,708.1108,43.2066,,*5D
$GPGNS,204617.00,,,,,,10,,,,3.4,136*79
$GLGNS,204617.00,,,,,,09,,,,,*70
$GAGNS,204617.00,,,,,,08,,,,,*7C
$GBGNS,204617.00,,,,,,12,,,,,*74
$GPLLQ,204617.00,010125,,M,,M,1,39,0.829,,M*1E
$GPVTG,,T,,M,0.00,N,0.00,K,D*26
$GPHDT,,T*1B
$GPTHS,,V*0E
$GPROT,,V*08
$PSSN,HRP,204617.00,010125,,,,,,,00,0,,*67
$PTNL,AVR,204617.00,,Yaw,,Tilt,,,,0,,00*31
$GPGSA,A,3,02,08,10,15,16,18,21,23,27,32,,,0.7,0.4,0.6*30
$GPGSA,A,3,67,68,69,73,74,75,82,83,84,,,,0.7,0.4,0.6*3F
$GPGSA,A,3,03,07,08,13,21,26,31,33,,,,,0.7,0.4,0.6*3C
$GPGSA,A,3,05,08,13,14,27,28,33,37,38,42,43,60,0.7,0.4,0.6*3A
$GPGST,204617.00,2.291,0.432,0.331,350.962,0.430,0.334,0.625*54
$GPGBS,204617.00,3.018,1.853,3.410,67,0.0001,6.005,6.147*5D
$GPGRS,204617.00,1,0.7,-0.3,-0.0,-0.6,0.5,-0.2,0.1,0.5,-0.2,-0.6,,*4D
$GPGRS,204617.00,1,6.0,5.3,-0.0,4.8,-5.2,-3.3,-1.2,-4.4,-2.8,,,*64
$GPGRS,204617.00,1,0.9,-1.1,0.5,0.1,-0.1,-0.3,0.0,-0.6,,,,*41
$GPGRS,204617.00,1,0.2,1.6,1.4,0.3,-0.1,-0.2,-0.3,-0.1,-1.1,-0.4,0.4,-1.5*63
$GPGSV,6,1,21,27,84,180,50,18,12,076,39,32,12,141,40,21,29,271,40*73
$GPGSV,6,2,21,16,29,198,44,23,42,053,46,08,55,300,48,10,73,123,52*74
$GPGSV,6,3,21,26,05,184,30,02,10,268,39,30,00,321,35,15,07,030,37*74
$GPGSV,6,4,21,36,35,170,44,58,13,245,37,57,11,108,37,34,31,208,42*73
$GPGSV,6,5,21,40,24,132,36,49,34,195,43,41,07,108,33,61,03,257,37*75
$GPGSV,6,6,21*7A
$GLGSV,3,1,09,83,54,057,40,75,19,331,45,82,18,086,44,69,15,161,43*6F
$GLGSV,3,2,09,73,16,229,46,74,33,275,43,67,35,044,49,84,42,301,40*67
$GLGSV,3,3,09,68,46,113,50*56
$GAGSV,3,1,10,26,64,278,48,21,30,198,43,31,20,319,40,03,14,038,38*62
$GAGSV,3,2,10,33,16,260,40,08,24,089,41,13,55,060,46,23,48,265,*6F
$GAGSV,3,3,10,07,10,139,38,15,05,073,36*6F
$GBGSV,6,1,22,28,83,017,51,60,11,108,40,37,11,231,40,05,23,128,37*6F
$GBGSV,6,2,22,08,20,040,38,41,21,174,,46,20,283,,31,19,061,*6A
$GBGSV,6,3,22,43,25,104,44,13,28,044,42,58,28,276,,57,26,232,*64
$GBGSV,6,4,22,27,41,292,47,42,30,049,45,30,40,286,,33,50,120,50*62
$GBGSV,6,5,22,14,46,078,46,02,08,105,34,50,10,033,,36,07,331,*6C
$GBGSV,6,6,22,38,06,042,38,11,04,102,39*66
$GPGGA,204617.00,,,,,0,00,,,M,,M,,*4E
$PTNL,GGK,204617.00,010125,4742.1604646,N,01618.1005389,E,1,39,0.7,EHT751.3174,M*49
$GPGGQ,204617.00,010125,4742.1604646,N,01618.1005389,E,1,39,0.829,708.1108,M*36
$GPGFA,204617.00,4.106,5.128,0.432,0.331,350.962,0.625,,VVV*06
$GPLLK,204617.00,010125,,M,,M,1,39,0.8,,M*0F
$GNGMP,204617.00,,,,,DAAA,39,0.4,,,,*5E
$GPGMP,204617.00,,,,,,10,,,,3.4,136*79
$GLGMP,204617.00,,,,,,09,,,,,*70
$GAGMP,204617.00,,,,,,08,,,,,*7C
$GBGMP,204617.00,,,,,,12,,,,,*74
$PSSN,SNC,[0,333995000,2347]*42
$GPZDA,204622.00,01,01,2025,,*63
