$GPZDA,121442.00,01,01,2025,,*63
$GPDTM,W84,,00.0000000,N,00.0000000,E,00.0000000,W84*5F
$PSSN,TFM,121442.00,,,,*6F
$GPRMC,121442.00,A,4742.1598949,N,01618.1005693,E,0.0,,010125,5.1,E,D*1F
$GPGLL,4742.1598949,N,01618.1005693,E,121442.00,A,D*6E
$GPGGA,121442.00,4742.1598949,N,01618.1005693,E,2,41,0.4,707.4319,M,43.2066,M,2.8,0136*46
$GNGNS,121442.00,4742.1598949,N,01618.1005693,E,DAAA,41,0.4,707.4319,43.2066,,*54
$GPGNS,121442.00,,,,,,09,,,,2.8,136*7A
$GLGNS,121442.00,,,,,,09,,,,,*76
$GAGNS,121442.00,,,,,,10,,,,,*73
$GBGNS,121442.00,,,,,,13,,,,,*73
$GPLLQ,121442.00,010125,,M,,M,1,41,0.943,,M*1A
$GPVTG,,T,,M,0.00,N,0.00,K,D*26
$GPHDT,,T*1B
$GPTHS,,V*0E
$GPROT,,V*08
$PSSN,HRP,121442.00,010125,,,,,,,00,0,,*61
$PTNL,AVR,121442.00,,Yaw,,Tilt,,,,0,,00*37
$GPGSA,A,3,06,10,12,15,17,19,24,25,32,,,,0.7,0.4,0.6*39
$GPGSA,A,3,67,68,69,76,77,78,85,86,87,,,,0.7,0.4,0.6*35
$GPGSA,A,3,02,07,08,10,11,25,27,29,30,36,,,0.7,0.4,0.6*34
$GPGSA,A,3,05,07,10,12,14,24,26,33,35,40,41,42,0.7,0.4,0.6*31
$GPGSA,A,3,60,,,,,,,,,,,,0.7,0.4,0.6*31
$GPGST,121442.00,2.304,0.520,0.353,347.393,0.513,0.363,0.703*5C
$GPGBS,121442.00,4.034,2.043,4.060,67,0.0001,6.636,6.143*5E
$GPGRS,121442.00,1,-0.0,-1.1,-0.1,0.6,-0.3,-0.0,-0.0,0.4,0.4,,,*64
$GPGRS,121442.00,1,6.6,5.7,-2.3,-2.3,-6.4,-2.9,1.5,1.3,-2.8,,,*4A
$GPGRS,121442.00,1,0.3,0.4,0.8,-2.4,-0.6,0.2,-1.0,0.7,0.4,0.6,,*6A
$GPGRS,121442.00,1,1.4,1.0,1.2,-1.7,2.3,-0.2,-0.5,-0.3,-1.4,-2.7,-0.0,-0.4*4E
$GPGRS,121442.00,1,-0.1,,,,,,,,,,,*4C
$GPGSV,5,1,20,24,77,147,50,17,17,042,41,06,18,097,40,15,14,189,41*7C
$GPGSV,5,2,20,32,21,317,43,25,26,259,43,19,43,061,46,12,68,266,50*76
$GPGSV,5,3,20,11,06,131,,10,05,284,38,22,10,068,,36,35,170,46*71
$GPGSV,5,4,20,58,13,245,37,40,23,133,37,34,31,208,43,49,34,195,45*7C
$GPGSV,5,5,20,57,08,111,39,41,07,108,35,61,03,257,39*49
$GLGSV,3,1,10,77,68,013,47,78,28,286,49,76,32,074,48,87,32,124,46*69
$GLGSV,3,2,10,67,34,240,49,68,36,304,50,86,37,063,49,85,08,014,42*65
$GLGSV,3,3,10,66,03,198,35,69,07,346,43*6F
$GAGSV,3,1,11,30,63,261,49,29,16,321,40,11,15,044,36,27,12,252,40*6A
$GAGSV,3,2,11,08,37,193,45,36,17,093,40,07,52,271,47,02,59,060,48*61
$GAGSV,3,3,11,10,06,019,35,34,01,139,,25,08,068,37*59
$GBGSV,5,1,19,24,71,301,52,40,12,040,39,12,15,168,38,23,16,273,*68
$GBGSV,5,2,19,07,17,052,39,41,19,312,43,14,19,232,42,05,20,130,39*65
$GBGSV,5,3,19,33,26,259,45,44,33,151,,10,29,057,41,56,36,055,*60
$GBGSV,5,4,19,35,43,089,48,26,52,090,49,25,69,294,,42,07,209,39*6E
$GBGSV,5,5,19,02,04,109,32,31,02,100,,60,08,111,40*56
$GPGGA,121442.00,,,,,0,00,,,M,,M,,*48
$PTNL,GGK,121442.00,010125,4742.1598949,N,01618.1005693,E,1,41,0.7,EHT750.6384,M*41
$GPGGQ,121442.00,010125,4742.1598949,N,01618.1005693,E,1,41,0.943,707.4319,M*32
$GPGFA,121442.00,4.945,5.763,0.520,0.353,347.393,0.703,,VVV*07
$GPLLK,121442.00,010125,,M,,M,1,41,0.8,,M*06
$GNGMP,121442.00,,,,,DAAA,41,0.4,,,,*57
$GPGMP,121442.00,,,,,,09,,,,2.8,136*7A
$GLGMP,121442.00,,,,,,09,,,,,*76
$GAGMP,121442.00,,,,,,10,,,,,*73
$GBGMP,121442.00,,,,,,13,,,,,*73
$PSSN,SNC,[0,303300000,2347]*47
$GPZDA,121447.00,01,01,2025,,*66
$GPDTM,W84,,00.0000000,N,00.0000000,E,00.0000000,W84*5F
$PSSN,TFM,121447.00,,,,*6A
$GPRMC,121447.00,A,4742.1598967,N,01618.1005695,E,0.0,,010125,5.1,E,D*10
$GPGLL,4742.1598967,N,01618.1005695,E,121447.00,A,D*61
$GPGGA,121447.00,4742.1598967,N,01618.1005695,E,2,41,0.4,707.4318,M,43.2066,M,2.4,0136*44
$GNGNS,121447.00,4742.1598967,N,01618.1005695,E,DAAA,41,0.4,707.4318,43.2066,,*5A
$GPGNS,121447.00,,,,,,09,,,,2.4,136*73
$GLGNS,121447.00,,,,,,09,,,,,*73
$GAGNS,121447.00,,,,,,10,,,,,*76
$GBGNS,121447.00,,,,,,13,,,,,*76
$GPLLQ,121447.00,010125,,M,,M,1,41,0.948,,M*14
$GPVTG,,T,,M,0.00,N,0.01,K,D*27
$GPHDT,,T*1B
$GPTHS,,V*0E
$GPROT,,V*08
$PSSN,HRP,121447.00,010125,,,,,,,00,0,,*64
$PTNL,AVR,121447.00,,Yaw,,Tilt,,,,0,,00*32
$GPGSA,A,3,06,10,12,15,17,19,24,25,32,,,,0.7,0.4,0.6*39
$GPGSA,A,3,67,68,69,76,77,78,85,86,87,,,,0.7,0.4,0.6*35
$GPGSA,A,3,02,07,08,10,11,25,27,29,30,36,,,0.7,0.4,0.6*34
$GPGSA,A,3,05,07,10,12,14,24,26,33,35,40,41,42,0.7,0.4,0.6*31
$GPGSA,A,3,60,,,,,,,,,,,,0.7,0.4,0.6*31
$GPGST,121447.00,2.375,0.524,0.355,347.778,0.518,0.364,0.706*55
$GPGBS,121447.00,4.047,2.049,3.843,67,0.0001,6.947,6.143*52
$GPGRS,121447.00,1,-0.1,-1.1,-0.1,0.5,-0.3,-0.0,0.1,-0.0,0.8,,,*6A
$GPGRS,121447.00,1,6.9,6.4,-1.7,-2.8,-6.4,-2.7,1.6,1.7,-2.3,,,*4E
$GPGRS,121447.00,1,0.1,0.2,0.7,-2.4,-0.1,-0.1,-1.2,0.4,0.3,0.5,,*48
$GPGRS,121447.00,1,1.8,1.1,1.0,-1.3,1.7,-0.3,-0.5,0.1,-1.4,-3.2,0.2,-0.1*47
$GPGRS,121447.00,1,-0.2,,,,,,,,,,,*4A
$GPGSV,5,1,20,24,77,147,50,17,17,042,41,06,18,097,40,15,14,189,41*7C
$GPGSV,5,2,20,32,21,317,43,25,26,259,43,19,43,061,46,12,68,266,50*76
$GPGSV,5,3,20,11,06,131,,10,05,284,39,22,10,068,,36,35,170,46*70
$GPGSV,5,4,20,58,13,245,37,40,23,133,37,34,31,208,43,49,34,195,45*7C
$GPGSV,5,5,20,57,08,111,39,41,07,108,36,61,03,257,39*4A
$GLGSV,3,1,10,77,68,013,47,78,28,286,49,76,32,074,48,87,32,123,46*6E
$GLGSV,3,2,10,67,34,240,49,68,36,304,50,86,37,063,49,85,08,014,43*64
$GLGSV,3,3,10,66,03,198,35,69,07,346,44*68
$GAGSV,3,1,11,30,63,261,49,29,16,321,39,11,15,044,36,27,12,252,39*6A
$GAGSV,3,2,11,08,37,193,45,36,17,093,40,07,52,271,47,02,59,060,48*61
$GAGSV,3,3,11,10,06,019,36,34,02,139,,25,08,068,36*58
$GBGSV,5,1,19,24,71,302,52,40,12,040,40,12,15,168,38,23,16,273,*65
$GBGSV,5,2,19,07,17,052,39,41,19,312,43,14,19,232,41,05,20,130,38*67
$GBGSV,5,3,19,33,26,259,45,44,33,151,,10,29,057,41,56,36,055,*60
$GBGSV,5,4,19,35,43,089,48,26,52,090,49,25,69,294,,42,07,209,40*60
$GBGSV,5,5,19,02,04,109,32,31,02,100,,60,08,111,40*56
$GPGGA,121447.00,,,,,0,00,,,M,,M,,*4D
$PTNL,GGK,121447.00,010125,4742.1598967,N,01618.1005695,E,1,41,0.7,EHT750.6384,M*4E
$GPGGQ,121447.00,010125,4742.1598967,N,01618.1005695,E,1,41,0.948,707.4318,M*37
$GPGFA,121447.00,4.984,5.791,0.524,0.355,347.778,0.706,,VVV*04
$GPLLK,121447.00,010125,,M,,M,1,41,0.8,,M*03
$GNGMP,121447.00,,,,,DAAA,41,0.4,,,,*52
$GPGMP,121447.00,,,,,,09,,,,2.4,136*73
$GLGMP,121447.00,,,,,,09,,,,,*73
$GAGMP,121447.00,,,,,,10,,,,,*76
$GBGMP,121447.00,,,,,,13,,,,,*76
$PSSN,SNC,[0,303305000,2347]*42
$GPZDA,121452.00,01,01,2025,,*62
$GPDTM,W84,,00.0000000,N,00.0000000,E,00.0000000,W84*5F
$PSSN,TFM,121452.00,,,,*6E
$GPRMC,121452.00,A,4742.1598966,N,01618.1005729,E,0.0,,010125,5.1,E,D*13
$GPGLL,4742.1598966,N,01618.1005729,E,121452.00,A,D*62
$GPGGA,121452.00,4742.1598966,N,01618.1005729,E,2,41,0.4,707.4326,M,43.2066,M,3.0,0136*4F
$GNGNS,121452.00,4742.1598966,N,01618.1005729,E,DAAA,41,0.4,707.4326,43.2066,,*54
$GPGNS,121452.00,,,,,,09,,,,3.0,136*72
$GLGNS,121452.00,,,,,,09,,,,,*77
$GAGNS,121452.00,,,,,,10,,,,,*72
$GBGNS,121452.00,,,,,,13,,,,,*72
$GPLLQ,121452.00,010125,,M,,M,1,41,0.949,,M*11
$GPVTG,,T,,M,0.00,N,0.01,K,D*27
$GPHDT,,T*1B
$GPTHS,,V*0E
$GPROT,,V*08
$PSSN,HRP,121452.00,010125,,,,,,,00,0,,*60
$PTNL,AVR,121452.00,,Yaw,,Tilt,,,,0,,00*36
$GPGSA,A,3,06,10,12,15,17,19,24,25,32,,,,0.7,0.4,0.6*39
$GPGSA,A,3,67,68,69,76,77,78,85,86,87,,,,0.7,0.4,0.6*35
$GPGSA,A,3,02,07,08,10,11,25,27,29,30,36,,,0.7,0.4,0.6*34
$GPGSA,A,3,05,07,10,12,14,24,26,33,35,40,41,42,0.7,0.4,0.6*31
$GPGSA,A,3,60,,,,,,,,,,,,0.7,0.4,0.6*31
$GPGST,121452.00,2.339,0.526,0.357,348.592,0.520,0.365,0.706*5A
$GPGBS,121452.00,4.058,2.077,3.903,67,0.0001,7.315,6.143*5C
$GPGRS,121452.00,1,-0.0,-0.8,-0.1,0.2,-0.6,-0.1,0.1,0.1,0.4,,,*44
$GPGRS,121452.00,1,7.3,5.5,-0.8,-2.4,-6.7,-2.8,2.6,1.4,-2.0,,,*4E
$GPGRS,121452.00,1,0.2,0.2,0.8,-2.1,-0.8,-0.1,-1.3,0.7,0.3,0.5,,*4E
$GPGRS,121452.00,1,1.2,0.6,0.7,-1.1,2.2,-0.3,-0.5,0.0,-1.5,-3.0,0.6,-0.4*4E
$GPGRS,121452.00,1,-0.1,,,,,,,,,,,*4D
$GPGSV,5,1,20,24,77,147,50,17,17,042,40,06,18,097,41,15,14,189,40*7D
$GPGSV,5,2,20,32,21,317,43,25,26,259,43,19,43,061,46,12,68,266,50*76
$GPGSV,5,3,20,11,06,131,,10,05,284,38,22,10,068,,36,35,170,46*71
$GPGSV,5,4,20,58,13,245,36,40,23,133,37,34,31,208,43,49,34,195,45*7D
$GPGSV,5,5,20,57,08,111,38,41,07,108,35,61,03,257,38*49
$GLGSV,3,1,10,77,68,014,47,78,28,286,49,76,32,074,48,87,33,123,46*68
$GLGSV,3,2,10,67,34,240,49,68,36,304,50,86,37,063,49,85,08,014,43*64
$GLGSV,3,3,10,66,03,198,34,69,07,346,44*69
$GAGSV,3,1,11,30,63,261,49,29,16,321,40,11,15,044,36,27,12,252,39*64
$GAGSV,3,2,11,08,37,193,45,36,17,093,40,07,52,271,47,02,59,060,48*61
$GAGSV,3,3,11,10,06,019,36,34,02,139,,25,08,068,36*58
$GBGSV,5,1,19,24,71,302,52,40,12,040,40,12,15,168,39,23,16,273,*64
$GBGSV,5,2,19,07,17,052,39,41,19,312,43,14,19,232,41,05,20,130,38*67
$GBGSV,5,3,19,33,26,259,45,44,33,151,,10,29,057,41,56,36,055,*60
$GBGSV,5,4,19,35,43,089,48,26,52,090,50,25,69,294,,42,07,209,40*68
$GBGSV,5,5,19,02,04,109,32,31,02,100,,60,08,111,40*56
$GPGGA,121452.00,,,,,0,00,,,M,,M,,*49
$PTNL,GGK,121452.00,010125,4742.1598966,N,01618.1005729,E,1,41,0.7,EHT750.6391,M*49
$GPGGQ,121452.00,010125,4742.1598966,N,01618.1005729,E,1,41,0.949,707.4326,M*38
$GPGFA,121452.00,4.997,5.787,0.526,0.357,348.592,0.706,,VVV*0C
$GPLLK,121452.00,010125,,M,,M,1,41,0.8,,M*07
$GNGMP,121452.00,,,,,DAAA,41,0.4,,,,*56
$GPGMP,121452.00,,,,,,09,,,,3.0,136*72
$GLGMP,121452.00,,,,,,09,,,,,*77
$GAGMP,121452.00,,,,,,10,,,,,*72
$GBGMP,121452.00,,,,,,13,,,,,*72
$PSSN,SNC,[0,303310000,2347]*46
$GPZDA,121457.00,01,01,2025,,*67
$GPDTM,W84,,00.0000000,N,00.0000000,E,00.0000000,W84*5F
$PSSN,TFM,121457.00,,,,*6B
$GPRMC,121457.00,A,4742.1598995,N,01618.1005715,E,0.0,,010125,5.1,E,D*15
$GPGLL,4742.1598995,N,01618.1005715,E,121457.00,A,D*64
$GPGGA,121457.00,4742.1598995,N,01618.1005715,E,2,41,0.4,707.4324,M,43.2066,M,1.8,0136*41
$GNGNS,121457.00,4742.1598995,N,01618.1005715,E,DAAA,41,0.4,707.4324,43.2066,,*50
$GPGNS,121457.00,,,,,,09,,,,1.8,136*7D
$GLGNS,121457.00,,,,,,09,,,,,*72
$GAGNS,121457.00,,,,,,10,,,,,*77
$GBGNS,121457.00,,,,,,13,,,,,*77
$GPLLQ,121457.00,010125,,M,,M,1,41,0.948,,M*15
$GPVTG,,T,,M,0.01,N,0.01,K,D*26
$GPHDT,,T*1B
$GPTHS,,V*0E
$GPROT,,V*08
$PSSN,HRP,121457.00,010125,,,,,,,00,0,,*65
$PTNL,AVR,121457.00,,Yaw,,Tilt,,,,0,,00*33
$GPGSA,A,3,06,10,12,15,17,19,24,25,32,,,,0.7,0.4,0.6*39
$GPGSA,A,3,67,68,69,76,77,78,85,86,87,,,,0.7,0.4,0.6*35
$GPGSA,A,3,02,07,08,10,11,25,27,29,30,36,,,0.7,0.4,0.6*34
$GPGSA,A,3,05,07,10,12,14,24,26,33,35,40,41,42,0.7,0.4,0.6*31
$GPGSA,A,3,60,,,,,,,,,,,,0.7,0.4,0.6*31
$GPGST,121457.00,2.327,0.523,0.356,348.350,0.517,0.364,0.706*59
$GPGBS,121457.00,4.002,2.018,3.973,77,0.0001,-6.782,6.066*79
$GPGRS,121457.00,1,0.3,-1.0,-0.0,0.3,-0.6,-0.1,0.2,-0.2,0.0,,,*4F
$GPGRS,121457.00,1,6.8,5.8,-1.2,-1.9,-6.8,-2.7,2.6,1.6,-2.7,,,*4C
$GPGRS,121457.00,1,0.4,0.8,0.9,-1.9,-0.6,-0.3,-0.9,1.0,0.3,0.4,,*4D
$GPGRS,121457.00,1,1.2,0.5,0.6,-0.1,2.7,-0.1,-0.2,0.1,-1.3,-2.9,0.3,-0.8*4E
$GPGRS,121457.00,1,-0.0,,,,,,,,,,,*49
$GPGSV,5,1,20,24,77,147,51,17,17,042,40,06,18,097,41,15,14,189,40*7C
$GPGSV,5,2,20,32,21,317,43,25,27,259,43,19,43,061,46,12,68,266,50*77
$GPGSV,5,3,20,11,06,131,,10,05,284,39,22,10,068,,36,35,170,45*73
$GPGSV,5,4,20,58,13,245,36,40,23,133,37,34,31,208,43,49,34,195,45*7D
$GPGSV,5,5,20,57,08,111,38,41,07,108,35,61,03,257,38*49
$GLGSV,3,1,10,77,68,014,47,78,28,286,49,76,32,074,48,87,33,123,46*68
$GLGSV,3,2,10,67,34,240,48,68,36,304,49,86,37,063,49,85,08,014,44*6A
$GLGSV,3,3,10,66,03,198,34,69,07,346,44*69
$GAGSV,3,1,11,30,63,261,49,29,16,321,40,11,15,044,36,27,12,252,39*64
$GAGSV,3,2,11,08,37,193,45,36,17,093,40,07,52,271,47,02,59,060,48*61
$GAGSV,3,3,11,10,06,019,36,34,02,139,,25,08,068,36*58
$GBGSV,5,1,19,24,71,302,52,40,12,040,40,12,15,168,39,23,16,273,*64
$GBGSV,5,2,19,07,17,052,39,41,19,312,43,14,19,232,41,05,20,130,38*67
$GBGSV,5,3,19,33,26,259,45,44,33,151,,10,29,057,41,56,36,055,*60
$GBGSV,5,4,19,35,43,089,48,26,52,090,50,25,69,294,,42,07,209,40*68
$GBGSV,5,5,19,02,04,109,32,31,02,100,,60,08,111,40*56
$GPGGA,121457.00,,,,,0,00,,,M,,M,,*4C
$PTNL,GGK,121457.00,010125,4742.1598995,N,01618.1005715,E,1,41,0.7,EHT750.6390,M*4E
$GPGGQ,121457.00,010125,4742.1598995,N,01618.1005715,E,1,41,0.948,707.4324,M*3D
$GPGFA,121457.00,4.975,5.792,0.523,0.356,348.350,0.706,,VVV*0D
$GPLLK,121457.00,010125,,M,,M,1,41,0.8,,M*02
$GNGMP,121457.00,,,,,DAAA,41,0.4,,,,*53
$GPGMP,121457.00,,,,,,09,,,,1.8,136*7D
$GLGMP,121457.00,,,,,,09,,,,,*72
$GAGMP,121457.00,,,,,,10,,,,,*77
$GBGMP,121457.00,,,,,,13,,,,,*77
$PSSN,SNC,[0,303315000,2347]*43
$GPZDA,121502.00,01,01,2025,,*66
$GPDTM,W84,,00.0000000,N,00.0000000,E,00.0000000,W84*5F
$PSSN,TFM,121502.00,,,,*6A
$GPRMC,121502.00,A,4742.1599023,N,01618.1005704,E,0.0,,010125,5.1,E,D*11
$GPGLL,4742.1599023,N,01618.1005704,E,121502.00,A,D*60
$GPGGA,121502.00,4742.1599023,N,01618.1005704,E,2,41,0.4,707.4311,M,43.2066,M,2.8,0136*40
$GNGNS,121502.00,4742.1599023,N,01618.1005704,E,DAAA,41,0.4,707.4311,43.2066,,*52
$GPGNS,121502.00,,,,,,09,,,,2.8,136*7F
$GLGNS,121502.00,,,,,,09,,,,,*73
$GAGNS,121502.00,,,,,,10,,,,,*76
$GBGNS,121502.00,,,,,,13,,,,,*76
$GPLLQ,121502.00,010125,,M,,M,1,41,0.943,,M*1F
$GPVTG,,T,,M,0.01,N,0.01,K,D*26
$GPHDT,,T*1B
$GPTHS,,V*0E
$GPROT,,V*08
$PSSN,HRP,121502.00,010125,,,,,,,00,0,,*64
$PTNL,AVR,121502.00,,Yaw,,Tilt,,,,0,,00*32
$GPGSA,A,3,06,10,12,15,17,19,24,25,32,,,,0.7,0.4,0.6*39
$GPGSA,A,3,67,68,69,76,77,78,85,86,87,,,,0.7,0.4,0.6*35
$GPGSA,A,3,02,07,08,10,11,25,27,29,30,36,,,0.7,0.4,0.6*34
$GPGSA,A,3,05,07,10,12,14,24,26,33,35,40,41,42,0.7,0.4,0.6*31
$GPGSA,A,3,60,,,,,,,,,,,,0.7,0.4,0.6*31
$GPGST,121502.00,2.347,0.520,0.353,347.546,0.514,0.363,0.703*57
$GPGBS,121502.00,4.030,2.043,4.048,77,0.0001,-6.958,6.066*78
$GPGRS,121502.00,1,0.4,-0.8,-0.2,0.7,-0.4,-0.1,0.2,-0.2,0.3,,,*47
$GPGRS,121502.00,1,6.5,6.4,-1.1,-1.8,-7.0,-2.4,3.0,1.3,-3.0,,,*43
$GPGRS,121502.00,1,0.4,0.4,0.9,-1.9,-0.7,-0.2,-0.8,1.0,0.2,0.6,,*42
$GPGRS,121502.00,1,1.4,1.0,1.1,-0.7,1.8,0.1,-0.3,-0.2,-0.9,-2.8,0.1,-0.5*46
$GPGRS,121502.00,1,-0.0,,,,,,,,,,,*48
$GPGSV,5,1,20,24,77,147,51,17,17,042,41,06,18,097,41,15,14,189,41*7C
$GPGSV,5,2,20,32,21,317,43,25,27,259,43,19,43,061,46,12,68,267,50*76
$GPGSV,5,3,20,11,06,131,,10,05,284,38,22,10,068,,36,35,170,45*72
$GPGSV,5,4,20,58,13,245,36,40,23,133,36,34,31,208,43,49,34,195,45*7C
$GPGSV,5,5,20,57,08,111,38,41,07,108,35,61,03,257,38*49
$GLGSV,3,1,10,77,68,014,47,78,28,286,49,76,32,074,48,87,33,123,46*68
$GLGSV,3,2,10,67,34,240,48,68,36,304,50,86,37,063,49,85,08,014,43*65
$GLGSV,3,3,10,66,03,198,33,69,07,346,44*6E
$GAGSV,3,1,11,30,63,261,49,29,16,321,40,11,15,043,36,27,12,252,39*63
$GAGSV,3,2,11,08,37,193,45,36,17,093,41,07,52,271,47,02,59,060,48*60
$GAGSV,3,3,11,10,06,019,36,34,02,139,,25,08,068,37*59
$GBGSV,5,1,19,24,71,302,52,40,12,040,40,12,15,168,39,23,16,273,*64
$GBGSV,5,2,19,07,17,052,39,41,19,312,43,14,19,232,41,05,20,130,39*66
$GBGSV,5,3,19,33,26,259,45,44,33,151,,10,29,057,41,56,36,055,*60
$GBGSV,5,4,19,35,43,089,48,26,52,090,50,25,69,294,,42,07,209,40*68
$GBGSV,5,5,19,02,04,109,32,31,02,100,,60,08,111,40*56
$GPGGA,121502.00,,,,,0,00,,,M,,M,,*4D
$PTNL,GGK,121502.00,010125,4742.1599023,N,01618.1005704,E,1,41,0.7,EHT750.6377,M*43
$GPGGQ,121502.00,010125,4742.1599023,N,01618.1005704,E,1,41,0.943,707.4311,M*34
$GPGFA,121502.00,4.945,5.767,0.520,0.353,347.546,0.703,,VVV*08
$GPLLK,121502.00,010125,,M,,M,1,41,0.8,,M*03
$GNGMP,121502.00,,,,,DAAA,41,0.4,,,,*52
$GPGMP,121502.00,,,,,,09,,,,2.8,136*7F
$GLGMP,121502.00,,,,,,09,,,,,*73
$GAGMP,121502.00,,,,,,10,,,,,*76
$GBGMP,121502.00,,,,,,13,,,,,*76
$PSSN,SNC,[0,303320000,2347]*45
$GPZDA,121507.00,01,01,2025,,*63
$GPDTM,W84,,00.0000000,N,00.0000000,E,00.0000000,W84*5F
$PSSN,TFM,121507.00,,,,*6F
$GPRMC,121507.00,A,4742.1599050,N,01618.1005706,E,0.0,,010125,5.1,E,D*12
$GPGLL,4742.1599050,N,01618.1005706,E,121507.00,A,D*63
$GPGGA,121507.00,4742.1599050,N,01618.1005706,E,2,41,0.4,707.4333,M,43.2066,M,2.4,0136*4F
$GNGNS,121507.00,4742.1599050,N,01618.1005706,E,DAAA,41,0.4,707.4333,43.2066,,*51
$GPGNS,121507.00,,,,,,09,,,,2.4,136*76
$GLGNS,121507.00,,,,,,09,,,,,*76
$GAGNS,121507.00,,,,,,10,,,,,*73
$GBGNS,121507.00,,,,,,13,,,,,*73
$GPLLQ,121507.00,010125,,M,,M,1,41,0.949,,M*10
$GPVTG,,T,,M,0.00,N,0.01,K,D*27
$GPHDT,,T*1B
$GPTHS,,V*0E
$GPROT,,V*08
$PSSN,HRP,121507.00,010125,,,,,,,00,0,,*61
$PTNL,AVR,121507.00,,Yaw,,Tilt,,,,0,,00*37
$GPGSA,A,3,06,10,12,15,17,19,24,25,32,,,,0.7,0.4,0.6*39
$GPGSA,A,3,67,68,69,76,77,78,85,86,87,,,,0.7,0.4,0.6*35
$GPGSA,A,3,02,07,08,10,11,25,27,29,30,36,,,0.7,0.4,0.6*34
$GPGSA,A,3,05,07,10,12,14,24,26,33,35,40,41,42,0.7,0.4,0.6*31
$GPGSA,A,3,60,,,,,,,,,,,,0.7,0.4,0.6*31
$GPGST,121507.00,2.328,0.524,0.355,347.927,0.518,0.364,0.706*5C
$GPGBS,121507.00,4.043,2.050,3.830,67,0.0001,7.138,6.144*59
$GPGRS,121507.00,1,-0.1,-0.7,-0.2,0.5,-0.5,-0.1,0.1,0.2,0.5,,,*4E
$GPGRS,121507.00,1,7.1,6.3,-0.6,-2.4,-6.7,-2.5,1.7,1.5,-2.0,,,*48
$GPGRS,121507.00,1,0.2,-0.1,0.8,-2.2,-0.5,-0.0,-1.3,0.6,0.2,0.7,,*6C
$GPGRS,121507.00,1,0.9,0.8,1.3,-1.8,1.2,0.0,-0.5,-0.5,-0.9,-3.0,0.1,-0.2*4E
$GPGRS,121507.00,1,-0.2,,,,,,,,,,,*4F
$GPGSV,5,1,20,24,77,147,51,17,17,042,41,06,18,097,41,15,14,189,41*7C
$GPGSV,5,2,20,32,21,317,44,25,27,259,43,19,43,060,46,12,68,267,50*70
$GPGSV,5,3,20,11,06,131,,10,05,284,38,22,10,068,,36,35,170,45*72
$GPGSV,5,4,20,58,13,245,36,40,23,133,36,34,31,208,43,49,34,195,45*7C
$GPGSV,5,5,20,57,08,111,38,41,07,108,35,61,03,257,38*49
$GLGSV,3,1,10,77,68,014,47,78,29,286,49,76,32,074,48,87,33,123,46*69
$GLGSV,3,2,10,67,34,240,49,68,36,304,50,86,37,063,49,85,08,014,43*64
$GLGSV,3,3,10,66,03,198,33,69,07,346,43*69
$GAGSV,3,1,11,30,63,261,49,29,16,321,40,11,15,043,36,27,12,252,39*63
$GAGSV,3,2,11,08,37,193,45,36,17,093,40,07,52,271,47,02,59,060,48*61
$GAGSV,3,3,11,10,06,019,36,34,02,139,,25,08,068,37*59
$GBGSV,5,1,19,24,71,302,52,40,12,040,40,12,15,168,38,23,16,273,*65
$GBGSV,5,2,19,07,17,052,39,41,19,312,43,14,19,232,41,05,20,130,38*67
$GBGSV,5,3,19,33,26,259,45,44,33,151,,10,29,057,41,56,36,055,*60
$GBGSV,5,4,19,35,43,089,48,26,52,090,50,25,70,294,,42,07,209,40*60
$GBGSV,5,5,19,02,04,109,32,31,02,100,,60,08,111,40*56
$GPGGA,121507.00,,,,,0,00,,,M,,M,,*48
$PTNL,GGK,121507.00,010125,4742.1599050,N,01618.1005706,E,1,41,0.7,EHT750.6399,M*40
$GPGGQ,121507.00,010125,4742.1599050,N,01618.1005706,E,1,41,0.949,707.4333,M*3D
$GPGFA,121507.00,4.983,5.792,0.524,0.355,347.927,0.706,,VVV*01
$GPLLK,121507.00,010125,,M,,M,1,41,0.8,,M*06
$GNGMP,121507.00,,,,,DAAA,41,0.4,,,,*57
$GPGMP,121507.00,,,,,,09,,,,2.4,136*76
$GLGMP,121507.00,,,,,,09,,,,,*76
$GAGMP,121507.00,,,,,,10,,,,,*73
$GBGMP,121507.00,,,,,,13,,,,,*73
$PSSN,SNC,[0,303325000,2347]*40
$GPZDA,121512.00,01,01,2025,,*67
$GPDTM,W84,,00.0000000,N,00.0000000,E,00.0000000,W84*5F
$PSSN,TFM,121512.00,,,,*6B
$GPRMC,121512.00,A,4742.1599081,N,01618.1005709,E,0.0,,010125,5.1,E,D*15
$GPGLL,4742.1599081,N,01618.1005709,E,121512.00,A,D*64
$GPGGA,121512.00,4742.1599081,N,01618.1005709,E,2,41,0.4,707.4340,M,43.2066,M,3.0,0136*49
$GNGNS,121512.00,4742.1599081,N,01618.1005709,E,DAAA,41,0.4,707.4340,43.2066,,*52
$GPGNS,121512.00,,,,,,09,,,,3.0,136*77
$GLGNS,121512.00,,,,,,09,,,,,*72
$GAGNS,121512.00,,,,,,10,,,,,*77
$GBGNS,121512.00,,,,,,13,,,,,*77
$GPLLQ,121512.00,010125,,M,,M,1,41,0.947,,M*1A
$GPVTG,,T,,M,0.00,N,0.01,K,D*27
$GPHDT,,T*1B
$GPTHS,,V*0E
$GPROT,,V*08
$PSSN,HRP,121512.00,010125,,,,,,,00,0,,*65
$PTNL,AVR,121512.00,,Yaw,,Tilt,,,,0,,00*33
$GPGSA,A,3,06,10,12,15,17,19,24,25,32,,,,0.7,0.4,0.6*39
$GPGSA,A,3,67,68,69,76,77,78,85,86,87,,,,0.7,0.4,0.6*35
$GPGSA,A,3,02,07,08,10,11,25,27,29,30,36,,,0.7,0.4,0.6*34
$GPGSA,A,3,05,07,10,12,14,24,26,33,35,40,41,42,0.7,0.4,0.6*31
$GPGSA,A,3,60,,,,,,,,,,,,0.7,0.4,0.6*31
$GPGST,121512.00,2.356,0.525,0.355,349.126,0.520,0.362,0.703*5F
$GPGBS,121512.00,4.037,2.090,3.892,67,0.0001,7.067,6.144*51
$GPGRS,121512.00,1,0.2,-1.3,-0.2,0.4,-0.5,0.2,-0.0,0.1,0.2,,,*66
$GPGRS,121512.00,1,7.1,5.6,-1.6,-2.2,-7.0,-2.6,2.4,1.5,-2.7,,,*4F
$GPGRS,121512.00,1,0.6,-0.0,0.9,-2.3,-0.6,0.3,-1.1,1.1,0.4,0.4,,*41
$GPGRS,121512.00,1,1.3,0.3,1.4,-1.4,1.3,-0.0,-0.4,0.2,-0.7,-3.1,0.1,-0.3*48
$GPGRS,121512.00,1,-0.1,,,,,,,,,,,*48
$GPGSV,5,1,20,24,77,147,51,17,17,042,42,06,18,097,41,15,14,189,41*7F
$GPGSV,5,2,20,32,21,317,43,25,27,259,43,19,43,060,46,12,68,267,50*77
$GPGSV,5,3,20,11,07,131,,10,05,284,39,22,10,068,,36,35,170,45*72
$GPGSV,5,4,20,58,13,245,36,40,23,133,37,34,31,208,43,49,34,195,45*7D
$GPGSV,5,5,20,57,08,111,38,41,07,108,35,61,03,257,38*49
$GLGSV,3,1,10,77,68,014,47,78,29,286,49,76,32,074,48,87,33,123,46*69
$GLGSV,3,2,10,67,34,240,48,68,36,304,49,86,37,063,49,85,08,014,44*6A
$GLGSV,3,3,10,66,03,198,33,69,07,346,44*6E
$GAGSV,3,1,11,30,63,261,49,29,16,321,39,11,15,043,36,27,12,252,39*6D
$GAGSV,3,2,11,08,37,193,45,36,17,093,41,07,52,271,47,02,59,060,48*60
$GAGSV,3,3,11,10,06,019,36,34,02,139,,25,08,068,37*59
$GBGSV,5,1,19,24,71,302,52,40,12,040,40,12,15,168,38,23,16,273,*65
$GBGSV,5,2,19,07,17,052,39,41,19,312,43,14,19,232,41,05,20,130,39*66
$GBGSV,5,3,19,33,26,259,46,44,33,151,,10,29,057,41,56,36,055,*63
$GBGSV,5,4,19,35,43,089,48,26,52,090,50,25,70,295,,42,07,209,40*61
$GBGSV,5,5,19,02,04,109,32,31,02,100,,60,08,111,40*56
$GPGGA,121512.00,,,,,0,00,,,M,,M,,*4C
$PTNL,GGK,121512.00,010125,4742.1599081,N,01618.1005709,E,1,41,0.7,EHT750.6406,M*46
$GPGGQ,121512.00,010125,4742.1599081,N,01618.1005709,E,1,41,0.947,707.4340,M*30
$GPGFA,121512.00,4.989,5.768,0.525,0.355,349.126,0.703,,VVV*09
$GPLLK,121512.00,010125,,M,,M,1,41,0.8,,M*02
$GNGMP,121512.00,,,,,DAAA,41,0.4,,,,*53
$GPGMP,121512.00,,,,,,09,,,,3.0,136*77
$GLGMP,121512.00,,,,,,09,,,,,*72
$GAGMP,121512.00,,,,,,10,,,,,*77
$GBGMP,121512.00,,,,,,13,,,,,*77
$PSSN,SNC,[0,303330000,2347]*44
$GPZDA,121517.00,01,01,2025,,*62
$GPDTM,W84,,00.0000000,N,00.0000000,E,00.0000000,W84*5F
$PSSN,TFM,121517.00,,,,*6E
$GPRMC,121517.00,A,4742.1599078,N,01618.1005682,E,0.0,,010125,5.1,E,D*14
$GPGLL,4742.1599078,N,01618.1005682,E,121517.00,A,D*65
$GPGGA,121517.00,4742.1599078,N,01618.1005682,E,2,41,0.4,707.4353,M,43.2066,M,1.8,0136*40
$GNGNS,121517.00,4742.1599078,N,01618.1005682,E,DAAA,41,0.4,707.4353,43.2066,,*51
$GPGNS,121517.00,,,,,,09,,,,1.8,136*78
$GLGNS,121517.00,,,,,,09,,,,,*77
$GAGNS,121517.00,,,,,,10,,,,,*72
$GBGNS,121517.00,,,,,,13,,,,,*72
$GPLLQ,121517.00,010125,,M,,M,1,41,0.945,,M*1D
$GPVTG,,T,,M,0.00,N,0.01,K,D*27
$GPHDT,,T*1B
$GPTHS,,V*0E
$GPROT,,V*08
$PSSN,HRP,121517.00,010125,,,,,,,00,0,,*60
$PTNL,AVR,121517.00,,Yaw,,Tilt,,,,0,,00*36
$GPGSA,A,3,06,10,12,15,17,19,24,25,32,,,,0.7,0.4,0.6*39
$GPGSA,A,3,67,68,69,76,77,78,85,86,87,,,,0.7,0.4,0.6*35
$GPGSA,A,3,02,07,08,10,11,25,27,29,30,36,,,0.7,0.4,0.6*34
$GPGSA,A,3,05,07,10,12,14,24,26,33,35,40,41,42,0.7,0.4,0.6*31
$GPGSA,A,3,60,,,,,,,,,,,,0.7,0.4,0.6*31
$GPGST,121517.00,2.347,0.522,0.354,348.883,0.517,0.362,0.704*58
$GPGBS,121517.00,3.981,2.031,3.969,67,0.0001,7.287,6.144*55
$GPGRS,121517.00,1,0.4,-1.0,-0.2,0.2,-0.3,0.4,-0.0,-0.6,0.5,,,*4D
$GPGRS,121517.00,1,7.3,5.5,-1.3,-2.4,-6.3,-3.3,3.3,1.9,-2.3,,,*40
$GPGRS,121517.00,1,0.5,0.4,0.9,-2.0,-0.6,-0.0,-0.7,1.6,0.5,0.9,,*4F
$GPGRS,121517.00,1,1.3,-0.0,1.3,-1.0,1.3,-0.0,-0.3,0.2,-0.8,-2.6,0.3,-0.5*6A
$GPGRS,121517.00,1,-0.1,,,,,,,,,,,*4D
$GPGSV,5,1,20,24,77,147,51,17,17,042,43,06,18,097,42,15,14,189,41*7D
$GPGSV,5,2,20,32,21,317,44,25,27,259,43,19,43,060,46,12,68,267,50*70
$GPGSV,5,3,20,11,07,131,,10,05,283,40,22,10,068,,36,35,170,45*7B
$GPGSV,5,4,20,58,13,245,36,40,23,133,36,34,31,208,43,49,34,195,45*7C
$GPGSV,5,5,20,57,08,111,38,41,07,108,35,61,03,257,38*49
$GLGSV,3,1,10,77,68,014,46,78,29,286,49,76,32,074,48,87,33,123,46*68
$GLGSV,3,2,10,67,34,240,50,68,36,304,50,86,37,063,49,85,07,014,44*64
$GLGSV,3,3,10,66,03,198,33,69,07,346,43*69
$GAGSV,3,1,11,30,63,261,49,29,16,321,40,11,15,043,36,27,12,252,40*6D
$GAGSV,3,2,11,08,37,193,45,36,17,093,41,07,52,270,47,02,59,060,47*6E
$GAGSV,3,3,11,10,06,019,36,34,02,139,,25,08,068,37*59
$GBGSV,5,1,19,24,71,302,52,40,12,040,40,12,15,168,38,23,16,273,*65
$GBGSV,5,2,19,07,17,052,39,41,19,312,44,14,19,232,41,05,20,130,38*60
$GBGSV,5,3,19,33,26,259,46,44,33,151,,10,29,057,41,56,36,055,*63
$GBGSV,5,4,19,35,43,089,48,26,52,090,49,25,70,295,,42,07,209,40*69
$GBGSV,5,5,19,02,04,109,32,31,02,100,,60,08,111,40*56
$GPGGA,121517.00,,,,,0,00,,,M,,M,,*49
$PTNL,GGK,121517.00,010125,4742.1599078,N,01618.1005682,E,1,41,0.7,EHT750.6419,M*49
$GPGGQ,121517.00,010125,4742.1599078,N,01618.1005682,E,1,41,0.945,707.4353,M*31
$GPGFA,121517.00,4.967,5.774,0.522,0.354,348.883,0.704,,VVV*07
$GPLLK,121517.00,010125,,M,,M,1,41,0.8,,M*07
$GNGMP,121517.00,,,,,DAAA,41,0.4,,,,*56
$GPGMP,121517.00,,,,,,09,,,,1.8,136*78
$GLGMP,121517.00,,,,,,09,,,,,*77
$GAGMP,121517.00,,,,,,10,,,,,*72
$GBGMP,121517.00,,,,,,13,,,,,*72
$PSSN,SNC,[0,303335000,2347]*41
$GPZDA,121522.00,01,01,2025,,*64
$GPDTM,W84,,00.0000000,N,00.0000000,E,00.0000000,W84*5F
$PSSN,TFM,121522.00,,,,*68
$GPRMC,121522.00,A,4742.1599082,N,01618.1005672,E,0.0,,010125,5.1,E,D*18
$GPGLL,4742.1599082,N,01618.1005672,E,121522.00,A,D*69
$GPGGA,121522.00,4742.1599082,N,01618.1005672,E,2,41,0.4,707.4351,M,43.2066,M,2.8,0136*4D
$GNGNS,121522.00,4742.1599082,N,01618.1005672,E,DAAA,41,0.4,707.4351,43.2066,,*5F
$GPGNS,121522.00,,,,,,09,,,,2.8,136*7D
$GLGNS,121522.00,,,,,,09,,,,,*71
$GAGNS,121522.00,,,,,,10,,,,,*74
$GBGNS,121522.00,,,,,,13,,,,,*74
$GPLLQ,121522.00,010125,,M,,M,1,41,0.941,,M*1F
$GPVTG,,T,,M,0.00,N,0.01,K,D*27
$GPHDT,,T*1B
$GPTHS,,V*0E
$GPROT,,V*08
$PSSN,HRP,121522.00,010125,,,,,,,00,0,,*66
$PTNL,AVR,121522.00,,Yaw,,Tilt,,,,0,,00*30
$GPGSA,A,3,06,10,12,15,17,19,24,25,32,,,,0.7,0.4,0.6*39
$GPGSA,A,3,67,68,69,76,77,78,85,86,87,,,,0.7,0.4,0.6*35
$GPGSA,A,3,02,07,08,10,11,25,27,29,30,36,,,0.7,0.4,0.6*34
$GPGSA,A,3,05,07,10,12,14,24,26,33,35,40,41,42,0.7,0.4,0.6*31
$GPGSA,A,3,60,,,,,,,,,,,,0.7,0.4,0.6*31
$GPGST,121522.00,2.477,0.519,0.351,348.073,0.513,0.360,0.701*53
$GPGBS,121522.00,4.011,2.056,4.044,67,0.0001,7.892,6.144*5A
$GPGRS,121522.00,1,0.0,-0.2,-0.2,0.3,-0.6,0.0,0.1,0.2,0.2,,,*4E
$GPGRS,121522.00,1,7.9,6.3,-0.3,-2.5,-6.9,-2.5,2.3,1.0,-3.3,,,*4D
$GPGRS,121522.00,1,0.5,0.4,0.9,-2.3,-0.7,-0.0,-0.8,1.2,0.5,0.6,,*4F
$GPGRS,121522.00,1,1.2,0.5,1.6,-1.0,1.9,-0.1,-0.6,-0.1,-0.9,-2.8,0.6,-0.6*69
$GPGRS,121522.00,1,-0.3,,,,,,,,,,,*49
$GPGSV,5,1,20,24,77,147,50,17,17,042,42,06,18,097,41,15,14,189,41*7E
$GPGSV,5,2,20,32,21,317,44,25,27,259,43,19,43,060,46,12,68,267,50*70
$GPGSV,5,3,20,11,07,131,,10,05,283,39,22,09,068,,36,35,170,45*7D
$GPGSV,5,4,20,58,13,245,37,40,23,133,37,34,31,208,43,49,34,195,45*7C
$GPGSV,5,5,20,57,08,111,38,41,07,108,35,61,03,257,38*49
$GLGSV,3,1,10,77,68,014,47,78,29,286,49,76,32,074,48,87,33,123,46*69
$GLGSV,3,2,10,67,34,240,50,68,36,304,49,86,37,063,49,85,07,014,43*6B
$GLGSV,3,3,10,66,03,198,33,69,07,346,44*6E
$GAGSV,3,1,11,30,63,261,49,29,16,321,40,11,15,043,36,27,12,252,39*63
$GAGSV,3,2,11,08,37,193,45,36,17,093,41,07,52,270,47,02,59,060,48*61
$GAGSV,3,3,11,10,06,019,36,34,02,139,,25,08,068,37*59
$GBGSV,5,1,19,24,71,302,52,40,12,040,40,12,15,168,38,23,16,273,*65
$GBGSV,5,2,19,07,17,052,39,41,20,312,43,14,19,232,41,05,20,130,38*6D
$GBGSV,5,3,19,33,26,259,46,44,33,151,,10,29,057,41,56,36,055,*63
$GBGSV,5,4,19,35,43,089,48,26,52,090,49,25,70,295,,42,07,209,41*68
$GBGSV,5,5,19,02,04,109,32,31,02,100,,60,08,111,40*56
$GPGGA,121522.00,,,,,0,00,,,M,,M,,*4F
$PTNL,GGK,121522.00,010125,4742.1599082,N,01618.1005672,E,1,41,0.7,EHT750.6417,M*4B
$GPGGQ,121522.00,010125,4742.1599082,N,01618.1005672,E,1,41,0.941,707.4351,M*3B
$GPGFA,121522.00,4.939,5.752,0.519,0.351,348.073,0.701,,VVV*01
$GPLLK,121522.00,010125,,M,,M,1,41,0.8,,M*01
$GNGMP,121522.00,,,,,DAAA,41,0.4,,,,*50
$GPGMP,121522.00,,,,,,09,,,,2.8,136*7D
$GLGMP,121522.00,,,,,,09,,,,,*71
$GAGMP,121522.00,,,,,,10,,,,,*74
$GBGMP,121522.00,,,,,,13,,,,,*74
$PSSN,SNC,[0,303340000,2347]*43
$GPZDA,121527.00,01,01,2025,,*61
$GPDTM,W84,,00.0000000,N,00.0000000,E,00.0000000,W84*5F
$PSSN,TFM,121527.00,,,,*6D
$GPRMC,121527.00,A,4742.1599101,N,01618.1005702,E,0.0,,010125,5.1,E,D*11
$GPGLL,4742.1599101,N,01618.1005702,E,121527.00,A,D*60
$GPGGA,121527.00,4742.1599101,N,01618.1005702,E,2,41,0.4,707.4337,M,43.2066,M,2.4,0136*48
$GNGNS,121527.00,4742.1599101,N,01618.1005702,E,DAAA,41,0.4,707.4337,43.2066,,*56
$GPGNS,121527.00,,,,,,09,,,,2.4,136*74
$GLGNS,121527.00,,,,,,09,,,,,*74
$GAGNS,121527.00,,,,,,10,,,,,*71
$GBGNS,121527.00,,,,,,13,,,,,*71
$GPLLQ,121527.00,010125,,M,,M,1,41,0.946,,M*1D
$GPVTG,,T,,M,0.01,N,0.01,K,D*26
$GPHDT,,T*1B
$GPTHS,,V*0E
$GPROT,,V*08
$PSSN,HRP,121527.00,010125,,,,,,,00,0,,*63
$PTNL,AVR,121527.00,,Yaw,,Tilt,,,,0,,00*35
$GPGSA,A,3,06,10,12,15,17,19,24,25,32,,,,0.7,0.4,0.6*39
$GPGSA,A,3,67,68,69,76,77,78,85,86,87,,,,0.7,0.4,0.6*35
$GPGSA,A,3,02,07,08,10,11,25,27,29,30,36,,,0.7,0.4,0.6*34
$GPGSA,A,3,05,07,10,12,14,24,26,33,35,40,41,42,0.7,0.4,0.6*31
$GPGSA,A,3,60,,,,,,,,,,,,0.7,0.4,0.6*31
$GPGST,121527.00,2.360,0.523,0.353,348.457,0.518,0.362,0.704*52
$GPGBS,121527.00,4.023,2.063,3.827,67,0.0001,7.092,6.144*5A
$GPGRS,121527.00,1,-0.5,-1.3,-0.0,0.2,-0.7,0.1,0.1,0.3,0.4,,,*67
$GPGRS,121527.00,1,7.1,6.1,-1.1,-2.3,-6.8,-2.4,1.2,1.3,-3.1,,,*44
$GPGRS,121527.00,1,0.3,0.5,0.7,-2.3,-0.7,-0.1,-1.0,0.9,0.6,0.5,,*41
$GPGRS,121527.00,1,1.1,0.5,1.5,-0.6,2.7,-0.1,-0.4,0.1,-0.9,-2.6,0.5,-0.3*41
$GPGRS,121527.00,1,-0.2,,,,,,,,,,,*4D
$GPGSV,5,1,20,24,77,147,51,17,17,042,42,06,18,097,41,15,14,189,42*7C
$GPGSV,5,2,20,32,21,317,44,25,27,259,43,19,43,060,47,12,68,267,51*70
$GPGSV,5,3,20,11,07,131,,10,05,283,39,22,09,068,,36,35,170,45*7D
$GPGSV,5,4,20,58,13,245,37,40,23,133,37,34,31,208,43,49,34,195,45*7C
$GPGSV,5,5,20,57,08,111,38,41,07,108,35,61,03,257,39*48
$GLGSV,3,1,10,77,67,014,46,78,29,286,49,76,32,074,47,87,33,123,46*68
$GLGSV,3,2,10,67,34,240,49,68,36,304,50,86,37,063,49,85,07,014,42*6A
$GLGSV,3,3,10,66,03,198,32,69,07,346,43*68
$GAGSV,3,1,11,30,63,261,49,29,16,321,39,11,15,043,35,27,12,252,39*6E
$GAGSV,3,2,11,08,37,193,45,36,17,093,40,07,52,270,47,02,59,060,47*6F
$GAGSV,3,3,11,10,06,018,36,34,02,139,,25,08,068,37*58
$GBGSV,5,1,19,24,71,302,52,40,12,040,40,12,15,168,39,23,16,273,*64
$GBGSV,5,2,19,07,17,052,39,41,20,312,44,14,19,232,41,05,20,130,38*6A
$GBGSV,5,3,19,33,26,259,46,44,33,151,,10,29,057,41,56,36,055,*63
$GBGSV,5,4,19,35,43,089,48,26,52,090,49,25,70,295,,42,07,209,41*68
$GBGSV,5,5,19,02,04,109,32,31,02,100,,60,08,111,40*56
$GPGGA,121527.00,,,,,0,00,,,M,,M,,*4A
$PTNL,GGK,121527.00,010125,4742.1599101,N,01618.1005702,E,1,41,0.7,EHT750.6403,M*47
$GPGGQ,121527.00,010125,4742.1599101,N,01618.1005702,E,1,41,0.946,707.4337,M*35
$GPGFA,121527.00,4.977,5.776,0.523,0.353,348.457,0.704,,VVV*04
$GPLLK,121527.00,010125,,M,,M,1,41,0.8,,M*04
$GNGMP,121527.00,,,,,DAAA,41,0.4,,,,*55
$GPGMP,121527.00,,,,,,09,,,,2.4,136*74
$GLGMP,121527.00,,,,,,09,,,,,*74
$GAGMP,121527.00,,,,,,10,,,,,*71
$GBGMP,121527.00,,,,,,13,,,,,*71
$PSSN,SNC,[0,303345000,2347]*46
$GPZDA,121532.00,01,01,2025,,*65
$GPDTM,W84,,00.0000000,N,00.0000000,E,00.0000000,W84*5F
$PSSN,TFM,121532.00,,,,*69
$GPRMC,121532.00,A,4742.1599114,N,01618.1005722,E,0.0,,010125,5.1,E,D*13
$GPGLL,4742.1599114,N,01618.1005722,E,121532.00,A,D*62
$GPGGA,121532.00,4742.1599114,N,01618.1005722,E,2,41,0.4,707.4312,M,43.2066,M,3.0,0136*48
$GNGNS,121532.00,4742.1599114,N,01618.1005722,E,DAAA,41,0.4,707.4312,43.2066,,*53
$GPGNS,121532.00,,,,,,09,,,,3.0,136*75
$GLGNS,121532.00,,,,,,09,,,,,*70
$GAGNS,121532.00,,,,,,10,,,,,*75
$GBGNS,121532.00,,,,,,13,,,,,*75
$GPLLQ,121532.00,010125,,M,,M,1,41,0.947,,M*18
$GPVTG,,T,,M,0.00,N,0.00,K,D*26
$GPHDT,,T*1B
$GPTHS,,V*0E
$GPROT,,V*08
$PSSN,HRP,121532.00,010125,,,,,,,00,0,,*67
$PTNL,AVR,121532.00,,Yaw,,Tilt,,,,0,,00*31
$GPGSA,A,3,06,10,12,15,17,19,24,25,32,,,,0.7,0.4,0.6*39
$GPGSA,A,3,67,68,69,76,77,78,85,86,87,,,,0.7,0.4,0.6*35
$GPGSA,A,3,02,07,08,10,11,25,27,29,30,36,,,0.7,0.4,0.6*34
$GPGSA,A,3,05,07,10,12,14,24,26,33,35,40,41,42,0.7,0.4,0.6*31
$GPGSA,A,3,60,,,,,,,,,,,,0.7,0.4,0.6*31
$GPGST,121532.00,2.451,0.525,0.355,349.266,0.520,0.362,0.704*5D
$GPGBS,121532.00,4.035,2.090,3.906,77,0.0001,-7.217,6.067*74
$GPGRS,121532.00,1,0.2,-0.8,0.1,0.1,-1.1,-0.0,0.3,0.2,-0.2,,,*6F
$GPGRS,121532.00,1,6.3,7.0,-2.5,-2.1,-7.2,-2.9,1.4,1.9,-2.7,,,*4B
$GPGRS,121532.00,1,0.1,0.4,0.8,-2.6,-1.1,-0.1,-1.3,0.7,0.6,0.4,,*47
$GPGRS,121532.00,1,1.6,-0.0,1.9,-0.3,2.2,-0.2,-0.5,-0.1,-1.2,-2.4,0.3,-0.5*41
$GPGRS,121532.00,1,-0.5,,,,,,,,,,,*4E
$GPGSV,5,1,20,24,76,147,51,17,17,042,42,06,18,097,40,15,14,189,42*7C
$GPGSV,5,2,20,32,21,317,43,25,27,259,43,19,43,060,47,12,68,267,50*76
$GPGSV,5,3,20,11,07,131,,10,05,283,39,22,09,068,,36,35,170,45*7D
$GPGSV,5,4,20,58,13,245,36,40,23,133,37,34,31,208,43,49,34,195,45*7D
$GPGSV,5,5,20,57,08,111,38,41,07,108,35,61,03,257,38*49
$GLGSV,3,1,10,77,67,015,47,78,29,286,49,76,32,074,47,87,33,123,46*68
$GLGSV,3,2,10,67,34,240,49,68,36,304,50,86,37,063,49,85,07,014,42*6A
$GLGSV,3,3,10,66,03,198,32,69,07,346,42*69
$GAGSV,3,1,11,30,63,262,49,29,16,321,39,11,15,043,36,27,12,252,40*60
$GAGSV,3,2,11,08,37,193,45,36,17,093,40,07,52,270,47,02,58,060,48*61
$GAGSV,3,3,11,10,06,018,36,34,02,139,,25,08,068,37*58
$GBGSV,5,1,19,24,71,302,52,40,12,040,40,12,15,168,39,23,16,273,*64
$GBGSV,5,2,19,07,17,052,38,41,20,312,43,14,19,232,41,05,20,130,38*6C
$GBGSV,5,3,19,33,26,259,45,44,33,151,,10,29,057,41,56,36,055,*60
$GBGSV,5,4,19,35,43,089,48,26,52,090,50,25,70,295,,42,07,209,41*60
$GBGSV,5,5,19,02,04,109,32,31,02,100,,60,08,111,40*56
$GPGGA,121532.00,,,,,0,00,,,M,,M,,*4E
$PTNL,GGK,121532.00,010125,4742.1599114,N,01618.1005722,E,1,41,0.7,EHT750.6378,M*4E
$GPGGQ,121532.00,010125,4742.1599114,N,01618.1005722,E,1,41,0.947,707.4312,M*31
$GPGFA,121532.00,4.990,5.771,0.525,0.355,349.266,0.704,,VVV*0B
$GPLLK,121532.00,010125,,M,,M,1,41,0.8,,M*00
$GNGMP,121532.00,,,,,DAAA,41,0.4,,,,*51
$GPGMP,121532.00,,,,,,09,,,,3.0,136*75
$GLGMP,121532.00,,,,,,09,,,,,*70
$GAGMP,121532.00,,,,,,10,,,,,*75
$GBGMP,121532.00,,,,,,13,,,,,*75
$PSSN,SNC,[0,303350000,2347]*42
$GPZDA,121537.00,01,01,2025,,*60
$GPDTM,W84,,00.0000000,N,00.0000000,E,00.0000000,W84*5F
$PSSN,TFM,121537.00,,,,*6C
$GPRMC,121537.00,A,4742.1599146,N,01618.1005728,E,0.0,,010125,5.1,E,D*1B
$GPGLL,4742.1599146,N,01618.1005728,E,121537.00,A,D*6A
$GPGGA,121537.00,4742.1599146,N,01618.1005728,E,2,41,0.4,707.4278,M,43.2066,M,1.8,0136*47
$GNGNS,121537.00,4742.1599146,N,01618.1005728,E,DAAA,41,0.4,707.4278,43.2066,,*56
$GPGNS,121537.00,,,,,,09,,,,1.8,136*7A
$GLGNS,121537.00,,,,,,09,,,,,*75
$GAGNS,121537.00,,,,,,10,,,,,*70
$GBGNS,121537.00,,,,,,13,,,,,*70
$GPLLQ,121537.00,010125,,M,,M,1,41,0.946,,M*1C
$GPVTG,,T,,M,0.00,N,0.01,K,D*27
$GPHDT,,T*1B
$GPTHS,,V*0E
$GPROT,,V*08
$PSSN,HRP,121537.00,010125,,,,,,,00,0,,*62
$PTNL,AVR,121537.00,,Yaw,,Tilt,,,,0,,00*34
$GPGSA,A,3,06,10,12,15,17,19,24,25,32,,,,0.7,0.4,0.6*39
$GPGSA,A,3,67,68,69,76,77,78,85,86,87,,,,0.7,0.4,0.6*35
$GPGSA,A,3,02,07,08,10,11,25,27,29,30,36,,,0.7,0.4,0.6*34
$GPGSA,A,3,05,07,10,12,14,24,26,33,35,40,41,42,0.7,0.4,0.6*31
$GPGSA,A,3,60,,,,,,,,,,,,0.7,0.4,0.6*31
$GPGST,121537.00,2.334,0.523,0.354,349.024,0.517,0.361,0.705*59
$GPGBS,121537.00,3.979,2.031,3.957,77,0.0001,-6.559,6.067*74
$GPGRS,121537.00,1,-0.3,-1.5,-0.3,0.3,-0.8,0.1,0.4,0.2,0.2,,,*69
$GPGRS,121537.00,1,6.5,6.2,-3.1,-1.8,-6.6,-2.6,1.2,1.9,-2.1,,,*4E
$GPGRS,121537.00,1,0.4,0.3,0.8,-2.4,-1.1,0.1,-0.9,1.2,0.6,0.5,,*61
$GPGRS,121537.00,1,1.6,0.1,2.0,-0.6,1.9,0.0,-0.4,0.0,-0.8,-2.7,0.1,0.2*4D
$GPGRS,121537.00,1,-0.3,,,,,,,,,,,*4D
$GPGSV,5,1,20,24,76,147,51,17,17,042,42,06,18,097,40,15,14,189,42*7C
$GPGSV,5,2,20,32,21,317,43,25,27,259,43,19,43,060,47,12,68,267,50*76
$GPGSV,5,3,20,11,07,131,,10,05,283,40,22,09,068,,36,35,170,45*73
$GPGSV,5,4,20,58,13,245,37,40,23,133,37,34,31,208,43,49,34,195,45*7C
$GPGSV,5,5,20,57,08,111,38,41,07,108,35,61,03,257,38*49
$GLGSV,3,1,10,77,67,015,46,78,29,287,50,76,32,074,47,87,33,123,46*60
$GLGSV,3,2,10,67,34,240,49,68,36,304,50,86,37,062,49,85,07,014,42*6B
$GLGSV,3,3,10,66,03,198,33,69,07,346,42*68
$GAGSV,3,1,11,30,63,262,49,29,16,321,40,11,15,043,35,27,12,252,40*6D
$GAGSV,3,2,11,08,37,193,45,36,17,092,40,07,52,270,47,02,58,060,48*60
$GAGSV,3,3,11,10,06,018,36,34,02,139,,25,08,068,37*58
$GBGSV,5,1,19,24,71,302,52,40,12,040,40,12,15,168,39,23,16,273,*64
$GBGSV,5,2,19,07,17,052,39,41,20,312,43,14,19,232,41,05,20,130,38*6D
$GBGSV,5,3,19,33,26,259,45,44,33,151,,10,29,057,41,56,36,055,*60
$GBGSV,5,4,19,35,43,089,48,26,52,090,50,25,70,295,,42,07,209,40*61
$GBGSV,5,5,19,02,04,109,32,31,02,100,,60,08,111,40*56
$GPGGA,121537.00,,,,,0,00,,,M,,M,,*4B
$PTNL,GGK,121537.00,010125,4742.1599146,N,01618.1005728,E,1,41,0.7,EHT750.6344,M*49
$GPGGQ,121537.00,010125,4742.1599146,N,01618.1005728,E,1,41,0.946,707.4278,M*35
$GPGFA,121537.00,4.968,5.778,0.523,0.354,349.024,0.705,,VVV*02
$GPLLK,121537.00,010125,,M,,M,1,41,0.8,,M*05
$GNGMP,121537.00,,,,,DAAA,41,0.4,,,,*54
$GPGMP,121537.00,,,,,,09,,,,1.8,136*7A
$GLGMP,121537.00,,,,,,09,,,,,*75
$GAGMP,121537.00,,,,,,10,,,,,*70
$GBGMP,121537.00,,,,,,13,,,,,*70
$PSSN,SNC,[0,303355000,2347]*47
$GPZDA,121542.00,01,01,2025,,*62
$GPDTM,W84,,00.0000000,N,00.0000000,E,00.0000000,W84*5F
$PSSN,TFM,121542.00,,,,*6E
$GPRMC,121542.00,A,4742.1599176,N,01618.1005738,E,0.0,,010125,5.1,E,D*1B
$GPGLL,4742.1599176,N,01618.1005738,E,121542.00,A,D*6A
$GPGGA,121542.00,4742.1599176,N,01618.1005738,E,2,41,0.4,707.4279,M,43.2066,M,2.8,0136*45
$GNGNS,121542.00,4742.1599176,N,01618.1005738,E,DAAA,41,0.4,707.4279,43.2066,,*57
$GPGNS,121542.00,,,,,,09,,,,2.8,136*7B
$GLGNS,121542.00,,,,,,09,,,,,*77
$GAGNS,121542.00,,,,,,10,,,,,*72
$GBGNS,121542.00,,,,,,13,,,,,*72
$GPLLQ,121542.00,010125,,M,,M,1,41,0.941,,M*19
$GPVTG,,T,,M,0.00,N,0.01,K,D*27
$GPHDT,,T*1B
$GPTHS,,V*0E
$GPROT,,V*08
$PSSN,HRP,121542.00,010125,,,,,,,00,0,,*60
$PTNL,AVR,121542.00,,Yaw,,Tilt,,,,0,,00*36
$GPGSA,A,3,06,10,12,15,17,19,24,25,32,,,,0.7,0.4,0.6*39
$GPGSA,A,3,67,68,69,76,77,78,85,86,87,,,,0.7,0.4,0.6*35
$GPGSA,A,3,02,07,08,10,11,25,27,29,30,36,,,0.7,0.4,0.6*34
$GPGSA,A,3,05,07,10,12,14,24,26,33,35,40,41,42,0.7,0.4,0.6*31
$GPGSA,A,3,60,,,,,,,,,,,,0.7,0.4,0.6*31
$GPGST,121542.00,2.279,0.520,0.351,348.212,0.514,0.360,0.702*56
$GPGBS,121542.00,4.008,2.057,4.032,77,0.0001,-6.980,6.067*7B
$GPGRS,121542.00,1,-0.2,-1.5,-0.3,0.3,-0.6,-0.0,0.2,0.4,0.4,,,*4E
$GPGRS,121542.00,1,6.4,6.3,-1.5,-1.7,-7.0,-2.5,2.4,1.8,-1.7,,,*40
$GPGRS,121542.00,1,0.5,0.2,0.7,-1.9,-1.1,0.0,-1.0,1.0,0.2,0.5,,*6D
$GPGRS,121542.00,1,0.9,0.3,1.8,-0.4,0.9,-0.1,-0.5,-0.1,-0.9,-2.5,0.3,-0.2*66
$GPGRS,121542.00,1,-0.0,,,,,,,,,,,*4C
$GPGSV,5,1,20,24,76,147,51,17,17,042,41,06,18,097,41,15,14,189,41*7D
$GPGSV,5,2,20,32,21,317,43,25,27,259,43,19,43,060,47,12,68,267,50*76
$GPGSV,5,3,20,11,07,131,,10,05,283,39,22,09,068,,36,35,170,46*7E
$GPGSV,5,4,20,58,13,245,37,40,23,133,37,34,31,208,43,49,34,195,45*7C
$GPGSV,5,5,20,57,08,111,38,41,07,108,36,61,03,257,38*4A
$GLGSV,3,1,10,77,67,015,46,78,29,287,49,76,32,074,48,87,33,123,46*67
$GLGSV,3,2,10,67,34,240,48,68,36,304,50,86,37,062,49,85,07,014,42*6A
$GLGSV,3,3,10,66,03,198,33,69,07,346,43*69
$GAGSV,3,1,11,30,63,262,49,29,16,321,40,11,15,043,36,27,12,252,39*60
$GAGSV,3,2,11,08,37,193,45,36,17,092,40,07,52,270,47,02,58,060,48*60
$GAGSV,3,3,11,10,06,018,36,34,02,139,,25,08,068,37*58
$GBGSV,5,1,19,24,71,302,51,40,12,040,40,12,15,168,39,23,16,273,*67
$GBGSV,5,2,19,07,17,052,39,41,20,312,43,14,19,232,41,05,20,130,38*6D
$GBGSV,5,3,19,33,26,259,45,44,33,151,,10,29,057,41,56,36,055,*60
$GBGSV,5,4,19,35,43,089,48,26,52,090,50,25,70,295,,42,07,209,40*61
$GBGSV,5,5,19,02,04,109,32,31,02,100,,60,08,111,40*56
$GPGGA,121542.00,,,,,0,00,,,M,,M,,*49
$PTNL,GGK,121542.00,010125,4742.1599176,N,01618.1005738,E,1,41,0.7,EHT750.6344,M*49
$GPGGQ,121542.00,010125,4742.1599176,N,01618.1005738,E,1,41,0.941,707.4279,M*33
$GPGFA,121542.00,4.940,5.755,0.520,0.351,348.212,0.702,,VVV*02
$GPLLK,121542.00,010125,,M,,M,1,41,0.8,,M*07
$GNGMP,121542.00,,,,,DAAA,41,0.4,,,,*56
$GPGMP,121542.00,,,,,,09,,,,2.8,136*7B
$GLGMP,121542.00,,,,,,09,,,,,*77
$GAGMP,121542.00,,,,,,10,,,,,*72
$GBGMP,121542.00,,,,,,13,,,,,*72
$PSSN,SNC,[0,303360000,2347]*41
$GPZDA,121547.00,01,01,2025,,*67
$GPDTM,W84,,00.0000000,N,00.0000000,E,00.0000000,W84*5F
$PSSN,TFM,121547.00,,,,*6B
$GPRMC,121547.00,A,4742.1599193,N,01618.1005761,E,0.0,,010125,5.1,E,D*19
$GPGLL,4742.1599193,N,01618.1005761,E,121547.00,A,D*68
$GPGGA,121547.00,4742.1599193,N,01618.1005761,E,2,41,0.4,707.4249,M,43.2066,M,2.4,0136*48
$GNGNS,121547.00,4742.1599193,N,01618.1005761,E,DAAA,41,0.4,707.4249,43.2066,,*56
$GPGNS,121547.00,,,,,,09,,,,2.4,136*72
$GLGNS,121547.00,,,,,,09,,,,,*72
$GAGNS,121547.00,,,,,,10,,,,,*77
$GBGNS,121547.00,,,,,,13,,,,,*77
$GPLLQ,121547.00,010125,,M,,M,1,41,0.947,,M*1A
$GPVTG,,T,,M,0.00,N,0.01,K,D*27
$GPHDT,,T*1B
$GPTHS,,V*0E
$GPROT,,V*08
$PSSN,HRP,121547.00,010125,,,,,,,00,0,,*65
$PTNL,AVR,121547.00,,Yaw,,Tilt,,,,0,,00*33
$GPGSA,A,3,06,10,12,15,17,19,24,25,32,,,,0.7,0.4,0.6*39
$GPGSA,A,3,67,68,69,76,77,78,85,86,87,,,,0.7,0.4,0.6*35
$GPGSA,A,3,02,07,08,10,11,25,27,29,30,36,,,0.7,0.4,0.6*34
$GPGSA,A,3,05,07,10,12,14,24,26,33,35,40,41,42,0.7,0.4,0.6*31
$GPGSA,A,3,60,,,,,,,,,,,,0.7,0.4,0.6*31
$GPGST,121547.00,2.373,0.524,0.353,348.600,0.518,0.361,0.705*53
$GPGBS,121547.00,4.021,2.064,3.829,67,0.0001,7.114,6.145*59
$GPGRS,121547.00,1,-0.6,-1.7,-0.1,0.4,-0.8,0.1,0.2,0.2,0.6,,,*6E
$GPGRS,121547.00,1,7.1,5.6,-0.8,-1.4,-6.6,-2.9,3.4,2.0,-2.6,,,*4B
$GPGRS,121547.00,1,0.3,0.3,0.7,-2.4,-0.8,0.1,-0.8,0.6,0.1,0.6,,*66
$GPGRS,121547.00,1,1.2,0.1,1.4,-0.8,2.3,-0.0,-0.4,0.0,-1.1,-2.9,0.7,-0.4*48
$GPGRS,121547.00,1,-0.3,,,,,,,,,,,*4A
$GPGSV,5,1,20,24,76,147,51,17,17,042,41,06,18,097,41,15,14,189,41*7D
$GPGSV,5,2,20,32,21,317,43,25,27,259,43,19,43,060,47,12,68,267,50*76
$GPGSV,5,3,20,11,07,131,,10,05,283,38,22,09,068,,36,35,170,46*7F
$GPGSV,5,4,20,58,13,245,37,40,23,133,37,34,31,208,43,49,34,195,45*7C
$GPGSV,5,5,20,57,08,111,38,41,07,108,35,61,03,257,39*48
$GLGSV,3,1,10,77,67,015,47,78,29,287,49,76,32,074,48,87,33,123,45*65
$GLGSV,3,2,10,67,34,240,49,68,36,304,50,86,37,062,50,85,07,014,42*63
$GLGSV,3,3,10,66,02,198,33,69,07,346,43*68
$GAGSV,3,1,11,30,63,262,49,29,16,321,40,11,15,043,35,27,12,252,39*63
$GAGSV,3,2,11,08,37,193,45,36,17,092,40,07,52,270,47,02,58,060,48*60
$GAGSV,3,3,11,10,06,018,36,34,02,139,,25,08,068,37*58
$GBGSV,5,1,19,24,71,302,52,40,12,040,40,12,15,168,38,23,17,274,*63
$GBGSV,5,2,19,07,17,052,39,41,20,312,43,14,19,232,41,05,20,130,38*6D
$GBGSV,5,3,19,33,26,259,45,44,33,151,,10,29,057,41,56,36,055,*60
$GBGSV,5,4,19,35,43,089,48,26,52,090,50,25,70,295,,42,07,209,40*61
$GBGSV,5,5,19,02,04,109,32,31,02,100,,60,08,111,40*56
$GPGGA,121547.00,,,,,0,00,,,M,,M,,*4C
$PTNL,GGK,121547.00,010125,4742.1599193,N,01618.1005761,E,1,41,0.7,EHT750.6315,M*4F
$GPGGQ,121547.00,010125,4742.1599193,N,01618.1005761,E,1,41,0.947,707.4249,M*34
$GPGFA,121547.00,4.978,5.780,0.524,0.353,348.600,0.705,,VVV*02
$GPLLK,121547.00,010125,,M,,M,1,41,0.8,,M*02
$GNGMP,121547.00,,,,,DAAA,41,0.4,,,,*53
$GPGMP,121547.00,,,,,,09,,,,2.4,136*72
$GLGMP,121547.00,,,,,,09,,,,,*72
$GAGMP,121547.00,,,,,,10,,,,,*77
$GBGMP,121547.00,,,,,,13,,,,,*77
$PSSN,SNC,[0,303365000,2347]*44
$GPZDA,121552.00,01,01,2025,,*63
$GPDTM,W84,,00.0000000,N,00.0000000,E,00.0000000,W84*5F
$PSSN,TFM,121552.00,,,,*6F
$GPRMC,121552.00,A,4742.1599221,N,01618.1005768,E,0.0,,010125,5.1,E,D*1E
$GPGLL,4742.1599221,N,01618.1005768,E,121552.00,A,D*6F
$GPGGA,121552.00,4742.1599221,N,01618.1005768,E,2,41,0.4,707.4222,M,43.2066,M,3.0,0136*47
$GNGNS,121552.00,4742.1599221,N,01618.1005768,E,DAAA,41,0.4,707.4222,43.2066,,*5C
$GPGNS,121552.00,,,,,,09,,,,3.0,136*73
$GLGNS,121552.00,,,,,,09,,,,,*76
$GAGNS,121552.00,,,,,,10,,,,,*73
$GBGNS,121552.00,,,,,,13,,,,,*73
$GPLLQ,121552.00,010125,,M,,M,1,41,0.947,,M*1E
$GPVTG,,T,,M,0.01,N,0.02,K,D*25
$GPHDT,,T*1B
$GPTHS,,V*0E
$GPROT,,V*08
$PSSN,HRP,121552.00,010125,,,,,,,00,0,,*61
$PTNL,AVR,121552.00,,Yaw,,Tilt,,,,0,,00*37
$GPGSA,A,3,06,10,12,15,17,19,24,25,32,,,,0.7,0.4,0.6*39
$GPGSA,A,3,67,68,69,76,77,78,85,86,87,,,,0.7,0.4,0.6*35
$GPGSA,A,3,02,07,08,10,11,25,27,29,30,36,,,0.7,0.4,0.6*34
$GPGSA,A,3,05,07,10,12,14,24,26,33,35,40,41,42,0.7,0.4,0.6*31
$GPGSA,A,3,60,,,,,,,,,,,,0.7,0.4,0.6*31
$GPGST,121552.00,2.358,0.525,0.355,349.416,0.520,0.362,0.704*54
$GPGBS,121552.00,4.033,2.091,3.920,67,0.0001,7.025,6.145*5F
$GPGRS,121552.00,1,-0.4,-1.0,-0.2,0.2,-0.4,-0.0,0.1,0.2,0.4,,,*4B
$GPGRS,121552.00,1,7.0,5.5,-1.5,-2.2,-6.6,-3.0,1.1,1.8,-2.6,,,*40
$GPGRS,121552.00,1,0.2,0.3,0.7,-2.4,-1.2,0.0,-0.8,0.9,0.4,0.2,,*67
$GPGRS,121552.00,1,1.4,0.4,1.6,-1.2,3.1,0.1,-0.4,0.1,-0.9,-2.8,1.1,-0.3*60
$GPGRS,121552.00,1,-0.1,,,,,,,,,,,*4C
$GPGSV,5,1,20,24,76,147,51,17,17,042,41,06,18,097,41,15,14,189,39*72
$GPGSV,5,2,20,32,21,317,42,25,27,259,43,19,43,060,46,12,68,267,50*76
$GPGSV,5,3,20,11,07,130,,10,05,283,39,22,09,068,,36,35,170,46*7F
$GPGSV,5,4,20,58,13,245,37,40,23,133,37,34,31,208,43,49,34,195,45*7C
$GPGSV,5,5,20,57,08,111,38,41,07,108,35,61,03,257,39*48
$GLGSV,3,1,10,77,67,015,47,78,29,287,49,76,32,074,48,87,33,123,46*66
$GLGSV,3,2,10,67,34,240,49,68,36,304,50,86,37,062,49,85,07,014,41*68
$GLGSV,3,3,10,66,02,198,33,69,07,346,43*68
$GAGSV,3,1,11,30,63,262,49,29,16,321,39,11,15,043,36,27,12,252,40*60
$GAGSV,3,2,11,08,36,193,45,36,17,092,40,07,52,270,47,02,58,060,48*61
$GAGSV,3,3,11,10,06,018,36,34,02,138,,25,08,068,37*59
$GBGSV,5,1,19,24,71,302,52,40,12,040,40,12,15,168,38,23,17,274,*63
$GBGSV,5,2,19,07,17,052,39,41,20,312,42,14,19,232,41,05,20,130,38*6C
$GBGSV,5,3,19,33,26,259,45,44,33,151,,10,29,057,41,56,36,055,*60
$GBGSV,5,4,19,35,43,089,48,26,51,090,49,25,70,295,,42,07,209,40*6A
$GBGSV,5,5,19,02,04,109,32,31,02,100,,60,08,111,40*56
$GPGGA,121552.00,,,,,0,00,,,M,,M,,*48
$PTNL,GGK,121552.00,010125,4742.1599221,N,01618.1005768,E,1,41,0.7,EHT750.6287,M*42
$GPGGQ,121552.00,010125,4742.1599221,N,01618.1005768,E,1,41,0.947,707.4222,M*3E
$GPGFA,121552.00,4.993,5.774,0.525,0.355,349.416,0.704,,VVV*0A
$GPLLK,121552.00,010125,,M,,M,1,41,0.8,,M*06
$GNGMP,121552.00,,,,,DAAA,41,0.4,,,,*57
$GPGMP,121552.00,,,,,,09,,,,3.0,136*73
$GLGMP,121552.00,,,,,,09,,,,,*76
$GAGMP,121552.00,,,,,,10,,,,,*73
$GBGMP,121552.00,,,,,,13,,,,,*73
$PSSN,SNC,[0,303370000,2347]*40
$GPZDA,121557.00,01,01,2025,,*66
$GPDTM,W84,,00.0000000,N,00.0000000,E,00.0000000,W84*5F
$PSSN,TFM,121557.00,,,,*6A
$GPRMC,121557.00,A,4742.1599230,N,01618.1005829,E,0.0,,010125,5.1,E,D*11
$GPGLL,4742.1599230,N,01618.1005829,E,121557.00,A,D*60
$GPGGA,121557.00,4742.1599230,N,01618.1005829,E,2,41,0.4,707.4238,M,43.2066,M,1.8,0136*49
$GNGNS,121557.00,4742.1599230,N,01618.1005829,E,DAAA,41,0.4,707.4238,43.2066,,*58
$GPGNS,121557.00,,,,,,09,,,,1.8,136*7C
$GLGNS,121557.00,,,,,,09,,,,,*73
$GAGNS,121557.00,,,,,,10,,,,,*76
$GBGNS,121557.00,,,,,,13,,,,,*76
$GPLLQ,121557.00,010125,,M,,M,1,41,0.947,,M*1B
$GPVTG,,T,,M,0.00,N,0.01,K,D*27
$GPHDT,,T*1B
$GPTHS,,V*0E
$GPROT,,V*08
$PSSN,HRP,121557.00,010125,,,,,,,00,0,,*64
$PTNL,AVR,121557.00,,Yaw,,Tilt,,,,0,,00*32
$GPGSA,A,3,06,10,12,15,17,19,24,25,32,,,,0.7,0.4,0.6*39
$GPGSA,A,3,67,68,69,76,77,78,85,86,87,,,,0.7,0.4,0.6*35
$GPGSA,A,3,02,07,08,10,11,25,27,29,30,36,,,0.7,0.4,0.6*34
$GPGSA,A,3,05,07,10,12,14,24,26,33,35,40,41,42,0.7,0.4,0.6*31
$GPGSA,A,3,60,,,,,,,,,,,,0.7,0.4,0.6*31
$GPGST,121557.00,2.317,0.523,0.354,349.186,0.518,0.361,0.705*58
$GPGBS,121557.00,3.978,2.032,3.943,77,0.0001,-6.960,6.067*73
$GPGRS,121557.00,1,0.0,-0.2,0.1,0.6,-0.8,-0.4,0.0,0.0,0.4,,,*45
$GPGRS,121557.00,1,6.5,6.2,-1.2,-2.4,-7.0,-2.8,0.8,1.5,-2.1,,,*48
$GPGRS,121557.00,1,0.3,0.0,0.9,-2.8,-0.7,-0.1,-1.0,1.0,0.4,0.4,,*4D
$GPGRS,121557.00,1,1.2,0.4,1.9,-1.7,1.6,0.1,-0.5,-0.4,-0.9,-2.4,1.0,-0.4*4F
$GPGRS,121557.00,1,-0.3,,,,,,,,,,,*4B
$GPGSV,5,1,20,24,76,147,51,17,17,042,41,06,18,097,40,15,14,189,39*73
$GPGSV,5,2,20,32,21,317,43,25,27,259,43,19,43,060,47,12,68,267,50*76
$GPGSV,5,3,20,11,07,130,,10,05,283,38,22,09,068,,36,35,170,46*7E
$GPGSV,5,4,20,58,13,245,37,40,23,133,37,34,31,208,43,49,34,195,45*7C
$GPGSV,5,5,20,57,08,111,39,41,07,108,35,61,03,257,38*48
$GLGSV,3,1,10,77,67,015,46,78,29,287,49,76,32,074,48,87,33,123,46*67
$GLGSV,3,2,10,67,34,240,49,68,36,304,50,86,37,062,49,85,07,014,42*6B
$GLGSV,3,3,10,66,02,198,33,69,08,346,44*60
$GAGSV,3,1,11,30,63,262,49,29,16,321,39,11,15,043,35,27,12,252,40*63
$GAGSV,3,2,11,08,36,193,45,36,17,092,40,07,52,270,47,02,58,060,48*61
$GAGSV,3,3,11,10,06,018,36,34,02,138,,25,08,068,37*59
$GBGSV,5,1,19,24,71,302,52,40,12,040,40,12,15,168,38,23,17,274,*63
$GBGSV,5,2,19,07,17,052,39,41,20,312,42,14,19,232,41,05,20,130,38*6C
$GBGSV,5,3,19,33,26,259,46,44,33,151,,10,29,057,41,56,36,055,*63
$GBGSV,5,4,19,35,43,089,49,26,51,090,50,25,70,295,,42,07,209,39*6D
$GBGSV,5,5,19,02,04,109,32,31,02,100,,60,08,111,40*56
$GPGGA,121557.00,,,,,0,00,,,M,,M,,*4D
$PTNL,GGK,121557.00,010125,4742.1599230,N,01618.1005829,E,1,41,0.7,EHT750.6304,M*47
$GPGGQ,121557.00,010125,4742.1599230,N,01618.1005829,E,1,41,0.947,707.4238,M*3A
$GPGFA,121557.00,4.974,5.783,0.523,0.354,349.186,0.705,,VVV*04
$GPLLK,121557.00,010125,,M,,M,1,41,0.8,,M*03
$GNGMP,121557.00,,,,,DAAA,41,0.4,,,,*52
$GPGMP,121557.00,,,,,,09,,,,1.8,136*7C
$GLGMP,121557.00,,,,,,09,,,,,*73
$GAGMP,121557.00,,,,,,10,,,,,*76
$GBGMP,121557.00,,,,,,13,,,,,*76
$PSSN,SNC,[0,303375000,2347]*45
$GPZDA,121602.00,01,01,2025,,*65
$GPDTM,W84,,00.0000000,N,00.0000000,E,00.0000000,W84*5F
$PSSN,TFM,121602.00,,,,*69
$GPRMC,121602.00,A,4742.1599247,N,01618.1005845,E,0.0,,010125,5.1,E,D*18
$GPGLL,4742.1599247,N,01618.1005845,E,121602.00,A,D*69
$GPGGA,121602.00,4742.1599247,N,01618.1005845,E,2,41,0.4,707.4251,M,43.2066,M,2.8,0136*4C
$GNGNS,121602.00,4742.1599247,N,01618.1005845,E,DAAA,41,0.4,707.4251,43.2066,,*5E
$GPGNS,121602.00,,,,,,09,,,,2.8,136*7C
$GLGNS,121602.00,,,,,,09,,,,,*70
$GAGNS,121602.00,,,,,,10,,,,,*75
$GBGNS,121602.00,,,,,,13,,,,,*75
$GPLLQ,121602.00,010125,,M,,M,1,41,0.942,,M*1D
$GPVTG,,T,,M,0.00,N,0.01,K,D*27
$GPHDT,,T*1B
$GPTHS,,V*0E
$GPROT,,V*08
$PSSN,HRP,121602.00,010125,,,,,,,00,0,,*67
$PTNL,AVR,121602.00,,Yaw,,Tilt,,,,0,,00*31
$GPGSA,A,3,06,10,12,15,17,19,24,25,32,,,,0.7,0.4,0.6*39
$GPGSA,A,3,67,68,69,76,77,78,85,86,87,,,,0.7,0.4,0.6*35
$GPGSA,A,3,02,07,08,10,11,25,27,29,30,36,,,0.7,0.4,0.6*34
$GPGSA,A,3,05,07,10,12,14,24,26,33,35,40,41,42,0.7,0.4,0.6*31
$GPGSA,A,3,60,,,,,,,,,,,,0.7,0.4,0.6*31
$GPGST,121602.00,2.292,0.520,0.351,348.379,0.514,0.360,0.702*58
$GPGBS,121602.00,4.007,2.057,4.017,77,0.0001,-7.278,6.067*79
$GPGRS,121602.00,1,0.6,-0.8,-0.0,0.4,-0.6,-0.1,-0.1,0.0,0.7,,,*40
$GPGRS,121602.00,1,6.3,5.8,-0.9,-2.2,-7.3,-2.4,1.9,0.9,-2.2,,,*49
$GPGRS,121602.00,1,0.3,0.2,0.9,-2.7,-0.5,-0.2,-1.3,1.0,0.4,0.7,,*42
$GPGRS,121602.00,1,1.2,0.3,1.4,-1.2,2.1,-0.1,-0.5,-0.2,-1.1,-2.6,0.9,-0.4*6F
$GPGRS,121602.00,1,-0.4,,,,,,,,,,,*4F
$GPGSV,5,1,20,24,76,147,51,17,17,042,41,06,18,097,40,15,14,189,39*73
$GPGSV,5,2,20,32,21,317,43,25,27,259,43,19,43,060,46,12,68,267,50*77
$GPGSV,5,3,20,11,07,130,,10,05,283,40,22,09,068,,36,35,170,46*71
$GPGSV,5,4,20,58,13,245,37,40,23,133,37,34,31,208,43,49,34,195,45*7C
$GPGSV,5,5,20,57,08,111,38,41,07,108,36,61,03,257,39*4B
$GLGSV,3,1,10,77,67,015,46,78,29,287,50,76,32,074,48,87,33,123,46*6F
$GLGSV,3,2,10,67,34,240,49,68,36,304,49,86,37,062,49,85,07,014,42*63
$GLGSV,3,3,10,66,02,198,33,69,08,346,44*60
$GAGSV,3,1,11,30,63,262,49,29,16,321,39,11,15,043,35,27,12,252,40*63
$GAGSV,3,2,11,08,36,193,45,36,17,092,40,07,52,270,47,02,58,060,48*61
$GAGSV,3,3,11,10,06,018,35,34,02,138,,25,08,068,37*5A
$GBGSV,5,1,19,24,71,302,52,40,12,040,40,12,15,168,39,23,17,274,*62
$GBGSV,5,2,19,07,17,052,39,41,20,312,43,14,19,232,41,05,20,130,38*6D
$GBGSV,5,3,19,33,26,259,46,44,33,151,,10,29,057,41,56,36,055,*63
$GBGSV,5,4,19,35,43,089,49,26,51,090,50,25,70,295,,42,07,209,39*6D
$GBGSV,5,5,19,02,04,109,32,31,02,100,,60,08,111,40*56
$GPGGA,121602.00,,,,,0,00,,,M,,M,,*4E
$PTNL,GGK,121602.00,010125,4742.1599247,N,01618.1005845,E,1,41,0.7,EHT750.6317,M*4C
$GPGGQ,121602.00,010125,4742.1599247,N,01618.1005845,E,1,41,0.942,707.4251,M*39
$GPGFA,121602.00,4.943,5.760,0.520,0.351,348.379,0.702,,VVV*0C
$GPLLK,121602.00,010125,,M,,M,1,41,0.8,,M*00
$GNGMP,121602.00,,,,,DAAA,41,0.4,,,,*51
$GPGMP,121602.00,,,,,,09,,,,2.8,136*7C
$GLGMP,121602.00,,,,,,09,,,,,*70
$GAGMP,121602.00,,,,,,10,,,,,*75
$GBGMP,121602.00,,,,,,13,,,,,*75
$PSSN,SNC,[0,303380000,2347]*4F
$GPZDA,121607.00,01,01,2025,,*60
$GPDTM,W84,,00.0000000,N,00.0000000,E,00.0000000,W84*5F
$PSSN,TFM,121607.00,,,,*6C
$GPRMC,121607.00,A,4742.1599267,N,01618.1005864,E,0.0,,010125,5.1,E,D*1C
$GPGLL,4742.1599267,N,01618.1005864,E,121607.00,A,D*6D
$GPGGA,121607.00,4742.1599267,N,01618.1005864,E,2,41,0.4,707.4293,M,43.2065,M,2.4,0136*49
$GNGNS,121607.00,4742.1599267,N,01618.1005864,E,DAAA,41,0.4,707.4293,43.2065,,*57
$GPGNS,121607.00,,,,,,09,,,,2.4,136*75
$GLGNS,121607.00,,,,,,09,,,,,*75
$GAGNS,121607.00,,,,,,10,,,,,*70
$GBGNS,121607.00,,,,,,13,,,,,*70
$GPLLQ,121607.00,010125,,M,,M,1,41,0.947,,M*1D
$GPVTG,,T,,M,0.00,N,0.00,K,D*26
$GPHDT,,T*1B
$GPTHS,,V*0E
$GPROT,,V*08
$PSSN,HRP,121607.00,010125,,,,,,,00,0,,*62
$PTNL,AVR,121607.00,,Yaw,,Tilt,,,,0,,00*34
$GPGSA,A,3,06,10,12,15,17,19,24,25,32,,,,0.7,0.4,0.6*39
$GPGSA,A,3,67,68,69,76,77,78,85,86,87,,,,0.7,0.4,0.6*35
$GPGSA,A,3,02,07,08,10,11,25,27,29,30,36,,,0.7,0.4,0.6*34
$GPGSA,A,3,05,07,10,12,14,24,26,33,35,40,41,42,0.7,0.4,0.6*31
$GPGSA,A,3,60,,,,,,,,,,,,0.7,0.4,0.6*31
$GPGST,121607.00,2.316,0.524,0.353,348.747,0.518,0.361,0.705*55
$GPGBS,121607.00,4.018,2.064,3.843,77,0.0001,-7.135,6.067*76
$GPGRS,121607.00,1,0.6,-0.6,-0.2,0.5,-0.7,-0.1,-0.0,0.1,0.8,,,*46
$GPGRS,121607.00,1,6.5,5.2,-0.8,-2.7,-7.1,-2.8,2.0,1.7,-2.2,,,*4F
$GPGRS,121607.00,1,0.1,0.5,0.3,-2.5,-0.7,-0.2,-1.6,1.0,0.1,0.4,,*4B
$GPGRS,121607.00,1,1.5,0.4,1.2,-0.3,2.0,-0.2,-0.8,-0.2,-1.3,-3.1,0.5,-0.5*6A
$GPGRS,121607.00,1,-0.5,,,,,,,,,,,*4B
$GPGSV,5,1,20,24,76,147,51,17,17,042,41,06,18,097,40,15,14,189,40*7D
$GPGSV,5,2,20,32,21,317,43,25,27,259,43,19,43,060,46,12,68,267,50*77
$GPGSV,5,3,20,11,07,130,,10,05,283,38,22,09,068,,36,35,170,46*7E
$GPGSV,5,4,20,58,13,245,37,40,23,133,37,34,31,208,43,49,34,195,45*7C
$GPGSV,5,5,20,57,08,111,38,41,07,108,35,61,03,257,38*49
$GLGSV,3,1,10,77,67,015,47,78,29,287,49,76,32,074,48,87,33,123,46*66
$GLGSV,3,2,10,67,34,240,49,68,36,304,50,86,37,062,49,85,07,014,43*6A
$GLGSV,3,3,10,66,02,198,33,69,08,346,45*61
$GAGSV,3,1,11,30,63,262,49,29,16,321,39,11,15,043,35,27,12,252,40*63
$GAGSV,3,2,11,08,36,193,45,36,18,092,40,07,52,270,47,02,58,060,48*6E
$GAGSV,3,3,11,10,06,018,35,34,02,138,,25,08,068,38*55
$GBGSV,5,1,19,24,71,302,52,40,12,040,40,12,15,168,39,23,17,274,*62
$GBGSV,5,2,19,07,17,052,39,41,20,312,43,14,19,232,41,05,20,130,38*6D
$GBGSV,5,3,19,33,26,259,46,44,33,150,,10,29,057,41,56,36,055,*62
$GBGSV,5,4,19,35,43,089,49,26,51,090,50,25,70,295,,42,07,209,39*6D
$GBGSV,5,5,19,02,04,109,32,31,02,100,,60,08,111,40*56
$GPGGA,121607.00,,,,,0,00,,,M,,M,,*4B
$PTNL,GGK,121607.00,010125,4742.1599267,N,01618.1005864,E,1,41,0.7,EHT750.6358,M*43
$GPGGQ,121607.00,010125,4742.1599267,N,01618.1005864,E,1,41,0.947,707.4293,M*36
$GPGFA,121607.00,4.980,5.784,0.524,0.353,348.747,0.705,,VVV*04
$GPLLK,121607.00,010125,,M,,M,1,41,0.8,,M*05
$GNGMP,121607.00,,,,,DAAA,41,0.4,,,,*54
$GPGMP,121607.00,,,,,,09,,,,2.4,136*75
$GLGMP,121607.00,,,,,,09,,,,,*75
$GAGMP,121607.00,,,,,,10,,,,,*70
$GBGMP,121607.00,,,,,,13,,,,,*70
$PSSN,SNC,[0,303385000,2347]*4A
$GPZDA,121612.00,01,01,2025,,*64
$GPDTM,W84,,00.0000000,N,00.0000000,E,00.0000000,W84*5F
$PSSN,TFM,121612.00,,,,*68
$GPRMC,121612.00,A,4742.1599291,N,01618.1005861,E,0.0,,010125,5.1,E,D*14
$GPGLL,4742.1599291,N,01618.1005861,E,121612.00,A,D*65
$GPGGA,121612.00,4742.1599291,N,01618.1005861,E,2,41,0.4,707.4331,M,43.2065,M,3.0,0136*4D
$GNGNS,121612.00,4742.1599291,N,01618.1005861,E,DAAA,41,0.4,707.4331,43.2065,,*56
$GPGNS,121612.00,,,,,,09,,,,3.0,136*74
$GLGNS,121612.00,,,,,,09,,,,,*71
$GAGNS,121612.00,,,,,,10,,,,,*74
$GBGNS,121612.00,,,,,,13,,,,,*74
$GPLLQ,121612.00,010125,,M,,M,1,41,0.947,,M*19
$GPVTG,,T,,M,0.01,N,0.01,K,D*26
$GPHDT,,T*1B
$GPTHS,,V*0E
$GPROT,,V*08
$PSSN,HRP,121612.00,010125,,,,,,,00,0,,*66
$PTNL,AVR,121612.00,,Yaw,,Tilt,,,,0,,00*30
$GPGSA,A,3,06,10,12,15,17,19,24,25,32,,,,0.7,0.4,0.6*39
$GPGSA,A,3,67,68,69,76,77,78,85,86,87,,,,0.7,0.4,0.6*35
$GPGSA,A,3,02,07,08,10,11,25,27,29,30,36,,,0.7,0.4,0.6*34
$GPGSA,A,3,05,07,10,12,14,24,26,33,35,40,41,42,0.7,0.4,0.6*31
$GPGSA,A,3,60,,,,,,,,,,,,0.7,0.4,0.6*31
$GPGST,121612.00,2.340,0.525,0.355,349.567,0.520,0.361,0.704*5E
$GPGBS,121612.00,4.029,2.092,3.933,67,0.0001,7.056,6.146*55
$GPGRS,121612.00,1,0.9,-1.2,-0.3,0.9,-0.5,-0.2,-0.1,-0.0,0.5,,,*64
$GPGRS,121612.00,1,7.1,5.2,-0.9,-2.0,-6.7,-3.0,2.2,1.7,-2.8,,,*4E
$GPGRS,121612.00,1,0.1,0.3,0.4,-2.3,-1.0,-0.2,-2.1,0.8,-0.0,-0.0,,*46
$GPGRS,121612.00,1,1.5,0.3,1.3,-0.3,1.8,-0.1,-0.6,-0.2,-1.7,-2.8,0.5,-0.4*63
$GPGRS,121612.00,1,-0.3,,,,,,,,,,,*49
$GPGSV,5,1,20,24,76,147,51,17,17,042,41,06,18,097,41,15,14,189,41*7D
$GPGSV,5,2,20,32,21,317,43,25,27,259,43,19,43,060,46,12,68,267,50*77
$GPGSV,5,3,20,11,07,130,33,10,05,283,38,22,09,068,,36,35,170,45*7D
$GPGSV,5,4,20,58,13,245,36,40,23,133,37,34,31,208,43,49,34,195,45*7D
$GPGSV,5,5,20,57,08,111,38,41,07,108,35,61,03,257,38*49
$GLGSV,3,1,10,77,67,015,47,78,29,287,49,76,32,074,48,87,33,123,46*66
$GLGSV,3,2,10,67,34,240,49,68,36,303,49,86,37,062,49,85,07,014,43*65
$GLGSV,3,3,10,66,02,198,32,69,08,346,44*61
$GAGSV,3,1,11,30,63,262,49,29,16,321,40,11,15,043,36,27,12,252,40*6E
$GAGSV,3,2,11,08,36,193,45,36,18,092,40,07,52,270,47,02,58,060,48*6E
$GAGSV,3,3,11,10,06,018,36,34,02,138,,25,08,068,37*59
$GBGSV,5,1,19,24,71,302,52,40,12,040,39,12,15,168,39,23,17,274,*6C
$GBGSV,5,2,19,07,17,052,39,41,20,312,43,14,19,232,41,05,20,130,38*6D
$GBGSV,5,3,19,33,26,259,45,44,33,150,,10,29,057,41,56,36,055,*61
$GBGSV,5,4,19,35,43,089,48,26,51,090,50,25,70,295,,42,07,209,39*6C
$GBGSV,5,5,19,02,04,109,31,31,02,100,,60,08,111,40*55
$GPGGA,121612.00,,,,,0,00,,,M,,M,,*4F
$PTNL,GGK,121612.00,010125,4742.1599291,N,01618.1005861,E,1,41,0.7,EHT750.6396,M*49
$GPGGQ,121612.00,010125,4742.1599291,N,01618.1005861,E,1,41,0.947,707.4331,M*37
$GPGFA,121612.00,4.992,5.776,0.525,0.355,349.567,0.704,,VVV*09
$GPLLK,121612.00,010125,,M,,M,1,41,0.8,,M*01
$GNGMP,121612.00,,,,,DAAA,41,0.4,,,,*50
$GPGMP,121612.00,,,,,,09,,,,3.0,136*74
$GLGMP,121612.00,,,,,,09,,,,,*71
$GAGMP,121612.00,,,,,,10,,,,,*74
$GBGMP,121612.00,,,,,,13,,,,,*74
$PSSN,SNC,[0,303390000,2347]*4E
$GPZDA,121617.00,01,01,2025,,*61
$GPDTM,W84,,00.0000000,N,00.0000000,E,00.0000000,W84*5F
$PSSN,TFM,121617.00,,,,*6D
$GPRMC,121617.00,A,4742.1599334,N,01618.1005833,E,0.0,,010125,5.1,E,D*18
$GPGLL,4742.1599334,N,01618.1005833,E,121617.00,A,D*69
$GPGGA,121617.00,4742.1599334,N,01618.1005833,E,2,41,0.4,707.4384,M,43.2065,M,1.8,0136*45
$GNGNS,121617.00,4742.1599334,N,01618.1005833,E,DAAA,41,0.4,707.4384,43.2065,,*54
$GPGNS,121617.00,,,,,,09,,,,1.8,136*7B
$GLGNS,121617.00,,,,,,09,,,,,*74
$GAGNS,121617.00,,,,,,10,,,,,*71
$GBGNS,121617.00,,,,,,13,,,,,*71
$GPLLQ,121617.00,010125,,M,,M,1,41,0.946,,M*1D
$GPVTG,,T,,M,0.01,N,0.01,K,D*26
$GPHDT,,T*1B
$GPTHS,,V*0E
$GPROT,,V*08
$PSSN,HRP,121617.00,010125,,,,,,,00,0,,*63
$PTNL,AVR,121617.00,,Yaw,,Tilt,,,,0,,00*35
$GPGSA,A,3,06,10,12,15,17,19,24,25,32,,,,0.7,0.4,0.6*39
$GPGSA,A,3,67,68,69,76,77,78,85,86,87,,,,0.7,0.4,0.6*35
$GPGSA,A,3,02,07,08,10,11,25,27,29,30,36,,,0.7,0.4,0.6*34
$GPGSA,A,3,05,07,10,12,14,24,26,33,35,40,41,42,0.7,0.4,0.6*31
$GPGSA,A,3,60,,,,,,,,,,,,0.7,0.4,0.6*31
$GPGST,121617.00,2.352,0.523,0.354,349.338,0.518,0.361,0.705*59
$GPGBS,121617.00,3.972,2.033,3.933,67,0.0001,7.584,6.146*51
$GPGRS,121617.00,1,0.9,-1.0,-0.2,0.8,-0.5,0.0,-0.1,-0.2,-0.0,,,*66
$GPGRS,121617.00,1,7.6,5.2,-1.0,-1.8,-6.5,-3.1,3.0,1.2,-2.4,,,*46
$GPGRS,121617.00,1,0.2,0.2,0.6,-1.9,-1.0,0.3,-1.7,0.9,0.2,0.7,,*67
$GPGRS,121617.00,1,1.2,0.4,1.2,-0.4,1.9,-0.0,-0.4,-0.2,-1.5,-2.9,0.7,-0.8*6F
$GPGRS,121617.00,1,-0.1,,,,,,,,,,,*4E
$GPGSV,5,1,20,24,76,147,50,17,17,042,40,06,18,097,42,15,14,189,41*7E
$GPGSV,5,2,20,32,21,317,43,25,27,259,43,19,42,060,46,12,68,267,50*76
$GPGSV,5,3,20,11,07,130,33,10,05,283,37,22,09,068,,36,35,170,45*72
$GPGSV,5,4,20,58,13,245,36,40,23,133,37,34,31,208,43,49,34,195,45*7D
$GPGSV,5,5,20,57,08,111,38,41,07,108,35,61,03,257,38*49
$GLGSV,3,1,10,77,67,016,47,78,29,287,49,76,32,074,48,87,33,123,46*65
$GLGSV,3,2,10,67,34,240,50,68,36,303,50,86,37,062,49,85,07,014,43*65
$GLGSV,3,3,10,66,02,198,32,69,08,346,44*61
$GAGSV,3,1,11,30,63,262,49,29,16,321,40,11,15,043,35,27,12,252,39*63
$GAGSV,3,2,11,08,36,193,45,36,18,092,40,07,52,270,47,02,58,060,47*61
$GAGSV,3,3,11,10,06,018,36,34,02,138,,25,08,068,37*59
$GBGSV,5,1,19,24,71,302,52,40,12,040,40,12,15,168,40,23,17,274,*6C
$GBGSV,5,2,19,07,17,052,39,41,20,311,43,14,19,232,41,05,20,130,38*6E
$GBGSV,5,3,19,33,26,259,45,44,33,150,,10,29,057,41,56,36,055,*61
$GBGSV,5,4,19,35,43,088,48,26,51,090,50,25,70,295,,42,06,209,39*6C
$GBGSV,5,5,19,02,04,109,32,31,02,100,,60,08,111,40*56
$GPGGA,121617.00,,,,,0,00,,,M,,M,,*4A
$PTNL,GGK,121617.00,010125,4742.1599334,N,01618.1005833,E,1,41,0.7,EHT750.6449,M*40
$GPGGQ,121617.00,010125,4742.1599334,N,01618.1005833,E,1,41,0.946,707.4384,M*34
$GPGFA,121617.00,4.970,5.784,0.523,0.354,349.338,0.705,,VVV*07
