$GPZDA,134442.00,01,01,2025,,*67
$GPDTM,W84,,00.0000000,N,00.0000000,E,00.0000000,W84*5F
$PSSN,TFM,134442.00,,,,*6B
$GPRMC,134442.00,A,4742.1601717,N,01618.1009212,E,0.0,,010125,5.1,E,D*1C
$GPGLL,4742.1601717,N,01618.1009212,E,134442.00,A,D*6D
$GPGGA,134442.00,4742.1601717,N,01618.1009212,E,2,38,0.4,708.6807,M,43.2065,M,2.3,0136*4A
$GNGNS,134442.00,4742.1601717,N,01618.1009212,E,DAAA,38,0.4,708.6807,43.2065,,*53
$GPGNS,134442.00,,,,,,09,,,,2.3,136*75
$GLGNS,134442.00,,,,,,08,,,,,*73
$GAGNS,134442.00,,,,,,07,,,,,*71
$GBGNS,134442.00,,,,,,14,,,,,*70
$GPLLQ,134442.00,010125,,M,,M,1,38,1.301,,M*1D
$GPVTG,,T,,M,0.00,N,0.00,K,D*26
$GPHDT,,T*1B
$GPTHS,,V*0E
$GPROT,,V*08
$PSSN,HRP,134442.00,010125,,,,,,,00,0,,*65
$PTNL,AVR,134442.00,,Yaw,,Tilt,,,,0,,00*33
$GPGSA,A,3,06,11,12,19,24,25,28,29,32,,,,0.8,0.4,0.7*35
$GPGSA,A,3,68,69,77,78,79,86,87,88,,,,,0.8,0.4,0.7*38
$GPGSA,A,3,02,07,27,29,30,34,36,,,,,,0.8,0.4,0.7*33
$GPGSA,A,3,05,07,10,11,12,24,25,26,32,34,35,41,0.8,0.4,0.7*39
$GPGSA,A,3,44,60,,,,,,,,,,,0.8,0.4,0.7*3F
$GPGST,134442.00,1.784,0.514,0.404,4.912,0.514,0.405,1.125*51
$GPGBS,134442.00,3.362,2.256,7.091,77,0.0001,-5.908,6.221*7C
$GPGRS,134442.00,1,-0.2,0.2,0.3,-1.5,-0.2,-0.3,1.2,0.2,-1.0,,,*4F
$GPGRS,134442.00,1,5.8,1.9,-5.9,-1.3,0.9,-1.4,-0.5,-0.6,,,,*63
$GPGRS,134442.00,1,0.2,0.3,-0.6,-0.7,0.1,0.2,0.5,,,,,*62
$GPGRS,134442.00,1,1.0,-0.4,1.1,1.7,-1.1,-0.2,-0.2,0.9,0.5,1.4,-0.5,-0.9*4C
$GPGRS,134442.00,1,1.1,-1.7,,,,,,,,,,*61
$GPGSV,5,1,19,12,69,063,49,24,34,155,44,28,20,312,40,06,27,055,43*79
$GPGSV,5,2,19,29,32,214,45,32,31,278,46,11,34,099,45,25,63,291,49*75
$GPGSV,5,3,19,19,09,046,38,03,00,355,37,36,35,170,46,58,13,245,36*75
$GPGSV,5,4,19,40,23,133,37,34,31,208,43,49,34,195,45,57,04,114,38*77
$GPGSV,5,5,19,41,07,108,35,61,03,257,38*73
$GLGSV,3,1,09,78,64,334,52,68,17,255,45,86,12,024,42,79,17,300,45*6C
$GLGSV,3,2,09,69,24,306,46,87,50,058,48,88,44,157,50,77,41,094,45*67
$GLGSV,3,3,09,70,01,003,31*5B
$GAGSV,3,1,11,30,80,015,49,29,31,295,43,36,30,060,43,34,31,121,44*68
$GAGSV,3,2,11,07,32,231,44,02,31,081,44,27,37,276,45,15,05,165,*66
$GAGSV,3,3,11,19,07,334,34,11,03,019,32,08,04,188,21*50
$GBGSV,6,1,22,24,72,112,51,11,10,194,40,41,10,278,41,34,33,186,47*67
$GBGSV,6,2,22,10,20,062,39,05,20,130,39,31,22,094,,56,27,052,*63
$GBGSV,6,3,22,26,21,117,44,35,29,050,46,12,53,155,47,23,47,294,*6E
$GBGSV,6,4,22,25,49,299,49,44,61,107,51,08,03,072,,02,04,108,33*68
$GBGSV,6,5,22,38,04,076,,40,01,049,25,07,07,060,37,32,08,328,41*6E
$GBGSV,6,6,22,20,08,333,,60,08,110,40*68
$GPGGA,134442.00,,,,,0,00,,,M,,M,,*4C
$PTNL,GGK,134442.00,010125,4742.1601717,N,01618.1009212,E,1,38,0.8,EHT751.8873,M*4F
$GPGGQ,134442.00,010125,4742.1601717,N,01618.1009212,E,1,38,1.301,708.6807,M*3B
$GPGFA,134442.00,4.892,9.222,0.514,0.404,4.912,1.125,,VVV*02
$GPLLK,134442.00,010125,,M,,M,1,38,0.9,,M*0D
$GNGMP,134442.00,,,,,DAAA,38,0.4,,,,*5D
$GPGMP,134442.00,,,,,,09,,,,2.3,136*75
$GLGMP,134442.00,,,,,,08,,,,,*73
$GAGMP,134442.00,,,,,,07,,,,,*71
$GBGMP,134442.00,,,,,,14,,,,,*70
$PSSN,SNC,[0,308700000,2347]*48
$GPZDA,134447.00,01,01,2025,,*62
$GPDTM,W84,,00.0000000,N,00.0000000,E,00.0000000,W84*5F
$PSSN,TFM,134447.00,,,,*6E
$GPRMC,134447.00,A,4742.1601719,N,01618.1009213,E,0.0,,010125,5.1,E,D*16
$GPGLL,4742.1601719,N,01618.1009213,E,134447.00,A,D*67
$GPGGA,134447.00,4742.1601719,N,01618.1009213,E,2,38,0.4,708.6835,M,43.2065,M,2.0,0136*42
$GNGNS,134447.00,4742.1601719,N,01618.1009213,E,DAAA,38,0.4,708.6835,43.2065,,*58
$GPGNS,134447.00,,,,,,09,,,,2.0,136*73
$GLGNS,134447.00,,,,,,08,,,,,*76
$GAGNS,134447.00,,,,,,07,,,,,*74
$GBGNS,134447.00,,,,,,14,,,,,*75
$GPLLQ,134447.00,010125,,M,,M,1,38,1.293,,M*12
$GPVTG,,T,,M,0.00,N,0.01,K,D*27
$GPHDT,,T*1B
$GPTHS,,V*0E
$GPROT,,V*08
$PSSN,HRP,134447.00,010125,,,,,,,00,0,,*60
$PTNL,AVR,134447.00,,Yaw,,Tilt,,,,0,,00*36
$GPGSA,A,3,06,11,12,19,24,25,28,29,32,,,,0.8,0.4,0.7*35
$GPGSA,A,3,68,69,77,78,79,86,87,88,,,,,0.8,0.4,0.7*38
$GPGSA,A,3,02,07,27,29,30,34,36,,,,,,0.8,0.4,0.7*33
$GPGSA,A,3,05,07,10,11,12,24,25,26,32,34,35,41,0.8,0.4,0.7*39
$GPGSA,A,3,44,60,,,,,,,,,,,0.8,0.4,0.7*3F
$GPGST,134447.00,1.900,0.513,0.403,5.265,0.512,0.404,1.116*5B
$GPGBS,134447.00,3.391,2.257,7.162,68,0.0001,7.466,6.555*59
$GPGRS,134447.00,1,0.2,-0.0,0.4,-1.4,-0.2,-0.3,1.8,0.3,-1.0,,,*45
$GPGRS,134447.00,1,7.5,2.2,-5.4,-1.3,0.1,-0.5,-0.2,-0.4,,,,*61
$GPGRS,134447.00,1,0.4,-0.1,-0.5,-0.3,0.2,0.1,0.6,,,,,*4A
$GPGRS,134447.00,1,0.9,-1.1,1.0,1.2,-0.8,-0.1,-0.4,0.6,0.9,0.9,0.0,-1.2*61
$GPGRS,134447.00,1,1.1,-1.7,,,,,,,,,,*64
$GPGSV,5,1,19,12,69,063,49,24,33,155,44,28,21,312,41,06,27,055,43*7E
$GPGSV,5,2,19,29,32,214,46,32,31,278,46,11,34,099,45,25,63,291,49*76
$GPGSV,5,3,19,19,09,046,38,03,00,355,37,36,35,170,46,58,13,245,36*75
$GPGSV,5,4,19,40,23,133,36,34,31,208,43,49,34,195,45,57,04,114,37*79
$GPGSV,5,5,19,41,07,108,35,61,03,257,38*73
$GLGSV,3,1,09,78,64,334,53,68,17,255,46,86,12,024,43,79,17,300,45*6F
$GLGSV,3,2,09,69,24,306,47,87,50,057,48,88,44,157,51,77,41,094,45*68
$GLGSV,3,3,09,70,01,003,31*5B
$GAGSV,3,1,11,30,80,015,49,29,31,295,43,36,30,060,43,34,31,121,44*68
$GAGSV,3,2,11,07,32,231,44,02,31,081,43,27,37,276,45,15,05,165,*61
$GAGSV,3,3,11,19,07,334,34,11,03,019,32,08,04,188,20*51
$GBGSV,6,1,22,24,72,112,51,11,10,194,40,41,10,278,40,34,33,186,46*67
$GBGSV,6,2,22,10,20,062,39,05,20,130,39,31,22,094,,56,27,052,*63
$GBGSV,6,3,22,26,21,117,44,35,29,049,46,12,53,155,47,23,47,294,*66
$GBGSV,6,4,22,25,49,299,49,44,61,107,51,08,03,072,,02,04,108,33*68
$GBGSV,6,5,22,38,04,076,,40,01,049,27,07,07,060,36,32,08,328,41*6D
$GBGSV,6,6,22,20,08,333,,60,08,110,40*68
$GPGGA,134447.00,,,,,0,00,,,M,,M,,*49
$PTNL,GGK,134447.00,010125,4742.1601719,N,01618.1009213,E,1,38,0.8,EHT751.8901,M*41
$GPGGQ,134447.00,010125,4742.1601719,N,01618.1009213,E,1,38,1.293,708.6835,M*3A
$GPGFA,134447.00,4.876,9.153,0.513,0.403,5.265,1.116,,VVV*02
$GPLLK,134447.00,010125,,M,,M,1,38,0.9,,M*08
$GNGMP,134447.00,,,,,DAAA,38,0.4,,,,*58
$GPGMP,134447.00,,,,,,09,,,,2.0,136*73
$GLGMP,134447.00,,,,,,08,,,,,*76
$GAGMP,134447.00,,,,,,07,,,,,*74
$GBGMP,134447.00,,,,,,14,,,,,*75
$PSSN,SNC,[0,308705000,2347]*4D
$GPZDA,134452.00,01,01,2025,,*66
$GPDTM,W84,,00.0000000,N,00.0000000,E,00.0000000,W84*5F
$PSSN,TFM,134452.00,,,,*6A
$GPRMC,134452.00,A,4742.1601701,N,01618.1009216,E,0.0,,010125,5.1,E,D*1E
$GPGLL,4742.1601701,N,01618.1009216,E,134452.00,A,D*6F
$GPGGA,134452.00,4742.1601701,N,01618.1009216,E,2,38,0.4,708.6836,M,43.2065,M,3.0,0136*48
$GNGNS,134452.00,4742.1601701,N,01618.1009216,E,DAAA,38,0.4,708.6836,43.2065,,*53
$GPGNS,134452.00,,,,,,09,,,,3.0,136*76
$GLGNS,134452.00,,,,,,08,,,,,*72
$GAGNS,134452.00,,,,,,07,,,,,*70
$GBGNS,134452.00,,,,,,14,,,,,*71
$GPLLQ,134452.00,010125,,M,,M,1,38,1.291,,M*14
$GPVTG,,T,,M,0.00,N,0.00,K,D*26
$GPHDT,,T*1B
$GPTHS,,V*0E
$GPROT,,V*08
$PSSN,HRP,134452.00,010125,,,,,,,00,0,,*64
$PTNL,AVR,134452.00,,Yaw,,Tilt,,,,0,,00*32
$GPGSA,A,3,06,11,12,19,24,25,28,29,32,,,,0.8,0.4,0.7*35
$GPGSA,A,3,68,69,77,78,79,86,87,88,,,,,0.8,0.4,0.7*38
$GPGSA,A,3,02,07,27,29,30,34,36,,,,,,0.8,0.4,0.7*33
$GPGSA,A,3,05,07,10,11,12,24,25,26,32,34,35,41,0.8,0.4,0.7*39
$GPGSA,A,3,44,60,,,,,,,,,,,0.8,0.4,0.7*3F
$GPGST,134452.00,2.002,0.515,0.403,4.681,0.515,0.404,1.113*5C
$GPGBS,134452.00,3.421,2.273,7.230,28,0.0001,2.269,1.581*55
$GPGRS,134452.00,1,-0.4,0.1,0.4,-1.3,-0.0,-0.4,2.3,0.0,-1.0,,,*4F
$GPGRS,134452.00,1,7.8,1.6,-5.9,-1.4,1.7,-0.5,-0.6,0.0,,,,*4F
$GPGRS,134452.00,1,0.1,0.1,-0.5,-0.2,0.1,-0.3,0.3,,,,,*4E
$GPGRS,134452.00,1,0.5,-1.1,1.0,0.2,-0.6,-0.1,-0.3,0.7,0.5,0.7,-0.2,-1.6*49
$GPGRS,134452.00,1,1.1,-1.9,,,,,,,,,,*6E
$GPGSV,5,1,19,12,69,063,49,24,33,155,44,28,21,312,41,06,27,055,42*7F
$GPGSV,5,2,19,29,32,214,45,32,31,278,46,11,35,099,46,25,63,291,50*7F
$GPGSV,5,3,19,19,09,046,38,03,00,355,36,36,35,170,45,58,13,245,36*77
$GPGSV,5,4,19,40,23,133,36,34,31,208,43,49,34,195,45,57,04,114,37*79
$GPGSV,5,5,19,41,07,108,35,61,03,257,38*73
$GLGSV,3,1,09,78,65,334,53,68,17,255,46,86,12,024,43,79,17,300,46*6D
$GLGSV,3,2,09,69,24,306,47,87,50,057,48,88,44,157,51,77,41,095,45*69
$GLGSV,3,3,09,70,01,003,31*5B
$GAGSV,3,1,11,30,80,015,49,29,31,295,43,36,30,059,43,34,31,121,44*62
$GAGSV,3,2,11,07,32,231,44,02,31,081,43,27,37,276,45,15,05,165,*61
$GAGSV,3,3,11,19,07,334,34,11,03,019,32,08,04,188,20*51
$GBGSV,6,1,22,24,72,112,51,11,11,194,39,41,10,278,39,34,33,186,46*66
$GBGSV,6,2,22,10,20,062,38,05,20,130,39,31,22,094,,56,27,052,*62
$GBGSV,6,3,22,26,21,117,44,35,29,049,46,12,53,155,47,23,47,294,*66
$GBGSV,6,4,22,25,49,299,49,44,61,107,51,08,03,072,,02,04,108,33*68
$GBGSV,6,5,22,38,04,076,,40,01,049,27,07,07,060,36,32,08,328,41*6D
$GBGSV,6,6,22,20,08,333,,60,08,110,40*68
$GPGGA,134452.00,,,,,0,00,,,M,,M,,*4D
$PTNL,GGK,134452.00,010125,4742.1601701,N,01618.1009216,E,1,38,0.8,EHT751.8902,M*4A
$GPGGQ,134452.00,010125,4742.1601701,N,01618.1009216,E,1,38,1.291,708.6836,M*33
$GPGFA,134452.00,4.899,9.127,0.515,0.403,4.681,1.113,,VVV*08
$GPLLK,134452.00,010125,,M,,M,1,38,0.9,,M*0C
$GNGMP,134452.00,,,,,DAAA,38,0.4,,,,*5C
$GPGMP,134452.00,,,,,,09,,,,3.0,136*76
$GLGMP,134452.00,,,,,,08,,,,,*72
$GAGMP,134452.00,,,,,,07,,,,,*70
$GBGMP,134452.00,,,,,,14,,,,,*71
$PSSN,SNC,[0,308710000,2347]*49
$GPZDA,134457.00,01,01,2025,,*63
$GPDTM,W84,,00.0000000,N,00.0000000,E,00.0000000,W84*5F
$PSSN,TFM,134457.00,,,,*6F
$GPRMC,134457.00,A,4742.1601683,N,01618.1009244,E,0.0,,010125,5.1,E,D*17
$GPGLL,4742.1601683,N,01618.1009244,E,134457.00,A,D*66
$GPGGA,134457.00,4742.1601683,N,01618.1009244,E,2,38,0.4,708.6849,M,43.2065,M,2.7,0136*4F
$GNGNS,134457.00,4742.1601683,N,01618.1009244,E,DAAA,38,0.4,708.6849,43.2065,,*52
$GPGNS,134457.00,,,,,,09,,,,2.7,136*75
$GLGNS,134457.00,,,,,,08,,,,,*77
$GAGNS,134457.00,,,,,,07,,,,,*75
$GBGNS,134457.00,,,,,,14,,,,,*74
$GPLLQ,134457.00,010125,,M,,M,1,38,1.299,,M*19
$GPVTG,,T,,M,0.00,N,0.00,K,D*26
$GPHDT,,T*1B
$GPTHS,,V*0E
$GPROT,,V*08
$PSSN,HRP,134457.00,010125,,,,,,,00,0,,*61
$PTNL,AVR,134457.00,,Yaw,,Tilt,,,,0,,00*37
$GPGSA,A,3,06,11,12,19,24,25,28,29,32,,,,0.8,0.4,0.7*35
$GPGSA,A,3,68,69,77,78,79,86,87,88,,,,,0.8,0.4,0.7*38
$GPGSA,A,3,02,07,27,29,30,34,36,,,,,,0.8,0.4,0.7*33
$GPGSA,A,3,05,07,10,11,12,24,25,26,32,34,35,41,0.8,0.4,0.7*39
$GPGSA,A,3,44,60,,,,,,,,,,,0.8,0.4,0.7*3F
$GPGST,134457.00,1.809,0.517,0.405,4.170,0.517,0.406,1.121*55
$GPGBS,134457.00,3.350,2.279,7.264,28,0.0001,1.707,1.558*50
$GPGRS,134457.00,1,-0.0,0.1,0.2,-1.2,-0.3,-0.1,1.7,0.1,-0.9,,,*41
$GPGRS,134457.00,1,6.8,1.6,-5.6,-1.1,0.8,-1.2,-1.0,-0.8,,,,*6B
$GPGRS,134457.00,1,0.1,-0.2,-0.8,-0.4,0.1,-0.2,0.2,,,,,*6E
$GPGRS,134457.00,1,0.4,-0.6,0.3,0.1,-1.4,-0.3,-0.4,0.7,-0.1,0.9,-0.6,-1.1*68
$GPGRS,134457.00,1,1.0,-1.8,,,,,,,,,,*6B
$GPGSV,5,1,19,12,69,063,50,24,33,155,44,28,21,312,41,06,27,055,42*77
$GPGSV,5,2,19,29,32,214,45,32,31,278,46,11,35,099,46,25,63,291,49*77
$GPGSV,5,3,19,19,09,046,38,03,00,355,35,36,35,170,45,58,13,245,36*74
$GPGSV,5,4,19,40,23,133,36,34,31,208,43,49,34,195,45,57,04,114,37*79
$GPGSV,5,5,19,41,07,108,35,61,03,257,38*73
$GLGSV,3,1,09,78,65,334,53,68,17,255,46,86,12,024,43,79,17,300,45*6E
$GLGSV,3,2,09,69,24,306,47,87,50,057,48,88,44,157,51,77,41,095,44*68
$GLGSV,3,3,09,70,01,003,32*58
$GAGSV,3,1,11,30,80,015,49,29,31,295,43,36,30,059,43,34,31,121,43*65
$GAGSV,3,2,11,07,32,231,44,02,31,081,44,27,37,276,44,15,05,165,*67
$GAGSV,3,3,11,19,07,334,33,11,03,019,31,08,04,188,20*55
$GBGSV,6,1,22,24,72,112,51,11,11,194,39,41,10,278,40,34,33,186,46*68
$GBGSV,6,2,22,10,20,062,38,05,20,130,39,31,22,094,,56,27,052,*62
$GBGSV,6,3,22,26,21,117,43,35,29,049,45,12,53,155,47,23,47,294,*62
$GBGSV,6,4,22,25,49,299,49,44,61,107,51,08,03,072,,02,04,108,33*68
$GBGSV,6,5,22,38,04,076,,40,01,049,27,07,07,060,36,32,08,328,40*6C
$GBGSV,6,6,22,20,08,333,,60,08,110,40*68
$GPGGA,134457.00,,,,,0,00,,,M,,M,,*48
$PTNL,GGK,134457.00,010125,4742.1601683,N,01618.1009244,E,1,38,0.8,EHT751.8915,M*45
$GPGGQ,134457.00,010125,4742.1601683,N,01618.1009244,E,1,38,1.299,708.6849,M*3A
$GPGFA,134457.00,4.917,9.193,0.517,0.405,4.170,1.121,,VVV*09
$GPLLK,134457.00,010125,,M,,M,1,38,0.9,,M*09
$GNGMP,134457.00,,,,,DAAA,38,0.4,,,,*59
$GPGMP,134457.00,,,,,,09,,,,2.7,136*75
$GLGMP,134457.00,,,,,,08,,,,,*77
$GAGMP,134457.00,,,,,,07,,,,,*75
$GBGMP,134457.00,,,,,,14,,,,,*74
$PSSN,SNC,[0,308715000,2347]*4C
$GPZDA,134502.00,01,01,2025,,*62
$GPDTM,W84,,00.0000000,N,00.0000000,E,00.0000000,W84*5F
$PSSN,TFM,134502.00,,,,*6E
$GPRMC,134502.00,A,4742.1601684,N,01618.1009245,E,0.0,,010125,5.1,E,D*10
$GPGLL,4742.1601684,N,01618.1009245,E,134502.00,A,D*61
$GPGGA,134502.00,4742.1601684,N,01618.1009245,E,2,38,0.4,708.6861,M,43.2065,M,2.3,0136*46
$GNGNS,134502.00,4742.1601684,N,01618.1009245,E,DAAA,38,0.4,708.6861,43.2065,,*5F
$GPGNS,134502.00,,,,,,09,,,,2.3,136*70
$GLGNS,134502.00,,,,,,08,,,,,*76
$GAGNS,134502.00,,,,,,07,,,,,*74
$GBGNS,134502.00,,,,,,14,,,,,*75
$GPLLQ,134502.00,010125,,M,,M,1,38,1.300,,M*19
$GPVTG,,T,,M,0.00,N,0.00,K,D*26
$GPHDT,,T*1B
$GPTHS,,V*0E
$GPROT,,V*08
$PSSN,HRP,134502.00,010125,,,,,,,00,0,,*60
$PTNL,AVR,134502.00,,Yaw,,Tilt,,,,0,,00*36
$GPGSA,A,3,06,11,12,19,24,25,28,29,32,,,,0.8,0.4,0.7*35
$GPGSA,A,3,68,69,77,78,79,86,87,88,,,,,0.8,0.4,0.7*38
$GPGSA,A,3,02,07,27,29,30,34,36,,,,,,0.8,0.4,0.7*33
$GPGSA,A,3,05,07,10,11,12,24,25,26,32,34,35,41,0.8,0.4,0.7*39
$GPGSA,A,3,44,60,,,,,,,,,,,0.8,0.4,0.7*3F
$GPGST,134502.00,1.888,0.514,0.404,4.669,0.513,0.405,1.124*52
$GPGBS,134502.00,3.363,2.255,7.061,68,0.0001,7.182,6.556*58
$GPGRS,134502.00,1,-0.0,0.2,0.4,-1.3,-0.2,-0.4,1.4,0.1,-0.7,,,*4D
$GPGRS,134502.00,1,7.2,1.5,-5.8,-1.6,0.5,-1.4,-0.4,-0.3,,,,*6E
$GPGRS,134502.00,1,0.2,0.0,-0.5,-0.4,0.1,-0.1,0.2,,,,,*4D
$GPGRS,134502.00,1,0.8,-1.8,0.8,0.4,-0.6,-0.1,-0.2,1.0,0.5,1.1,-0.8,-0.7*4C
$GPGRS,134502.00,1,1.0,-1.7,,,,,,,,,,*65
$GPGSV,5,1,19,12,69,063,50,24,33,155,44,28,21,312,41,06,27,055,41*74
$GPGSV,5,2,19,29,32,214,45,32,31,278,46,11,35,099,45,25,63,291,49*74
$GPGSV,5,3,19,19,09,046,38,03,00,355,36,36,35,170,45,58,13,245,36*77
$GPGSV,5,4,19,40,23,133,36,34,31,208,43,49,34,195,44,57,04,114,37*78
$GPGSV,5,5,19,41,07,108,35,61,03,257,38*73
$GLGSV,3,1,10,78,65,335,52,68,17,255,46,86,12,024,43,79,17,300,45*66
$GLGSV,3,2,10,69,24,306,48,87,50,057,48,88,44,157,51,77,41,095,44*6F
$GLGSV,3,3,10,70,01,003,32,81,00,186,*66
$GAGSV,3,1,11,30,80,016,49,29,31,295,43,36,30,059,43,34,31,121,43*66
$GAGSV,3,2,11,07,32,231,44,02,31,081,44,27,37,276,44,15,05,165,*67
$GAGSV,3,3,11,19,07,334,33,11,03,019,31,08,03,188,21*53
$GBGSV,6,1,22,24,72,112,51,11,11,194,39,41,10,278,40,34,33,186,46*68
$GBGSV,6,2,22,10,20,062,38,05,20,130,39,31,22,094,,56,27,052,*62
$GBGSV,6,3,22,26,21,117,43,35,29,049,46,12,53,155,48,23,47,294,*6E
$GBGSV,6,4,22,25,49,299,49,44,61,107,51,08,03,072,,02,04,108,33*68
$GBGSV,6,5,22,38,04,076,,40,00,050,26,07,07,060,36,32,08,328,40*64
$GBGSV,6,6,22,20,08,333,,60,08,110,40*68
$GPGGA,134502.00,,,,,0,00,,,M,,M,,*49
$PTNL,GGK,134502.00,010125,4742.1601684,N,01618.1009245,E,1,38,0.8,EHT751.8927,M*43
$GPGGQ,134502.00,010125,4742.1601684,N,01618.1009245,E,1,38,1.300,708.6861,M*36
$GPGFA,134502.00,4.888,9.214,0.514,0.404,4.669,1.124,,VVV*0B
$GPLLK,134502.00,010125,,M,,M,1,38,0.9,,M*08
$GNGMP,134502.00,,,,,DAAA,38,0.4,,,,*58
$GPGMP,134502.00,,,,,,09,,,,2.3,136*70
$GLGMP,134502.00,,,,,,08,,,,,*76
$GAGMP,134502.00,,,,,,07,,,,,*74
$GBGMP,134502.00,,,,,,14,,,,,*75
$PSSN,SNC,[0,308720000,2347]*4A
$GPZDA,134507.00,01,01,2025,,*67
$GPDTM,W84,,00.0000000,N,00.0000000,E,00.0000000,W84*5F
$PSSN,TFM,134507.00,,,,*6B
$GPRMC,134507.00,A,4742.1601680,N,01618.1009271,E,0.0,,010125,5.1,E,D*16
$GPGLL,4742.1601680,N,01618.1009271,E,134507.00,A,D*67
$GPGGA,134507.00,4742.1601680,N,01618.1009271,E,2,38,0.4,708.6861,M,43.2065,M,2.0,0136*43
$GNGNS,134507.00,4742.1601680,N,01618.1009271,E,DAAA,38,0.4,708.6861,43.2065,,*59
$GPGNS,134507.00,,,,,,09,,,,2.0,136*76
$GLGNS,134507.00,,,,,,08,,,,,*73
$GAGNS,134507.00,,,,,,07,,,,,*71
$GBGNS,134507.00,,,,,,14,,,,,*70
$GPLLQ,134507.00,010125,,M,,M,1,38,1.292,,M*16
$GPVTG,,T,,M,0.00,N,0.00,K,D*26
$GPHDT,,T*1B
$GPTHS,,V*0E
$GPROT,,V*08
$PSSN,HRP,134507.00,010125,,,,,,,00,0,,*65
$PTNL,AVR,134507.00,,Yaw,,Tilt,,,,0,,00*33
$GPGSA,A,3,06,11,12,19,24,25,28,29,32,,,,0.8,0.4,0.7*35
$GPGSA,A,3,68,69,77,78,79,86,87,88,,,,,0.8,0.4,0.7*38
$GPGSA,A,3,02,07,27,29,30,34,36,,,,,,0.8,0.4,0.7*33
$GPGSA,A,3,05,07,10,11,12,24,25,26,32,34,35,41,0.8,0.4,0.7*39
$GPGSA,A,3,44,60,,,,,,,,,,,0.8,0.4,0.7*3F
$GPGST,134507.00,1.925,0.512,0.403,5.017,0.512,0.404,1.115*5C
$GPGBS,134507.00,3.392,2.255,7.133,68,0.0001,7.401,6.556*5B
$GPGRS,134507.00,1,-0.4,-0.1,0.2,-1.2,0.2,-0.3,1.3,0.3,-0.9,,,*44
$GPGRS,134507.00,1,7.4,1.9,-5.8,-1.8,0.9,-0.6,-0.2,-0.1,,,,*64
$GPGRS,134507.00,1,-0.0,0.3,-0.4,-0.2,0.0,0.0,0.6,,,,,*4A
$GPGRS,134507.00,1,0.9,-1.5,0.9,0.3,0.2,-0.1,-0.2,0.9,1.3,1.4,-0.5,-1.0*6B
$GPGRS,134507.00,1,1.0,-1.7,,,,,,,,,,*60
$GPGSV,5,1,19,12,68,063,49,24,33,155,43,28,21,312,42,06,27,055,42*7A
$GPGSV,5,2,19,29,32,214,45,32,31,278,45,11,35,099,45,25,63,291,49*77
$GPGSV,5,3,19,19,09,046,39,03,00,355,35,36,35,170,45,58,13,245,36*75
$GPGSV,5,4,19,40,23,133,36,34,31,208,43,49,34,195,45,57,04,114,37*79
$GPGSV,5,5,19,41,07,108,35,61,03,257,38*73
$GLGSV,3,1,10,78,65,335,52,68,17,255,47,86,12,024,43,79,17,300,45*67
$GLGSV,3,2,10,69,24,306,47,87,50,057,48,88,44,157,51,77,41,095,45*61
$GLGSV,3,3,10,70,01,003,32,81,00,186,*66
$GAGSV,3,1,11,30,80,016,49,29,31,295,43,36,30,059,43,34,32,121,44*62
$GAGSV,3,2,11,07,32,231,44,02,31,081,44,27,37,276,45,15,05,165,*66
$GAGSV,3,3,11,19,07,334,34,11,03,019,31,08,03,188,20*55
$GBGSV,6,1,22,24,72,112,51,11,11,194,38,41,10,278,40,34,33,186,46*69
$GBGSV,6,2,22,10,20,062,38,05,20,130,39,31,22,094,,56,27,052,*62
$GBGSV,6,3,22,26,20,117,44,35,29,049,46,12,53,155,48,23,47,294,*68
$GBGSV,6,4,22,25,49,299,49,44,61,107,51,08,03,072,,02,04,108,33*68
$GBGSV,6,5,22,38,04,076,,40,00,050,27,07,07,060,36,32,08,328,40*65
$GBGSV,6,6,22,20,08,333,,60,08,110,40*68
$GPGGA,134507.00,,,,,0,00,,,M,,M,,*4C
$PTNL,GGK,134507.00,010125,4742.1601680,N,01618.1009271,E,1,38,0.8,EHT751.8926,M*44
$GPGGQ,134507.00,010125,4742.1601680,N,01618.1009271,E,1,38,1.292,708.6861,M*3A
$GPGFA,134507.00,4.872,9.146,0.512,0.403,5.017,1.115,,VVV*02
$GPLLK,134507.00,010125,,M,,M,1,38,0.9,,M*0D
$GNGMP,134507.00,,,,,DAAA,38,0.4,,,,*5D
$GPGMP,134507.00,,,,,,09,,,,2.0,136*76
$GLGMP,134507.00,,,,,,08,,,,,*73
$GAGMP,134507.00,,,,,,07,,,,,*71
$GBGMP,134507.00,,,,,,14,,,,,*70
$PSSN,SNC,[0,308725000,2347]*4F
$GPZDA,134512.00,01,01,2025,,*63
$GPDTM,W84,,00.0000000,N,00.0000000,E,00.0000000,W84*5F
$PSSN,TFM,134512.00,,,,*6F
$GPRMC,134512.00,A,4742.1601685,N,01618.1009263,E,0.0,,010125,5.1,E,D*14
$GPGLL,4742.1601685,N,01618.1009263,E,134512.00,A,D*65
$GPGGA,134512.00,4742.1601685,N,01618.1009263,E,2,38,0.4,708.6903,M,43.2065,M,3.0,0136*45
$GNGNS,134512.00,4742.1601685,N,01618.1009263,E,DAAA,38,0.4,708.6903,43.2065,,*5E
$GPGNS,134512.00,,,,,,09,,,,3.0,136*73
$GLGNS,134512.00,,,,,,08,,,,,*77
$GAGNS,134512.00,,,,,,07,,,,,*75
$GBGNS,134512.00,,,,,,14,,,,,*74
$GPLLQ,134512.00,010125,,M,,M,1,38,1.290,,M*10
$GPVTG,,T,,M,0.00,N,0.00,K,D*26
$GPHDT,,T*1B
$GPTHS,,V*0E
$GPROT,,V*08
$PSSN,HRP,134512.00,010125,,,,,,,00,0,,*61
$PTNL,AVR,134512.00,,Yaw,,Tilt,,,,0,,00*37
$GPGSA,A,3,06,11,12,19,24,25,28,29,32,,,,0.8,0.4,0.7*35
$GPGSA,A,3,68,69,77,78,79,86,87,88,,,,,0.8,0.4,0.7*38
$GPGSA,A,3,02,07,27,29,30,34,36,,,,,,0.8,0.4,0.7*33
$GPGSA,A,3,05,07,10,11,12,24,25,26,32,34,35,41,0.8,0.4,0.7*39
$GPGSA,A,3,44,60,,,,,,,,,,,0.8,0.4,0.7*3F
$GPGST,134512.00,1.819,0.515,0.403,4.427,0.514,0.404,1.112*56
$GPGBS,134512.00,3.422,2.271,7.201,68,0.0001,6.750,6.557*50
$GPGRS,134512.00,1,0.3,0.2,0.3,-1.6,-0.1,-0.2,1.3,0.2,-0.8,,,*6E
$GPGRS,134512.00,1,6.8,1.3,-5.6,-1.5,0.6,-1.0,-0.1,-0.2,,,,*6C
$GPGRS,134512.00,1,0.2,-0.0,-0.5,-0.8,0.0,-0.0,0.5,,,,,*6A
$GPGRS,134512.00,1,1.1,-1.3,-0.0,0.5,-0.4,-0.2,0.2,1.0,1.7,1.2,-0.1,-0.8*40
$GPGRS,134512.00,1,0.8,-1.8,,,,,,,,,,*62
$GPGSV,5,1,19,12,68,063,49,24,33,155,43,28,21,312,41,06,27,055,43*78
$GPGSV,5,2,19,29,32,214,45,32,31,278,46,11,35,099,45,25,63,291,49*74
$GPGSV,5,3,19,19,09,046,39,03,00,355,35,36,35,170,45,58,13,245,36*75
$GPGSV,5,4,19,40,23,133,36,34,31,208,43,49,34,195,45,57,04,114,37*79
$GPGSV,5,5,19,41,07,108,35,61,03,257,38*73
$GLGSV,3,1,10,78,65,335,52,68,17,255,46,86,12,024,43,79,17,300,46*65
$GLGSV,3,2,10,69,24,306,47,87,50,057,47,88,44,157,51,77,41,095,45*6E
$GLGSV,3,3,10,70,01,003,31,81,00,186,*65
$GAGSV,3,1,11,30,80,016,49,29,31,295,43,36,30,059,43,34,32,121,43*65
$GAGSV,3,2,11,07,32,231,44,02,31,081,44,27,37,276,44,15,05,165,*67
$GAGSV,3,3,11,19,07,334,33,11,03,019,31,08,03,188,28*5A
$GBGSV,6,1,22,24,72,112,51,11,11,194,38,41,10,278,40,34,33,186,46*69
$GBGSV,6,2,22,10,20,062,38,05,20,130,39,31,22,094,,56,27,052,*62
$GBGSV,6,3,22,26,20,117,43,35,29,049,46,12,53,155,47,23,47,294,*60
$GBGSV,6,4,22,25,49,299,49,44,61,107,51,08,03,072,,02,04,108,33*68
$GBGSV,6,5,22,38,04,076,,40,00,050,27,07,07,060,37,32,08,328,39*6A
$GBGSV,6,6,22,20,08,333,,60,08,110,40*68
$GPGGA,134512.00,,,,,0,00,,,M,,M,,*48
$PTNL,GGK,134512.00,010125,4742.1601685,N,01618.1009263,E,1,38,0.8,EHT751.8968,M*4C
$GPGGQ,134512.00,010125,4742.1601685,N,01618.1009263,E,1,38,1.290,708.6903,M*3F
$GPGFA,134512.00,4.895,9.119,0.515,0.403,4.427,1.112,,VVV*03
$GPLLK,134512.00,010125,,M,,M,1,38,0.9,,M*09
$GNGMP,134512.00,,,,,DAAA,38,0.4,,,,*59
$GPGMP,134512.00,,,,,,09,,,,3.0,136*73
$GLGMP,134512.00,,,,,,08,,,,,*77
$GAGMP,134512.00,,,,,,07,,,,,*75
$GBGMP,134512.00,,,,,,14,,,,,*74
$PSSN,SNC,[0,308730000,2347]*4B
$GPZDA,134517.00,01,01,2025,,*66
$GPDTM,W84,,00.0000000,N,00.0000000,E,00.0000000,W84*5F
$PSSN,TFM,134517.00,,,,*6A
$GPRMC,134517.00,A,4742.1601672,N,01618.1009261,E,0.0,,010125,5.1,E,D*1B
$GPGLL,4742.1601672,N,01618.1009261,E,134517.00,A,D*6A
$GPGGA,134517.00,4742.1601672,N,01618.1009261,E,2,38,0.4,708.6906,M,43.2065,M,2.7,0136*49
$GNGNS,134517.00,4742.1601672,N,01618.1009261,E,DAAA,38,0.4,708.6906,43.2065,,*54
$GPGNS,134517.00,,,,,,09,,,,2.7,136*70
$GLGNS,134517.00,,,,,,08,,,,,*72
$GAGNS,134517.00,,,,,,07,,,,,*70
$GBGNS,134517.00,,,,,,14,,,,,*71
$GPLLQ,134517.00,010125,,M,,M,1,38,1.300,,M*1D
$GPVTG,,T,,M,0.00,N,0.00,K,D*26
$GPHDT,,T*1B
$GPTHS,,V*0E
$GPROT,,V*08
$PSSN,HRP,134517.00,010125,,,,,,,00,0,,*64
$PTNL,AVR,134517.00,,Yaw,,Tilt,,,,0,,00*32
$GPGSA,A,3,06,11,12,19,24,25,28,29,32,,,,0.8,0.4,0.7*35
$GPGSA,A,3,68,69,77,78,79,86,87,88,,,,,0.8,0.4,0.7*38
$GPGSA,A,3,02,07,27,29,30,34,36,,,,,,0.8,0.4,0.7*33
$GPGSA,A,3,05,07,10,11,12,24,25,26,32,34,35,41,0.8,0.4,0.7*39
$GPGSA,A,3,44,60,,,,,,,,,,,0.8,0.4,0.7*3F
$GPGST,134517.00,1.810,0.517,0.405,3.991,0.517,0.406,1.121*58
$GPGBS,134517.00,3.351,2.279,7.239,68,0.0001,6.356,6.557*57
$GPGRS,134517.00,1,0.3,0.4,0.3,-1.9,-0.2,-0.2,1.0,0.1,-0.6,,,*6F
$GPGRS,134517.00,1,6.4,1.7,-5.9,-1.7,1.4,-1.1,-0.9,-0.0,,,,*64
$GPGRS,134517.00,1,0.0,-0.2,-0.6,-0.7,0.1,0.0,0.1,,,,,*4B
$GPGRS,134517.00,1,0.4,-1.1,-0.1,0.6,-0.9,-0.2,-0.2,0.9,1.2,1.2,-0.2,-0.9*6E
$GPGRS,134517.00,1,0.9,-1.7,,,,,,,,,,*69
$GPGSV,5,1,19,12,68,063,49,24,33,155,43,28,21,312,40,06,27,055,42*78
$GPGSV,5,2,19,29,32,214,45,32,31,277,46,11,35,099,45,25,63,291,49*7B
$GPGSV,5,3,19,19,09,046,39,03,00,355,34,36,35,170,45,58,13,245,36*74
$GPGSV,5,4,19,40,23,133,36,34,31,208,43,49,34,195,45,57,04,114,38*76
$GPGSV,5,5,19,41,07,108,35,61,03,257,38*73
$GLGSV,3,1,10,78,65,335,52,68,17,255,47,86,11,024,43,79,17,300,46*67
$GLGSV,3,2,10,69,24,306,48,87,50,057,47,88,44,157,50,77,41,095,45*60
$GLGSV,3,3,10,70,01,003,31,81,00,186,*65
$GAGSV,3,1,11,30,80,016,49,29,31,295,43,36,30,059,42,34,32,121,44*63
$GAGSV,3,2,11,07,32,231,44,02,31,081,44,27,37,277,44,15,05,165,*66
$GAGSV,3,3,11,19,07,334,33,11,03,019,30,08,03,188,19*59
$GBGSV,6,1,22,24,72,112,51,11,11,194,39,41,10,278,40,34,33,186,47*69
$GBGSV,6,2,22,10,20,062,37,05,20,130,38,31,22,094,,56,27,052,*6C
$GBGSV,6,3,22,26,20,117,43,35,29,049,46,12,53,155,47,23,47,294,*60
$GBGSV,6,4,22,25,49,299,49,44,61,107,51,08,03,072,,02,04,108,33*68
$GBGSV,6,5,22,38,04,076,,40,00,050,28,07,07,060,37,32,08,328,39*65
$GBGSV,6,6,22,20,08,333,,60,08,110,40*68
$GPGGA,134517.00,,,,,0,00,,,M,,M,,*4D
$PTNL,GGK,134517.00,010125,4742.1601672,N,01618.1009261,E,1,38,0.8,EHT751.8972,M*48
$GPGGQ,134517.00,010125,4742.1601672,N,01618.1009261,E,1,38,1.300,708.6906,M*3D
$GPGFA,134517.00,4.917,9.196,0.517,0.405,3.991,1.121,,VVV*09
$GPLLK,134517.00,010125,,M,,M,1,38,0.9,,M*0C
$GNGMP,134517.00,,,,,DAAA,38,0.4,,,,*5C
$GPGMP,134517.00,,,,,,09,,,,2.7,136*70
$GLGMP,134517.00,,,,,,08,,,,,*72
$GAGMP,134517.00,,,,,,07,,,,,*70
$GBGMP,134517.00,,,,,,14,,,,,*71
$PSSN,SNC,[0,308735000,2347]*4E
$GPZDA,134522.00,01,01,2025,,*60
$GPDTM,W84,,00.0000000,N,00.0000000,E,00.0000000,W84*5F
$PSSN,TFM,134522.00,,,,*6C
$GPRMC,134522.00,A,4742.1601688,N,01618.1009277,E,0.0,,010125,5.1,E,D*1F
$GPGLL,4742.1601688,N,01618.1009277,E,134522.00,A,D*6E
$GPGGA,134522.00,4742.1601688,N,01618.1009277,E,2,38,0.4,708.6926,M,43.2065,M,2.3,0136*4B
$GNGNS,134522.00,4742.1601688,N,01618.1009277,E,DAAA,38,0.4,708.6926,43.2065,,*52
$GPGNS,134522.00,,,,,,09,,,,2.3,136*72
$GLGNS,134522.00,,,,,,08,,,,,*74
$GAGNS,134522.00,,,,,,07,,,,,*76
$GBGNS,134522.00,,,,,,14,,,,,*77
$GPLLQ,134522.00,010125,,M,,M,1,38,1.300,,M*1B
$GPVTG,,T,,M,0.00,N,0.01,K,D*27
$GPHDT,,T*1B
$GPTHS,,V*0E
$GPROT,,V*08
$PSSN,HRP,134522.00,010125,,,,,,,00,0,,*62
$PTNL,AVR,134522.00,,Yaw,,Tilt,,,,0,,00*34
$GPGSA,A,3,06,11,12,19,24,25,28,29,32,,,,0.8,0.4,0.7*35
$GPGSA,A,3,68,69,77,78,79,86,87,88,,,,,0.8,0.4,0.7*38
$GPGSA,A,3,02,07,27,29,30,34,36,,,,,,0.8,0.4,0.7*33
$GPGSA,A,3,05,07,10,11,12,24,25,26,32,34,35,41,0.8,0.4,0.7*39
$GPGSA,A,3,44,60,,,,,,,,,,,0.8,0.4,0.7*3F
$GPGST,134522.00,1.832,0.514,0.404,4.482,0.513,0.405,1.124*56
$GPGBS,134522.00,3.364,2.255,7.034,68,0.0001,6.268,6.558*55
$GPGRS,134522.00,1,-0.4,0.4,0.2,-2.3,-0.0,-0.2,1.0,0.3,-0.8,,,*45
$GPGRS,134522.00,1,6.3,2.0,-5.8,-1.2,1.3,-1.8,-0.9,-1.0,,,,*6A
$GPGRS,134522.00,1,-0.1,-0.2,-0.6,-0.2,0.1,0.2,0.2,,,,,*65
$GPGRS,134522.00,1,0.2,-0.7,-0.2,1.1,-1.0,-0.4,-0.4,0.6,1.1,1.1,-0.1,-1.1*61
$GPGRS,134522.00,1,0.6,-1.9,,,,,,,,,,*6E
$GPGSV,5,1,19,12,68,063,49,24,33,155,43,28,21,312,41,06,27,055,42*79
$GPGSV,5,2,19,29,32,214,45,32,31,277,46,11,35,098,45,25,63,291,49*7A
$GPGSV,5,3,19,19,09,046,39,03,00,355,33,36,35,170,45,58,13,245,36*73
$GPGSV,5,4,19,40,23,133,36,34,31,208,43,49,34,195,45,57,04,114,37*79
$GPGSV,5,5,19,41,07,108,35,61,03,257,38*73
$GLGSV,3,1,10,78,65,335,52,68,16,255,46,86,11,024,43,79,17,300,46*67
$GLGSV,3,2,10,69,24,306,47,87,50,057,48,88,44,157,51,77,41,095,45*61
$GLGSV,3,3,10,70,01,003,30,81,00,186,*64
$GAGSV,3,1,11,30,80,016,49,29,31,295,43,36,30,059,43,34,32,120,44*63
$GAGSV,3,2,11,07,32,231,44,02,31,081,44,27,37,277,44,15,05,165,*66
$GAGSV,3,3,11,19,07,334,34,11,03,019,31,08,03,188,20*55
$GBGSV,6,1,22,24,72,112,51,11,11,194,39,41,10,278,40,34,33,186,47*69
$GBGSV,6,2,22,10,20,062,37,05,20,130,39,31,22,094,,56,27,052,*6D
$GBGSV,6,3,22,26,20,117,43,35,29,049,46,12,53,155,47,23,47,294,*60
$GBGSV,6,4,22,25,49,299,49,44,61,107,51,08,03,072,,02,04,108,33*68
$GBGSV,6,5,22,38,04,076,,40,00,050,29,07,07,060,36,32,08,328,40*6B
$GBGSV,6,6,22,20,08,333,,60,08,110,40*68
$GPGGA,134522.00,,,,,0,00,,,M,,M,,*4B
$PTNL,GGK,134522.00,010125,4742.1601688,N,01618.1009277,E,1,38,0.8,EHT751.8991,M*41
$GPGGQ,134522.00,010125,4742.1601688,N,01618.1009277,E,1,38,1.300,708.6926,M*3B
$GPGFA,134522.00,4.887,9.216,0.514,0.404,4.482,1.124,,VVV*03
$GPLLK,134522.00,010125,,M,,M,1,38,0.9,,M*0A
$GNGMP,134522.00,,,,,DAAA,38,0.4,,,,*5A
$GPGMP,134522.00,,,,,,09,,,,2.3,136*72
$GLGMP,134522.00,,,,,,08,,,,,*74
$GAGMP,134522.00,,,,,,07,,,,,*76
$GBGMP,134522.00,,,,,,14,,,,,*77
$PSSN,SNC,[0,308740000,2347]*4C
$GPZDA,134527.00,01,01,2025,,*65
$GPDTM,W84,,00.0000000,N,00.0000000,E,00.0000000,W84*5F
$PSSN,TFM,134527.00,,,,*69
$GPRMC,134527.00,A,4742.1601687,N,01618.1009263,E,0.0,,010125,5.1,E,D*10
$GPGLL,4742.1601687,N,01618.1009263,E,134527.00,A,D*61
$GPGGA,134527.00,4742.1601687,N,01618.1009263,E,2,38,0.4,708.6874,M,43.2065,M,2.0,0136*41
$GNGNS,134527.00,4742.1601687,N,01618.1009263,E,DAAA,38,0.4,708.6874,43.2065,,*5B
$GPGNS,134527.00,,,,,,09,,,,2.0,136*74
$GLGNS,134527.00,,,,,,08,,,,,*71
$GAGNS,134527.00,,,,,,07,,,,,*73
$GBGNS,134527.00,,,,,,14,,,,,*72
$GPLLQ,134527.00,010125,,M,,M,1,38,1.292,,M*14
$GPVTG,,T,,M,0.00,N,0.01,K,D*27
$GPHDT,,T*1B
$GPTHS,,V*0E
$GPROT,,V*08
$PSSN,HRP,134527.00,010125,,,,,,,00,0,,*67
$PTNL,AVR,134527.00,,Yaw,,Tilt,,,,0,,00*31
$GPGSA,A,3,06,11,12,19,24,25,28,29,32,,,,0.8,0.4,0.7*35
$GPGSA,A,3,68,69,77,78,79,86,87,88,,,,,0.8,0.4,0.7*38
$GPGSA,A,3,02,07,27,29,30,34,36,,,,,,0.8,0.4,0.7*33
$GPGSA,A,3,05,07,10,11,12,24,25,26,32,34,35,41,0.8,0.4,0.7*39
$GPGSA,A,3,44,60,,,,,,,,,,,0.8,0.4,0.7*3F
$GPGST,134527.00,1.880,0.512,0.403,4.845,0.512,0.404,1.116*5D
$GPGBS,134527.00,3.393,2.256,7.108,32,0.0001,-1.333,1.198*70
$GPGRS,134527.00,1,-0.0,0.2,0.4,-1.7,-0.2,-0.2,1.4,0.2,-1.3,,,*4E
$GPGRS,134527.00,1,6.8,1.2,-6.0,-1.2,0.4,-1.8,-0.8,-0.5,,,,*6D
$GPGRS,134527.00,1,-0.0,-0.4,-0.4,-0.5,0.0,-0.1,0.3,,,,,*4C
$GPGRS,134527.00,1,0.8,-0.5,-0.1,1.1,-1.1,-0.4,-0.4,1.0,1.2,0.7,-0.2,-1.2*6D
$GPGRS,134527.00,1,0.8,-1.8,,,,,,,,,,*64
$GPGSV,5,1,19,12,68,063,49,24,33,155,44,28,21,312,41,06,27,055,42*7E
$GPGSV,5,2,19,29,32,214,45,32,31,277,46,11,35,098,45,25,63,291,49*7A
$GPGSV,5,3,19,19,09,046,39,03,00,355,34,36,35,170,45,58,13,245,36*74
$GPGSV,5,4,19,40,23,133,36,34,31,208,43,49,34,195,45,57,04,114,37*79
$GPGSV,5,5,19,41,07,108,35,61,03,257,38*73
$GLGSV,3,1,10,78,65,335,52,68,16,255,46,86,11,024,43,79,17,300,46*67
$GLGSV,3,2,10,69,24,306,47,87,50,057,48,88,44,157,51,77,41,095,44*60
$GLGSV,3,3,10,70,01,003,31,81,00,186,*65
$GAGSV,3,1,11,30,80,016,49,29,31,295,43,36,30,059,42,34,32,120,43*65
$GAGSV,3,2,11,07,32,231,44,02,31,081,43,27,37,277,44,15,05,165,*61
$GAGSV,3,3,11,19,07,334,33,11,03,019,31,08,03,188,21*53
$GBGSV,6,1,22,24,72,112,51,11,11,194,39,41,10,278,40,34,33,186,46*68
$GBGSV,6,2,22,10,20,062,37,05,20,130,39,31,22,094,,56,27,052,*6D
$GBGSV,6,3,22,26,20,117,44,35,29,049,45,12,53,155,47,23,47,294,*64
$GBGSV,6,4,22,25,49,299,49,44,61,106,51,08,03,072,,02,04,108,33*69
$GBGSV,6,5,22,38,04,076,,40,00,050,29,07,07,060,36,32,08,328,40*6B
$GBGSV,6,6,22,20,08,333,,60,08,110,40*68
$GPGGA,134527.00,,,,,0,00,,,M,,M,,*4E
$PTNL,GGK,134527.00,010125,4742.1601687,N,01618.1009263,E,1,38,0.8,EHT751.8940,M*42
$GPGGQ,134527.00,010125,4742.1601687,N,01618.1009263,E,1,38,1.292,708.6874,M*38
$GPGFA,134527.00,4.872,9.148,0.512,0.403,4.845,1.116,,VVV*03
$GPLLK,134527.00,010125,,M,,M,1,38,0.9,,M*0F
$GNGMP,134527.00,,,,,DAAA,38,0.4,,,,*5F
$GPGMP,134527.00,,,,,,09,,,,2.0,136*74
$GLGMP,134527.00,,,,,,08,,,,,*71
$GAGMP,134527.00,,,,,,07,,,,,*73
$GBGMP,134527.00,,,,,,14,,,,,*72
$PSSN,SNC,[0,308745000,2347]*49
$GPZDA,134532.00,01,01,2025,,*61
$GPDTM,W84,,00.0000000,N,00.0000000,E,00.0000000,W84*5F
$PSSN,TFM,134532.00,,,,*6D
$GPRMC,134532.00,A,4742.1601698,N,01618.1009249,E,0.0,,010125,5.1,E,D*12
$GPGLL,4742.1601698,N,01618.1009249,E,134532.00,A,D*63
$GPGGA,134532.00,4742.1601698,N,01618.1009249,E,2,38,0.4,708.6902,M,43.2065,M,3.0,0136*42
$GNGNS,134532.00,4742.1601698,N,01618.1009249,E,DAAA,38,0.4,708.6902,43.2065,,*59
$GPGNS,134532.00,,,,,,09,,,,3.0,136*71
$GLGNS,134532.00,,,,,,08,,,,,*75
$GAGNS,134532.00,,,,,,07,,,,,*77
$GBGNS,134532.00,,,,,,14,,,,,*76
$GPLLQ,134532.00,010125,,M,,M,1,38,1.290,,M*12
$GPVTG,,T,,M,0.00,N,0.00,K,D*26
$GPHDT,,T*1B
$GPTHS,,V*0E
$GPROT,,V*08
$PSSN,HRP,134532.00,010125,,,,,,,00,0,,*63
$PTNL,AVR,134532.00,,Yaw,,Tilt,,,,0,,00*35
$GPGSA,A,3,06,11,12,19,24,25,28,29,32,,,,0.8,0.4,0.7*35
$GPGSA,A,3,68,69,77,78,79,86,87,88,,,,,0.8,0.4,0.7*38
$GPGSA,A,3,02,07,27,29,30,34,36,,,,,,0.8,0.4,0.7*33
$GPGSA,A,3,05,07,10,11,12,24,25,26,32,34,35,41,0.8,0.4,0.7*39
$GPGSA,A,3,44,60,,,,,,,,,,,0.8,0.4,0.7*3F
$GPGST,134532.00,1.948,0.515,0.403,4.229,0.514,0.404,1.112*59
$GPGBS,134532.00,3.424,2.271,7.175,77,0.0001,-7.004,6.223*74
$GPGRS,134532.00,1,-0.0,0.3,-0.0,-2.4,0.3,-0.1,1.5,0.3,-0.9,,,*46
$GPGRS,134532.00,1,6.2,1.2,-7.0,-1.3,1.1,-0.7,-0.3,-0.2,,,,*65
$GPGRS,134532.00,1,0.1,-0.1,-0.5,-0.5,0.0,-0.1,0.2,,,,,*61
$GPGRS,134532.00,1,1.0,-0.8,0.2,1.0,-1.2,-0.3,-0.3,1.2,1.1,0.9,-0.4,-2.1*48
$GPGRS,134532.00,1,0.7,-1.9,,,,,,,,,,*6E
$GPGSV,5,1,19,12,68,063,49,24,33,155,44,28,21,312,41,06,27,055,43*7F
$GPGSV,5,2,19,29,32,214,45,32,31,277,46,11,35,098,45,25,63,291,49*7A
$GPGSV,5,3,19,19,09,046,39,03,00,355,34,36,35,170,46,58,13,245,36*77
$GPGSV,5,4,19,40,23,133,36,34,31,208,43,49,34,195,45,57,04,114,38*76
$GPGSV,5,5,19,41,07,108,35,61,03,257,38*73
$GLGSV,3,1,10,78,65,335,52,68,16,255,46,86,11,024,43,79,17,300,45*64
$GLGSV,3,2,10,69,24,306,47,87,50,057,48,88,44,157,51,77,41,095,44*60
$GLGSV,3,3,10,70,02,003,30,81,00,186,*67
$GAGSV,3,1,11,30,80,017,49,29,31,295,43,36,30,059,42,34,32,120,44*63
$GAGSV,3,2,11,07,32,231,44,02,31,081,44,27,37,277,44,15,05,165,*66
$GAGSV,3,3,11,19,07,334,33,11,03,019,31,08,03,188,23*51
$GBGSV,6,1,22,24,72,112,51,11,11,194,39,41,10,278,40,34,33,186,46*68
$GBGSV,6,2,22,10,20,062,37,05,20,130,39,31,22,094,,56,27,052,*6D
$GBGSV,6,3,22,26,20,117,44,35,29,049,45,12,53,155,47,23,47,294,*64
$GBGSV,6,4,22,25,49,299,49,44,61,106,51,08,03,072,,02,04,108,33*69
$GBGSV,6,5,22,38,04,076,,40,00,050,30,07,07,060,36,32,08,328,40*63
$GBGSV,6,6,22,20,08,333,,60,08,110,40*68
$GPGGA,134532.00,,,,,0,00,,,M,,M,,*4A
$PTNL,GGK,134532.00,010125,4742.1601698,N,01618.1009249,E,1,38,0.8,EHT751.8967,M*45
$GPGGQ,134532.00,010125,4742.1601698,N,01618.1009249,E,1,38,1.290,708.6902,M*38
$GPGFA,134532.00,4.895,9.122,0.515,0.403,4.229,1.112,,VVV*01
$GPLLK,134532.00,010125,,M,,M,1,38,0.9,,M*0B
$GNGMP,134532.00,,,,,DAAA,38,0.4,,,,*5B
$GPGMP,134532.00,,,,,,09,,,,3.0,136*71
$GLGMP,134532.00,,,,,,08,,,,,*75
$GAGMP,134532.00,,,,,,07,,,,,*77
$GBGMP,134532.00,,,,,,14,,,,,*76
$PSSN,SNC,[0,308750000,2347]*4D
$GPZDA,134537.00,01,01,2025,,*64
$GPDTM,W84,,00.0000000,N,00.0000000,E,00.0000000,W84*5F
$PSSN,TFM,134537.00,,,,*68
$GPRMC,134537.00,A,4742.1601711,N,01618.1009254,E,0.0,,010125,5.1,E,D*1B
$GPGLL,4742.1601711,N,01618.1009254,E,134537.00,A,D*6A
$GPGGA,134537.00,4742.1601711,N,01618.1009254,E,2,38,0.4,708.6951,M,43.2065,M,2.7,0136*4B
$GNGNS,134537.00,4742.1601711,N,01618.1009254,E,DAAA,38,0.4,708.6951,43.2065,,*56
$GPGNS,134537.00,,,,,,09,,,,2.7,136*72
$GLGNS,134537.00,,,,,,08,,,,,*70
$GAGNS,134537.00,,,,,,07,,,,,*72
$GBGNS,134537.00,,,,,,14,,,,,*73
$GPLLQ,134537.00,010125,,M,,M,1,38,1.300,,M*1F
$GPVTG,,T,,M,0.00,N,0.00,K,D*26
$GPHDT,,T*1B
$GPTHS,,V*0E
$GPROT,,V*08
$PSSN,HRP,134537.00,010125,,,,,,,00,0,,*66
$PTNL,AVR,134537.00,,Yaw,,Tilt,,,,0,,00*30
$GPGSA,A,3,06,11,12,19,24,25,28,29,32,,,,0.8,0.4,0.7*35
$GPGSA,A,3,68,69,77,78,79,86,87,88,,,,,0.8,0.4,0.7*38
$GPGSA,A,3,02,07,27,29,30,34,36,,,,,,0.8,0.4,0.7*33
$GPGSA,A,3,05,07,10,11,12,24,25,26,32,34,35,41,0.8,0.4,0.7*39
$GPGSA,A,3,44,60,,,,,,,,,,,0.8,0.4,0.7*3F
$GPGST,134537.00,1.785,0.517,0.405,3.820,0.517,0.406,1.122*51
$GPGBS,134537.00,3.353,2.279,7.213,77,0.0001,-5.934,6.223*75
$GPGRS,134537.00,1,0.1,0.3,0.1,-1.8,0.1,-0.3,1.2,0.2,-1.0,,,*42
$GPGRS,134537.00,1,6.1,1.7,-5.9,-1.5,0.8,-0.3,0.2,0.1,,,,*65
$GPGRS,134537.00,1,-0.1,-0.2,-0.2,-0.3,0.2,0.1,0.3,,,,,*65
$GPGRS,134537.00,1,0.9,-1.5,-0.5,0.2,-0.8,-0.3,-0.2,1.1,0.9,1.2,-0.3,-1.5*6A
$GPGRS,134537.00,1,0.8,-1.8,,,,,,,,,,*65
$GPGSV,5,1,19,12,68,063,49,24,33,155,44,28,21,312,41,06,27,055,43*7F
$GPGSV,5,2,19,29,32,215,45,32,31,277,46,11,35,098,45,25,63,291,49*7B
$GPGSV,5,3,19,19,09,046,39,03,00,355,34,36,35,170,46,58,13,245,36*77
$GPGSV,5,4,19,40,23,133,36,34,31,208,44,49,34,195,45,57,04,114,38*71
$GPGSV,5,5,19,41,07,108,35,61,03,257,38*73
$GLGSV,3,1,10,78,65,335,52,68,16,255,46,86,11,024,43,79,17,300,44*65
$GLGSV,3,2,10,69,24,306,47,87,50,057,48,88,44,157,51,77,41,095,44*60
$GLGSV,3,3,10,70,02,003,30,81,00,186,*67
$GAGSV,3,1,11,30,80,017,49,29,31,295,43,36,30,059,42,34,32,120,44*63
$GAGSV,3,2,11,07,32,231,44,02,31,081,43,27,37,277,44,15,05,165,*61
$GAGSV,3,3,11,19,07,334,32,11,03,019,32,08,03,188,21*51
$GBGSV,6,1,22,24,72,112,51,11,11,194,39,41,10,278,40,34,33,186,47*69
$GBGSV,6,2,22,10,20,062,37,05,20,130,39,31,22,094,,56,27,052,*6D
$GBGSV,6,3,22,26,20,117,44,35,29,049,45,12,53,155,47,23,47,294,*64
$GBGSV,6,4,22,25,49,299,49,44,61,106,51,08,03,072,,02,04,108,33*69
$GBGSV,6,5,22,38,04,076,,40,00,050,29,07,07,060,36,32,08,328,40*6B
$GBGSV,6,6,22,20,08,333,,60,08,110,40*68
$GPGGA,134537.00,,,,,0,00,,,M,,M,,*4F
$PTNL,GGK,134537.00,010125,4742.1601711,N,01618.1009254,E,1,38,0.8,EHT751.9016,M*42
$GPGGQ,134537.00,010125,4742.1601711,N,01618.1009254,E,1,38,1.300,708.6951,M*3F
$GPGFA,134537.00,4.916,9.198,0.517,0.405,3.820,1.122,,VVV*0C
$GPLLK,134537.00,010125,,M,,M,1,38,0.9,,M*0E
$GNGMP,134537.00,,,,,DAAA,38,0.4,,,,*5E
$GPGMP,134537.00,,,,,,09,,,,2.7,136*72
$GLGMP,134537.00,,,,,,08,,,,,*70
$GAGMP,134537.00,,,,,,07,,,,,*72
$GBGMP,134537.00,,,,,,14,,,,,*73
$PSSN,SNC,[0,308755000,2347]*48
$GPZDA,134542.00,01,01,2025,,*66
$GPDTM,W84,,00.0000000,N,00.0000000,E,00.0000000,W84*5F
$PSSN,TFM,134542.00,,,,*6A
$GPRMC,134542.00,A,4742.1601710,N,01618.1009253,E,0.0,,010125,5.1,E,D*1F
$GPGLL,4742.1601710,N,01618.1009253,E,134542.00,A,D*6E
$GPGGA,134542.00,4742.1601710,N,01618.1009253,E,2,38,0.4,708.6886,M,43.2065,M,2.3,0136*40
$GNGNS,134542.00,4742.1601710,N,01618.1009253,E,DAAA,38,0.4,708.6886,43.2065,,*59
$GPGNS,134542.00,,,,,,09,,,,2.3,136*74
$GLGNS,134542.00,,,,,,08,,,,,*72
$GAGNS,134542.00,,,,,,07,,,,,*70
$GBGNS,134542.00,,,,,,14,,,,,*71
$GPLLQ,134542.00,010125,,M,,M,1,38,1.300,,M*1D
$GPVTG,,T,,M,0.01,N,0.02,K,D*25
$GPHDT,,T*1B
$GPTHS,,V*0E
$GPROT,,V*08
$PSSN,HRP,134542.00,010125,,,,,,,00,0,,*64
$PTNL,AVR,134542.00,,Yaw,,Tilt,,,,0,,00*32
$GPGSA,A,3,06,11,12,19,24,25,28,29,32,,,,0.8,0.4,0.7*35
$GPGSA,A,3,68,69,77,78,79,86,87,88,,,,,0.8,0.4,0.7*38
$GPGSA,A,3,02,07,27,29,30,34,36,,,,,,0.8,0.4,0.7*33
$GPGSA,A,3,05,07,10,11,12,24,25,26,32,34,35,41,0.8,0.4,0.7*39
$GPGSA,A,3,44,60,,,,,,,,,,,0.8,0.4,0.7*3F
$GPGST,134542.00,1.839,0.514,0.404,4.305,0.513,0.405,1.124*53
$GPGBS,134542.00,3.364,2.255,7.006,68,0.0001,6.760,6.562*56
$GPGRS,134542.00,1,-0.1,0.0,0.4,-1.7,-0.2,-0.3,1.4,0.2,-1.0,,,*4C
$GPGRS,134542.00,1,6.8,1.7,-5.6,-1.2,0.3,-1.6,-0.2,-0.1,,,,*69
$GPGRS,134542.00,1,-0.1,0.2,-0.1,-0.3,0.1,0.4,0.5,,,,,*49
$GPGRS,134542.00,1,0.7,-1.6,-0.4,0.8,-0.4,-0.2,-0.1,1.3,0.9,1.0,-0.5,-1.6*65
$GPGRS,134542.00,1,1.1,-1.7,,,,,,,,,,*60
$GPGSV,5,1,19,12,68,063,50,24,33,155,45,28,21,312,41,06,27,055,43*76
$GPGSV,5,2,19,29,32,215,46,32,31,277,46,11,35,098,45,25,63,291,49*78
$GPGSV,5,3,19,19,09,046,39,03,00,355,35,36,35,170,45,58,13,245,36*75
$GPGSV,5,4,19,40,23,133,36,34,31,208,43,49,34,195,45,57,04,114,37*79
$GPGSV,5,5,19,41,07,108,35,61,03,257,38*73
$GLGSV,3,1,10,78,65,335,52,68,16,255,47,86,11,024,42,79,17,300,44*65
$GLGSV,3,2,10,69,24,306,47,87,50,057,47,88,44,157,51,77,41,095,45*6E
$GLGSV,3,3,10,70,02,003,31,81,00,186,*66
$GAGSV,3,1,11,30,80,017,49,29,31,295,43,36,30,059,43,34,32,120,44*62
$GAGSV,3,2,11,07,32,231,44,02,31,081,43,27,37,277,44,15,05,165,*61
$GAGSV,3,3,11,19,07,334,33,11,03,019,31,08,03,188,23*51
$GBGSV,6,1,22,24,72,112,51,11,11,194,39,41,10,278,40,34,33,186,46*68
$GBGSV,6,2,22,10,20,062,38,05,20,130,39,31,22,094,,56,27,052,*62
$GBGSV,6,3,22,26,20,117,44,35,29,049,45,12,53,155,48,23,47,294,*6B
$GBGSV,6,4,22,25,49,299,49,44,61,106,51,08,03,072,,02,04,108,33*69
$GBGSV,6,5,22,38,04,076,,40,00,050,29,07,07,060,36,32,08,328,40*6B
$GBGSV,6,6,22,20,08,333,,60,08,110,40*68
$GPGGA,134542.00,,,,,0,00,,,M,,M,,*4D
$PTNL,GGK,134542.00,010125,4742.1601710,N,01618.1009253,E,1,38,0.8,EHT751.8951,M*4D
$GPGGQ,134542.00,010125,4742.1601710,N,01618.1009253,E,1,38,1.300,708.6886,M*30
$GPGFA,134542.00,4.886,9.217,0.514,0.404,4.305,1.124,,VVV*0D
$GPLLK,134542.00,010125,,M,,M,1,38,0.9,,M*0C
$GNGMP,134542.00,,,,,DAAA,38,0.4,,,,*5C
$GPGMP,134542.00,,,,,,09,,,,2.3,136*74
$GLGMP,134542.00,,,,,,08,,,,,*72
$GAGMP,134542.00,,,,,,07,,,,,*70
$GBGMP,134542.00,,,,,,14,,,,,*71
$PSSN,SNC,[0,308760000,2347]*4E
$GPZDA,134547.00,01,01,2025,,*63
$GPDTM,W84,,00.0000000,N,00.0000000,E,00.0000000,W84*5F
$PSSN,TFM,134547.00,,,,*6F
$GPRMC,134547.00,A,4742.1601720,N,01618.1009252,E,0.0,,010125,5.1,E,D*18
$GPGLL,4742.1601720,N,01618.1009252,E,134547.00,A,D*69
$GPGGA,134547.00,4742.1601720,N,01618.1009252,E,2,38,0.4,708.6895,M,43.2065,M,2.0,0136*46
$GNGNS,134547.00,4742.1601720,N,01618.1009252,E,DAAA,38,0.4,708.6895,43.2065,,*5C
$GPGNS,134547.00,,,,,,09,,,,2.0,136*72
$GLGNS,134547.00,,,,,,08,,,,,*77
$GAGNS,134547.00,,,,,,07,,,,,*75
$GBGNS,134547.00,,,,,,14,,,,,*74
$GPLLQ,134547.00,010125,,M,,M,1,38,1.292,,M*12
$GPVTG,,T,,M,0.00,N,0.01,K,D*27
$GPHDT,,T*1B
$GPTHS,,V*0E
$GPROT,,V*08
$PSSN,HRP,134547.00,010125,,,,,,,00,0,,*61
$PTNL,AVR,134547.00,,Yaw,,Tilt,,,,0,,00*37
$GPGSA,A,3,06,11,12,19,24,25,28,29,32,,,,0.8,0.4,0.7*35
$GPGSA,A,3,68,69,77,78,79,86,87,88,,,,,0.8,0.4,0.7*38
$GPGSA,A,3,02,07,27,29,30,34,36,,,,,,0.8,0.4,0.7*33
$GPGSA,A,3,05,07,10,11,12,24,25,26,32,34,35,41,0.8,0.4,0.7*39
$GPGSA,A,3,44,60,,,,,,,,,,,0.8,0.4,0.7*3F
$GPGST,134547.00,1.878,0.512,0.403,4.666,0.512,0.404,1.115*50
$GPGBS,134547.00,3.394,2.255,7.081,28,0.0001,1.733,1.560*53
$GPGRS,134547.00,1,-0.3,0.1,0.5,-1.9,-0.1,-0.2,1.7,0.3,-1.3,,,*46
$GPGRS,134547.00,1,6.6,1.6,-5.6,-1.2,0.3,-1.5,-1.4,-0.8,,,,*6E
$GPGRS,134547.00,1,-0.0,0.0,-0.4,-0.6,0.0,0.2,0.8,,,,,*45
$GPGRS,134547.00,1,0.5,-2.1,0.4,0.6,-0.0,-0.2,-0.2,0.9,0.8,0.9,-0.6,-1.7*42
$GPGRS,134547.00,1,1.0,-1.8,,,,,,,,,,*6B
$GPGSV,5,1,19,12,68,063,50,24,33,155,44,28,21,312,42,06,27,055,43*74
$GPGSV,5,2,19,29,32,215,45,32,31,277,46,11,35,098,45,25,63,292,50*70
$GPGSV,5,3,19,19,09,046,39,03,00,354,35,36,35,170,46,58,13,245,36*77
$GPGSV,5,4,19,40,23,133,37,34,31,208,43,49,34,195,45,57,04,114,38*77
$GPGSV,5,5,19,41,07,108,35,61,03,257,38*73
$GLGSV,3,1,10,78,65,335,53,68,16,254,46,86,11,024,42,79,17,300,44*64
$GLGSV,3,2,10,69,24,306,48,87,50,057,47,88,44,157,51,77,40,095,44*61
$GLGSV,3,3,10,70,02,003,31,81,00,186,*66
$GAGSV,3,1,11,30,80,017,49,29,31,295,43,36,30,059,43,34,32,120,44*62
$GAGSV,3,2,11,07,32,231,44,02,31,081,43,27,37,277,44,15,05,165,*61
$GAGSV,3,3,11,19,07,334,32,11,03,019,31,08,03,188,22*51
$GBGSV,6,1,22,24,72,112,51,11,11,194,39,10,20,062,38,05,20,130,39*6C
$GBGSV,6,2,22,56,27,052,,26,20,117,43,34,33,186,46,31,22,094,*6D
$GBGSV,6,3,22,35,29,049,45,12,54,155,47,23,47,294,,25,49,299,49*67
$GBGSV,6,4,22,44,61,106,51,32,08,328,39,02,04,108,33,08,03,072,*66
$GBGSV,6,5,22,38,04,076,,40,00,050,30,41,10,278,41,20,08,333,*61
$GBGSV,6,6,22,07,07,060,36,60,08,110,40*62
$GPGGA,134547.00,,,,,0,00,,,M,,M,,*48
$PTNL,GGK,134547.00,010125,4742.1601720,N,01618.1009252,E,1,38,0.8,EHT751.8961,M*49
$GPGGQ,134547.00,010125,4742.1601720,N,01618.1009252,E,1,38,1.292,708.6895,M*3F
$GPGFA,134547.00,4.870,9.147,0.512,0.403,4.666,1.115,,VVV*04
$GPLLK,134547.00,010125,,M,,M,1,38,0.9,,M*09
$GNGMP,134547.00,,,,,DAAA,38,0.4,,,,*59
$GPGMP,134547.00,,,,,,09,,,,2.0,136*72
$GLGMP,134547.00,,,,,,08,,,,,*77
$GAGMP,134547.00,,,,,,07,,,,,*75
$GBGMP,134547.00,,,,,,14,,,,,*74
$PSSN,SNC,[0,308765000,2347]*4B
$GPZDA,134552.00,01,01,2025,,*67
$GPDTM,W84,,00.0000000,N,00.0000000,E,00.0000000,W84*5F
$PSSN,TFM,134552.00,,,,*6B
$GPRMC,134552.00,A,4742.1601714,N,01618.1009270,E,0.0,,010125,5.1,E,D*1B
$GPGLL,4742.1601714,N,01618.1009270,E,134552.00,A,D*6A
$GPGGA,134552.00,4742.1601714,N,01618.1009270,E,2,38,0.4,708.6878,M,43.2065,M,3.0,0136*47
$GNGNS,134552.00,4742.1601714,N,01618.1009270,E,DAAA,38,0.4,708.6878,43.2065,,*5C
$GPGNS,134552.00,,,,,,09,,,,3.0,136*77
$GLGNS,134552.00,,,,,,08,,,,,*73
$GAGNS,134552.00,,,,,,07,,,,,*71
$GBGNS,134552.00,,,,,,14,,,,,*70
$GPLLQ,134552.00,010125,,M,,M,1,38,1.290,,M*14
$GPVTG,,T,,M,0.00,N,0.00,K,D*26
$GPHDT,,T*1B
$GPTHS,,V*0E
$GPROT,,V*08
$PSSN,HRP,134552.00,010125,,,,,,,00,0,,*65
$PTNL,AVR,134552.00,,Yaw,,Tilt,,,,0,,00*33
$GPGSA,A,3,06,11,12,19,24,25,28,29,32,,,,0.8,0.4,0.7*35
$GPGSA,A,3,68,69,77,78,79,86,87,88,,,,,0.8,0.4,0.7*38
$GPGSA,A,3,02,07,27,29,30,34,36,,,,,,0.8,0.4,0.7*33
$GPGSA,A,3,05,07,10,11,12,24,25,26,32,34,35,41,0.8,0.4,0.7*39
$GPGSA,A,3,44,60,,,,,,,,,,,0.8,0.4,0.7*3F
$GPGST,134552.00,1.721,0.515,0.403,4.057,0.514,0.404,1.112*55
$GPGBS,134552.00,3.424,2.271,7.148,77,0.0001,-6.006,6.223*7F
$GPGRS,134552.00,1,-0.3,0.2,0.3,-1.7,-0.0,-0.2,1.3,-0.1,-0.9,,,*68
$GPGRS,134552.00,1,5.4,2.0,-6.0,-1.1,0.5,-1.5,-0.4,-0.6,,,,*61
$GPGRS,134552.00,1,0.3,-0.2,-0.2,-0.8,0.2,0.1,0.5,,,,,*44
$GPGRS,134552.00,1,0.9,-1.1,0.4,0.8,-0.5,-0.1,-0.1,0.6,1.0,1.3,-0.2,-1.2*4E
$GPGRS,134552.00,1,0.7,-1.8,,,,,,,,,,*69
$GPGSV,5,1,19,12,68,064,49,24,33,155,44,28,21,312,42,06,27,054,43*7A
$GPGSV,5,2,19,29,32,215,46,32,31,277,45,11,35,098,45,25,63,292,49*78
$GPGSV,5,3,19,19,09,046,39,03,00,354,36,36,35,170,45,58,13,245,36*77
$GPGSV,5,4,19,40,23,133,36,34,31,208,43,49,34,195,45,57,04,114,37*79
$GPGSV,5,5,19,41,07,108,35,61,03,257,38*73
$GLGSV,3,1,10,78,65,335,52,68,16,254,46,86,11,024,42,79,17,300,45*64
$GLGSV,3,2,10,69,24,306,47,87,50,057,48,88,44,157,51,77,40,095,45*60
$GLGSV,3,3,10,70,02,003,31,81,00,186,*66
$GAGSV,3,1,11,30,80,017,49,29,31,295,43,36,30,059,43,34,32,120,44*62
$GAGSV,3,2,11,07,32,231,44,02,31,081,43,27,37,277,45,15,05,165,*60
$GAGSV,3,3,11,19,07,334,33,11,03,019,31,08,03,188,22*50
$GBGSV,6,1,22,24,72,112,51,11,11,194,39,10,20,062,38,05,20,130,39*6C
$GBGSV,6,2,22,56,27,052,,26,20,117,43,34,33,186,47,31,22,094,*6C
$GBGSV,6,3,22,35,29,049,46,12,54,155,47,23,47,294,,25,49,299,49*64
$GBGSV,6,4,22,44,61,106,51,32,08,328,40,02,04,108,34,08,03,071,*6C
$GBGSV,6,5,22,38,04,076,,40,00,050,30,41,10,277,41,20,08,333,*6E
$GBGSV,6,6,22,07,07,060,36,60,08,110,40*62
$GPGGA,134552.00,,,,,0,00,,,M,,M,,*4C
$PTNL,GGK,134552.00,010125,4742.1601714,N,01618.1009270,E,1,38,0.8,EHT751.8944,M*4D
$GPGGQ,134552.00,010125,4742.1601714,N,01618.1009270,E,1,38,1.290,708.6878,M*3D
$GPGFA,134552.00,4.894,9.122,0.515,0.403,4.057,1.112,,VVV*0D
$GPLLK,134552.00,010125,,M,,M,1,38,0.9,,M*0D
$GNGMP,134552.00,,,,,DAAA,38,0.4,,,,*5D
$GPGMP,134552.00,,,,,,09,,,,3.0,136*77
$GLGMP,134552.00,,,,,,08,,,,,*73
$GAGMP,134552.00,,,,,,07,,,,,*71
$GBGMP,134552.00,,,,,,14,,,,,*70
$PSSN,SNC,[0,308770000,2347]*4F
$GPZDA,134557.00,01,01,2025,,*62
$GPDTM,W84,,00.0000000,N,00.0000000,E,00.0000000,W84*5F
$PSSN,TFM,134557.00,,,,*6E
$GPRMC,134557.00,A,4742.1601721,N,01618.1009261,E,0.0,,010125,5.1,E,D*18
$GPGLL,4742.1601721,N,01618.1009261,E,134557.00,A,D*69
$GPGGA,134557.00,4742.1601721,N,01618.1009261,E,2,38,0.4,708.6842,M,43.2065,M,2.7,0136*4B
$GNGNS,134557.00,4742.1601721,N,01618.1009261,E,DAAA,38,0.4,708.6842,43.2065,,*56
$GPGNS,134557.00,,,,,,09,,,,2.7,136*74
$GLGNS,134557.00,,,,,,08,,,,,*76
$GAGNS,134557.00,,,,,,07,,,,,*74
$GBGNS,134557.00,,,,,,14,,,,,*75
$GPLLQ,134557.00,010125,,M,,M,1,38,1.301,,M*18
$GPVTG,,T,,M,0.00,N,0.01,K,D*27
$GPHDT,,T*1B
$GPTHS,,V*0E
$GPROT,,V*08
$PSSN,HRP,134557.00,010125,,,,,,,00,0,,*60
$PTNL,AVR,134557.00,,Yaw,,Tilt,,,,0,,00*36
$GPGSA,A,3,06,11,12,19,24,25,28,29,32,,,,0.8,0.4,0.7*35
$GPGSA,A,3,68,69,77,78,79,86,87,88,,,,,0.8,0.4,0.7*38
$GPGSA,A,3,02,07,27,29,30,34,36,,,,,,0.8,0.4,0.7*33
$GPGSA,A,3,05,07,10,11,12,24,25,26,32,34,35,41,0.8,0.4,0.7*39
$GPGSA,A,3,44,60,,,,,,,,,,,0.8,0.4,0.7*3F
$GPGST,134557.00,1.791,0.517,0.405,3.729,0.517,0.406,1.123*55
$GPGBS,134557.00,3.353,2.281,7.190,68,0.0001,6.392,6.565*5F
$GPGRS,134557.00,1,-0.3,0.2,0.3,-1.5,-0.2,-0.4,0.9,0.4,-0.7,,,*46
$GPGRS,134557.00,1,6.4,1.6,-5.4,-1.2,1.2,-1.6,0.1,-0.7,,,,*4A
$GPGRS,134557.00,1,0.4,-0.3,-0.2,-0.5,0.2,0.2,0.4,,,,,*48
$GPGRS,134557.00,1,0.7,-1.4,0.1,0.8,-0.9,-0.2,0.1,0.8,2.0,1.6,0.2,-1.6*46
$GPGRS,134557.00,1,0.9,-1.6,,,,,,,,,,*6C
$GPGSV,5,1,19,12,68,064,49,24,33,155,44,28,21,312,42,06,27,054,42*7B
$GPGSV,5,2,19,29,32,215,46,32,31,277,46,11,35,098,45,25,63,292,49*7B
$GPGSV,5,3,19,19,09,046,39,03,00,354,35,36,35,170,45,58,13,245,36*74
$GPGSV,5,4,19,40,23,133,36,34,31,208,43,49,34,195,45,57,04,114,37*79
$GPGSV,5,5,19,41,07,108,35,61,03,257,38*73
$GLGSV,3,1,10,78,65,335,53,68,16,254,47,86,11,024,42,79,17,300,45*64
$GLGSV,3,2,10,69,24,305,47,87,50,057,48,88,44,157,51,77,40,095,45*63
$GLGSV,3,3,10,70,02,003,31,81,00,186,*66
$GAGSV,3,1,11,30,80,017,49,29,31,295,43,36,30,059,43,34,32,120,43*65
$GAGSV,3,2,11,07,32,231,44,02,31,082,44,27,37,277,44,15,05,165,*65
$GAGSV,3,3,11,19,07,334,33,11,03,019,30,08,03,188,21*52
$GBGSV,6,1,22,24,72,112,51,11,11,194,39,10,20,062,38,05,20,130,39*6C
$GBGSV,6,2,22,56,27,052,,26,20,117,43,34,33,186,46,31,22,094,*6D
$GBGSV,6,3,22,35,29,049,46,12,54,155,47,23,47,294,,25,49,299,49*64
$GBGSV,6,4,22,44,61,106,51,32,08,328,41,02,04,108,33,08,03,071,*6A
$GBGSV,6,5,22,38,04,076,,40,00,050,30,41,10,277,40,20,08,333,*6F
$GBGSV,6,6,22,07,07,060,36,60,08,110,40*62
$GPGGA,134557.00,,,,,0,00,,,M,,M,,*49
$PTNL,GGK,134557.00,010125,4742.1601721,N,01618.1009261,E,1,38,0.8,EHT751.8907,M*49
$GPGGQ,134557.00,010125,4742.1601721,N,01618.1009261,E,1,38,1.301,708.6842,M*3E
$GPGFA,134557.00,4.918,9.208,0.517,0.405,3.729,1.123,,VVV*09
$GPLLK,134557.00,010125,,M,,M,1,38,0.9,,M*08
$GNGMP,134557.00,,,,,DAAA,38,0.4,,,,*58
$GPGMP,134557.00,,,,,,09,,,,2.7,136*74
$GLGMP,134557.00,,,,,,08,,,,,*76
$GAGMP,134557.00,,,,,,07,,,,,*74
$GBGMP,134557.00,,,,,,14,,,,,*75
$PSSN,SNC,[0,308775000,2347]*4A
$GPZDA,134602.00,01,01,2025,,*61
$GPDTM,W84,,00.0000000,N,00.0000000,E,00.0000000,W84*5F
$PSSN,TFM,134602.00,,,,*6D
$GPRMC,134602.00,A,4742.1601718,N,01618.1009277,E,0.0,,010125,5.1,E,D*16
$GPGLL,4742.1601718,N,01618.1009277,E,134602.00,A,D*67
$GPGGA,134602.00,4742.1601718,N,01618.1009277,E,2,38,0.4,708.6865,M,43.2065,M,2.3,0136*44
$GNGNS,134602.00,4742.1601718,N,01618.1009277,E,DAAA,38,0.4,708.6865,43.2065,,*5D
$GPGNS,134602.00,,,,,,09,,,,2.3,136*73
$GLGNS,134602.00,,,,,,08,,,,,*75
$GAGNS,134602.00,,,,,,07,,,,,*77
$GBGNS,134602.00,,,,,,14,,,,,*76
$GPLLQ,134602.00,010125,,M,,M,1,38,1.302,,M*18
$GPVTG,,T,,M,0.00,N,0.01,K,D*27
$GPHDT,,T*1B
$GPTHS,,V*0E
$GPROT,,V*08
$PSSN,HRP,134602.00,010125,,,,,,,00,0,,*63
$PTNL,AVR,134602.00,,Yaw,,Tilt,,,,0,,00*35
$GPGSA,A,3,06,11,12,19,24,25,28,29,32,,,,0.8,0.4,0.7*35
$GPGSA,A,3,68,69,77,78,79,86,87,88,,,,,0.8,0.4,0.7*38
$GPGSA,A,3,02,07,27,29,30,34,36,,,,,,0.8,0.4,0.7*33
$GPGSA,A,3,05,07,10,11,12,24,25,26,32,34,35,41,0.8,0.4,0.7*39
$GPGSA,A,3,44,60,,,,,,,,,,,0.8,0.4,0.7*3F
$GPGST,134602.00,1.807,0.514,0.404,4.200,0.514,0.405,1.125*5B
$GPGBS,134602.00,3.365,2.258,6.980,68,0.0001,6.738,6.566*52
$GPGRS,134602.00,1,-0.1,-0.0,0.3,-0.7,-0.4,-0.1,1.3,-0.0,-0.4,,,*49
$GPGRS,134602.00,1,6.7,1.6,-5.9,-0.9,0.3,-1.0,-0.4,-0.2,,,,*66
$GPGRS,134602.00,1,0.3,-0.1,-0.4,-0.6,0.3,0.2,0.4,,,,,*4A
$GPGRS,134602.00,1,0.8,-0.4,0.4,0.2,-0.8,-0.1,-0.0,1.1,0.9,1.5,0.1,-1.7*68
$GPGRS,134602.00,1,1.0,-1.8,,,,,,,,,,*69
$GPGSV,5,1,19,12,68,064,50,24,33,155,44,28,21,312,42,06,27,054,42*73
$GPGSV,5,2,19,29,32,215,46,32,31,277,46,11,35,098,45,25,63,292,49*7B
$GPGSV,5,3,19,19,08,046,39,03,00,354,34,36,35,170,46,58,13,245,37*76
$GPGSV,5,4,19,40,23,133,37,34,31,208,43,49,34,195,45,57,04,114,38*77
$GPGSV,5,5,19,41,07,108,35,61,03,257,38*73
$GLGSV,3,1,10,78,65,335,52,68,16,254,47,86,11,024,42,79,17,300,45*65
$GLGSV,3,2,10,69,24,305,47,87,50,056,48,88,44,157,51,77,40,095,45*62
$GLGSV,3,3,10,70,02,003,30,81,01,186,*66
$GAGSV,3,1,11,30,80,018,49,29,31,295,44,36,30,059,43,34,32,120,44*6A
$GAGSV,3,2,11,07,32,231,44,02,31,082,44,27,37,277,45,15,05,165,*64
$GAGSV,3,3,11,19,07,334,33,11,03,019,30,08,03,188,22*51
$GBGSV,6,1,22,24,72,113,51,11,11,194,39,10,20,062,38,05,20,130,38*6C
$GBGSV,6,2,22,56,27,052,,26,20,117,43,34,33,186,46,31,22,094,*6D
$GBGSV,6,3,22,35,29,049,45,12,54,155,47,23,47,294,,25,49,299,48*66
$GBGSV,6,4,22,44,61,106,50,32,08,328,41,02,04,108,33,08,03,071,*6B
$GBGSV,6,5,22,38,04,076,,40,00,050,30,41,10,277,40,20,08,333,*6F
$GBGSV,6,6,22,07,07,060,36,60,08,110,40*62
$GPGGA,134602.00,,,,,0,00,,,M,,M,,*4A
$PTNL,GGK,134602.00,010125,4742.1601718,N,01618.1009277,E,1,38,0.8,EHT751.8930,M*43
$GPGGQ,134602.00,010125,4742.1601718,N,01618.1009277,E,1,38,1.302,708.6865,M*36
$GPGFA,134602.00,4.889,9.227,0.514,0.404,4.200,1.125,,VVV*03
$GPLLK,134602.00,010125,,M,,M,1,38,0.9,,M*0B
$GNGMP,134602.00,,,,,DAAA,38,0.4,,,,*5B
$GPGMP,134602.00,,,,,,09,,,,2.3,136*73
$GLGMP,134602.00,,,,,,08,,,,,*75
$GAGMP,134602.00,,,,,,07,,,,,*77
$GBGMP,134602.00,,,,,,14,,,,,*76
$PSSN,SNC,[0,308780000,2347]*40
$GPZDA,134607.00,01,01,2025,,*64
$GPDTM,W84,,00.0000000,N,00.0000000,E,00.0000000,W84*5F
$PSSN,TFM,134607.00,,,,*68
$GPRMC,134607.00,A,4742.1601712,N,01618.1009276,E,0.0,,010125,5.1,E,D*18
$GPGLL,4742.1601712,N,01618.1009276,E,134607.00,A,D*69
$GPGGA,134607.00,4742.1601712,N,01618.1009276,E,2,38,0.4,708.6862,M,43.2065,M,2.0,0136*4E
$GNGNS,134607.00,4742.1601712,N,01618.1009276,E,DAAA,38,0.4,708.6862,43.2065,,*54
$GPGNS,134607.00,,,,,,09,,,,2.0,136*75
$GLGNS,134607.00,,,,,,08,,,,,*70
$GAGNS,134607.00,,,,,,07,,,,,*72
$GBGNS,134607.00,,,,,,14,,,,,*73
$GPLLQ,134607.00,010125,,M,,M,1,38,1.293,,M*14
$GPVTG,,T,,M,0.00,N,0.01,K,D*27
$GPHDT,,T*1B
$GPTHS,,V*0E
$GPROT,,V*08
$PSSN,HRP,134607.00,010125,,,,,,,00,0,,*66
$PTNL,AVR,134607.00,,Yaw,,Tilt,,,,0,,00*30
$GPGSA,A,3,06,11,12,19,24,25,28,29,32,,,,0.8,0.4,0.7*35
$GPGSA,A,3,68,69,77,78,79,86,87,88,,,,,0.8,0.4,0.7*38
$GPGSA,A,3,02,07,27,29,30,34,36,,,,,,0.8,0.4,0.7*33
$GPGSA,A,3,05,07,10,11,12,24,25,26,32,34,35,41,0.8,0.4,0.7*39
$GPGSA,A,3,44,60,,,,,,,,,,,0.8,0.4,0.7*3F
$GPGST,134607.00,1.731,0.513,0.404,4.564,0.512,0.404,1.117*50
$GPGBS,134607.00,3.395,2.258,7.057,77,0.0001,-6.103,6.224*76
$GPGRS,134607.00,1,-0.2,0.3,0.4,-1.3,0.1,-0.1,0.9,-0.1,-0.9,,,*4C
$GPGRS,134607.00,1,5.9,1.1,-6.1,-1.2,0.5,-1.1,-0.6,0.1,,,,*43
$GPGRS,134607.00,1,0.1,0.0,-0.1,-0.6,0.3,0.3,0.6,,,,,*67
$GPGRS,134607.00,1,0.4,-0.5,0.9,0.1,-0.6,-0.1,0.1,1.2,0.3,1.5,-0.6,-1.4*6C
$GPGRS,134607.00,1,0.9,-1.8,,,,,,,,,,*64
$GPGSV,5,1,19,12,68,064,49,24,33,155,44,28,21,312,42,06,27,054,42*7B
$GPGSV,5,2,19,29,32,215,45,32,31,277,45,11,35,098,45,25,63,292,49*7B
$GPGSV,5,3,19,19,08,046,39,03,00,354,33,36,35,170,46,58,13,245,36*70
$GPGSV,5,4,19,40,23,133,36,34,31,208,43,49,34,195,45,57,04,114,38*76
$GPGSV,5,5,19,41,07,108,35,61,03,257,38*73
$GLGSV,3,1,10,78,65,336,52,68,16,254,46,86,11,024,42,79,17,300,45*67
$GLGSV,3,2,10,69,24,305,46,87,50,056,48,88,44,157,51,77,40,095,44*62
$GLGSV,3,3,10,70,02,003,32,81,01,186,*64
$GAGSV,3,1,11,30,80,018,49,29,31,295,43,36,30,059,43,34,32,120,44*6D
$GAGSV,3,2,11,07,31,231,44,02,31,082,44,27,38,277,44,15,05,165,*69
$GAGSV,3,3,11,19,07,334,33,11,03,019,30,08,03,188,22*51
$GBGSV,6,1,22,24,72,113,51,11,11,194,38,10,20,062,38,05,20,130,38*6D
$GBGSV,6,2,22,35,29,049,45,26,20,117,43,34,33,186,47,31,22,094,*6C
$GBGSV,6,3,22,56,27,052,,12,54,155,47,23,47,294,,25,49,299,49*67
$GBGSV,6,4,22,44,61,106,50,32,08,328,40,02,04,108,33,07,07,060,36*64
$GBGSV,6,5,22,38,04,076,,40,00,050,29,41,10,277,40,20,08,332,*66
$GBGSV,6,6,22,08,03,071,,60,08,110,40*6C
$GPGGA,134607.00,,,,,0,00,,,M,,M,,*4F
$PTNL,GGK,134607.00,010125,4742.1601712,N,01618.1009276,E,1,38,0.8,EHT751.8927,M*4B
$GPGGQ,134607.00,010125,4742.1601712,N,01618.1009276,E,1,38,1.293,708.6862,M*36
$GPGFA,134607.00,4.873,9.157,0.513,0.404,4.564,1.117,,VVV*04
$GPLLK,134607.00,010125,,M,,M,1,38,0.9,,M*0E
$GNGMP,134607.00,,,,,DAAA,38,0.4,,,,*5E
$GPGMP,134607.00,,,,,,09,,,,2.0,136*75
$GLGMP,134607.00,,,,,,08,,,,,*70
$GAGMP,134607.00,,,,,,07,,,,,*72
$GBGMP,134607.00,,,,,,14,,,,,*73
$PSSN,SNC,[0,308785000,2347]*45
$GPZDA,134612.00,01,01,2025,,*60
$GPDTM,W84,,00.0000000,N,00.0000000,E,00.0000000,W84*5F
$PSSN,TFM,134612.00,,,,*6C
$GPRMC,134612.00,A,4742.1601715,N,01618.1009264,E,0.0,,010125,5.1,E,D*18
$GPGLL,4742.1601715,N,01618.1009264,E,134612.00,A,D*69
$GPGGA,134612.00,4742.1601715,N,01618.1009264,E,2,38,0.4,708.6862,M,43.2065,M,3.0,0136*4F
$GNGNS,134612.00,4742.1601715,N,01618.1009264,E,DAAA,38,0.4,708.6862,43.2065,,*54
$GPGNS,134612.00,,,,,,09,,,,3.0,136*70
$GLGNS,134612.00,,,,,,08,,,,,*74
$GAGNS,134612.00,,,,,,07,,,,,*76
$GBGNS,134612.00,,,,,,14,,,,,*77
$GPLLQ,134612.00,010125,,M,,M,1,38,1.300,,M*1B
$GPVTG,,T,,M,0.00,N,0.00,K,D*26
$GPHDT,,T*1B
$GPTHS,,V*0E
$GPROT,,V*08
$PSSN,HRP,134612.00,010125,,,,,,,00,0,,*62
$PTNL,AVR,134612.00,,Yaw,,Tilt,,,,0,,00*34
$GPGSA,A,3,06,11,12,19,24,25,28,29,32,,,,0.8,0.4,0.7*35
$GPGSA,A,3,68,69,77,78,79,86,87,88,,,,,0.8,0.4,0.7*38
$GPGSA,A,3,02,07,27,29,30,34,36,,,,,,0.8,0.4,0.7*33
$GPGSA,A,3,05,07,10,11,12,24,25,26,32,34,35,41,0.8,0.4,0.7*39
$GPGSA,A,3,44,60,,,,,,,,,,,0.8,0.4,0.7*3F
$GPGST,134612.00,1.682,0.517,0.407,4.551,0.516,0.408,1.121*51
$GPGBS,134612.00,3.427,2.266,7.098,77,0.0001,-6.595,6.248*73
$GPGRS,134612.00,1,0.2,0.4,0.3,-1.8,-0.3,-0.2,1.2,0.2,-0.9,,,*66
$GPGRS,134612.00,1,4.5,0.7,-6.6,-1.1,0.9,-1.2,-0.6,-0.4,,,,*6E
$GPGRS,134612.00,1,-0.1,-0.2,-0.4,-0.3,0.3,0.4,0.8,,,,,*68
$GPGRS,134612.00,1,0.3,0.1,0.7,1.0,-0.3,-0.1,0.1,1.4,0.5,1.5,-0.4,-1.6*4D
$GPGRS,134612.00,1,1.0,-1.6,,,,,,,,,,*66
$GPGSV,5,1,19,12,68,064,49,24,33,155,44,28,21,312,42,06,27,054,42*7B
$GPGSV,5,2,19,29,32,215,46,32,31,277,46,11,35,098,45,25,63,292,49*7B
$GPGSV,5,3,19,19,08,046,38,03,00,354,32,36,35,170,46,58,13,245,37*71
$GPGSV,5,4,19,40,23,133,36,34,31,208,43,49,34,195,45,57,04,114,38*76
$GPGSV,5,5,19,41,07,108,36,61,03,257,38*70
$GLGSV,3,1,10,78,65,336,53,68,16,254,46,86,11,024,42,79,17,300,45*66
$GLGSV,3,2,10,69,24,305,47,87,50,056,48,88,44,157,51,77,40,095,44*63
$GLGSV,3,3,10,70,02,003,32,81,01,186,*64
$GAGSV,3,1,11,30,80,018,49,29,31,295,43,36,30,059,43,34,32,120,44*6D
$GAGSV,3,2,11,07,31,231,44,02,31,082,44,27,38,277,45,15,05,165,*68
$GAGSV,3,3,11,19,07,334,33,11,03,019,31,08,03,188,21*53
$GBGSV,6,1,22,24,72,113,51,11,11,194,39,10,20,062,38,05,20,130,38*6C
$GBGSV,6,2,22,35,29,049,45,26,20,117,43,34,33,186,47,31,22,094,*6C
$GBGSV,6,3,22,56,27,052,,12,54,155,48,23,47,294,,25,49,299,48*69
$GBGSV,6,4,22,44,61,106,50,32,08,328,40,02,04,108,33,07,07,060,36*64
$GBGSV,6,5,22,38,04,076,,40,00,050,29,41,10,277,40,20,08,332,*66
$GBGSV,6,6,22,08,03,071,,60,08,110,40*6C
$GPGGA,134612.00,,,,,0,00,,,M,,M,,*4B
$PTNL,GGK,134612.00,010125,4742.1601715,N,01618.1009264,E,1,38,0.8,EHT751.8928,M*44
$GPGGQ,134612.00,010125,4742.1601715,N,01618.1009264,E,1,38,1.300,708.6862,M*3D
$GPGFA,134612.00,4.911,9.191,0.517,0.407,4.551,1.121,,VVV*0B
$GPLLK,134612.00,010125,,M,,M,1,38,0.9,,M*0A
$GNGMP,134612.00,,,,,DAAA,38,0.4,,,,*5A
$GPGMP,134612.00,,,,,,09,,,,3.0,136*70
$GLGMP,134612.00,,,,,,08,,,,,*74
$GAGMP,134612.00,,,,,,07,,,,,*76
$GBGMP,134612.00,,,,,,14,,,,,*77
$PSSN,SNC,[0,308790000,2347]*41
$GPZDA,134617.00,01,01,2025,,*65
$GPDTM,W84,,00.0000000,N,00.0000000,E,00.0000000,W84*5F
$PSSN,TFM,134617.00,,,,*69
$GPRMC,134617.00,A,4742.1601694,N,01618.1009254,E,0.0,,010125,5.1,E,D*16
$GPGLL,4742.1601694,N,01618.1009254,E,134617.00,A,D*67
$GPGGA,134617.00,4742.1601694,N,01618.1009254,E,2,38,0.4,708.6886,M,43.2065,M,2.7,0136*4D
$GNGNS,134617.00,4742.1601694,N,01618.1009254,E,DAAA,38,0.4,708.6886,43.2065,,*50
$GPGNS,134617.00,,,,,,09,,,,2.7,136*73
$GLGNS,134617.00,,,,,,08,,,,,*71
$GAGNS,134617.00,,,,,,07,,,,,*73
$GBGNS,134617.00,,,,,,14,,,,,*72
$GPLLQ,134617.00,010125,,M,,M,1,38,1.315,,M*1A
$GPVTG,,T,,M,0.01,N,0.01,K,D*26
$GPHDT,,T*1B
$GPTHS,,V*0E
$GPROT,,V*08
$PSSN,HRP,134617.00,010125,,,,,,,00,0,,*67
$PTNL,AVR,134617.00,,Yaw,,Tilt,,,,0,,00*31
$GPGSA,A,3,06,11,12,19,24,25,28,29,32,,,,0.8,0.4,0.7*35
$GPGSA,A,3,68,69,77,78,79,86,87,88,,,,,0.8,0.4,0.7*38
$GPGSA,A,3,02,07,27,29,30,34,36,,,,,,0.8,0.4,0.7*33
$GPGSA,A,3,05,07,10,11,12,24,25,26,32,34,35,41,0.8,0.4,0.7*39
$GPGSA,A,3,44,60,,,,,,,,,,,0.8,0.4,0.7*3F
$GPGST,134617.00,1.789,0.530,0.411,1.980,0.529,0.411,1.131*5C
$GPGBS,134617.00,3.351,2.314,7.132,68,0.0001,6.146,6.568*59
$GPGRS,134617.00,1,0.2,0.3,0.2,-1.5,-0.2,-0.3,0.7,0.4,-1.0,,,*62
$GPGRS,134617.00,1,6.1,2.2,-5.8,-1.1,0.8,-1.7,-0.4,-0.7,,,,*62
$GPGRS,134617.00,1,-0.1,-0.5,-0.2,-0.2,0.3,0.5,0.5,,,,,*61
$GPGRS,134617.00,1,0.7,-0.1,0.5,1.1,-0.1,-0.3,-0.1,1.1,0.4,1.1,-0.2,-1.8*47
$GPGRS,134617.00,1,1.2,-1.6,,,,,,,,,,*61
$GPGSV,5,1,19,12,68,064,50,24,33,155,44,28,21,312,42,06,27,054,42*73
$GPGSV,5,2,19,29,32,215,46,32,31,277,46,11,35,098,46,25,63,292,49*78
$GPGSV,5,3,19,19,08,046,37,03,00,354,32,36,35,170,46,58,13,245,36*7F
$GPGSV,5,4,19,40,23,133,37,34,31,208,43,49,34,195,45,57,04,114,38*77
$GPGSV,5,5,19,41,07,108,35,61,03,257,38*73
$GLGSV,3,1,10,78,65,336,53,68,16,254,46,86,11,024,42,79,17,300,45*66
$GLGSV,3,2,10,69,24,305,47,87,50,056,47,88,45,157,51,77,40,095,45*6C
$GLGSV,3,3,10,70,02,003,32,81,01,186,*64
$GAGSV,3,1,11,30,80,018,49,29,31,295,43,36,30,059,43,34,32,120,44*6D
$GAGSV,3,2,11,07,31,231,44,02,31,082,44,27,38,277,45,15,06,165,*6B
$GAGSV,3,3,11,19,07,334,32,11,03,018,30,08,03,188,21*52
$GBGSV,6,1,22,24,72,113,51,11,11,194,39,10,20,062,38,05,20,130,38*6C
$GBGSV,6,2,22,35,29,049,45,26,20,117,43,34,33,186,47,31,22,094,*6C
$GBGSV,6,3,22,56,27,052,,12,54,155,47,23,47,294,,25,49,299,48*66
