$GPZDA,202942.00,01,01,2025,,*6C
$GPDTM,W84,,00.0000000,N,00.0000000,E,00.0000000,W84*5F
$PSSN,TFM,202942.00,,,,*60
$GPRMC,202942.00,A,4742.1605197,N,01618.1004029,E,0.0,,010125,5.1,E,D*1A
$GPGLL,4742.1605197,N,01618.1004029,E,202942.00,A,D*6B
$GPGGA,202942.00,4742.1605197,N,01618.1004029,E,2,38,0.4,708.1082,M,43.2066,M,1.8,0136*45
$GNGNS,202942.00,4742.1605197,N,01618.1004029,E,DAAA,38,0.4,708.1082,43.2066,,*54
$GPGNS,202942.00,,,,,,09,,,,1.8,136*76
$GLGNS,202942.00,,,,,,08,,,,,*78
$GAGNS,202942.00,,,,,,08,,,,,*75
$GBGNS,202942.00,,,,,,13,,,,,*7C
$GPLLQ,202942.00,010125,,M,,M,1,38,0.856,,M*1E
$GPVTG,,T,,M,0.00,N,0.01,K,D*27
$GPHDT,,T*1B
$GPTHS,,V*0E
$GPROT,,V*08
$PSSN,HRP,202942.00,010125,,,,,,,00,0,,*6E
$PTNL,AVR,202942.00,,Yaw,,Tilt,,,,0,,00*38
$GPGSA,A,3,08,10,15,16,18,21,23,26,27,,,,0.8,0.4,0.7*39
$GPGSA,A,3,67,68,73,74,75,82,83,84,,,,,0.8,0.4,0.7*3E
$GPGSA,A,3,03,08,13,15,21,26,31,33,,,,,0.8,0.4,0.7*31
$GPGSA,A,3,05,08,11,13,14,27,28,33,37,38,42,43,0.8,0.4,0.7*32
$GPGSA,A,3,60,,,,,,,,,,,,0.8,0.4,0.7*3F
$GPGST,202942.00,2.567,0.424,0.328,327.293,0.398,0.359,0.667*51
$GPGBS,202942.00,2.419,2.157,3.906,68,0.0001,7.281,6.123*56
$GPGRS,202942.00,1,-0.1,0.2,0.5,0.4,-0.5,0.4,0.2,-0.9,-0.3,,,*64
$GPGRS,202942.00,1,6.1,7.3,5.6,-6.1,-3.8,-1.3,-3.2,-2.4,,,,*65
$GPGRS,202942.00,1,0.5,0.1,-0.1,-0.6,0.0,-0.6,0.6,-0.0,,,,*42
$GPGRS,202942.00,1,1.5,0.2,0.9,0.8,0.8,-0.3,-0.9,-0.6,-0.4,-1.1,-0.6,0.8*48
$GPGRS,202942.00,1,-1.6,,,,,,,,,,,*45
$GPGSV,6,1,22,27,85,275,50,26,11,186,37,15,10,035,39,21,22,266,39*7E
$GPGSV,6,2,22,18,18,072,40,16,36,201,45,08,48,302,47,23,48,058,46*78
$GPGSV,6,3,22,10,68,144,51,07,02,296,38,02,04,263,37,30,01,327,36*71
$GPGSV,6,4,22,32,06,145,,36,35,170,44,58,13,245,37,57,11,108,37*7E
$GPGSV,6,5,22,34,31,208,42,40,24,132,36,49,34,195,43,41,07,108,33*7F
$GPGSV,6,6,22,61,03,257,38*46
$GLGSV,3,1,10,83,59,043,41,75,15,338,44,82,24,079,45,68,39,122,50*6E
$GLGSV,3,2,10,73,24,234,48,84,36,293,40,67,38,054,49,74,36,285,44*64
$GLGSV,3,3,10,66,04,013,42,69,07,163,*68
$GAGSV,3,1,10,13,60,055,47,31,16,322,39,03,14,043,39,08,20,094,41*69
$GAGSV,3,2,10,33,12,256,38,21,37,200,44,23,49,274,,26,59,269,47*6F
$GAGSV,3,3,10,07,05,142,,15,09,070,37*62
$GBGSV,6,1,23,28,80,334,51,37,16,235,43,60,11,108,40,50,15,037,*61
$GBGSV,6,2,23,41,15,175,,05,23,128,39,31,21,059,,57,19,228,*66
$GBGSV,6,3,23,46,22,290,,08,23,038,38,43,30,099,46,58,31,284,*68
$GBGSV,6,4,23,13,31,043,42,33,45,128,49,42,33,056,46,27,35,288,47*6B
$GBGSV,6,5,23,30,34,282,,14,46,088,47,02,08,105,34,10,02,132,*6B
$GBGSV,6,6,23,11,09,098,39,36,04,336,,38,09,040,39*53
$GPGGA,202942.00,,,,,0,00,,,M,,M,,*47
$PTNL,GGK,202942.00,010125,4742.1605197,N,01618.1004029,E,1,38,0.8,EHT751.3148,M*43
$GPGGQ,202942.00,010125,4742.1605197,N,01618.1004029,E,1,38,0.856,708.1082,M*37
$GPGFA,202942.00,4.028,5.472,0.424,0.328,327.293,0.667,,VVV*04
$GPLLK,202942.00,010125,,M,,M,1,38,0.9,,M*06
$GNGMP,202942.00,,,,,DAAA,38,0.4,,,,*56
$GPGMP,202942.00,,,,,,09,,,,1.8,136*76
$GLGMP,202942.00,,,,,,08,,,,,*78
$GAGMP,202942.00,,,,,,08,,,,,*75
$GBGMP,202942.00,,,,,,13,,,,,*7C
$PSSN,SNC,[0,333000000,2347]*47
$GPZDA,202947.00,01,01,2025,,*69
$GPDTM,W84,,00.0000000,N,00.0000000,E,00.0000000,W84*5F
$PSSN,TFM,202947.00,,,,*65
$GPRMC,202947.00,A,4742.1605195,N,01618.1004035,E,0.0,,010125,5.1,E,D*10
$GPGLL,4742.1605195,N,01618.1004035,E,202947.00,A,D*61
$GPGGA,202947.00,4742.1605195,N,01618.1004035,E,2,38,0.4,708.1090,M,43.2066,M,2.8,0136*4F
$GNGNS,202947.00,4742.1605195,N,01618.1004035,E,DAAA,38,0.4,708.1090,43.2066,,*5D
$GPGNS,202947.00,,,,,,09,,,,2.8,136*70
$GLGNS,202947.00,,,,,,08,,,,,*7D
$GAGNS,202947.00,,,,,,08,,,,,*70
$GBGNS,202947.00,,,,,,13,,,,,*79
$GPLLQ,202947.00,010125,,M,,M,1,38,0.855,,M*18
$GPVTG,,T,,M,0.01,N,0.01,K,D*26
$GPHDT,,T*1B
$GPTHS,,V*0E
$GPROT,,V*08
$PSSN,HRP,202947.00,010125,,,,,,,00,0,,*6B
$PTNL,AVR,202947.00,,Yaw,,Tilt,,,,0,,00*3D
$GPGSA,A,3,08,10,15,16,18,21,23,26,27,,,,0.8,0.4,0.6*38
$GPGSA,A,3,67,68,73,74,75,82,83,84,,,,,0.8,0.4,0.6*3F
$GPGSA,A,3,03,08,13,15,21,26,31,33,,,,,0.8,0.4,0.6*30
$GPGSA,A,3,05,08,11,13,14,27,28,33,37,38,42,43,0.8,0.4,0.6*33
$GPGSA,A,3,60,,,,,,,,,,,,0.8,0.4,0.6*3E
$GPGST,202947.00,2.433,0.420,0.330,327.873,0.397,0.358,0.668*5C
$GPGBS,202947.00,2.428,2.207,3.914,68,0.0001,6.961,6.123*50
$GPGRS,202947.00,1,-0.1,-0.2,0.5,0.5,-0.4,0.6,0.2,-0.8,-0.3,,,*4F
$GPGRS,202947.00,1,5.6,7.0,4.0,-6.6,-3.5,-1.3,-2.8,-2.6,,,,*63
$GPGRS,202947.00,1,0.2,0.1,-0.1,-0.9,0.0,-0.6,0.8,0.1,,,,*6D
$GPGRS,202947.00,1,1.7,0.6,1.2,0.6,0.8,-0.3,-0.9,-0.5,-0.4,-0.9,-0.7,0.7*4B
$GPGRS,202947.00,1,-1.6,,,,,,,,,,,*40
$GPGSV,6,1,22,27,85,274,50,26,11,186,38,15,10,035,39,21,22,266,39*70
$GPGSV,6,2,22,18,18,072,40,16,36,201,45,08,48,302,47,23,48,058,45*7B
$GPGSV,6,3,22,10,68,144,51,07,02,296,36,02,04,263,39,30,01,327,35*72
$GPGSV,6,4,22,32,06,145,,36,35,170,44,58,13,245,37,57,11,108,38*71
$GPGSV,6,5,22,34,31,208,42,40,24,132,36,49,34,195,43,41,07,108,33*7F
$GPGSV,6,6,22,61,03,257,38*46
$GLGSV,3,1,10,83,59,043,42,75,15,338,44,82,24,079,45,68,39,122,49*65
$GLGSV,3,2,10,73,24,234,47,84,36,293,39,67,38,054,49,74,36,285,44*65
$GLGSV,3,3,10,66,04,013,41,69,07,163,*6B
$GAGSV,3,1,10,13,60,055,47,31,16,322,39,03,14,043,38,08,20,094,41*68
$GAGSV,3,2,10,33,12,256,38,21,37,200,44,23,49,274,,26,59,269,47*6F
$GAGSV,3,3,10,07,05,142,,15,09,070,37*62
$GBGSV,6,1,23,28,80,334,51,37,16,235,42,60,11,108,40,50,15,037,*60
$GBGSV,6,2,23,41,15,175,,05,23,128,39,31,21,059,,46,22,290,*6D
$GBGSV,6,3,23,08,23,038,38,57,20,228,,43,30,099,46,58,31,284,*69
$GBGSV,6,4,23,13,31,043,42,33,45,128,49,42,33,055,46,27,35,288,47*68
$GBGSV,6,5,23,30,34,282,,14,46,088,47,11,09,098,39,10,02,132,*60
$GBGSV,6,6,23,38,09,040,38,36,04,336,,02,08,105,34*59
$GPGGA,202947.00,,,,,0,00,,,M,,M,,*42
$PTNL,GGK,202947.00,010125,4742.1605195,N,01618.1004035,E,1,38,0.8,EHT751.3155,M*45
$GPGGQ,202947.00,010125,4742.1605195,N,01618.1004035,E,1,38,0.855,708.1090,M*3D
$GPGFA,202947.00,3.993,5.477,0.420,0.330,327.873,0.668,,VVV*0C
$GPLLK,202947.00,010125,,M,,M,1,38,0.9,,M*03
$GNGMP,202947.00,,,,,DAAA,38,0.4,,,,*53
$GPGMP,202947.00,,,,,,09,,,,2.8,136*70
$GLGMP,202947.00,,,,,,08,,,,,*7D
$GAGMP,202947.00,,,,,,08,,,,,*70
$GBGMP,202947.00,,,,,,13,,,,,*79
$PSSN,SNC,[0,333005000,2347]*42
$GPZDA,202952.00,01,01,2025,,*6D
$GPDTM,W84,,00.0000000,N,00.0000000,E,00.0000000,W84*5F
$PSSN,TFM,202952.00,,,,*61
$GPRMC,202952.00,A,4742.1605163,N,01618.1004042,E,0.0,,010125,5.1,E,D*1D
$GPGLL,4742.1605163,N,01618.1004042,E,202952.00,A,D*6C
$GPGGA,202952.00,4742.1605163,N,01618.1004042,E,2,38,0.4,708.1129,M,43.2066,M,3.8,0136*40
$GNGNS,202952.00,4742.1605163,N,01618.1004042,E,DAAA,38,0.4,708.1129,43.2066,,*53
$GPGNS,202952.00,,,,,,09,,,,3.8,136*75
$GLGNS,202952.00,,,,,,08,,,,,*79
$GAGNS,202952.00,,,,,,08,,,,,*74
$GBGNS,202952.00,,,,,,13,,,,,*7D
$GPLLQ,202952.00,010125,,M,,M,1,38,0.890,,M*15
$GPVTG,,T,,M,0.00,N,0.01,K,D*27
$GPHDT,,T*1B
$GPTHS,,V*0E
$GPROT,,V*08
$PSSN,HRP,202952.00,010125,,,,,,,00,0,,*6F
$PTNL,AVR,202952.00,,Yaw,,Tilt,,,,0,,00*39
$GPGSA,A,3,08,10,15,16,18,21,23,26,27,,,,0.8,0.4,0.6*38
$GPGSA,A,3,67,68,73,74,75,82,83,84,,,,,0.8,0.4,0.6*3F
$GPGSA,A,3,03,08,13,15,21,26,31,33,,,,,0.8,0.4,0.6*30
$GPGSA,A,3,05,08,11,13,14,27,28,33,37,38,42,43,0.8,0.4,0.6*33
$GPGSA,A,3,60,,,,,,,,,,,,0.8,0.4,0.6*3E
$GPGST,202952.00,2.538,0.438,0.343,327.645,0.413,0.373,0.695*54
$GPGBS,202952.00,2.456,2.256,3.960,74,0.0001,-6.675,6.110*70
$GPGRS,202952.00,1,-0.0,-0.0,0.5,0.2,-0.5,0.2,0.3,-1.2,-0.2,,,*41
$GPGRS,202952.00,1,6.2,6.0,4.7,-6.7,-3.5,-0.4,-3.7,-3.7,,,,*6F
$GPGRS,202952.00,1,0.8,-0.2,-0.0,-1.4,0.2,-0.6,0.9,0.6,,,,*44
$GPGRS,202952.00,1,1.7,0.4,1.6,0.4,1.1,-0.5,-0.7,-0.5,-0.3,-1.0,-0.6,0.9*4B
$GPGRS,202952.00,1,-1.5,,,,,,,,,,,*47
$GPGSV,6,1,22,27,85,274,51,26,11,186,39,15,10,035,38,21,22,266,39*71
$GPGSV,6,2,22,18,17,072,39,16,36,201,46,08,48,302,47,23,48,058,46*7A
$GPGSV,6,3,22,10,68,144,52,07,02,296,36,02,04,264,38,30,01,327,35*77
$GPGSV,6,4,22,32,06,145,,36,35,170,44,58,13,245,37,57,11,108,37*7E
$GPGSV,6,5,22,34,31,208,42,40,24,132,35,49,34,195,44,41,07,108,33*7B
$GPGSV,6,6,22,61,03,257,37*49
$GLGSV,3,1,10,83,59,043,41,75,15,338,44,82,24,079,45,68,39,122,50*6E
$GLGSV,3,2,10,73,24,234,47,84,36,293,39,67,38,054,50,74,36,285,44*6D
$GLGSV,3,3,10,66,04,013,40,69,07,163,*6A
$GAGSV,3,1,10,13,60,055,47,31,16,322,40,03,14,043,39,08,20,094,41*67
$GAGSV,3,2,10,33,12,256,39,21,37,200,44,23,49,274,,26,60,269,47*64
$GAGSV,3,3,10,07,05,142,,15,09,070,37*62
$GBGSV,6,1,23,28,80,334,51,37,16,235,42,60,11,108,40,50,15,037,*60
$GBGSV,6,2,23,41,15,175,,05,23,128,39,31,21,059,,46,22,290,*6D
$GBGSV,6,3,23,08,23,038,38,57,20,228,,43,30,099,46,58,30,284,*68
$GBGSV,6,4,23,13,31,043,42,33,45,128,49,42,33,055,46,27,35,288,47*68
$GBGSV,6,5,23,30,34,282,,14,46,088,47,11,09,098,39,10,02,132,*60
$GBGSV,6,6,23,38,09,040,38,36,04,336,,02,08,105,35*58
$GPGGA,202952.00,,,,,0,00,,,M,,M,,*46
$PTNL,GGK,202952.00,010125,4742.1605163,N,01618.1004042,E,1,38,0.8,EHT751.3194,M*45
$GPGGQ,202952.00,010125,4742.1605163,N,01618.1004042,E,1,38,0.890,708.1129,M*3A
$GPGFA,202952.00,4.164,5.702,0.438,0.343,327.645,0.695,,VVV*0A
$GPLLK,202952.00,010125,,M,,M,1,38,0.9,,M*07
$GNGMP,202952.00,,,,,DAAA,38,0.4,,,,*57
$GPGMP,202952.00,,,,,,09,,,,3.8,136*75
$GLGMP,202952.00,,,,,,08,,,,,*79
$GAGMP,202952.00,,,,,,08,,,,,*74
$GBGMP,202952.00,,,,,,13,,,,,*7D
$PSSN,SNC,[0,333010000,2347]*46
$GPZDA,202957.00,01,01,2025,,*68
$GPDTM,W84,,00.0000000,N,00.0000000,E,00.0000000,W84*5F
$PSSN,TFM,202957.00,,,,*64
$GPRMC,202957.00,A,4742.1605155,N,01618.1004002,E,0.0,,010125,5.1,E,D*19
$GPGLL,4742.1605155,N,01618.1004002,E,202957.00,A,D*68
$GPGGA,202957.00,4742.1605155,N,01618.1004002,E,2,38,0.4,708.1091,M,43.2066,M,1.7,0136*4B
$GNGNS,202957.00,4742.1605155,N,01618.1004002,E,DAAA,38,0.4,708.1091,43.2066,,*55
$GPGNS,202957.00,,,,,,09,,,,1.7,136*7D
$GLGNS,202957.00,,,,,,08,,,,,*7C
$GAGNS,202957.00,,,,,,08,,,,,*71
$GBGNS,202957.00,,,,,,13,,,,,*78
$GPLLQ,202957.00,010125,,M,,M,1,38,0.868,,M*17
$GPVTG,,T,,M,0.01,N,0.01,K,D*26
$GPHDT,,T*1B
$GPTHS,,V*0E
$GPROT,,V*08
$PSSN,HRP,202957.00,010125,,,,,,,00,0,,*6A
$PTNL,AVR,202957.00,,Yaw,,Tilt,,,,0,,00*3C
$GPGSA,A,3,08,10,15,16,18,21,23,26,27,,,,0.8,0.4,0.6*38
$GPGSA,A,3,67,68,73,74,75,82,83,84,,,,,0.8,0.4,0.6*3F
$GPGSA,A,3,03,08,13,15,21,26,31,33,,,,,0.8,0.4,0.6*30
$GPGSA,A,3,05,08,11,13,14,27,28,33,37,38,42,43,0.8,0.4,0.6*33
$GPGSA,A,3,60,,,,,,,,,,,,0.8,0.4,0.6*3E
$GPGST,202957.00,2.470,0.431,0.332,326.888,0.404,0.365,0.676*51
$GPGBS,202957.00,2.460,2.290,4.042,68,0.0001,6.969,6.123*56
$GPGRS,202957.00,1,-0.0,0.0,-0.1,-0.1,0.1,0.3,0.3,-1.0,-0.1,,,*47
$GPGRS,202957.00,1,6.4,7.0,4.8,-5.8,-2.9,-0.1,-3.5,-3.0,,,,*63
$GPGRS,202957.00,1,0.7,0.1,-0.1,-1.4,0.2,-0.5,0.6,0.5,,,,*6E
$GPGRS,202957.00,1,1.7,0.4,0.1,0.3,0.7,-0.4,-0.6,-0.6,-0.9,-0.5,-0.4,0.8*46
$GPGRS,202957.00,1,-1.5,,,,,,,,,,,*42
$GPGSV,6,1,22,27,85,274,51,26,11,186,39,15,10,035,39,21,22,266,40*7E
$GPGSV,6,2,22,18,17,072,39,16,36,201,46,08,48,302,47,23,48,058,46*7A
$GPGSV,6,3,22,10,68,144,52,07,02,296,35,02,04,264,39,30,01,327,36*76
$GPGSV,6,4,22,32,06,145,,36,35,170,44,58,13,245,37,57,11,108,37*7E
$GPGSV,6,5,22,34,31,208,42,40,24,132,35,49,34,195,43,41,07,108,33*7C
$GPGSV,6,6,22,61,03,257,38*46
$GLGSV,3,1,10,83,59,043,41,75,15,338,45,82,24,079,46,68,39,122,50*6C
$GLGSV,3,2,10,73,24,234,47,84,36,293,40,67,38,054,49,74,36,285,44*6B
$GLGSV,3,3,10,66,04,013,40,69,07,163,*6A
$GAGSV,3,1,10,13,60,055,47,31,16,322,39,03,14,043,39,08,20,094,41*69
$GAGSV,3,2,10,33,12,256,39,21,37,200,45,23,49,274,,26,60,269,48*6A
$GAGSV,3,3,10,07,05,142,,15,09,070,37*62
$GBGSV,6,1,23,28,80,334,51,37,16,235,42,60,11,108,40,50,15,037,*60
$GBGSV,6,2,23,41,15,175,,05,23,128,39,31,21,059,,46,22,290,*6D
$GBGSV,6,3,23,08,23,038,38,57,20,228,,43,30,099,46,58,30,284,*68
$GBGSV,6,4,23,13,31,043,42,33,45,128,49,42,33,055,46,27,35,288,47*68
$GBGSV,6,5,23,30,34,282,,14,46,088,47,11,09,098,38,10,02,132,*61
$GBGSV,6,6,23,38,09,040,38,36,04,336,,02,08,105,35*58
$GPGGA,202957.00,,,,,0,00,,,M,,M,,*43
$PTNL,GGK,202957.00,010125,4742.1605155,N,01618.1004002,E,1,38,0.8,EHT751.3156,M*4F
$GPGGQ,202957.00,010125,4742.1605155,N,01618.1004002,E,1,38,0.868,708.1091,M*3B
$GPGFA,202957.00,4.095,5.542,0.431,0.332,326.888,0.676,,VVV*0A
$GPLLK,202957.00,010125,,M,,M,1,38,0.9,,M*02
$GNGMP,202957.00,,,,,DAAA,38,0.4,,,,*52
$GPGMP,202957.00,,,,,,09,,,,1.7,136*7D
$GLGMP,202957.00,,,,,,08,,,,,*7C
$GAGMP,202957.00,,,,,,08,,,,,*71
$GBGMP,202957.00,,,,,,13,,,,,*78
$PSSN,SNC,[0,333015000,2347]*43
$GPZDA,203002.00,01,01,2025,,*60
$GPDTM,W84,,00.0000000,N,00.0000000,E,00.0000000,W84*5F
$PSSN,TFM,203002.00,,,,*6C
$GPRMC,203002.00,A,4742.1605122,N,01618.1003979,E,0.0,,010125,5.1,E,D*13
$GPGLL,4742.1605122,N,01618.1003979,E,203002.00,A,D*62
$GPGGA,203002.00,4742.1605122,N,01618.1003979,E,2,38,0.4,708.1102,M,43.2066,M,1.8,0136*45
$GNGNS,203002.00,4742.1605122,N,01618.1003979,E,DAAA,38,0.4,708.1102,43.2066,,*54
$GPGNS,203002.00,,,,,,09,,,,1.8,136*7A
$GLGNS,203002.00,,,,,,08,,,,,*74
$GAGNS,203002.00,,,,,,08,,,,,*79
$GBGNS,203002.00,,,,,,13,,,,,*70
$GPLLQ,203002.00,010125,,M,,M,1,38,0.851,,M*15
$GPVTG,,T,,M,0.00,N,0.00,K,D*26
$GPHDT,,T*1B
$GPTHS,,V*0E
$GPROT,,V*08
$PSSN,HRP,203002.00,010125,,,,,,,00,0,,*62
$PTNL,AVR,203002.00,,Yaw,,Tilt,,,,0,,00*34
$GPGSA,A,3,08,10,15,16,18,21,23,26,27,,,,0.8,0.4,0.6*38
$GPGSA,A,3,67,68,73,74,75,82,83,84,,,,,0.8,0.4,0.6*3F
$GPGSA,A,3,03,08,13,15,21,26,31,33,,,,,0.8,0.4,0.6*30
$GPGSA,A,3,05,08,11,13,14,27,28,33,37,38,42,43,0.8,0.4,0.6*33
$GPGSA,A,3,60,,,,,,,,,,,,0.8,0.4,0.6*3E
$GPGST,203002.00,2.379,0.423,0.326,326.689,0.397,0.358,0.662*58
$GPGBS,203002.00,2.412,2.172,3.869,68,0.0001,6.728,6.123*59
$GPGRS,203002.00,1,-0.0,-0.0,0.5,-0.3,0.3,0.1,0.4,-0.6,-0.2,,,*4A
$GPGRS,203002.00,1,6.0,6.7,4.7,-5.5,-2.3,-0.6,-4.3,-2.6,,,,*60
$GPGRS,203002.00,1,0.7,0.5,-0.0,-0.8,0.1,-0.3,0.4,0.6,,,,*6A
$GPGRS,203002.00,1,1.6,0.5,-0.8,0.5,0.6,-0.2,-0.5,-0.7,-0.2,-0.5,-0.5,1.0*6A
$GPGRS,203002.00,1,-1.4,,,,,,,,,,,*4B
$GPGSV,6,1,22,27,85,273,51,26,11,186,39,15,10,035,39,21,22,267,39*76
$GPGSV,6,2,22,18,17,072,40,16,36,201,45,08,48,302,47,23,48,058,46*77
$GPGSV,6,3,22,10,68,144,51,07,02,296,38,02,04,264,38,30,01,327,36*79
$GPGSV,6,4,22,32,06,145,,36,35,170,44,58,13,245,37,57,11,108,38*71
$GPGSV,6,5,22,34,31,208,42,40,24,132,36,49,34,195,44,41,07,108,33*78
$GPGSV,6,6,22,61,03,257,37*49
$GLGSV,3,1,10,83,59,043,41,75,15,338,45,82,24,080,46,68,39,122,49*62
$GLGSV,3,2,10,73,24,234,47,84,36,293,40,67,38,054,48,74,36,284,44*6B
$GLGSV,3,3,10,66,04,013,41,69,07,163,*6B
$GAGSV,3,1,10,13,60,055,47,31,16,322,39,03,14,043,38,08,20,094,41*68
$GAGSV,3,2,10,33,12,256,39,21,37,199,45,23,49,274,,26,60,269,47*66
$GAGSV,3,3,10,07,05,142,,15,09,070,37*62
$GBGSV,6,1,23,28,80,334,51,37,16,235,42,60,11,108,40,50,15,037,*60
$GBGSV,6,2,23,41,15,175,,05,23,128,39,31,21,059,,46,22,289,*65
$GBGSV,6,3,23,08,23,038,38,57,20,228,,43,30,099,46,58,30,283,*6F
$GBGSV,6,4,23,13,31,043,42,33,45,128,48,42,33,055,46,27,35,289,47*68
$GBGSV,6,5,23,30,34,282,,14,46,088,47,11,09,098,38,10,02,132,*61
$GBGSV,6,6,23,38,09,040,38,36,04,336,,02,08,105,35*58
$GPGGA,203002.00,,,,,0,00,,,M,,M,,*4B
$PTNL,GGK,203002.00,010125,4742.1605122,N,01618.1003979,E,1,38,0.8,EHT751.3168,M*48
$GPGGQ,203002.00,010125,4742.1605122,N,01618.1003979,E,1,38,0.851,708.1102,M*30
$GPGFA,203002.00,4.026,5.429,0.423,0.326,326.689,0.662,,VVV*0A
$GPLLK,203002.00,010125,,M,,M,1,38,0.9,,M*0A
$GNGMP,203002.00,,,,,DAAA,38,0.4,,,,*5A
$GPGMP,203002.00,,,,,,09,,,,1.8,136*7A
$GLGMP,203002.00,,,,,,08,,,,,*74
$GAGMP,203002.00,,,,,,08,,,,,*79
$GBGMP,203002.00,,,,,,13,,,,,*70
$PSSN,SNC,[0,333020000,2347]*45
$GPZDA,203007.00,01,01,2025,,*65
$GPDTM,W84,,00.0000000,N,00.0000000,E,00.0000000,W84*5F
$PSSN,TFM,203007.00,,,,*69
$GPRMC,203007.00,A,4742.1605100,N,01618.1003921,E,0.0,,010125,5.1,E,D*1B
$GPGLL,4742.1605100,N,01618.1003921,E,203007.00,A,D*6A
$GPGGA,203007.00,4742.1605100,N,01618.1003921,E,2,38,0.4,708.1079,M,43.2066,M,2.8,0136*43
$GNGNS,203007.00,4742.1605100,N,01618.1003921,E,DAAA,38,0.4,708.1079,43.2066,,*51
$GPGNS,203007.00,,,,,,09,,,,2.8,136*7C
$GLGNS,203007.00,,,,,,08,,,,,*71
$GAGNS,203007.00,,,,,,08,,,,,*7C
$GBGNS,203007.00,,,,,,13,,,,,*75
$GPLLQ,203007.00,010125,,M,,M,1,38,0.855,,M*14
$GPVTG,,T,,M,0.01,N,0.01,K,D*26
$GPHDT,,T*1B
$GPTHS,,V*0E
$GPROT,,V*08
$PSSN,HRP,203007.00,010125,,,,,,,00,0,,*67
$PTNL,AVR,203007.00,,Yaw,,Tilt,,,,0,,00*31
$GPGSA,A,3,08,10,15,16,18,21,23,26,27,,,,0.8,0.4,0.6*38
$GPGSA,A,3,67,68,73,74,75,82,83,84,,,,,0.8,0.4,0.6*3F
$GPGSA,A,3,03,08,13,15,21,26,31,33,,,,,0.8,0.4,0.6*30
$GPGSA,A,3,05,08,11,13,14,27,28,33,37,38,42,43,0.8,0.4,0.6*33
$GPGSA,A,3,60,,,,,,,,,,,,0.8,0.4,0.6*3E
$GPGST,203007.00,2.408,0.421,0.330,327.986,0.397,0.358,0.668*52
$GPGBS,203007.00,2.437,2.214,3.907,68,0.0001,6.483,6.123*53
$GPGRS,203007.00,1,-0.2,-0.1,0.5,-0.1,0.0,0.1,0.5,-0.8,0.1,,,*6C
$GPGRS,203007.00,1,6.4,6.5,4.9,-5.5,-3.9,-0.6,-3.0,-2.1,,,,*65
$GPGRS,203007.00,1,0.8,0.2,0.1,-1.0,0.2,-0.4,0.6,0.4,,,,*46
$GPGRS,203007.00,1,1.5,0.4,-0.3,0.8,0.4,-0.3,-0.6,-0.5,-0.1,-0.9,-0.8,0.9*63
$GPGRS,203007.00,1,-1.7,,,,,,,,,,,*4D
$GPGSV,6,1,22,27,85,273,51,26,11,186,39,15,10,035,38,21,22,267,39*77
$GPGSV,6,2,22,18,17,072,40,16,36,201,45,08,48,302,47,23,48,058,46*77
$GPGSV,6,3,22,10,68,144,51,07,02,296,38,02,04,264,38,30,01,327,36*79
$GPGSV,6,4,22,32,06,145,,36,35,170,44,58,13,245,38,57,11,108,38*7E
$GPGSV,6,5,22,34,31,208,42,40,24,132,35,49,34,195,44,41,07,108,34*7C
$GPGSV,6,6,22,61,03,257,37*49
$GLGSV,3,1,10,83,59,043,41,75,15,338,43,82,24,080,46,68,39,122,49*64
$GLGSV,3,2,10,73,24,234,47,84,36,293,39,67,38,054,49,74,36,284,44*64
$GLGSV,3,3,10,66,04,013,42,69,07,163,*68
$GAGSV,3,1,10,13,60,055,47,31,16,322,39,03,14,043,39,08,20,094,41*69
$GAGSV,3,2,10,33,12,256,38,21,36,199,45,23,49,274,,26,60,269,47*66
$GAGSV,3,3,10,07,05,142,,15,09,070,37*62
$GBGSV,6,1,23,28,80,334,51,37,16,234,42,60,11,108,40,50,15,037,*61
$GBGSV,6,2,23,41,15,175,,05,23,128,39,31,21,059,,46,22,289,*65
$GBGSV,6,3,23,08,23,038,38,57,20,228,,43,30,099,46,58,30,283,*6F
$GBGSV,6,4,23,13,31,043,42,33,45,128,48,42,33,055,46,27,36,289,47*6B
$GBGSV,6,5,23,30,34,282,,14,46,088,46,11,09,098,38,10,02,132,*60
$GBGSV,6,6,23,38,09,040,39,36,04,336,,02,08,105,35*59
$GPGGA,203007.00,,,,,0,00,,,M,,M,,*4E
$PTNL,GGK,203007.00,010125,4742.1605100,N,01618.1003921,E,1,38,0.8,EHT751.3144,M*4E
$GPGGQ,203007.00,010125,4742.1605100,N,01618.1003921,E,1,38,0.855,708.1079,M*31
$GPGFA,203007.00,3.999,5.476,0.421,0.330,327.986,0.668,,VVV*01
$GPLLK,203007.00,010125,,M,,M,1,38,0.9,,M*0F
$GNGMP,203007.00,,,,,DAAA,38,0.4,,,,*5F
$GPGMP,203007.00,,,,,,09,,,,2.8,136*7C
$GLGMP,203007.00,,,,,,08,,,,,*71
$GAGMP,203007.00,,,,,,08,,,,,*7C
$GBGMP,203007.00,,,,,,13,,,,,*75
$PSSN,SNC,[0,333025000,2347]*40
$GPZDA,203012.00,01,01,2025,,*61
$GPDTM,W84,,00.0000000,N,00.0000000,E,00.0000000,W84*5F
$PSSN,TFM,203012.00,,,,*6D
$GPRMC,203012.00,A,4742.1605066,N,01618.1003893,E,0.0,,010125,5.1,E,D*16
$GPGLL,4742.1605066,N,01618.1003893,E,203012.00,A,D*67
$GPGGA,203012.00,4742.1605066,N,01618.1003893,E,2,38,0.4,708.1086,M,43.2066,M,3.8,0136*4F
$GNGNS,203012.00,4742.1605066,N,01618.1003893,E,DAAA,38,0.4,708.1086,43.2066,,*5C
$GPGNS,203012.00,,,,,,09,,,,3.8,136*79
$GLGNS,203012.00,,,,,,08,,,,,*75
$GAGNS,203012.00,,,,,,08,,,,,*78
$GBGNS,203012.00,,,,,,13,,,,,*71
$GPLLQ,203012.00,010125,,M,,M,1,38,0.869,,M*1F
$GPVTG,,T,,M,0.00,N,0.01,K,D*27
$GPHDT,,T*1B
$GPTHS,,V*0E
$GPROT,,V*08
$PSSN,HRP,203012.00,010125,,,,,,,00,0,,*63
$PTNL,AVR,203012.00,,Yaw,,Tilt,,,,0,,00*35
$GPGSA,A,3,08,10,15,16,18,21,23,26,27,,,,0.8,0.4,0.6*38
$GPGSA,A,3,67,68,73,74,75,82,83,84,,,,,0.8,0.4,0.6*3F
$GPGSA,A,3,03,08,13,15,21,26,31,33,,,,,0.8,0.4,0.6*30
$GPGSA,A,3,05,08,11,13,14,27,28,33,37,38,42,43,0.8,0.4,0.6*33
$GPGSA,A,3,60,,,,,,,,,,,,0.8,0.4,0.6*3E
$GPGST,203012.00,2.434,0.428,0.335,327.753,0.404,0.364,0.678*50
$GPGBS,203012.00,2.466,2.264,3.952,67,0.0001,6.651,6.131*55
$GPGRS,203012.00,1,0.1,-0.0,-0.1,0.3,0.2,0.0,0.4,-1.1,-0.3,,,*64
$GPGRS,203012.00,1,6.7,5.9,5.1,-4.8,-4.8,-0.3,-3.0,-3.6,,,,*6D
$GPGRS,203012.00,1,0.8,0.1,-0.1,-0.9,0.2,-0.2,0.9,0.4,,,,*6D
$GPGRS,203012.00,1,1.1,-0.1,0.5,0.6,0.3,-0.0,-0.7,-0.3,-0.2,-0.6,-0.8,0.8*60
$GPGRS,203012.00,1,-1.4,,,,,,,,,,,*4A
$GPGSV,6,1,22,27,85,273,51,26,11,186,38,15,10,035,38,21,22,267,39*76
$GPGSV,6,2,22,18,17,072,41,16,36,201,46,08,48,302,47,23,48,058,46*75
$GPGSV,6,3,22,10,68,144,51,07,02,296,37,02,04,264,39,30,01,327,36*77
$GPGSV,6,4,22,32,06,145,,36,35,170,44,58,13,245,37,57,11,108,38*71
$GPGSV,6,5,22,34,31,208,42,40,24,132,36,49,34,195,44,41,07,108,33*78
$GPGSV,6,6,22,61,03,257,38*46
$GLGSV,3,1,10,83,59,043,41,75,15,338,43,82,24,080,46,68,39,122,50*6C
$GLGSV,3,2,10,73,24,234,47,84,36,293,39,67,38,054,49,74,36,284,44*64
$GLGSV,3,3,10,66,04,013,42,69,07,163,*68
$GAGSV,3,1,10,13,60,055,47,31,16,322,39,03,14,043,39,08,20,094,40*68
$GAGSV,3,2,10,33,12,256,38,21,36,199,44,23,49,274,,26,60,269,47*67
$GAGSV,3,3,10,07,05,142,,15,09,070,37*62
$GBGSV,6,1,23,28,80,334,51,37,16,234,42,60,11,108,40,50,15,037,*61
$GBGSV,6,2,23,41,15,175,,05,23,128,39,31,21,059,,46,22,289,*65
$GBGSV,6,3,23,08,23,038,38,57,20,228,,43,30,099,46,58,30,283,*6F
$GBGSV,6,4,23,13,31,043,42,33,45,128,48,42,33,055,46,27,36,289,47*6B
$GBGSV,6,5,23,30,34,282,,14,46,088,46,11,09,098,38,10,02,132,*60
$GBGSV,6,6,23,38,09,040,38,36,04,336,,02,08,105,34*59
$GPGGA,203012.00,,,,,0,00,,,M,,M,,*4A
$PTNL,GGK,203012.00,010125,4742.1605066,N,01618.1003893,E,1,38,0.8,EHT751.3151,M*47
$GPGGQ,203012.00,010125,4742.1605066,N,01618.1003893,E,1,38,0.869,708.1086,M*33
$GPGFA,203012.00,4.070,5.561,0.428,0.335,327.753,0.678,,VVV*00
$GPLLK,203012.00,010125,,M,,M,1,38,0.9,,M*0B
$GNGMP,203012.00,,,,,DAAA,38,0.4,,,,*5B
$GPGMP,203012.00,,,,,,09,,,,3.8,136*79
$GLGMP,203012.00,,,,,,08,,,,,*75
$GAGMP,203012.00,,,,,,08,,,,,*78
$GBGMP,203012.00,,,,,,13,,,,,*71
$PSSN,SNC,[0,333030000,2347]*44
$GPZDA,203017.00,01,01,2025,,*64
$GPDTM,W84,,00.0000000,N,00.0000000,E,00.0000000,W84*5F
$PSSN,TFM,203017.00,,,,*68
$GPRMC,203017.00,A,4742.1605083,N,01618.1003876,E,0.0,,010125,5.1,E,D*13
$GPGLL,4742.1605083,N,01618.1003876,E,203017.00,A,D*62
$GPGGA,203017.00,4742.1605083,N,01618.1003876,E,2,38,0.4,708.1095,M,43.2066,M,1.7,0136*45
$GNGNS,203017.00,4742.1605083,N,01618.1003876,E,DAAA,38,0.4,708.1095,43.2066,,*5B
$GPGNS,203017.00,,,,,,09,,,,1.7,136*71
$GLGNS,203017.00,,,,,,08,,,,,*70
$GAGNS,203017.00,,,,,,08,,,,,*7D
$GBGNS,203017.00,,,,,,13,,,,,*74
$GPLLQ,203017.00,010125,,M,,M,1,38,0.868,,M*1B
$GPVTG,,T,,M,0.01,N,0.01,K,D*26
$GPHDT,,T*1B
$GPTHS,,V*0E
$GPROT,,V*08
$PSSN,HRP,203017.00,010125,,,,,,,00,0,,*66
$PTNL,AVR,203017.00,,Yaw,,Tilt,,,,0,,00*30
$GPGSA,A,3,08,10,15,16,18,21,23,26,27,,,,0.8,0.4,0.6*38
$GPGSA,A,3,67,68,73,74,75,82,83,84,,,,,0.8,0.4,0.6*3F
$GPGSA,A,3,03,08,13,15,21,26,31,33,,,,,0.8,0.4,0.6*30
$GPGSA,A,3,05,08,11,13,14,27,28,33,37,38,42,43,0.8,0.4,0.6*33
$GPGSA,A,3,60,,,,,,,,,,,,0.8,0.4,0.6*3E
$GPGST,203017.00,2.466,0.432,0.333,326.870,0.405,0.365,0.676*5E
$GPGBS,203017.00,2.472,2.298,4.037,68,0.0001,6.875,6.122*5E
$GPGRS,203017.00,1,-0.0,0.0,0.2,0.4,0.3,0.5,0.2,-0.8,-0.5,,,*45
$GPGRS,203017.00,1,6.2,6.9,4.6,-5.3,-3.7,-0.5,-3.1,-4.0,,,,*6C
$GPGRS,203017.00,1,0.4,0.1,-0.2,-1.5,0.0,-0.0,0.9,0.5,,,,*6B
$GPGRS,203017.00,1,1.3,0.2,1.0,0.8,0.7,-0.3,-0.9,-0.5,-0.1,-0.8,-0.9,0.8*40
$GPGRS,203017.00,1,-1.7,,,,,,,,,,,*4C
$GPGSV,6,1,22,27,85,272,51,26,11,186,38,15,10,035,38,21,22,267,39*77
$GPGSV,6,2,22,18,17,072,41,16,36,201,45,08,48,302,47,23,48,058,46*76
$GPGSV,6,3,22,10,68,144,52,07,02,296,36,02,04,264,38,30,01,327,36*74
$GPGSV,6,4,22,32,06,145,,36,35,170,44,58,13,245,37,57,11,108,37*7E
$GPGSV,6,5,22,34,31,208,42,40,24,132,36,49,34,195,44,41,07,108,33*78
$GPGSV,6,6,22,61,03,257,38*46
$GLGSV,3,1,10,83,59,043,41,75,15,338,43,82,23,080,46,68,39,122,51*6A
$GLGSV,3,2,10,73,24,234,47,84,36,293,40,67,38,054,49,74,36,284,44*6A
$GLGSV,3,3,10,66,04,013,41,69,08,163,*64
$GAGSV,3,1,10,13,60,055,47,31,16,322,39,03,14,043,39,08,20,094,41*69
$GAGSV,3,2,10,33,12,256,38,21,36,199,45,23,49,274,,26,60,269,47*66
$GAGSV,3,3,10,07,05,142,,15,09,070,36*63
$GBGSV,6,1,23,28,80,335,51,37,16,234,42,60,11,108,40,50,15,036,*61
$GBGSV,6,2,23,41,15,175,,05,23,128,39,31,21,059,,46,22,289,*65
$GBGSV,6,3,23,08,23,038,38,57,20,228,,43,30,099,46,58,30,283,*6F
$GBGSV,6,4,23,13,31,043,42,33,45,128,49,42,33,055,46,27,36,289,47*6A
$GBGSV,6,5,23,30,35,282,,14,46,088,47,11,09,098,39,10,02,132,*61
$GBGSV,6,6,23,38,09,040,38,36,04,336,,02,08,105,35*58
$GPGGA,203017.00,,,,,0,00,,,M,,M,,*4F
$PTNL,GGK,203017.00,010125,4742.1605083,N,01618.1003876,E,1,38,0.8,EHT751.3161,M*41
$GPGGQ,203017.00,010125,4742.1605083,N,01618.1003876,E,1,38,0.868,708.1095,M*35
$GPGFA,203017.00,4.104,5.543,0.432,0.333,326.870,0.676,,VVV*0B
$GPLLK,203017.00,010125,,M,,M,1,38,0.9,,M*0E
$GNGMP,203017.00,,,,,DAAA,38,0.4,,,,*5E
$GPGMP,203017.00,,,,,,09,,,,1.7,136*71
$GLGMP,203017.00,,,,,,08,,,,,*70
$GAGMP,203017.00,,,,,,08,,,,,*7D
$GBGMP,203017.00,,,,,,13,,,,,*74
$PSSN,SNC,[0,333035000,2347]*41
$GPZDA,203022.00,01,01,2025,,*62
$GPDTM,W84,,00.0000000,N,00.0000000,E,00.0000000,W84*5F
$PSSN,TFM,203022.00,,,,*6E
$GPRMC,203022.00,A,4742.1605067,N,01618.1003886,E,0.0,,010125,5.1,E,D*10
$GPGLL,4742.1605067,N,01618.1003886,E,203022.00,A,D*61
$GPGGA,203022.00,4742.1605067,N,01618.1003886,E,2,38,0.4,708.1121,M,43.2066,M,1.8,0136*47
$GNGNS,203022.00,4742.1605067,N,01618.1003886,E,DAAA,38,0.4,708.1121,43.2066,,*56
$GPGNS,203022.00,,,,,,09,,,,1.8,136*78
$GLGNS,203022.00,,,,,,08,,,,,*76
$GAGNS,203022.00,,,,,,08,,,,,*7B
$GBGNS,203022.00,,,,,,13,,,,,*72
$GPLLQ,203022.00,010125,,M,,M,1,38,0.851,,M*17
$GPVTG,,T,,M,0.00,N,0.00,K,D*26
$GPHDT,,T*1B
$GPTHS,,V*0E
$GPROT,,V*08
$PSSN,HRP,203022.00,010125,,,,,,,00,0,,*60
$PTNL,AVR,203022.00,,Yaw,,Tilt,,,,0,,00*36
$GPGSA,A,3,08,10,15,16,18,21,23,26,27,,,,0.8,0.4,0.6*38
$GPGSA,A,3,67,68,73,74,75,82,83,84,,,,,0.8,0.4,0.6*3F
$GPGSA,A,3,03,08,13,15,21,26,31,33,,,,,0.8,0.4,0.6*30
$GPGSA,A,3,05,08,11,13,14,27,28,33,37,38,42,43,0.8,0.4,0.6*33
$GPGSA,A,3,60,,,,,,,,,,,,0.8,0.4,0.6*3E
$GPGST,203022.00,2.435,0.424,0.326,326.727,0.397,0.358,0.662*57
$GPGBS,203022.00,2.423,2.179,3.861,26,0.0001,-1.533,1.165*77
$GPGRS,203022.00,1,0.2,0.2,0.1,0.3,0.1,0.4,0.1,-1.5,-0.3,,,*60
$GPGRS,203022.00,1,5.9,6.7,4.4,-5.4,-3.7,-0.4,-3.8,-3.5,,,,*63
$GPGRS,203022.00,1,0.6,0.0,-0.3,-1.5,0.0,-0.1,0.6,0.8,,,,*6C
$GPGRS,203022.00,1,1.2,-0.1,1.0,0.4,1.1,0.0,-0.9,-0.2,-0.4,-1.0,-0.8,0.6*48
$GPGRS,203022.00,1,-1.4,,,,,,,,,,,*49
$GPGSV,6,1,22,27,85,272,51,26,11,186,38,15,10,035,38,21,22,267,39*77
$GPGSV,6,2,22,18,17,072,41,16,36,201,45,08,48,302,47,23,48,058,47*77
$GPGSV,6,3,22,10,68,143,52,07,02,296,36,02,04,264,37,30,01,327,36*7C
$GPGSV,6,4,22,32,06,145,,36,35,170,44,58,13,245,37,57,11,108,38*71
$GPGSV,6,5,22,34,31,208,42,40,24,132,35,49,34,195,43,41,07,108,33*7C
$GPGSV,6,6,22,61,03,257,37*49
$GLGSV,3,1,10,83,59,043,41,75,15,338,43,82,23,080,46,68,39,122,50*6B
$GLGSV,3,2,10,73,24,234,47,84,36,293,39,67,38,054,49,74,36,284,44*64
$GLGSV,3,3,10,66,04,013,42,69,08,163,*67
$GAGSV,3,1,10,13,60,055,47,31,16,322,39,03,14,043,39,08,20,094,40*68
$GAGSV,3,2,10,33,12,256,38,21,36,199,44,23,49,273,,26,60,269,47*60
$GAGSV,3,3,10,07,05,142,,15,09,070,36*63
$GBGSV,6,1,23,28,80,335,51,37,16,234,42,60,11,108,40,50,14,036,*60
$GBGSV,6,2,23,41,15,175,,05,23,128,39,31,21,059,,46,22,289,*65
$GBGSV,6,3,23,08,23,038,38,57,20,228,,43,30,099,46,58,30,283,*6F
$GBGSV,6,4,23,13,30,043,42,33,45,128,49,42,33,055,46,27,36,289,47*6B
$GBGSV,6,5,23,30,35,282,,14,46,088,47,11,09,098,39,10,02,132,*61
$GBGSV,6,6,23,38,09,040,38,36,05,336,,02,08,105,34*58
$GPGGA,203022.00,,,,,0,00,,,M,,M,,*49
$PTNL,GGK,203022.00,010125,4742.1605067,N,01618.1003886,E,1,38,0.8,EHT751.3187,M*4A
$GPGGQ,203022.00,010125,4742.1605067,N,01618.1003886,E,1,38,0.851,708.1121,M*32
$GPGFA,203022.00,4.031,5.426,0.424,0.326,326.727,0.662,,VVV*03
$GPLLK,203022.00,010125,,M,,M,1,38,0.9,,M*08
$GNGMP,203022.00,,,,,DAAA,38,0.4,,,,*58
$GPGMP,203022.00,,,,,,09,,,,1.8,136*78
$GLGMP,203022.00,,,,,,08,,,,,*76
$GAGMP,203022.00,,,,,,08,,,,,*7B
$GBGMP,203022.00,,,,,,13,,,,,*72
$PSSN,SNC,[0,333040000,2347]*43
$GPZDA,203027.00,01,01,2025,,*67
$GPDTM,W84,,00.0000000,N,00.0000000,E,00.0000000,W84*5F
$PSSN,TFM,203027.00,,,,*6B
$GPRMC,203027.00,A,4742.1605059,N,01618.1003906,E,0.0,,010125,5.1,E,D*11
$GPGLL,4742.1605059,N,01618.1003906,E,203027.00,A,D*60
$GPGGA,203027.00,4742.1605059,N,01618.1003906,E,2,38,0.4,708.1115,M,43.2066,M,2.8,0136*42
$GNGNS,203027.00,4742.1605059,N,01618.1003906,E,DAAA,38,0.4,708.1115,43.2066,,*50
$GPGNS,203027.00,,,,,,09,,,,2.8,136*7E
$GLGNS,203027.00,,,,,,08,,,,,*73
$GAGNS,203027.00,,,,,,08,,,,,*7E
$GBGNS,203027.00,,,,,,13,,,,,*77
$GPLLQ,203027.00,010125,,M,,M,1,38,0.855,,M*16
$GPVTG,,T,,M,0.01,N,0.01,K,D*26
$GPHDT,,T*1B
$GPTHS,,V*0E
$GPROT,,V*08
$PSSN,HRP,203027.00,010125,,,,,,,00,0,,*65
$PTNL,AVR,203027.00,,Yaw,,Tilt,,,,0,,00*33
$GPGSA,A,3,08,10,15,16,18,21,23,26,27,,,,0.8,0.4,0.6*38
$GPGSA,A,3,67,68,73,74,75,82,83,84,,,,,0.8,0.4,0.6*3F
$GPGSA,A,3,03,08,13,15,21,26,31,33,,,,,0.8,0.4,0.6*30
$GPGSA,A,3,05,08,11,13,14,27,28,33,37,38,42,43,0.8,0.4,0.6*33
$GPGSA,A,3,60,,,,,,,,,,,,0.8,0.4,0.6*3E
$GPGST,203027.00,2.423,0.421,0.330,328.028,0.397,0.358,0.667*54
$GPGBS,203027.00,2.445,2.222,3.897,67,0.0001,6.093,6.131*50
$GPGRS,203027.00,1,-0.2,-0.0,0.7,0.4,-0.4,0.3,-0.0,-0.9,-0.1,,,*6A
$GPGRS,203027.00,1,6.1,5.9,5.0,-5.3,-3.7,-0.5,-4.0,-3.4,,,,*6D
$GPGRS,203027.00,1,0.6,0.0,-0.2,-1.6,0.0,-0.2,0.5,0.6,,,,*65
$GPGRS,203027.00,1,1.5,0.1,1.1,0.3,1.3,0.1,-0.7,-0.3,-0.6,-0.8,-0.5,0.6*6B
$GPGRS,203027.00,1,-1.4,,,,,,,,,,,*4C
$GPGSV,6,1,22,27,85,272,51,26,11,186,38,15,10,035,39,21,23,267,40*79
$GPGSV,6,2,22,18,17,072,41,16,36,201,45,08,48,302,47,23,48,058,46*76
$GPGSV,6,3,22,10,68,143,52,07,02,296,38,02,04,264,38,30,01,327,37*7C
$GPGSV,6,4,22,32,06,145,,36,35,170,44,58,13,245,37,57,11,108,38*71
$GPGSV,6,5,22,34,31,208,42,40,24,132,35,49,34,195,44,41,07,108,33*7B
$GPGSV,6,6,22,61,03,257,37*49
$GLGSV,3,1,10,83,59,043,41,75,15,338,44,82,23,080,46,68,39,122,51*6D
$GLGSV,3,2,10,73,24,234,48,84,36,293,39,67,38,054,49,74,36,284,44*6B
$GLGSV,3,3,10,66,04,013,42,69,08,163,*67
$GAGSV,3,1,10,13,60,055,47,31,16,322,39,03,14,043,39,08,20,094,40*68
$GAGSV,3,2,10,33,12,256,38,21,36,199,44,23,49,273,,26,60,269,47*60
$GAGSV,3,3,10,07,05,142,,15,09,070,36*63
$GBGSV,6,1,23,28,80,335,51,37,16,234,42,60,11,108,40,50,14,036,*60
$GBGSV,6,2,23,41,15,175,,05,23,128,39,31,21,059,,46,22,289,*65
$GBGSV,6,3,23,08,23,038,38,57,20,228,,43,30,099,46,58,30,283,*6F
$GBGSV,6,4,23,13,30,043,42,33,45,128,49,42,33,055,46,27,36,289,47*6B
$GBGSV,6,5,23,30,35,282,,14,46,088,46,11,09,098,39,10,02,132,*60
$GBGSV,6,6,23,38,09,040,38,36,05,336,,02,08,105,35*59
$GPGGA,203027.00,,,,,0,00,,,M,,M,,*4C
$PTNL,GGK,203027.00,010125,4742.1605059,N,01618.1003906,E,1,38,0.8,EHT751.3181,M*4D
$GPGGQ,203027.00,010125,4742.1605059,N,01618.1003906,E,1,38,0.855,708.1115,M*30
$GPGFA,203027.00,4.001,5.468,0.421,0.330,328.028,0.667,,VVV*0E
$GPLLK,203027.00,010125,,M,,M,1,38,0.9,,M*0D
$GNGMP,203027.00,,,,,DAAA,38,0.4,,,,*5D
$GPGMP,203027.00,,,,,,09,,,,2.8,136*7E
$GLGMP,203027.00,,,,,,08,,,,,*73
$GAGMP,203027.00,,,,,,08,,,,,*7E
$GBGMP,203027.00,,,,,,13,,,,,*77
$PSSN,SNC,[0,333045000,2347]*46
$GPZDA,203032.00,01,01,2025,,*63
$GPDTM,W84,,00.0000000,N,00.0000000,E,00.0000000,W84*5F
$PSSN,TFM,203032.00,,,,*6F
$GPRMC,203032.00,A,4742.1605056,N,01618.1003889,E,0.0,,010125,5.1,E,D*1C
$GPGLL,4742.1605056,N,01618.1003889,E,203032.00,A,D*6D
$GPGGA,203032.00,4742.1605056,N,01618.1003889,E,2,38,0.4,708.1117,M,43.2066,M,3.8,0136*4C
$GNGNS,203032.00,4742.1605056,N,01618.1003889,E,DAAA,38,0.4,708.1117,43.2066,,*5F
$GPGNS,203032.00,,,,,,09,,,,3.8,136*7B
$GLGNS,203032.00,,,,,,08,,,,,*77
$GAGNS,203032.00,,,,,,08,,,,,*7A
$GBGNS,203032.00,,,,,,13,,,,,*73
$GPLLQ,203032.00,010125,,M,,M,1,38,0.869,,M*1D
$GPVTG,,T,,M,0.00,N,0.01,K,D*27
$GPHDT,,T*1B
$GPTHS,,V*0E
$GPROT,,V*08
$PSSN,HRP,203032.00,010125,,,,,,,00,0,,*61
$PTNL,AVR,203032.00,,Yaw,,Tilt,,,,0,,00*37
$GPGSA,A,3,08,10,15,16,18,21,23,26,27,,,,0.8,0.4,0.6*38
$GPGSA,A,3,67,68,73,74,75,82,83,84,,,,,0.8,0.4,0.6*3F
$GPGSA,A,3,03,08,13,15,21,26,31,33,,,,,0.8,0.4,0.6*30
$GPGSA,A,3,05,08,11,13,14,27,28,33,37,38,42,43,0.8,0.4,0.6*33
$GPGSA,A,3,60,,,,,,,,,,,,0.8,0.4,0.6*3E
$GPGST,203032.00,2.533,0.429,0.335,327.739,0.404,0.364,0.678*59
$GPGBS,203032.00,2.474,2.272,3.943,67,0.0001,6.748,6.131*5A
$GPGRS,203032.00,1,0.0,0.0,0.1,0.2,-0.3,0.0,0.2,-1.0,-0.1,,,*4F
$GPGRS,203032.00,1,6.7,6.6,5.5,-5.1,-4.0,-0.6,-3.2,-3.6,,,,*60
$GPGRS,203032.00,1,0.6,0.1,0.0,-1.3,0.2,-0.3,0.6,0.5,,,,*49
$GPGRS,203032.00,1,1.5,0.4,0.7,0.6,1.2,-0.2,-0.7,-0.6,-0.9,-1.1,-0.7,0.5*44
$GPGRS,203032.00,1,-1.3,,,,,,,,,,,*4F
$GPGSV,6,1,22,27,85,271,51,26,11,186,37,15,10,035,39,21,23,267,40*75
$GPGSV,6,2,22,18,17,072,41,16,36,201,46,08,48,302,47,23,48,058,46*75
$GPGSV,6,3,22,10,68,143,52,07,02,296,36,02,04,264,38,30,01,327,38*7D
$GPGSV,6,4,22,32,06,145,,36,35,170,44,58,13,245,37,57,11,108,38*71
$GPGSV,6,5,22,34,31,208,42,40,24,132,36,49,34,195,44,41,07,108,33*78
$GPGSV,6,6,22,61,03,257,38*46
$GLGSV,3,1,10,83,59,043,41,75,15,338,44,82,23,080,46,68,39,122,50*6C
$GLGSV,3,2,10,73,24,234,47,84,36,293,40,67,38,054,49,74,36,284,45*6B
$GLGSV,3,3,10,66,04,013,42,69,08,163,*67
$GAGSV,3,1,10,13,60,055,47,31,16,322,39,03,14,043,39,08,20,094,41*69
$GAGSV,3,2,10,33,12,256,38,21,36,199,44,23,49,273,,26,60,269,47*60
$GAGSV,3,3,10,07,05,142,,15,09,070,36*63
$GBGSV,6,1,23,28,80,335,51,37,16,234,42,60,11,108,40,50,14,036,*60
$GBGSV,6,2,23,41,15,175,,05,23,128,39,31,21,059,,46,22,289,*65
$GBGSV,6,3,23,08,22,038,38,57,20,228,,43,30,099,46,58,30,283,*6E
$GBGSV,6,4,23,13,30,043,42,33,45,128,49,42,33,055,46,27,36,289,47*6B
$GBGSV,6,5,23,30,35,282,,14,46,088,47,11,09,098,38,10,02,132,*60
$GBGSV,6,6,23,38,09,040,38,36,05,336,,02,08,105,35*59
$GPGGA,203032.00,,,,,0,00,,,M,,M,,*48
$PTNL,GGK,203032.00,010125,4742.1605056,N,01618.1003889,E,1,38,0.8,EHT751.3183,M*42
$GPGGQ,203032.00,010125,4742.1605056,N,01618.1003889,E,1,38,0.869,708.1117,M*30
$GPGFA,203032.00,4.075,5.557,0.429,0.335,327.739,0.678,,VVV*0F
$GPLLK,203032.00,010125,,M,,M,1,38,0.9,,M*09
$GNGMP,203032.00,,,,,DAAA,38,0.4,,,,*59
$GPGMP,203032.00,,,,,,09,,,,3.8,136*7B
$GLGMP,203032.00,,,,,,08,,,,,*77
$GAGMP,203032.00,,,,,,08,,,,,*7A
$GBGMP,203032.00,,,,,,13,,,,,*73
$PSSN,SNC,[0,333050000,2347]*42
$GPZDA,203037.00,01,01,2025,,*66
$GPDTM,W84,,00.0000000,N,00.0000000,E,00.0000000,W84*5F
$PSSN,TFM,203037.00,,,,*6A
$GPRMC,203037.00,A,4742.1605054,N,01618.1003879,E,0.0,,010125,5.1,E,D*14
$GPGLL,4742.1605054,N,01618.1003879,E,203037.00,A,D*65
$GPGGA,203037.00,4742.1605054,N,01618.1003879,E,2,38,0.4,708.1096,M,43.2066,M,1.7,0136*41
$GNGNS,203037.00,4742.1605054,N,01618.1003879,E,DAAA,38,0.4,708.1096,43.2066,,*5F
$GPGNS,203037.00,,,,,,09,,,,1.7,136*73
$GLGNS,203037.00,,,,,,08,,,,,*72
$GAGNS,203037.00,,,,,,08,,,,,*7F
$GBGNS,203037.00,,,,,,13,,,,,*76
$GPLLQ,203037.00,010125,,M,,M,1,38,0.868,,M*19
$GPVTG,,T,,M,0.00,N,0.01,K,D*27
$GPHDT,,T*1B
$GPTHS,,V*0E
$GPROT,,V*08
$PSSN,HRP,203037.00,010125,,,,,,,00,0,,*64
$PTNL,AVR,203037.00,,Yaw,,Tilt,,,,0,,00*32
$GPGSA,A,3,08,10,15,16,18,21,23,26,27,,,,0.8,0.4,0.6*38
$GPGSA,A,3,67,68,73,74,75,82,83,84,,,,,0.8,0.4,0.6*3F
$GPGSA,A,3,03,08,13,15,21,26,31,33,,,,,0.8,0.4,0.6*30
$GPGSA,A,3,05,08,11,13,14,27,28,33,37,38,42,43,0.8,0.4,0.6*33
$GPGSA,A,3,60,,,,,,,,,,,,0.8,0.4,0.6*3E
$GPGST,203037.00,2.464,0.432,0.333,326.953,0.405,0.365,0.675*5D
$GPGBS,203037.00,2.482,2.307,4.032,67,0.0001,6.786,6.131*5F
$GPGRS,203037.00,1,-0.1,0.1,0.0,0.4,-0.5,-0.0,0.1,-0.7,-0.1,,,*4E
$GPGRS,203037.00,1,6.8,6.6,4.4,-4.7,-3.7,-1.0,-4.1,-3.9,,,,*61
$GPGRS,203037.00,1,0.5,-0.0,-0.1,-1.1,0.1,-0.4,0.8,0.7,,,,*45
$GPGRS,203037.00,1,1.1,0.6,0.3,0.5,1.0,-0.3,-0.6,-0.4,-0.6,-0.5,-0.6,0.4*4A
$GPGRS,203037.00,1,-1.5,,,,,,,,,,,*4C
$GPGSV,6,1,22,27,85,271,51,26,11,186,37,15,10,035,39,21,23,267,40*75
$GPGSV,6,2,22,18,17,072,40,16,36,201,46,08,48,302,47,23,48,058,47*75
$GPGSV,6,3,22,10,68,143,52,07,02,296,36,02,04,264,38,30,01,327,36*73
$GPGSV,6,4,22,32,06,145,,36,35,170,44,58,13,245,37,57,11,108,38*71
$GPGSV,6,5,22,34,31,208,42,40,24,132,36,49,34,195,43,41,07,108,33*7F
$GPGSV,6,6,22,61,03,257,38*46
$GLGSV,3,1,10,83,59,043,40,75,15,338,44,82,23,080,46,68,39,122,50*6D
$GLGSV,3,2,10,73,24,233,47,84,36,293,40,67,38,054,49,74,36,284,45*6C
$GLGSV,3,3,10,66,04,013,42,69,08,163,*67
$GAGSV,3,1,10,13,60,055,47,31,16,322,39,03,14,043,39,08,20,094,41*69
$GAGSV,3,2,10,33,12,256,39,21,36,199,44,23,49,273,,26,60,269,47*61
$GAGSV,3,3,10,07,05,142,,15,09,070,36*63
$GBGSV,6,1,23,28,80,335,51,37,16,234,42,60,11,108,40,50,14,036,*60
$GBGSV,6,2,23,41,15,175,,05,23,128,39,31,21,059,,46,22,289,*65
$GBGSV,6,3,23,08,22,038,38,57,20,228,,43,30,099,46,58,30,283,*6E
$GBGSV,6,4,23,13,30,043,42,33,45,128,49,42,33,055,46,27,36,289,47*6B
$GBGSV,6,5,23,30,35,282,,14,46,088,47,11,09,098,39,10,02,132,*61
$GBGSV,6,6,23,38,09,040,39,36,05,336,,02,08,105,35*58
$GPGGA,203037.00,,,,,0,00,,,M,,M,,*4D
$PTNL,GGK,203037.00,010125,4742.1605054,N,01618.1003879,E,1,38,0.8,EHT751.3162,M*45
$GPGGQ,203037.00,010125,4742.1605054,N,01618.1003879,E,1,38,0.868,708.1096,M*31
$GPGFA,203037.00,4.107,5.536,0.432,0.333,326.953,0.675,,VVV*0B
$GPLLK,203037.00,010125,,M,,M,1,38,0.9,,M*0C
$GNGMP,203037.00,,,,,DAAA,38,0.4,,,,*5C
$GPGMP,203037.00,,,,,,09,,,,1.7,136*73
$GLGMP,203037.00,,,,,,08,,,,,*72
$GAGMP,203037.00,,,,,,08,,,,,*7F
$GBGMP,203037.00,,,,,,13,,,,,*76
$PSSN,SNC,[0,333055000,2347]*47
$GPZDA,203042.00,01,01,2025,,*64
$GPDTM,W84,,00.0000000,N,00.0000000,E,00.0000000,W84*5F
$PSSN,TFM,203042.00,,,,*68
$GPRMC,203042.00,A,4742.1605072,N,01618.1003881,E,0.0,,010125,5.1,E,D*15
$GPGLL,4742.1605072,N,01618.1003881,E,203042.00,A,D*64
$GPGGA,203042.00,4742.1605072,N,01618.1003881,E,2,38,0.4,708.1080,M,43.2066,M,1.8,0136*48
$GNGNS,203042.00,4742.1605072,N,01618.1003881,E,DAAA,38,0.4,708.1080,43.2066,,*59
$GPGNS,203042.00,,,,,,09,,,,1.8,136*7E
$GLGNS,203042.00,,,,,,08,,,,,*70
$GAGNS,203042.00,,,,,,08,,,,,*7D
$GBGNS,203042.00,,,,,,13,,,,,*74
$GPLLQ,203042.00,010125,,M,,M,1,38,0.851,,M*11
$GPVTG,,T,,M,0.00,N,0.01,K,D*27
$GPHDT,,T*1B
$GPTHS,,V*0E
$GPROT,,V*08
$PSSN,HRP,203042.00,010125,,,,,,,00,0,,*66
$PTNL,AVR,203042.00,,Yaw,,Tilt,,,,0,,00*30
$GPGSA,A,3,08,10,15,16,18,21,23,26,27,,,,0.8,0.4,0.6*38
$GPGSA,A,3,67,68,73,74,75,82,83,84,,,,,0.8,0.4,0.6*3F
$GPGSA,A,3,03,08,13,15,21,26,31,33,,,,,0.8,0.4,0.6*30
$GPGSA,A,3,05,08,11,13,14,27,28,33,37,38,42,43,0.8,0.4,0.6*33
$GPGSA,A,3,60,,,,,,,,,,,,0.8,0.4,0.6*3E
$GPGST,203042.00,2.459,0.424,0.326,326.742,0.397,0.359,0.661*5A
$GPGBS,203042.00,2.429,2.188,3.853,67,0.0001,6.876,6.131*51
$GPGRS,203042.00,1,0.0,0.1,0.2,0.2,-0.3,0.2,0.1,-1.2,-0.2,,,*4A
$GPGRS,203042.00,1,6.9,6.5,4.7,-5.1,-3.1,-0.4,-4.1,-3.5,,,,*6A
$GPGRS,203042.00,1,0.2,0.1,0.2,-1.1,0.2,-0.5,0.6,0.6,,,,*4F
$GPGRS,203042.00,1,1.2,0.5,1.0,0.5,0.8,-0.4,-0.5,-0.7,-0.4,-0.8,-0.6,0.6*49
$GPGRS,203042.00,1,-1.3,,,,,,,,,,,*48
$GPGSV,6,1,22,27,85,270,51,26,11,186,38,15,10,035,39,21,23,267,39*75
$GPGSV,6,2,22,18,17,072,40,16,36,201,45,08,48,302,47,23,48,058,47*76
$GPGSV,6,3,22,10,68,143,52,07,02,296,37,02,04,264,37,30,01,327,38*73
$GPGSV,6,4,22,32,06,145,,36,35,170,44,58,13,245,37,57,11,108,37*7E
$GPGSV,6,5,22,34,31,208,42,40,24,132,36,49,34,195,43,41,07,108,33*7F
$GPGSV,6,6,22,61,03,257,38*46
$GLGSV,3,1,10,83,59,044,41,75,15,338,44,82,23,080,46,68,39,121,50*68
$GLGSV,3,2,10,73,24,233,47,84,36,293,39,67,38,054,49,74,36,284,45*62
$GLGSV,3,3,10,66,04,013,41,69,08,163,*64
$GAGSV,3,1,10,13,60,055,47,31,16,322,39,03,14,043,39,08,20,094,41*69
$GAGSV,3,2,10,33,12,256,39,21,36,199,44,23,49,273,,26,60,269,47*61
$GAGSV,3,3,10,07,05,141,,15,09,070,36*60
$GBGSV,6,1,23,28,80,335,51,37,16,234,43,60,11,108,40,50,14,036,*61
$GBGSV,6,2,23,41,15,175,,05,23,128,39,31,21,059,,46,22,289,*65
$GBGSV,6,3,23,08,22,038,38,57,20,228,,43,30,099,46,58,30,283,*6E
$GBGSV,6,4,23,13,30,043,42,33,45,128,49,42,33,055,46,27,36,289,47*6B
$GBGSV,6,5,23,30,35,282,,14,46,087,47,11,09,098,39,10,02,132,*6E
$GBGSV,6,6,23,38,09,040,39,36,05,336,,02,08,105,35*58
$GPGGA,203042.00,,,,,0,00,,,M,,M,,*4F
$PTNL,GGK,203042.00,010125,4742.1605072,N,01618.1003881,E,1,38,0.8,EHT751.3145,M*41
$GPGGQ,203042.00,010125,4742.1605072,N,01618.1003881,E,1,38,0.851,708.1080,M*3D
$GPGFA,203042.00,4.034,5.421,0.424,0.326,326.742,0.661,,VVV*07
$GPLLK,203042.00,010125,,M,,M,1,38,0.9,,M*0E
$GNGMP,203042.00,,,,,DAAA,38,0.4,,,,*5E
$GPGMP,203042.00,,,,,,09,,,,1.8,136*7E
$GLGMP,203042.00,,,,,,08,,,,,*70
$GAGMP,203042.00,,,,,,08,,,,,*7D
$GBGMP,203042.00,,,,,,13,,,,,*74
$PSSN,SNC,[0,333060000,2347]*41
$GPZDA,203047.00,01,01,2025,,*61
$GPDTM,W84,,00.0000000,N,00.0000000,E,00.0000000,W84*5F
$PSSN,TFM,203047.00,,,,*6D
$GPRMC,203047.00,A,4742.1605039,N,01618.1003880,E,0.0,,010125,5.1,E,D*1E
$GPGLL,4742.1605039,N,01618.1003880,E,203047.00,A,D*6F
$GPGGA,203047.00,4742.1605039,N,01618.1003880,E,2,38,0.4,708.1042,M,43.2066,M,2.8,0136*4E
$GNGNS,203047.00,4742.1605039,N,01618.1003880,E,DAAA,38,0.4,708.1042,43.2066,,*5C
$GPGNS,203047.00,,,,,,09,,,,2.8,136*78
$GLGNS,203047.00,,,,,,08,,,,,*75
$GAGNS,203047.00,,,,,,08,,,,,*78
$GBGNS,203047.00,,,,,,13,,,,,*71
$GPLLQ,203047.00,010125,,M,,M,1,38,0.855,,M*10
$GPVTG,,T,,M,0.00,N,0.01,K,D*27
$GPHDT,,T*1B
$GPTHS,,V*0E
$GPROT,,V*08
$PSSN,HRP,203047.00,010125,,,,,,,00,0,,*63
$PTNL,AVR,203047.00,,Yaw,,Tilt,,,,0,,00*35
$GPGSA,A,3,08,10,15,16,18,21,23,26,27,,,,0.8,0.4,0.6*38
$GPGSA,A,3,67,68,73,74,75,82,83,84,,,,,0.8,0.4,0.6*3F
$GPGSA,A,3,03,08,13,15,21,26,31,33,,,,,0.8,0.4,0.6*30
$GPGSA,A,3,05,08,11,13,14,27,28,33,37,38,42,43,0.8,0.4,0.6*33
$GPGSA,A,3,60,,,,,,,,,,,,0.8,0.4,0.6*3E
$GPGST,203047.00,2.505,0.421,0.330,327.995,0.398,0.358,0.666*59
$GPGBS,203047.00,2.452,2.230,3.888,67,0.0001,6.188,6.132*55
$GPGRS,203047.00,1,0.3,0.1,-0.0,0.1,-0.4,-0.1,0.2,-1.1,-0.1,,,*4A
$GPGRS,203047.00,1,6.2,6.0,5.1,-5.3,-3.3,-1.1,-4.3,-4.7,,,,*65
$GPGRS,203047.00,1,0.1,0.5,-0.1,-1.2,0.4,-0.3,0.6,0.5,,,,*63
$GPGRS,203047.00,1,1.3,0.3,0.7,0.5,1.0,-0.3,-0.5,-1.0,-0.6,-0.9,-1.0,0.8*4F
$GPGRS,203047.00,1,-1.5,,,,,,,,,,,*4B
$GPGSV,6,1,22,27,85,270,51,26,11,186,38,15,10,035,39,21,23,267,39*75
$GPGSV,6,2,22,18,17,072,40,16,36,201,45,08,48,302,47,23,48,058,46*77
$GPGSV,6,3,22,10,69,143,52,07,02,296,38,02,05,264,37,30,01,327,38*7C
$GPGSV,6,4,22,32,07,145,,36,35,170,44,58,13,245,37,57,11,108,38*70
$GPGSV,6,5,22,34,31,208,42,40,24,132,35,49,34,195,44,41,07,108,33*7B
$GPGSV,6,6,22,61,03,257,37*49
$GLGSV,3,1,10,83,59,044,41,75,15,338,44,82,23,080,46,84,36,293,39*60
$GLGSV,3,2,10,73,23,233,47,68,39,121,49,67,38,054,49,74,36,284,44*64
$GLGSV,3,3,10,66,04,013,41,69,08,163,*64
$GAGSV,3,1,10,13,60,055,47,31,16,322,39,03,14,043,38,08,20,094,41*68
$GAGSV,3,2,10,33,12,256,39,21,36,199,44,23,49,273,,26,60,269,47*61
$GAGSV,3,3,10,07,05,141,,15,09,070,37*61
$GBGSV,6,1,23,28,80,336,51,37,16,234,42,60,11,108,40,50,14,036,*63
$GBGSV,6,2,23,41,15,175,,05,23,128,39,31,21,059,,46,22,289,*65
$GBGSV,6,3,23,08,22,039,38,57,20,228,,43,30,099,46,58,30,283,*6F
$GBGSV,6,4,23,13,30,043,42,33,45,128,49,42,33,055,46,27,36,289,47*6B
$GBGSV,6,5,23,30,35,282,,14,46,087,47,11,09,098,39,10,02,132,*6E
$GBGSV,6,6,23,38,09,040,39,36,05,336,,02,08,105,35*58
$GPGGA,203047.00,,,,,0,00,,,M,,M,,*4A
$PTNL,GGK,203047.00,010125,4742.1605039,N,01618.1003880,E,1,38,0.8,EHT751.3108,M*43
$GPGGQ,203047.00,010125,4742.1605039,N,01618.1003880,E,1,38,0.855,708.1042,M*3C
$GPGFA,203047.00,4.006,5.464,0.421,0.330,327.995,0.666,,VVV*02
$GPLLK,203047.00,010125,,M,,M,1,38,0.9,,M*0B
$GNGMP,203047.00,,,,,DAAA,38,0.4,,,,*5B
$GPGMP,203047.00,,,,,,09,,,,2.8,136*78
$GLGMP,203047.00,,,,,,08,,,,,*75
$GAGMP,203047.00,,,,,,08,,,,,*78
$GBGMP,203047.00,,,,,,13,,,,,*71
$PSSN,SNC,[0,333065000,2347]*44
$GPZDA,203052.00,01,01,2025,,*65
$GPDTM,W84,,00.0000000,N,00.0000000,E,00.0000000,W84*5F
$PSSN,TFM,203052.00,,,,*69
$GPRMC,203052.00,A,4742.1605020,N,01618.1003885,E,0.0,,010125,5.1,E,D*17
$GPGLL,4742.1605020,N,01618.1003885,E,203052.00,A,D*66
$GPGGA,203052.00,4742.1605020,N,01618.1003885,E,2,38,0.4,708.0953,M,43.2066,M,3.8,0136*4E
$GNGNS,203052.00,4742.1605020,N,01618.1003885,E,DAAA,38,0.4,708.0953,43.2066,,*5D
$GPGNS,203052.00,,,,,,09,,,,3.8,136*7D
$GLGNS,203052.00,,,,,,08,,,,,*71
$GAGNS,203052.00,,,,,,08,,,,,*7C
$GBGNS,203052.00,,,,,,13,,,,,*75
$GPLLQ,203052.00,010125,,M,,M,1,38,0.869,,M*1B
$GPVTG,,T,,M,0.01,N,0.01,K,D*26
$GPHDT,,T*1B
$GPTHS,,V*0E
$GPROT,,V*08
$PSSN,HRP,203052.00,010125,,,,,,,00,0,,*67
$PTNL,AVR,203052.00,,Yaw,,Tilt,,,,0,,00*31
$GPGSA,A,3,08,10,15,16,18,21,23,26,27,,,,0.8,0.4,0.6*38
$GPGSA,A,3,67,68,73,74,75,82,83,84,,,,,0.8,0.4,0.6*3F
$GPGSA,A,3,03,08,13,15,21,26,31,33,,,,,0.8,0.4,0.6*30
$GPGSA,A,3,05,08,11,13,14,27,28,33,37,38,42,43,0.8,0.4,0.6*33
$GPGSA,A,3,60,,,,,,,,,,,,0.8,0.4,0.6*3E
$GPGST,203052.00,2.391,0.429,0.335,327.668,0.404,0.365,0.677*5A
$GPGBS,203052.00,2.480,2.280,3.934,68,0.0001,6.156,6.121*5D
$GPGRS,203052.00,1,0.2,0.1,0.4,0.2,-0.3,0.1,-0.0,-1.0,-0.1,,,*61
$GPGRS,203052.00,1,6.0,6.2,4.3,-5.1,-4.2,-1.0,-3.2,-3.7,,,,*66
$GPGRS,203052.00,1,0.3,0.4,-0.1,-1.2,0.4,-0.2,1.0,0.5,,,,*62
$GPGRS,203052.00,1,2.1,0.8,0.9,0.7,0.6,-0.3,-0.4,-0.6,-0.8,-0.8,-0.8,0.9*4B
$GPGRS,203052.00,1,-1.6,,,,,,,,,,,*4C
$GPGSV,6,1,22,27,85,269,51,26,11,186,38,15,10,035,38,21,23,267,39*7C
$GPGSV,6,2,22,18,17,072,39,16,36,201,46,08,48,302,47,23,47,058,46*75
$GPGSV,6,3,22,10,69,143,52,07,02,296,38,02,05,264,37,30,01,327,36*72
$GPGSV,6,4,22,32,07,145,,36,35,170,44,58,13,245,38,57,11,108,38*7F
$GPGSV,6,5,22,34,31,208,42,40,24,132,36,49,34,195,44,41,07,108,33*78
$GPGSV,6,6,22,61,03,257,38*46
$GLGSV,3,1,10,83,59,044,41,75,15,338,43,82,23,080,46,84,36,293,40*69
$GLGSV,3,2,10,73,23,233,47,68,39,121,50,67,38,054,49,74,36,284,45*6D
$GLGSV,3,3,10,66,04,013,42,69,08,163,*67
$GAGSV,3,1,10,13,60,055,47,31,16,322,39,03,14,043,37,08,20,094,41*67
$GAGSV,3,2,10,33,12,256,39,21,36,199,45,23,49,273,,26,60,269,47*60
$GAGSV,3,3,10,07,05,141,,15,09,070,36*60
$GBGSV,6,1,23,28,80,336,51,37,16,234,42,60,11,108,40,50,14,036,*63
$GBGSV,6,2,23,05,23,128,39,41,15,175,,31,21,059,,46,22,289,*65
$GBGSV,6,3,23,08,22,039,38,57,20,228,,43,30,099,46,58,30,283,*6F
$GBGSV,6,4,23,13,30,043,42,33,45,128,49,42,33,055,46,27,36,289,47*6B
$GBGSV,6,5,23,30,35,282,,14,46,087,46,36,05,336,,10,02,132,*6B
$GBGSV,6,6,23,38,09,040,39,11,08,098,39,02,08,105,34*5C
$GPGGA,203052.00,,,,,0,00,,,M,,M,,*4E
$PTNL,GGK,203052.00,010125,4742.1605020,N,01618.1003885,E,1,38,0.8,EHT751.3019,M*4B
$GPGGQ,203052.00,010125,4742.1605020,N,01618.1003885,E,1,38,0.869,708.0953,M*32
$GPGFA,203052.00,4.079,5.552,0.429,0.335,327.668,0.677,,VVV*0A
$GPLLK,203052.00,010125,,M,,M,1,38,0.9,,M*0F
$GNGMP,203052.00,,,,,DAAA,38,0.4,,,,*5F
$GPGMP,203052.00,,,,,,09,,,,3.8,136*7D
$GLGMP,203052.00,,,,,,08,,,,,*71
$GAGMP,203052.00,,,,,,08,,,,,*7C
$GBGMP,203052.00,,,,,,13,,,,,*75
$PSSN,SNC,[0,333070000,2347]*40
$GPZDA,203057.00,01,01,2025,,*60
$GPDTM,W84,,00.0000000,N,00.0000000,E,00.0000000,W84*5F
$PSSN,TFM,203057.00,,,,*6C
$GPRMC,203057.00,A,4742.1605025,N,01618.1003889,E,0.0,,010125,5.1,E,D*1B
$GPGLL,4742.1605025,N,01618.1003889,E,203057.00,A,D*6A
$GPGGA,203057.00,4742.1605025,N,01618.1003889,E,2,38,0.4,708.0985,M,43.2066,M,1.7,0136*44
$GNGNS,203057.00,4742.1605025,N,01618.1003889,E,DAAA,38,0.4,708.0985,43.2066,,*5A
$GPGNS,203057.00,,,,,,09,,,,1.7,136*75
$GLGNS,203057.00,,,,,,08,,,,,*74
$GAGNS,203057.00,,,,,,08,,,,,*79
$GBGNS,203057.00,,,,,,13,,,,,*70
$GPLLQ,203057.00,010125,,M,,M,1,38,0.868,,M*1F
$GPVTG,,T,,M,0.00,N,0.01,K,D*27
$GPHDT,,T*1B
$GPTHS,,V*0E
$GPROT,,V*08
$PSSN,HRP,203057.00,010125,,,,,,,00,0,,*62
$PTNL,AVR,203057.00,,Yaw,,Tilt,,,,0,,00*34
$GPGSA,A,3,08,10,15,16,18,21,23,26,27,,,,0.8,0.4,0.6*38
$GPGSA,A,3,67,68,73,74,75,82,83,84,,,,,0.8,0.4,0.6*3F
$GPGSA,A,3,03,08,13,15,21,26,31,33,,,,,0.8,0.4,0.6*30
$GPGSA,A,3,05,08,11,13,14,27,28,33,37,38,42,43,0.8,0.4,0.6*33
$GPGSA,A,3,60,,,,,,,,,,,,0.8,0.4,0.6*3E
$GPGST,203057.00,2.424,0.432,0.333,326.889,0.405,0.366,0.675*5A
$GPGBS,203057.00,2.485,2.315,4.024,68,0.0001,6.496,6.121*56
$GPGRS,203057.00,1,0.0,0.1,0.3,0.1,-0.2,0.7,-0.1,-1.0,-0.1,,,*64
$GPGRS,203057.00,1,6.2,6.5,4.9,-5.1,-4.2,-1.4,-3.2,-2.7,,,,*69
$GPGRS,203057.00,1,0.5,0.5,-0.1,-1.2,0.2,-0.2,0.9,0.4,,,,*6F
$GPGRS,203057.00,1,1.3,0.7,1.3,0.3,0.4,-0.2,-0.6,-0.4,-0.4,-0.9,-0.8,0.7*4F
$GPGRS,203057.00,1,-1.6,,,,,,,,,,,*49
$GPGSV,6,1,22,27,85,269,51,26,11,186,38,15,10,035,37,21,23,267,39*73
$GPGSV,6,2,22,18,17,072,40,16,36,201,45,08,48,302,47,23,47,058,46*78
$GPGSV,6,3,22,10,69,143,51,07,02,296,37,02,05,264,38,30,01,327,36*71
$GPGSV,6,4,22,32,07,145,,36,35,170,44,58,13,245,37,57,11,108,38*70
$GPGSV,6,5,22,34,31,208,42,40,24,132,36,49,34,195,44,41,07,108,34*7F
$GPGSV,6,6,22,61,03,257,37*49
$GLGSV,3,1,10,83,59,044,41,75,15,338,44,82,23,080,45,68,39,121,50*6B
$GLGSV,3,2,10,73,23,233,47,84,36,293,40,67,38,054,49,74,36,284,44*6A
$GLGSV,3,3,10,66,04,013,43,69,08,163,*66
$GAGSV,3,1,10,13,60,055,47,31,16,322,40,03,14,043,37,08,20,094,41*69
$GAGSV,3,2,10,33,12,256,39,21,36,199,44,23,49,273,,26,60,270,48*66
$GAGSV,3,3,10,07,05,141,,15,09,070,36*60
$GBGSV,6,1,23,28,80,336,51,37,16,234,42,60,11,108,40,50,14,036,*63
$GBGSV,6,2,23,05,23,128,39,41,15,175,,31,21,059,,46,22,289,*65
$GBGSV,6,3,23,08,22,039,38,57,20,228,,43,30,099,46,58,30,283,*6F
$GBGSV,6,4,23,13,30,043,42,33,45,128,49,42,33,055,46,27,36,289,47*6B
$GBGSV,6,5,23,30,35,282,,14,46,087,46,36,05,336,,10,02,132,*6B
$GBGSV,6,6,23,38,08,040,39,11,08,098,39,02,08,105,35*5C
$GPGGA,203057.00,,,,,0,00,,,M,,M,,*4B
$PTNL,GGK,203057.00,010125,4742.1605025,N,01618.1003889,E,1,38,0.8,EHT751.3050,M*4A
$GPGGQ,203057.00,010125,4742.1605025,N,01618.1003889,E,1,38,0.868,708.0985,M*34
$GPGFA,203057.00,4.111,5.533,0.432,0.333,326.889,0.675,,VVV*09
$GPLLK,203057.00,010125,,M,,M,1,38,0.9,,M*0A
$GNGMP,203057.00,,,,,DAAA,38,0.4,,,,*5A
$GPGMP,203057.00,,,,,,09,,,,1.7,136*75
$GLGMP,203057.00,,,,,,08,,,,,*74
$GAGMP,203057.00,,,,,,08,,,,,*79
$GBGMP,203057.00,,,,,,13,,,,,*70
$PSSN,SNC,[0,333075000,2347]*45
$GPZDA,203102.00,01,01,2025,,*61
$GPDTM,W84,,00.0000000,N,00.0000000,E,00.0000000,W84*5F
$PSSN,TFM,203102.00,,,,*6D
$GPRMC,203102.00,A,4742.1605001,N,01618.1003924,E,0.0,,010125,5.1,E,D*1A
$GPGLL,4742.1605001,N,01618.1003924,E,203102.00,A,D*6B
$GPGGA,203102.00,4742.1605001,N,01618.1003924,E,2,38,0.4,708.1002,M,43.2066,M,1.8,0136*4D
$GNGNS,203102.00,4742.1605001,N,01618.1003924,E,DAAA,38,0.4,708.1002,43.2066,,*5C
$GPGNS,203102.00,,,,,,09,,,,1.8,136*7B
$GLGNS,203102.00,,,,,,08,,,,,*75
$GAGNS,203102.00,,,,,,08,,,,,*78
$GBGNS,203102.00,,,,,,13,,,,,*71
$GPLLQ,203102.00,010125,,M,,M,1,38,0.850,,M*15
$GPVTG,,T,,M,0.00,N,0.01,K,D*27
$GPHDT,,T*1B
$GPTHS,,V*0E
$GPROT,,V*08
$PSSN,HRP,203102.00,010125,,,,,,,00,0,,*63
$PTNL,AVR,203102.00,,Yaw,,Tilt,,,,0,,00*35
$GPGSA,A,3,08,10,15,16,18,21,23,26,27,,,,0.8,0.4,0.6*38
$GPGSA,A,3,67,68,73,74,75,82,83,84,,,,,0.8,0.4,0.6*3F
$GPGSA,A,3,03,08,13,15,21,26,31,33,,,,,0.8,0.4,0.6*30
$GPGSA,A,3,05,08,11,13,14,27,28,33,37,38,42,43,0.8,0.4,0.6*33
$GPGSA,A,3,60,,,,,,,,,,,,0.8,0.4,0.6*3E
$GPGST,203102.00,2.419,0.425,0.327,326.750,0.398,0.359,0.660*56
$GPGBS,203102.00,2.435,2.196,3.842,68,0.0001,6.081,6.121*58
$GPGRS,203102.00,1,0.1,-0.1,-0.1,0.1,0.1,0.6,-0.0,-0.5,-0.2,,,*4F
$GPGRS,203102.00,1,5.9,6.1,5.9,-5.3,-3.8,-1.6,-3.5,-2.6,,,,*6E
$GPGRS,203102.00,1,0.6,0.5,-0.2,-1.1,0.0,-0.4,0.7,0.4,,,,*67
$GPGRS,203102.00,1,1.1,0.4,1.1,0.2,0.5,-0.2,-0.8,-0.6,-0.4,-0.6,-0.8,0.6*4F
$GPGRS,203102.00,1,-1.6,,,,,,,,,,,*48
$GPGSV,6,1,22,27,85,269,51,26,11,186,39,15,10,035,38,21,23,267,39*7D
$GPGSV,6,2,22,18,17,072,41,16,36,201,46,08,48,302,47,23,47,058,46*7A
$GPGSV,6,3,22,10,69,143,52,07,02,296,37,02,05,264,37,30,01,327,38*73
$GPGSV,6,4,22,32,07,145,,36,35,170,44,58,13,245,37,57,11,108,37*7F
$GPGSV,6,5,22,34,31,208,42,40,24,132,35,49,34,195,44,41,07,108,33*7B
$GPGSV,6,6,22,61,03,257,38*46
$GLGSV,3,1,10,83,59,044,41,75,15,338,44,82,23,080,45,84,36,293,40*6D
$GLGSV,3,2,10,73,23,233,48,68,39,121,50,67,38,053,49,74,36,284,44*64
$GLGSV,3,3,10,66,04,013,42,69,08,163,*67
$GAGSV,3,1,10,13,60,055,47,31,16,322,39,03,14,043,37,08,20,094,41*67
$GAGSV,3,2,10,33,12,256,39,21,36,199,44,23,49,273,,26,60,270,47*69
$GAGSV,3,3,10,07,05,141,,15,09,070,36*60
$GBGSV,6,1,23,28,80,336,51,37,16,234,42,60,11,108,40,50,14,036,*63
$GBGSV,6,2,23,05,23,128,39,41,15,175,,31,21,059,,46,22,289,*65
$GBGSV,6,3,23,08,22,039,38,57,20,228,,43,30,099,46,58,30,283,*6F
$GBGSV,6,4,23,13,30,043,42,33,45,128,49,42,33,055,46,27,36,289,47*6B
$GBGSV,6,5,23,30,35,282,,14,46,087,46,36,05,336,,10,02,132,*6B
$GBGSV,6,6,23,38,08,040,39,11,08,098,39,02,08,105,34*5D
$GPGGA,203102.00,,,,,0,00,,,M,,M,,*4A
$PTNL,GGK,203102.00,010125,4742.1605001,N,01618.1003924,E,1,38,0.8,EHT751.3068,M*40
$GPGGQ,203102.00,010125,4742.1605001,N,01618.1003924,E,1,38,0.850,708.1002,M*39
$GPGFA,203102.00,4.037,5.415,0.425,0.327,326.750,0.660,,VVV*04
$GPLLK,203102.00,010125,,M,,M,1,38,0.9,,M*0B
$GNGMP,203102.00,,,,,DAAA,38,0.4,,,,*5B
$GPGMP,203102.00,,,,,,09,,,,1.8,136*7B
$GLGMP,203102.00,,,,,,08,,,,,*75
$GAGMP,203102.00,,,,,,08,,,,,*78
$GBGMP,203102.00,,,,,,13,,,,,*71
$PSSN,SNC,[0,333080000,2347]*4F
$GPZDA,203107.00,01,01,2025,,*64
$GPDTM,W84,,00.0000000,N,00.0000000,E,00.0000000,W84*5F
$PSSN,TFM,203107.00,,,,*68
$GPRMC,203107.00,A,4742.1605013,N,01618.1003951,E,0.0,,010125,5.1,E,D*1E
$GPGLL,4742.1605013,N,01618.1003951,E,203107.00,A,D*6F
$GPGGA,203107.00,4742.1605013,N,01618.1003951,E,2,38,0.4,708.1017,M,43.2066,M,2.8,0136*4E
$GNGNS,203107.00,4742.1605013,N,01618.1003951,E,DAAA,38,0.4,708.1017,43.2066,,*5C
$GPGNS,203107.00,,,,,,09,,,,2.8,136*7D
$GLGNS,203107.00,,,,,,08,,,,,*70
$GAGNS,203107.00,,,,,,08,,,,,*7D
$GBGNS,203107.00,,,,,,13,,,,,*74
$GPLLQ,203107.00,010125,,M,,M,1,38,0.854,,M*14
$GPVTG,,T,,M,0.00,N,0.01,K,D*27
$GPHDT,,T*1B
$GPTHS,,V*0E
$GPROT,,V*08
$PSSN,HRP,203107.00,010125,,,,,,,00,0,,*66
$PTNL,AVR,203107.00,,Yaw,,Tilt,,,,0,,00*30
$GPGSA,A,3,08,10,15,16,18,21,23,26,27,,,,0.8,0.4,0.6*38
$GPGSA,A,3,67,68,73,74,75,82,83,84,,,,,0.8,0.4,0.6*3F
$GPGSA,A,3,03,08,13,15,21,26,31,33,,,,,0.8,0.4,0.6*30
$GPGSA,A,3,05,08,11,13,14,27,28,33,37,38,42,43,0.8,0.4,0.6*33
$GPGSA,A,3,60,,,,,,,,,,,,0.8,0.4,0.6*3E
$GPGST,203107.00,2.567,0.422,0.330,328.028,0.398,0.358,0.666*5B
$GPGBS,203107.00,2.459,2.238,3.879,68,0.0001,6.491,6.121*5D
$GPGRS,203107.00,1,-0.0,0.0,-0.0,0.2,-0.3,0.7,0.1,-0.8,-0.1,,,*44
$GPGRS,203107.00,1,6.4,6.5,5.7,-5.2,-3.6,-0.5,-4.2,-4.4,,,,*66
$GPGRS,203107.00,1,0.5,0.2,-0.1,-1.5,0.1,-0.3,0.4,-0.1,,,,*4C
$GPGRS,203107.00,1,1.2,0.3,0.8,0.2,0.7,-0.3,-0.7,-0.9,-0.3,-1.1,-0.8,0.9*4B
$GPGRS,203107.00,1,-1.3,,,,,,,,,,,*48
$GPGSV,6,1,22,27,85,268,51,26,11,186,38,15,10,035,38,21,23,267,39*7D
$GPGSV,6,2,22,18,17,072,41,16,36,201,46,08,48,302,47,23,47,058,47*7B
$GPGSV,6,3,22,10,69,143,52,07,02,296,35,02,05,264,38,30,01,327,36*70
$GPGSV,6,4,22,32,07,145,,36,35,170,44,58,13,245,37,57,11,108,37*7F
$GPGSV,6,5,22,34,31,208,42,40,24,132,35,49,34,195,43,41,07,108,33*7C
$GPGSV,6,6,22,61,03,257,37*49
$GLGSV,3,1,10,83,59,044,41,75,15,338,44,82,23,080,46,84,36,293,39*60
$GLGSV,3,2,10,73,23,233,47,68,39,121,50,67,38,053,50,74,36,284,44*63
$GLGSV,3,3,10,66,04,013,42,69,08,163,*67
$GAGSV,3,1,10,26,60,270,47,31,16,322,39,03,14,043,37,33,12,256,38*6F
$GAGSV,3,2,10,21,36,199,44,08,20,094,41,23,49,273,,13,60,055,47*60
$GAGSV,3,3,10,07,05,141,,15,09,070,36*60
$GBGSV,6,1,23,28,80,336,51,37,16,234,42,60,11,108,40,50,14,036,*63
$GBGSV,6,2,23,05,23,128,39,41,15,175,,31,21,059,,46,22,289,*65
$GBGSV,6,3,23,08,22,039,37,57,20,228,,43,30,100,46,58,30,283,*61
$GBGSV,6,4,23,13,30,043,42,33,45,128,48,42,33,055,46,27,36,289,47*6A
$GBGSV,6,5,23,30,35,282,,14,46,087,46,36,05,336,,10,02,132,*6B
$GBGSV,6,6,23,38,08,041,39,11,08,098,38,02,08,105,34*5D
$GPGGA,203107.00,,,,,0,00,,,M,,M,,*4F
$PTNL,GGK,203107.00,010125,4742.1605013,N,01618.1003951,E,1,38,0.8,EHT751.3082,M*40
$GPGGQ,203107.00,010125,4742.1605013,N,01618.1003951,E,1,38,0.854,708.1017,M*3D
$GPGFA,203107.00,4.009,5.458,0.422,0.330,328.028,0.666,,VVV*04
$GPLLK,203107.00,010125,,M,,M,1,38,0.9,,M*0E
$GNGMP,203107.00,,,,,DAAA,38,0.4,,,,*5E
$GPGMP,203107.00,,,,,,09,,,,2.8,136*7D
$GLGMP,203107.00,,,,,,08,,,,,*70
$GAGMP,203107.00,,,,,,08,,,,,*7D
$GBGMP,203107.00,,,,,,13,,,,,*74
$PSSN,SNC,[0,333085000,2347]*4A
$GPZDA,203112.00,01,01,2025,,*60
$GPDTM,W84,,00.0000000,N,00.0000000,E,00.0000000,W84*5F
$PSSN,TFM,203112.00,,,,*6C
$GPRMC,203112.00,A,4742.1605001,N,01618.1003933,E,0.0,,010125,5.1,E,D*1D
$GPGLL,4742.1605001,N,01618.1003933,E,203112.00,A,D*6C
$GPGGA,203112.00,4742.1605001,N,01618.1003933,E,2,38,0.4,708.1038,M,43.2066,M,3.8,0136*41
$GNGNS,203112.00,4742.1605001,N,01618.1003933,E,DAAA,38,0.4,708.1038,43.2066,,*52
$GPGNS,203112.00,,,,,,09,,,,3.8,136*78
$GLGNS,203112.00,,,,,,08,,,,,*74
$GAGNS,203112.00,,,,,,08,,,,,*79
$GBGNS,203112.00,,,,,,13,,,,,*70
$GPLLQ,203112.00,010125,,M,,M,1,38,0.868,,M*1F
$GPVTG,,T,,M,0.00,N,0.00,K,D*26
$GPHDT,,T*1B
$GPTHS,,V*0E
$GPROT,,V*08
$PSSN,HRP,203112.00,010125,,,,,,,00,0,,*62
$PTNL,AVR,203112.00,,Yaw,,Tilt,,,,0,,00*34
$GPGSA,A,3,08,10,15,16,18,21,23,26,27,,,,0.8,0.4,0.6*38
$GPGSA,A,3,67,68,73,74,75,82,83,84,,,,,0.8,0.4,0.6*3F
$GPGSA,A,3,03,08,13,15,21,26,31,33,,,,,0.8,0.4,0.6*30
$GPGSA,A,3,05,08,11,13,14,27,28,33,37,38,42,43,0.8,0.4,0.6*33
$GPGSA,A,3,60,,,,,,,,,,,,0.8,0.4,0.6*3E
$GPGST,203112.00,2.439,0.429,0.335,327.751,0.405,0.365,0.676*51
$GPGBS,203112.00,2.487,2.289,3.924,68,0.0001,6.330,6.120*54
$GPGRS,203112.00,1,-0.2,0.1,0.3,0.2,-0.1,-0.0,0.1,-0.9,-0.2,,,*47
$GPGRS,203112.00,1,6.2,6.3,4.8,-5.3,-3.2,0.5,-3.9,-4.1,,,,*4D
$GPGRS,203112.00,1,0.9,0.2,0.1,-1.2,0.1,-0.4,0.3,0.3,,,,*41
$GPGRS,203112.00,1,1.6,-0.2,-0.0,0.4,0.9,-0.5,-0.6,-0.6,-0.2,-0.8,-0.7,0.7*4A
$GPGRS,203112.00,1,-1.5,,,,,,,,,,,*4A
$GPGSV,6,1,22,27,86,268,51,26,11,186,38,15,10,035,39,21,23,267,39*7F
$GPGSV,6,2,22,18,17,072,42,16,36,201,46,08,48,302,48,23,47,058,47*77
$GPGSV,6,3,22,10,69,143,52,07,02,296,35,02,05,264,38,30,01,327,35*73
$GPGSV,6,4,22,32,07,145,,36,35,170,44,58,13,245,37,57,11,108,37*7F
$GPGSV,6,5,22,34,31,208,42,40,24,132,36,49,34,195,44,41,07,108,33*78
$GPGSV,6,6,22,61,03,257,37*49
$GLGSV,3,1,10,83,59,044,41,75,15,337,44,82,23,080,46,84,36,293,39*6F
$GLGSV,3,2,10,73,23,233,48,68,39,121,50,67,38,053,50,74,36,284,45*6D
$GLGSV,3,3,10,66,04,013,42,69,08,163,*67
$GAGSV,3,1,10,26,60,270,47,31,16,322,39,03,14,043,37,33,12,256,39*6E
$GAGSV,3,2,10,21,36,199,44,08,20,094,41,23,49,273,,13,60,055,47*60
$GAGSV,3,3,10,07,05,141,,15,09,070,36*60
$GBGSV,6,1,23,28,80,336,51,37,16,234,42,60,11,108,40,50,14,036,*63
$GBGSV,6,2,23,05,23,128,39,41,15,175,,31,21,059,,46,22,289,*65
$GBGSV,6,3,23,08,22,039,37,57,20,228,,43,30,100,46,58,30,283,*61
$GBGSV,6,4,23,13,30,043,42,33,45,128,49,42,33,055,46,27,36,289,47*6B
$GBGSV,6,5,23,30,35,282,,14,46,087,46,36,05,336,,10,02,132,*6B
$GBGSV,6,6,23,38,08,041,39,11,08,098,38,02,08,105,35*5C
$GPGGA,203112.00,,,,,0,00,,,M,,M,,*4B
$PTNL,GGK,203112.00,010125,4742.1605001,N,01618.1003933,E,1,38,0.8,EHT751.3104,M*4C
$GPGGQ,203112.00,010125,4742.1605001,N,01618.1003933,E,1,38,0.868,708.1038,M*3C
$GPGFA,203112.00,4.081,5.544,0.429,0.335,327.751,0.676,,VVV*05
$GPLLK,203112.00,010125,,M,,M,1,38,0.9,,M*0A
$GNGMP,203112.00,,,,,DAAA,38,0.4,,,,*5A
$GPGMP,203112.00,,,,,,09,,,,3.8,136*78
$GLGMP,203112.00,,,,,,08,,,,,*74
$GAGMP,203112.00,,,,,,08,,,,,*79
$GBGMP,203112.00,,,,,,13,,,,,*70
$PSSN,SNC,[0,333090000,2347]*4E
$GPZDA,203117.00,01,01,2025,,*65
$GPDTM,W84,,00.0000000,N,00.0000000,E,00.0000000,W84*5F
$PSSN,TFM,203117.00,,,,*69
$GPRMC,203117.00,A,4742.1605010,N,01618.1003933,E,0.0,,010125,5.1,E,D*18
$GPGLL,4742.1605010,N,01618.1003933,E,203117.00,A,D*69
$GPGGA,203117.00,4742.1605010,N,01618.1003933,E,2,38,0.4,708.1023,M,43.2066,M,1.7,0136*43
$GNGNS,203117.00,4742.1605010,N,01618.1003933,E,DAAA,38,0.4,708.1023,43.2066,,*5D
$GPGNS,203117.00,,,,,,09,,,,1.7,136*70
$GLGNS,203117.00,,,,,,08,,,,,*71
$GAGNS,203117.00,,,,,,08,,,,,*7C
$GBGNS,203117.00,,,,,,13,,,,,*75
$GPLLQ,203117.00,010125,,M,,M,1,38,0.867,,M*15
$GPVTG,,T,,M,0.01,N,0.01,K,D*26
$GPHDT,,T*1B
$GPTHS,,V*0E
$GPROT,,V*08
$PSSN,HRP,203117.00,010125,,,,,,,00,0,,*67
$PTNL,AVR,203117.00,,Yaw,,Tilt,,,,0,,00*31
$GPGSA,A,3,08,10,15,16,18,21,23,26,27,,,,0.8,0.4,0.6*38
$GPGSA,A,3,67,68,73,74,75,82,83,84,,,,,0.8,0.4,0.6*3F
$GPGSA,A,3,03,08,13,15,21,26,31,33,,,,,0.8,0.4,0.6*30
$GPGSA,A,3,05,08,11,13,14,27,28,33,37,38,42,43,0.8,0.4,0.6*33
$GPGSA,A,3,60,,,,,,,,,,,,0.8,0.4,0.6*3E
$GPGST,203117.00,2.349,0.433,0.333,326.978,0.406,0.366,0.674*5F
$GPGBS,203117.00,2.492,2.324,4.017,67,0.0001,6.619,6.132*5F
$GPGRS,203117.00,1,0.0,0.0,-0.0,0.2,-0.6,0.2,-0.1,-0.4,0.0,,,*65
$GPGRS,203117.00,1,6.6,5.1,5.2,-5.2,-3.3,-1.3,-3.4,-3.4,,,,*63
$GPGRS,203117.00,1,0.9,0.0,0.2,-0.8,0.1,-0.4,0.9,0.3,,,,*44
