$GPZDA,022942.00,01,01,2025,,*6C
$GPDTM,W84,,00.0000000,N,00.0000000,E,00.0000000,W84*5F
$PSSN,TFM,022942.00,,,,*60
$GPRMC,022942.00,A,4742.1603281,N,01618.1003308,E,0.0,,010125,5.1,E,D*1F
$GPGLL,4742.1603281,N,01618.1003308,E,022942.00,A,D*6E
$GPGGA,022942.00,4742.1603281,N,01618.1003308,E,2,37,0.4,707.9762,M,43.2066,M,2.8,0136*42
$GNGNS,022942.00,4742.1603281,N,01618.1003308,E,DAAA,37,0.4,707.9762,43.2066,,*50
$GPGNS,022942.00,,,,,,09,,,,2.8,136*75
$GLGNS,022942.00,,,,,,08,,,,,*78
$GAGNS,022942.00,,,,,,07,,,,,*7A
$GBGNS,022942.00,,,,,,13,,,,,*7C
$GPLLQ,022942.00,010125,,M,,M,1,37,0.894,,M*1F
$GPVTG,,T,,M,0.00,N,0.01,K,D*27
$GPHDT,,T*1B
$GPTHS,,V*0E
$GPROT,,V*08
$PSSN,HRP,022942.00,010125,,,,,,,00,0,,*6E
$PTNL,AVR,022942.00,,Yaw,,Tilt,,,,0,,00*38
$GPGSA,A,3,02,03,04,06,09,17,19,28,31,,,,0.8,0.4,0.7*35
$GPGSA,A,3,69,70,71,78,79,80,85,86,,,,,0.8,0.4,0.7*3D
$GPGSA,A,3,04,05,06,09,11,34,36,,,,,,0.8,0.4,0.7*35
$GPGSA,A,3,05,06,09,16,19,20,22,29,35,37,39,44,0.8,0.4,0.7*3D
$GPGSA,A,3,60,,,,,,,,,,,,0.8,0.4,0.7*3F
$GPGST,022942.00,1.054,0.408,0.302,342.217,0.399,0.313,0.736*54
$GPGBS,022942.00,3.065,1.712,5.086,04,0.0001,-0.464,0.606*70
$GPGRS,022942.00,1,0.2,0.1,-0.5,-0.0,0.2,0.1,0.2,-0.8,0.2,,,*4F
$GPGRS,022942.00,1,-0.7,-1.0,2.3,-1.8,1.7,-1.2,1.6,-0.9,,,,*69
$GPGRS,022942.00,1,-0.3,-0.1,-0.0,0.2,0.4,0.1,0.0,,,,,*47
$GPGRS,022942.00,1,1.7,0.9,0.8,0.2,-0.6,-1.6,0.5,-0.6,-0.8,1.2,-1.0,0.2*63
$GPGRS,022942.00,1,-1.7,,,,,,,,,,,*44
$GPGSV,6,1,23,04,80,209,49,06,34,311,44,28,14,037,40,19,28,274,44*7B
$GPGSV,6,2,23,02,23,162,42,17,23,243,43,01,28,153,,31,31,059,45*78
$GPGSV,6,3,23,09,49,232,47,03,63,079,49,21,07,155,20,26,02,084,36*74
$GPGSV,6,4,23,07,01,185,,11,00,320,,36,35,170,44,58,13,245,38*73
$GPGSV,6,5,23,40,24,132,36,34,31,208,43,49,34,195,44,57,09,110,38*73
$GPGSV,6,6,23,41,07,108,34,61,03,257,38*7B
$GLGSV,3,1,10,70,71,323,41,69,24,054,46,84,13,173,33,79,21,063,47*6A
$GLGSV,3,2,10,71,32,259,49,86,44,314,51,85,56,213,52,78,10,014,44*6F
$GLGSV,3,3,10,80,09,114,43,87,04,338,*65
$GAGSV,3,1,10,09,85,126,48,05,35,226,44,11,31,153,40,18,21,276,*6B
$GAGSV,3,2,10,04,35,054,43,34,38,310,44,06,62,062,47,36,75,213,48*6C
$GAGSV,3,3,10,10,06,147,21,21,02,023,26*6B
$GBGSV,5,1,20,48,78,032,,46,11,137,,21,14,251,,05,23,128,38*6C
$GBGSV,5,2,20,39,23,041,42,44,20,317,42,22,14,260,43,29,25,197,44*62
$GBGSV,5,3,20,37,22,084,45,16,31,048,42,06,32,052,41,35,44,268,49*6B
$GBGSV,5,4,20,09,41,066,42,20,57,061,51,19,66,279,51,12,03,333,*62
$GBGSV,5,5,20,32,04,075,39,02,08,106,34,58,05,127,,60,09,110,39*67
$GPGGA,022942.00,,,,,0,00,,,M,,M,,*47
$PTNL,GGK,022942.00,010125,4742.1603281,N,01618.1003308,E,1,37,0.8,EHT751.1827,M*4B
$GPGGQ,022942.00,010125,4742.1603281,N,01618.1003308,E,1,37,0.894,707.9762,M*3D
$GPGFA,022942.00,3.875,6.034,0.408,0.302,342.217,0.736,,VVV*0A
$GPLLK,022942.00,010125,,M,,M,1,37,0.9,,M*09
$GNGMP,022942.00,,,,,DAAA,37,0.4,,,,*59
$GPGMP,022942.00,,,,,,09,,,,2.8,136*75
$GLGMP,022942.00,,,,,,08,,,,,*78
$GAGMP,022942.00,,,,,,07,,,,,*7A
$GBGMP,022942.00,,,,,,13,,,,,*7C
$PSSN,SNC,[0,268200000,2347]*4A
$GPZDA,022947.00,01,01,2025,,*69
$GPDTM,W84,,00.0000000,N,00.0000000,E,00.0000000,W84*5F
$PSSN,TFM,022947.00,,,,*65
$GPRMC,022947.00,A,4742.1603296,N,01618.1003310,E,0.0,,010125,5.1,E,D*15
$GPGLL,4742.1603296,N,01618.1003310,E,022947.00,A,D*64
$GPGGA,022947.00,4742.1603296,N,01618.1003310,E,2,37,0.4,707.9783,M,43.2066,M,2.9,0136*46
$GNGNS,022947.00,4742.1603296,N,01618.1003310,E,DAAA,37,0.4,707.9783,43.2066,,*55
$GPGNS,022947.00,,,,,,09,,,,2.9,136*71
$GLGNS,022947.00,,,,,,08,,,,,*7D
$GAGNS,022947.00,,,,,,07,,,,,*7F
$GBGNS,022947.00,,,,,,13,,,,,*79
$GPLLQ,022947.00,010125,,M,,M,1,37,0.904,,M*12
$GPVTG,,T,,M,0.00,N,0.01,K,D*27
$GPHDT,,T*1B
$GPTHS,,V*0E
$GPROT,,V*08
$PSSN,HRP,022947.00,010125,,,,,,,00,0,,*6B
$PTNL,AVR,022947.00,,Yaw,,Tilt,,,,0,,00*3D
$GPGSA,A,3,02,03,04,06,09,17,19,28,31,,,,0.8,0.4,0.7*35
$GPGSA,A,3,69,70,71,78,79,80,85,86,,,,,0.8,0.4,0.7*3D
$GPGSA,A,3,04,05,06,09,11,34,36,,,,,,0.8,0.4,0.7*35
$GPGSA,A,3,05,06,09,16,19,20,22,29,35,37,39,44,0.8,0.4,0.7*3D
$GPGSA,A,3,60,,,,,,,,,,,,0.8,0.4,0.7*3F
$GPGST,022947.00,1.014,0.413,0.301,341.660,0.403,0.314,0.746*5F
$GPGBS,022947.00,3.089,1.732,5.166,19,0.0001,-0.361,0.786*7D
$GPGRS,022947.00,1,0.3,0.2,-0.2,-0.0,0.1,0.1,-0.4,-0.6,0.1,,,*6A
$GPGRS,022947.00,1,-0.9,-1.2,2.6,-1.4,1.7,-1.3,1.9,-1.3,,,,*6C
$GPGRS,022947.00,1,-0.1,-0.3,0.1,0.3,-0.0,0.1,-0.1,,,,,*6A
$GPGRS,022947.00,1,0.8,1.1,0.9,0.3,-0.3,-1.5,0.4,-0.4,-0.7,0.7,-0.6,-0.2*45
$GPGRS,022947.00,1,-1.6,,,,,,,,,,,*40
$GPGSV,6,1,23,04,80,209,49,06,34,311,43,28,14,037,39,19,28,274,44*72
$GPGSV,6,2,23,02,23,162,42,17,23,243,43,01,28,153,,31,31,059,44*79
$GPGSV,6,3,23,09,49,232,48,03,63,079,49,21,07,155,20,26,02,084,36*7B
$GPGSV,6,4,23,07,01,185,,11,00,320,,36,35,170,45,58,13,245,38*72
$GPGSV,6,5,23,40,24,132,36,34,31,208,43,49,34,195,44,57,09,110,37*7C
$GPGSV,6,6,23,41,07,108,34,61,03,257,38*7B
$GLGSV,3,1,10,70,71,323,41,69,24,054,46,84,13,173,33,79,21,063,47*6A
$GLGSV,3,2,10,71,32,259,49,86,44,314,51,85,56,213,52,78,10,013,43*6F
$GLGSV,3,3,10,80,09,114,44,87,04,338,*62
$GAGSV,3,1,10,09,85,125,48,05,35,226,44,11,31,153,41,18,21,276,*69
$GAGSV,3,2,10,04,35,054,43,34,38,310,44,06,62,062,48,36,75,213,48*63
$GAGSV,3,3,10,10,06,147,21,21,02,023,27*6A
$GBGSV,5,1,20,48,78,032,,46,11,137,,21,14,251,,44,20,317,42*69
$GBGSV,5,2,20,39,23,041,42,05,23,128,39,22,14,260,43,29,25,197,45*67
$GBGSV,5,3,20,37,22,084,45,16,31,048,42,06,32,052,41,35,44,268,49*6B
$GBGSV,5,4,20,09,41,066,43,20,57,061,51,19,66,279,51,32,04,075,39*6D
$GBGSV,5,5,20,12,03,333,,02,08,106,34,58,05,127,,60,09,110,39*69
$GPGGA,022947.00,,,,,0,00,,,M,,M,,*42
$PTNL,GGK,022947.00,010125,4742.1603296,N,01618.1003310,E,1,37,0.8,EHT751.1848,M*48
$GPGGQ,022947.00,010125,4742.1603296,N,01618.1003310,E,1,37,0.904,707.9783,M*30
$GPGFA,022947.00,3.927,6.115,0.413,0.301,341.660,0.746,,VVV*02
$GPLLK,022947.00,010125,,M,,M,1,37,0.9,,M*0C
$GNGMP,022947.00,,,,,DAAA,37,0.4,,,,*5C
$GPGMP,022947.00,,,,,,09,,,,2.9,136*71
$GLGMP,022947.00,,,,,,08,,,,,*7D
$GAGMP,022947.00,,,,,,07,,,,,*7F
$GBGMP,022947.00,,,,,,13,,,,,*79
$PSSN,SNC,[0,268205000,2347]*4F
$GPZDA,022952.00,01,01,2025,,*6D
$GPDTM,W84,,00.0000000,N,00.0000000,E,00.0000000,W84*5F
$PSSN,TFM,022952.00,,,,*61
$GPRMC,022952.00,A,4742.1603300,N,01618.1003285,E,0.0,,010125,5.1,E,D*12
$GPGLL,4742.1603300,N,01618.1003285,E,022952.00,A,D*63
$GPGGA,022952.00,4742.1603300,N,01618.1003285,E,2,37,0.4,707.9768,M,43.2066,M,1.7,0136*49
$GNGNS,022952.00,4742.1603300,N,01618.1003285,E,DAAA,37,0.4,707.9768,43.2066,,*57
$GPGNS,022952.00,,,,,,09,,,,1.7,136*78
$GLGNS,022952.00,,,,,,08,,,,,*79
$GAGNS,022952.00,,,,,,07,,,,,*7B
$GBGNS,022952.00,,,,,,13,,,,,*7D
$GPLLQ,022952.00,010125,,M,,M,1,37,0.895,,M*1F
$GPVTG,,T,,M,0.00,N,0.01,K,D*27
$GPHDT,,T*1B
$GPTHS,,V*0E
$GPROT,,V*08
$PSSN,HRP,022952.00,010125,,,,,,,00,0,,*6F
$PTNL,AVR,022952.00,,Yaw,,Tilt,,,,0,,00*39
$GPGSA,A,3,02,03,04,06,09,17,19,28,31,,,,0.8,0.4,0.7*35
$GPGSA,A,3,69,70,71,78,79,80,85,86,,,,,0.8,0.4,0.7*3D
$GPGSA,A,3,04,05,06,09,11,34,36,,,,,,0.8,0.4,0.7*35
$GPGSA,A,3,05,06,09,16,19,20,22,29,35,37,39,44,0.8,0.4,0.7*3D
$GPGSA,A,3,60,,,,,,,,,,,,0.8,0.4,0.7*3F
$GPGST,022952.00,1.133,0.409,0.299,342.296,0.401,0.311,0.738*54
$GPGBS,022952.00,2.951,1.662,4.945,09,0.0001,0.288,0.622*5D
$GPGRS,022952.00,1,-0.3,0.2,-0.2,0.3,0.3,-0.3,0.1,-0.5,0.2,,,*68
$GPGRS,022952.00,1,-1.8,-1.7,2.1,-2.3,1.7,-1.0,2.3,-1.3,,,,*64
$GPGRS,022952.00,1,0.1,-0.5,0.0,0.1,-0.1,-0.0,-0.1,,,,,*6B
$GPGRS,022952.00,1,1.8,0.7,0.8,0.4,-0.2,-1.3,0.2,-0.1,-0.9,0.4,-0.6,-0.1*4B
$GPGRS,022952.00,1,-1.6,,,,,,,,,,,*44
$GPGSV,6,1,23,04,80,209,49,06,34,311,44,28,14,037,39,19,28,274,44*75
$GPGSV,6,2,23,02,23,162,43,17,23,243,43,01,28,153,,31,31,059,45*79
$GPGSV,6,3,23,09,49,232,48,03,63,079,49,21,07,155,24,26,02,083,35*7B
$GPGSV,6,4,23,07,01,185,,11,00,320,,36,35,170,45,58,13,245,38*72
$GPGSV,6,5,23,40,24,132,36,34,31,208,43,49,34,195,45,57,09,110,37*7D
$GPGSV,6,6,23,41,07,108,34,61,03,257,37*74
$GLGSV,3,1,10,70,71,324,41,69,24,054,46,84,13,173,33,79,21,063,47*6D
$GLGSV,3,2,10,71,32,259,48,86,44,314,51,85,56,213,52,78,10,013,43*6E
$GLGSV,3,3,10,80,09,114,44,87,04,338,*62
$GAGSV,3,1,10,09,85,125,48,05,35,226,44,11,31,153,40,18,21,276,*68
$GAGSV,3,2,10,04,35,054,43,34,38,310,44,06,62,062,48,36,75,213,48*63
$GAGSV,3,3,10,10,06,147,21,21,02,023,26*6B
$GBGSV,5,1,20,48,78,032,,46,11,136,,21,14,251,,05,23,128,38*6D
$GBGSV,5,2,20,39,23,040,42,44,20,317,42,22,14,260,43,29,25,197,45*62
$GBGSV,5,3,20,37,22,084,44,16,31,048,42,06,32,052,41,35,44,268,48*6B
$GBGSV,5,4,20,09,41,066,43,20,57,061,51,19,66,279,51,12,03,333,*63
$GBGSV,5,5,20,32,04,075,39,02,08,106,34,58,05,127,,60,09,110,39*67
$GPGGA,022952.00,,,,,0,00,,,M,,M,,*46
$PTNL,GGK,022952.00,010125,4742.1603300,N,01618.1003285,E,1,37,0.8,EHT751.1833,M*43
$GPGGQ,022952.00,010125,4742.1603300,N,01618.1003285,E,1,37,0.895,707.9768,M*3B
$GPGFA,022952.00,3.893,6.048,0.409,0.299,342.296,0.738,,VVV*0D
$GPLLK,022952.00,010125,,M,,M,1,37,0.9,,M*08
$GNGMP,022952.00,,,,,DAAA,37,0.4,,,,*58
$GPGMP,022952.00,,,,,,09,,,,1.7,136*78
$GLGMP,022952.00,,,,,,08,,,,,*79
$GAGMP,022952.00,,,,,,07,,,,,*7B
$GBGMP,022952.00,,,,,,13,,,,,*7D
$PSSN,SNC,[0,268210000,2347]*4B
$GPZDA,022957.00,01,01,2025,,*68
$GPDTM,W84,,00.0000000,N,00.0000000,E,00.0000000,W84*5F
$PSSN,TFM,022957.00,,,,*64
$GPRMC,022957.00,A,4742.1603294,N,01618.1003305,E,0.0,,010125,5.1,E,D*12
$GPGLL,4742.1603294,N,01618.1003305,E,022957.00,A,D*63
$GPGGA,022957.00,4742.1603294,N,01618.1003305,E,2,37,0.4,707.9768,M,43.2066,M,2.7,0136*4A
$GNGNS,022957.00,4742.1603294,N,01618.1003305,E,DAAA,37,0.4,707.9768,43.2066,,*57
$GPGNS,022957.00,,,,,,09,,,,2.7,136*7E
$GLGNS,022957.00,,,,,,08,,,,,*7C
$GAGNS,022957.00,,,,,,07,,,,,*7E
$GBGNS,022957.00,,,,,,13,,,,,*78
$GPLLQ,022957.00,010125,,M,,M,1,37,0.880,,M*1E
$GPVTG,,T,,M,0.00,N,0.01,K,D*27
$GPHDT,,T*1B
$GPTHS,,V*0E
$GPROT,,V*08
$PSSN,HRP,022957.00,010125,,,,,,,00,0,,*6A
$PTNL,AVR,022957.00,,Yaw,,Tilt,,,,0,,00*3C
$GPGSA,A,3,02,03,04,06,09,17,19,28,31,,,,0.8,0.4,0.7*35
$GPGSA,A,3,69,70,71,78,79,80,85,86,,,,,0.8,0.4,0.7*3D
$GPGSA,A,3,04,05,06,09,11,34,36,,,,,,0.8,0.4,0.7*35
$GPGSA,A,3,05,06,09,16,19,20,22,29,35,37,39,44,0.8,0.4,0.7*3D
$GPGSA,A,3,60,,,,,,,,,,,,0.8,0.4,0.7*3F
$GPGST,022957.00,1.106,0.404,0.299,342.735,0.396,0.310,0.723*54
$GPGBS,022957.00,3.021,1.674,5.015,04,0.0001,-0.352,0.588*78
$GPGRS,022957.00,1,0.2,0.1,-0.4,0.2,0.1,-0.3,-0.0,-0.6,0.2,,,*68
$GPGRS,022957.00,1,-1.8,-1.3,1.8,-1.9,1.7,-1.2,2.3,-1.4,,,,*63
$GPGRS,022957.00,1,0.1,-0.3,0.0,0.0,-0.2,0.2,-0.1,,,,,*45
$GPGRS,022957.00,1,2.0,0.8,1.1,0.6,-0.5,-1.5,-0.1,-0.1,-1.1,0.3,-0.7,0.8*44
$GPGRS,022957.00,1,-1.3,,,,,,,,,,,*44
$GPGSV,6,1,23,04,80,209,49,06,34,311,44,28,14,037,38,19,28,274,43*73
$GPGSV,6,2,23,02,23,162,43,17,23,243,43,01,28,153,,31,31,059,44*78
$GPGSV,6,3,23,09,50,232,47,03,63,079,49,21,07,155,24,26,02,083,35*7C
$GPGSV,6,4,23,07,01,185,,11,00,320,,36,35,170,45,58,13,245,38*72
$GPGSV,6,5,23,40,24,132,36,34,31,208,43,49,34,195,44,57,09,110,38*73
$GPGSV,6,6,23,41,07,108,34,61,03,257,38*7B
$GLGSV,3,1,10,70,71,324,41,69,24,054,46,84,13,173,33,79,21,063,47*6D
$GLGSV,3,2,10,71,32,259,48,86,44,314,51,85,56,213,52,78,10,013,43*6E
$GLGSV,3,3,10,80,09,114,44,87,04,338,*62
$GAGSV,3,1,10,09,85,125,48,05,35,226,44,11,31,153,40,18,21,276,*68
$GAGSV,3,2,10,04,35,054,43,34,38,310,44,06,62,062,48,36,75,213,48*63
$GAGSV,3,3,10,10,06,147,21,21,02,023,26*6B
$GBGSV,5,1,20,48,78,032,,46,11,136,,21,14,251,,05,23,128,39*6C
$GBGSV,5,2,20,39,23,040,42,44,20,317,43,22,14,260,42,29,25,197,45*62
$GBGSV,5,3,20,37,22,084,44,16,31,048,42,06,32,052,41,35,44,268,48*6B
$GBGSV,5,4,20,09,41,066,43,20,57,061,51,19,66,279,51,12,03,333,*63
$GBGSV,5,5,20,32,04,075,39,02,08,106,34,58,05,127,,60,09,110,39*67
$GPGGA,022957.00,,,,,0,00,,,M,,M,,*43
$PTNL,GGK,022957.00,010125,4742.1603294,N,01618.1003305,E,1,37,0.8,EHT751.1834,M*44
$GPGGQ,022957.00,010125,4742.1603294,N,01618.1003305,E,1,37,0.880,707.9768,M*3F
$GPGFA,022957.00,3.837,5.926,0.404,0.299,342.735,0.723,,VVV*0F
$GPLLK,022957.00,010125,,M,,M,1,37,0.9,,M*0D
$GNGMP,022957.00,,,,,DAAA,37,0.4,,,,*5D
$GPGMP,022957.00,,,,,,09,,,,2.7,136*7E
$GLGMP,022957.00,,,,,,08,,,,,*7C
$GAGMP,022957.00,,,,,,07,,,,,*7E
$GBGMP,022957.00,,,,,,13,,,,,*78
$PSSN,SNC,[0,268215000,2347]*4E
$GPZDA,023002.00,01,01,2025,,*60
$GPDTM,W84,,00.0000000,N,00.0000000,E,00.0000000,W84*5F
$PSSN,TFM,023002.00,,,,*6C
$GPRMC,023002.00,A,4742.1603296,N,01618.1003319,E,0.0,,010125,5.1,E,D*15
$GPGLL,4742.1603296,N,01618.1003319,E,023002.00,A,D*64
$GPGGA,023002.00,4742.1603296,N,01618.1003319,E,2,37,0.4,707.9789,M,43.2066,M,2.8,0136*4D
$GNGNS,023002.00,4742.1603296,N,01618.1003319,E,DAAA,37,0.4,707.9789,43.2066,,*5F
$GPGNS,023002.00,,,,,,09,,,,2.8,136*79
$GLGNS,023002.00,,,,,,08,,,,,*74
$GAGNS,023002.00,,,,,,07,,,,,*76
$GBGNS,023002.00,,,,,,13,,,,,*70
$GPLLQ,023002.00,010125,,M,,M,1,37,0.899,,M*1E
$GPVTG,,T,,M,0.00,N,0.01,K,D*27
$GPHDT,,T*1B
$GPTHS,,V*0E
$GPROT,,V*08
$PSSN,HRP,023002.00,010125,,,,,,,00,0,,*62
$PTNL,AVR,023002.00,,Yaw,,Tilt,,,,0,,00*34
$GPGSA,A,3,02,03,04,06,09,17,19,28,31,,,,0.8,0.4,0.7*35
$GPGSA,A,3,69,70,71,78,79,80,85,86,,,,,0.8,0.4,0.7*3D
$GPGSA,A,3,04,05,06,09,11,34,36,,,,,,0.8,0.4,0.7*35
$GPGSA,A,3,05,06,09,16,19,20,22,29,35,37,39,44,0.8,0.4,0.7*3D
$GPGSA,A,3,60,,,,,,,,,,,,0.8,0.4,0.7*3F
$GPGST,023002.00,1.143,0.411,0.303,342.067,0.402,0.315,0.739*5F
$GPGBS,023002.00,3.097,1.709,5.100,85,0.0001,2.908,6.051*57
$GPGRS,023002.00,1,0.2,-0.2,-0.2,-0.2,0.1,0.1,0.2,-0.1,0.1,,,*61
$GPGRS,023002.00,1,-1.7,-0.4,2.0,-2.1,1.6,-1.3,2.9,-1.4,,,,*68
$GPGRS,023002.00,1,-0.1,-0.3,0.3,0.2,0.0,0.2,0.1,,,,,*63
$GPGRS,023002.00,1,2.0,0.5,1.2,0.8,-0.3,-1.4,0.7,0.2,-0.5,0.7,-0.7,0.3*44
$GPGRS,023002.00,1,-1.5,,,,,,,,,,,*4A
$GPGSV,6,1,23,04,80,209,49,06,34,311,43,28,14,037,38,19,28,274,43*74
$GPGSV,6,2,23,02,23,162,43,17,23,243,43,01,28,153,,31,31,059,45*79
$GPGSV,6,3,23,09,50,232,47,03,63,079,49,21,07,155,21,26,02,083,35*79
$GPGSV,6,4,23,07,01,185,,11,00,320,,36,35,170,45,58,13,245,38*72
$GPGSV,6,5,23,40,24,132,36,34,31,208,43,49,34,195,44,57,09,110,38*73
$GPGSV,6,6,23,41,07,108,34,61,03,257,38*7B
$GLGSV,3,1,10,70,71,324,41,69,24,054,45,84,13,173,33,79,21,063,46*6F
$GLGSV,3,2,10,71,32,259,48,86,44,314,51,85,56,213,53,78,10,013,43*6F
$GLGSV,3,3,10,80,09,114,44,87,04,338,*62
$GAGSV,3,1,10,09,85,124,49,05,35,226,44,11,31,153,40,18,21,276,*68
$GAGSV,3,2,10,04,35,054,43,34,38,310,45,06,62,062,48,36,75,213,48*62
$GAGSV,3,3,10,10,06,147,21,21,02,023,27*6A
$GBGSV,5,1,20,48,78,032,,46,11,136,,21,14,251,,05,23,128,39*6C
$GBGSV,5,2,20,39,23,040,42,44,20,317,42,22,14,260,43,29,25,197,45*62
$GBGSV,5,3,20,37,22,084,44,16,31,048,42,06,32,052,41,35,44,268,48*6B
$GBGSV,5,4,20,09,41,066,42,20,57,061,51,19,66,280,51,12,03,333,*64
$GBGSV,5,5,20,32,04,075,40,02,08,106,34,58,05,127,,60,09,110,39*69
$GPGGA,023002.00,,,,,0,00,,,M,,M,,*4B
$PTNL,GGK,023002.00,010125,4742.1603296,N,01618.1003319,E,1,37,0.8,EHT751.1855,M*44
$GPGGQ,023002.00,010125,4742.1603296,N,01618.1003319,E,1,37,0.899,707.9789,M*3F
$GPGFA,023002.00,3.909,6.063,0.411,0.303,342.067,0.739,,VVV*0D
$GPLLK,023002.00,010125,,M,,M,1,37,0.9,,M*05
$GNGMP,023002.00,,,,,DAAA,37,0.4,,,,*55
$GPGMP,023002.00,,,,,,09,,,,2.8,136*79
$GLGMP,023002.00,,,,,,08,,,,,*74
$GAGMP,023002.00,,,,,,07,,,,,*76
$GBGMP,023002.00,,,,,,13,,,,,*70
$PSSN,SNC,[0,268220000,2347]*48
$GPZDA,023007.00,01,01,2025,,*65
$GPDTM,W84,,00.0000000,N,00.0000000,E,00.0000000,W84*5F
$PSSN,TFM,023007.00,,,,*69
$GPRMC,023007.00,A,4742.1603305,N,01618.1003307,E,0.0,,010125,5.1,E,D*14
$GPGLL,4742.1603305,N,01618.1003307,E,023007.00,A,D*65
$GPGGA,023007.00,4742.1603305,N,01618.1003307,E,2,37,0.4,707.9816,M,43.2066,M,2.9,0136*44
$GNGNS,023007.00,4742.1603305,N,01618.1003307,E,DAAA,37,0.4,707.9816,43.2066,,*57
$GPGNS,023007.00,,,,,,09,,,,2.9,136*7D
$GLGNS,023007.00,,,,,,08,,,,,*71
$GAGNS,023007.00,,,,,,07,,,,,*73
$GBGNS,023007.00,,,,,,13,,,,,*75
$GPLLQ,023007.00,010125,,M,,M,1,37,0.909,,M*13
$GPVTG,,T,,M,0.00,N,0.00,K,D*26
$GPHDT,,T*1B
$GPTHS,,V*0E
$GPROT,,V*08
$PSSN,HRP,023007.00,010125,,,,,,,00,0,,*67
$PTNL,AVR,023007.00,,Yaw,,Tilt,,,,0,,00*31
$GPGSA,A,3,02,03,04,06,09,17,19,28,31,,,,0.8,0.4,0.7*35
$GPGSA,A,3,69,70,71,78,79,80,85,86,,,,,0.8,0.4,0.7*3D
$GPGSA,A,3,04,05,06,09,11,34,36,,,,,,0.8,0.4,0.7*35
$GPGSA,A,3,05,06,09,16,19,20,22,29,35,37,39,44,0.8,0.4,0.7*3D
$GPGSA,A,3,60,,,,,,,,,,,,0.8,0.4,0.7*3F
$GPGST,023007.00,1.060,0.417,0.302,341.482,0.407,0.316,0.749*50
$GPGBS,023007.00,3.120,1.728,5.178,17,0.0001,-0.575,0.814*7E
$GPGRS,023007.00,1,-0.2,0.0,-0.1,0.1,0.2,-0.6,0.4,0.1,0.2,,,*4A
$GPGRS,023007.00,1,-1.2,-1.3,2.2,-2.0,0.5,-1.5,2.3,-1.5,,,,*62
$GPGRS,023007.00,1,-0.2,-0.2,0.1,0.2,-0.1,0.2,0.1,,,,,*4A
$GPGRS,023007.00,1,1.7,0.5,0.8,0.9,-0.3,-1.1,0.8,-0.1,-0.3,1.1,-0.6,-0.1*44
$GPGRS,023007.00,1,-1.5,,,,,,,,,,,*4F
$GPGSV,6,1,23,04,80,209,49,06,34,311,44,28,14,037,39,19,28,274,43*72
$GPGSV,6,2,23,02,23,162,43,17,23,243,43,01,28,153,,31,31,059,45*79
$GPGSV,6,3,23,09,50,232,47,03,63,079,49,21,07,155,21,26,02,083,36*7A
$GPGSV,6,4,23,07,01,185,,11,00,320,,36,35,170,44,58,13,245,38*73
$GPGSV,6,5,23,40,24,132,36,34,31,208,43,49,34,195,44,57,09,110,38*73
$GPGSV,6,6,23,41,07,108,34,61,03,257,38*7B
$GLGSV,3,1,10,70,71,324,41,69,24,054,45,84,13,173,33,79,21,063,45*6C
$GLGSV,3,2,10,71,32,260,49,86,44,314,51,85,56,213,52,78,10,013,43*65
$GLGSV,3,3,10,80,09,114,44,87,04,338,*62
$GAGSV,3,1,10,09,85,124,49,05,35,226,44,11,31,153,40,18,21,276,*68
$GAGSV,3,2,10,04,35,054,43,34,38,310,45,06,62,062,48,36,75,213,48*62
$GAGSV,3,3,10,10,06,147,,21,02,023,28*66
$GBGSV,5,1,20,48,78,032,,46,11,136,,21,14,251,,05,23,128,38*6D
$GBGSV,5,2,20,39,23,040,42,44,20,317,42,22,14,260,43,29,25,197,45*62
$GBGSV,5,3,20,37,22,084,44,16,31,048,43,06,32,052,41,35,44,268,48*6A
$GBGSV,5,4,20,09,41,066,43,20,57,061,51,19,66,280,51,12,03,333,*65
$GBGSV,5,5,20,32,04,075,40,02,08,106,34,58,05,127,,60,09,110,39*69
$GPGGA,023007.00,,,,,0,00,,,M,,M,,*4E
$PTNL,GGK,023007.00,010125,4742.1603305,N,01618.1003307,E,1,37,0.8,EHT751.1881,M*4C
$GPGGQ,023007.00,010125,4742.1603305,N,01618.1003307,E,1,37,0.909,707.9816,M*3F
$GPGFA,023007.00,3.962,6.144,0.417,0.302,341.482,0.749,,VVV*0D
$GPLLK,023007.00,010125,,M,,M,1,37,0.9,,M*00
$GNGMP,023007.00,,,,,DAAA,37,0.4,,,,*50
$GPGMP,023007.00,,,,,,09,,,,2.9,136*7D
$GLGMP,023007.00,,,,,,08,,,,,*71
$GAGMP,023007.00,,,,,,07,,,,,*73
$GBGMP,023007.00,,,,,,13,,,,,*75
$PSSN,SNC,[0,268225000,2347]*4D
$GPZDA,023012.00,01,01,2025,,*61
$GPDTM,W84,,00.0000000,N,00.0000000,E,00.0000000,W84*5F
$PSSN,TFM,023012.00,,,,*6D
$GPRMC,023012.00,A,4742.1603269,N,01618.1003335,E,0.0,,010125,5.1,E,D*1A
$GPGLL,4742.1603269,N,01618.1003335,E,023012.00,A,D*6B
$GPGGA,023012.00,4742.1603269,N,01618.1003335,E,2,37,0.4,707.9818,M,43.2066,M,1.7,0136*49
$GNGNS,023012.00,4742.1603269,N,01618.1003335,E,DAAA,37,0.4,707.9818,43.2066,,*57
$GPGNS,023012.00,,,,,,09,,,,1.7,136*74
$GLGNS,023012.00,,,,,,08,,,,,*75
$GAGNS,023012.00,,,,,,07,,,,,*77
$GBGNS,023012.00,,,,,,13,,,,,*71
$GPLLQ,023012.00,010125,,M,,M,1,37,0.900,,M*1E
$GPVTG,,T,,M,0.00,N,0.01,K,D*27
$GPHDT,,T*1B
$GPTHS,,V*0E
$GPROT,,V*08
$PSSN,HRP,023012.00,010125,,,,,,,00,0,,*63
$PTNL,AVR,023012.00,,Yaw,,Tilt,,,,0,,00*35
$GPGSA,A,3,02,03,04,06,09,17,19,28,31,,,,0.8,0.4,0.7*35
$GPGSA,A,3,69,70,71,78,79,80,85,86,,,,,0.8,0.4,0.7*3D
$GPGSA,A,3,04,05,06,09,11,34,36,,,,,,0.8,0.4,0.7*35
$GPGSA,A,3,05,06,09,16,19,20,22,29,35,37,39,44,0.8,0.4,0.7*3D
$GPGSA,A,3,60,,,,,,,,,,,,0.8,0.4,0.7*3F
$GPGST,023012.00,1.095,0.413,0.300,342.140,0.404,0.313,0.741*5E
$GPGBS,023012.00,2.987,1.659,4.959,19,0.0001,0.440,0.799*5D
$GPGRS,023012.00,1,-0.4,0.0,-0.3,-0.2,0.3,-0.3,0.4,0.5,0.1,,,*67
$GPGRS,023012.00,1,-0.8,-1.4,2.8,-1.9,0.7,-1.3,2.3,-1.4,,,,*6F
$GPGRS,023012.00,1,-0.1,0.2,0.1,0.3,-0.2,0.2,0.0,,,,,*63
$GPGRS,023012.00,1,1.6,1.1,1.1,0.9,-0.3,-1.1,0.3,-0.0,-0.6,1.3,-0.6,-0.0*40
$GPGRS,023012.00,1,-1.4,,,,,,,,,,,*4A
$GPGSV,6,1,23,04,80,209,49,06,34,311,44,28,14,037,39,19,28,274,44*75
$GPGSV,6,2,23,02,23,162,44,17,23,243,42,01,28,153,,31,31,059,45*7F
$GPGSV,6,3,23,09,50,232,47,03,63,079,49,21,07,155,,26,02,083,36*79
$GPGSV,6,4,23,07,01,185,,11,00,320,,36,35,170,44,58,13,245,38*73
$GPGSV,6,5,23,40,24,132,36,34,31,208,43,49,34,195,45,57,09,110,37*7D
$GPGSV,6,6,23,41,07,108,34,61,03,257,38*7B
$GLGSV,3,1,10,70,71,324,41,69,24,054,45,84,13,173,33,79,21,063,46*6F
$GLGSV,3,2,10,71,32,260,49,86,44,314,51,85,56,213,52,78,10,013,42*64
$GLGSV,3,3,10,80,09,114,44,87,04,338,*62
$GAGSV,3,1,10,09,85,124,48,05,35,226,44,11,31,153,39,18,21,276,*67
$GAGSV,3,2,10,04,35,054,43,34,38,310,44,06,62,062,48,36,75,213,48*63
$GAGSV,3,3,10,10,06,147,21,21,02,023,28*65
$GBGSV,5,1,20,48,78,032,,46,11,136,,21,14,251,,05,23,128,39*6C
$GBGSV,5,2,20,39,23,040,42,44,20,317,42,22,14,261,43,29,25,197,45*63
$GBGSV,5,3,20,37,22,084,44,16,31,048,43,06,32,052,41,35,44,268,48*6A
$GBGSV,5,4,20,09,41,066,43,20,57,061,51,19,66,280,51,12,03,333,*65
$GBGSV,5,5,20,32,04,075,39,02,08,106,34,58,05,127,,60,09,110,39*67
$GPGGA,023012.00,,,,,0,00,,,M,,M,,*4A
$PTNL,GGK,023012.00,010125,4742.1603269,N,01618.1003335,E,1,37,0.8,EHT751.1883,M*40
$GPGGQ,023012.00,010125,4742.1603269,N,01618.1003335,E,1,37,0.900,707.9818,M*36
$GPGFA,023012.00,3.928,6.077,0.413,0.300,342.140,0.741,,VVV*00
$GPLLK,023012.00,010125,,M,,M,1,37,0.9,,M*04
$GNGMP,023012.00,,,,,DAAA,37,0.4,,,,*54
$GPGMP,023012.00,,,,,,09,,,,1.7,136*74
$GLGMP,023012.00,,,,,,08,,,,,*75
$GAGMP,023012.00,,,,,,07,,,,,*77
$GBGMP,023012.00,,,,,,13,,,,,*71
$PSSN,SNC,[0,268230000,2347]*49
$GPZDA,023017.00,01,01,2025,,*64
$GPDTM,W84,,00.0000000,N,00.0000000,E,00.0000000,W84*5F
$PSSN,TFM,023017.00,,,,*68
$GPRMC,023017.00,A,4742.1603278,N,01618.1003345,E,0.0,,010125,5.1,E,D*18
$GPGLL,4742.1603278,N,01618.1003345,E,023017.00,A,D*69
$GPGGA,023017.00,4742.1603278,N,01618.1003345,E,2,37,0.4,707.9790,M,43.2066,M,2.7,0136*47
$GNGNS,023017.00,4742.1603278,N,01618.1003345,E,DAAA,37,0.4,707.9790,43.2066,,*5A
$GPGNS,023017.00,,,,,,09,,,,2.7,136*72
$GLGNS,023017.00,,,,,,08,,,,,*70
$GAGNS,023017.00,,,,,,07,,,,,*72
$GBGNS,023017.00,,,,,,13,,,,,*74
$GPLLQ,023017.00,010125,,M,,M,1,37,0.885,,M*17
$GPVTG,,T,,M,0.01,N,0.01,K,D*26
$GPHDT,,T*1B
$GPTHS,,V*0E
$GPROT,,V*08
$PSSN,HRP,023017.00,010125,,,,,,,00,0,,*66
$PTNL,AVR,023017.00,,Yaw,,Tilt,,,,0,,00*30
$GPGSA,A,3,02,03,04,06,09,17,19,28,31,,,,0.8,0.4,0.7*35
$GPGSA,A,3,69,70,71,78,79,80,85,86,,,,,0.8,0.4,0.7*3D
$GPGSA,A,3,04,05,06,09,11,34,36,,,,,,0.8,0.4,0.7*35
$GPGSA,A,3,05,06,09,16,19,20,22,29,35,37,39,44,0.8,0.4,0.7*3D
$GPGSA,A,3,60,,,,,,,,,,,,0.8,0.4,0.7*3F
$GPGST,023017.00,1.160,0.406,0.300,342.693,0.398,0.311,0.727*5D
$GPGBS,023017.00,3.024,1.679,5.029,85,0.0001,2.899,6.051*5E
$GPGRS,023017.00,1,0.2,-0.0,-0.2,-0.3,0.2,0.4,0.2,-0.6,-0.1,,,*4A
$GPGRS,023017.00,1,-1.4,-1.7,2.4,-1.3,1.4,-2.0,2.9,-1.2,,,,*6C
$GPGRS,023017.00,1,-0.0,0.1,0.1,0.2,-0.3,-0.0,-0.1,,,,,*67
$GPGRS,023017.00,1,1.7,1.5,1.0,0.6,-0.4,-1.4,0.2,0.2,-0.7,0.3,-0.7,0.1*4F
$GPGRS,023017.00,1,-1.5,,,,,,,,,,,*4E
$GPGSV,6,1,23,04,80,209,49,06,34,311,44,28,14,037,40,19,28,274,44*7B
$GPGSV,6,2,23,02,23,162,43,17,23,243,42,01,28,153,,31,31,059,45*78
$GPGSV,6,3,23,09,50,232,47,03,63,079,48,21,07,155,20,26,02,083,36*7A
$GPGSV,6,4,23,07,01,185,,11,00,320,,36,35,170,44,58,13,245,38*73
$GPGSV,6,5,23,40,24,132,36,34,31,208,43,49,34,195,44,57,09,110,38*73
$GPGSV,6,6,23,41,07,108,34,61,03,257,38*7B
$GLGSV,3,1,10,70,71,324,41,69,24,054,46,84,13,173,33,79,21,063,46*6C
$GLGSV,3,2,10,71,32,260,49,86,44,314,51,85,56,213,52,78,10,013,43*65
$GLGSV,3,3,10,80,09,114,43,87,04,338,*65
$GAGSV,3,1,10,09,85,123,48,05,35,226,44,11,31,153,39,18,21,275,*63
$GAGSV,3,2,10,04,35,054,43,34,38,310,44,06,62,062,48,36,75,212,48*62
$GAGSV,3,3,10,10,06,147,21,21,02,023,28*65
$GBGSV,5,1,20,48,78,033,,46,11,136,,21,14,251,,05,23,128,39*6D
$GBGSV,5,2,20,39,23,040,42,44,20,317,42,22,14,261,43,29,25,197,45*63
$GBGSV,5,3,20,37,22,083,44,16,31,048,42,06,32,052,41,35,44,268,48*6C
$GBGSV,5,4,20,09,41,066,43,20,57,061,51,19,66,280,51,12,03,333,*65
$GBGSV,5,5,20,32,04,075,40,02,08,106,34,58,05,127,,60,09,110,39*69
$GPGGA,023017.00,,,,,0,00,,,M,,M,,*4F
$PTNL,GGK,023017.00,010125,4742.1603278,N,01618.1003345,E,1,37,0.8,EHT751.1855,M*49
$GPGGQ,023017.00,010125,4742.1603278,N,01618.1003345,E,1,37,0.885,707.9790,M*37
$GPGFA,023017.00,3.859,5.958,0.406,0.300,342.693,0.727,,VVV*08
$GPLLK,023017.00,010125,,M,,M,1,37,0.9,,M*01
$GNGMP,023017.00,,,,,DAAA,37,0.4,,,,*51
$GPGMP,023017.00,,,,,,09,,,,2.7,136*72
$GLGMP,023017.00,,,,,,08,,,,,*70
$GAGMP,023017.00,,,,,,07,,,,,*72
$GBGMP,023017.00,,,,,,13,,,,,*74
$PSSN,SNC,[0,268235000,2347]*4C
$GPZDA,023022.00,01,01,2025,,*62
$GPDTM,W84,,00.0000000,N,00.0000000,E,00.0000000,W84*5F
$PSSN,TFM,023022.00,,,,*6E
$GPRMC,023022.00,A,4742.1603307,N,01618.1003384,E,0.0,,010125,5.1,E,D*1A
$GPGLL,4742.1603307,N,01618.1003384,E,023022.00,A,D*6B
$GPGGA,023022.00,4742.1603307,N,01618.1003384,E,2,37,0.4,707.9781,M,43.2066,M,2.8,0136*4A
$GNGNS,023022.00,4742.1603307,N,01618.1003384,E,DAAA,37,0.4,707.9781,43.2066,,*58
$GPGNS,023022.00,,,,,,09,,,,2.8,136*7B
$GLGNS,023022.00,,,,,,08,,,,,*76
$GAGNS,023022.00,,,,,,07,,,,,*74
$GBGNS,023022.00,,,,,,13,,,,,*72
$GPLLQ,023022.00,010125,,M,,M,1,37,0.899,,M*1C
$GPVTG,,T,,M,0.00,N,0.00,K,D*26
$GPHDT,,T*1B
$GPTHS,,V*0E
$GPROT,,V*08
$PSSN,HRP,023022.00,010125,,,,,,,00,0,,*60
$PTNL,AVR,023022.00,,Yaw,,Tilt,,,,0,,00*36
$GPGSA,A,3,02,03,04,06,09,17,19,28,31,,,,0.8,0.4,0.7*35
$GPGSA,A,3,69,70,71,78,79,80,85,86,,,,,0.8,0.4,0.7*3D
$GPGSA,A,3,04,05,06,09,11,34,36,,,,,,0.8,0.4,0.7*35
$GPGSA,A,3,05,06,09,16,19,20,22,29,35,37,39,44,0.8,0.4,0.7*3D
$GPGSA,A,3,60,,,,,,,,,,,,0.8,0.4,0.7*3F
$GPGST,023022.00,1.067,0.412,0.303,341.941,0.403,0.315,0.739*56
$GPGBS,023022.00,3.098,1.706,5.090,09,0.0001,0.370,0.659*56
$GPGRS,023022.00,1,-0.2,0.1,-0.1,-0.1,0.4,-0.3,0.3,-0.3,-0.2,,,*67
$GPGRS,023022.00,1,-0.4,-1.2,2.4,-0.4,0.9,-1.3,2.6,-1.9,,,,*60
$GPGRS,023022.00,1,0.1,-0.2,0.4,0.2,-0.0,0.1,0.1,,,,,*64
$GPGRS,023022.00,1,1.9,1.5,0.9,0.4,-0.5,-1.2,0.9,-0.2,-0.5,0.5,-0.9,-0.0*4A
$GPGRS,023022.00,1,-1.2,,,,,,,,,,,*4F
$GPGSV,6,1,23,04,80,209,49,06,34,311,44,28,14,037,39,19,28,274,45*74
$GPGSV,6,2,23,02,23,162,42,17,23,243,43,01,28,153,,31,31,059,45*78
$GPGSV,6,3,23,09,50,232,47,03,63,079,49,21,07,155,21,26,02,083,36*7A
$GPGSV,6,4,23,07,01,185,,11,00,320,,36,35,170,45,58,13,245,38*72
$GPGSV,6,5,23,40,24,132,36,34,31,208,43,49,34,195,45,57,09,110,38*72
$GPGSV,6,6,23,41,07,108,34,61,03,257,38*7B
$GLGSV,3,1,10,70,71,324,41,69,24,055,46,84,13,173,33,79,21,063,45*6E
$GLGSV,3,2,10,71,32,260,49,86,44,314,50,85,56,213,52,78,10,013,43*64
$GLGSV,3,3,10,80,09,114,44,87,04,338,*62
$GAGSV,3,1,10,09,85,123,48,05,35,226,44,11,31,153,40,18,21,275,*6D
$GAGSV,3,2,10,04,35,054,43,34,38,310,44,06,62,062,47,36,75,212,48*6D
$GAGSV,3,3,10,10,05,147,19,21,02,023,28*6D
$GBGSV,5,1,20,48,78,033,,46,11,136,,21,14,251,,05,23,128,39*6D
$GBGSV,5,2,20,39,23,040,42,44,20,317,42,22,15,261,43,29,25,197,44*63
$GBGSV,5,3,20,37,23,083,44,16,31,048,42,06,32,052,41,35,44,268,48*6D
$GBGSV,5,4,20,09,41,066,42,20,57,061,51,19,66,280,51,12,03,333,*64
$GBGSV,5,5,20,32,04,075,40,02,08,106,34,58,05,127,,60,09,110,39*69
$GPGGA,023022.00,,,,,0,00,,,M,,M,,*49
$PTNL,GGK,023022.00,010125,4742.1603307,N,01618.1003384,E,1,37,0.8,EHT751.1846,M*49
$GPGGQ,023022.00,010125,4742.1603307,N,01618.1003384,E,1,37,0.899,707.9781,M*38
$GPGFA,023022.00,3.918,6.058,0.412,0.303,341.941,0.739,,VVV*0A
$GPLLK,023022.00,010125,,M,,M,1,37,0.9,,M*07
$GNGMP,023022.00,,,,,DAAA,37,0.4,,,,*57
$GPGMP,023022.00,,,,,,09,,,,2.8,136*7B
$GLGMP,023022.00,,,,,,08,,,,,*76
$GAGMP,023022.00,,,,,,07,,,,,*74
$GBGMP,023022.00,,,,,,13,,,,,*72
$PSSN,SNC,[0,268240000,2347]*4E
$GPZDA,023027.00,01,01,2025,,*67
$GPDTM,W84,,00.0000000,N,00.0000000,E,00.0000000,W84*5F
$PSSN,TFM,023027.00,,,,*6B
$GPRMC,023027.00,A,4742.1603312,N,01618.1003430,E,0.0,,010125,5.1,E,D*13
$GPGLL,4742.1603312,N,01618.1003430,E,023027.00,A,D*62
$GPGGA,023027.00,4742.1603312,N,01618.1003430,E,2,37,0.4,707.9718,M,43.2066,M,2.9,0136*42
$GNGNS,023027.00,4742.1603312,N,01618.1003430,E,DAAA,37,0.4,707.9718,43.2066,,*51
$GPGNS,023027.00,,,,,,09,,,,2.9,136*7F
$GLGNS,023027.00,,,,,,08,,,,,*73
$GAGNS,023027.00,,,,,,07,,,,,*71
$GBGNS,023027.00,,,,,,13,,,,,*77
$GPLLQ,023027.00,010125,,M,,M,1,37,0.911,,M*18
$GPVTG,,T,,M,0.01,N,0.01,K,D*26
$GPHDT,,T*1B
$GPTHS,,V*0E
$GPROT,,V*08
$PSSN,HRP,023027.00,010125,,,,,,,00,0,,*65
$PTNL,AVR,023027.00,,Yaw,,Tilt,,,,0,,00*33
$GPGSA,A,3,02,03,04,06,09,17,19,28,31,,,,0.8,0.4,0.7*35
$GPGSA,A,3,69,70,71,78,79,80,85,86,,,,,0.8,0.4,0.7*3D
$GPGSA,A,3,04,05,06,09,11,34,36,,,,,,0.8,0.4,0.7*35
$GPGSA,A,3,05,06,09,16,19,20,22,29,35,37,39,44,0.8,0.4,0.7*3D
$GPGSA,A,3,60,,,,,,,,,,,,0.8,0.4,0.7*3F
$GPGST,023027.00,1.048,0.418,0.304,341.676,0.408,0.317,0.750*5E
$GPGBS,023027.00,3.117,1.739,5.188,09,0.0001,0.508,0.678*5B
$GPGRS,023027.00,1,-0.3,0.1,-0.1,-0.1,0.5,-0.2,0.3,-0.1,-0.4,,,*67
$GPGRS,023027.00,1,-1.0,-1.3,2.3,-1.4,0.7,-1.1,2.4,-2.0,,,,*63
$GPGRS,023027.00,1,-0.0,0.2,0.3,0.2,-0.1,-0.0,-0.0,,,,,*66
$GPGRS,023027.00,1,1.9,0.8,0.4,0.5,-0.6,-1.4,0.3,-0.3,-0.5,0.4,-0.9,0.6*6B
$GPGRS,023027.00,1,-1.3,,,,,,,,,,,*4B
$GPGSV,6,1,23,04,80,209,49,06,34,311,44,28,14,037,40,19,28,274,44*7B
$GPGSV,6,2,23,02,23,162,42,17,23,243,42,01,28,153,,31,31,059,45*79
$GPGSV,6,3,23,09,50,232,47,03,63,079,48,21,07,155,,26,02,083,35*7B
$GPGSV,6,4,23,07,01,185,,11,00,320,,36,35,170,44,58,13,245,38*73
$GPGSV,6,5,23,40,24,132,36,34,31,208,43,49,34,195,44,57,09,110,37*7C
$GPGSV,6,6,23,41,07,108,34,61,03,257,38*7B
$GLGSV,3,1,10,70,71,325,41,69,23,055,46,84,13,173,33,79,21,063,46*6B
$GLGSV,3,2,10,71,32,260,48,86,44,314,51,85,56,213,52,78,10,013,43*64
$GLGSV,3,3,10,80,10,114,44,87,04,338,*6A
$GAGSV,3,1,10,09,85,123,48,05,35,226,43,11,31,153,40,18,21,275,*6A
$GAGSV,3,2,10,04,35,054,43,34,38,310,44,06,62,062,47,36,75,212,48*6D
$GAGSV,3,3,10,10,05,147,21,21,02,023,29*67
$GBGSV,5,1,20,48,78,033,,46,11,136,,21,14,251,,05,23,128,39*6D
$GBGSV,5,2,20,39,23,040,42,44,20,317,43,22,15,261,43,29,25,197,45*63
$GBGSV,5,3,20,37,23,083,44,16,31,048,42,06,32,052,41,35,44,268,48*6D
$GBGSV,5,4,20,09,41,066,42,20,57,061,51,19,66,280,51,12,03,333,*64
$GBGSV,5,5,20,32,04,075,39,02,08,106,34,58,05,127,,60,09,110,39*67
$GPGGA,023027.00,,,,,0,00,,,M,,M,,*4C
$PTNL,GGK,023027.00,010125,4742.1603312,N,01618.1003430,E,1,37,0.8,EHT751.1784,M*41
$GPGGQ,023027.00,010125,4742.1603312,N,01618.1003430,E,1,37,0.911,707.9718,M*30
$GPGFA,023027.00,3.975,6.153,0.418,0.304,341.676,0.750,,VVV*07
$GPLLK,023027.00,010125,,M,,M,1,37,0.9,,M*02
$GNGMP,023027.00,,,,,DAAA,37,0.4,,,,*52
$GPGMP,023027.00,,,,,,09,,,,2.9,136*7F
$GLGMP,023027.00,,,,,,08,,,,,*73
$GAGMP,023027.00,,,,,,07,,,,,*71
$GBGMP,023027.00,,,,,,13,,,,,*77
$PSSN,SNC,[0,268245000,2347]*4B
$GPZDA,023032.00,01,01,2025,,*63
$GPDTM,W84,,00.0000000,N,00.0000000,E,00.0000000,W84*5F
$PSSN,TFM,023032.00,,,,*6F
$GPRMC,023032.00,A,4742.1603320,N,01618.1003456,E,0.0,,010125,5.1,E,D*16
$GPGLL,4742.1603320,N,01618.1003456,E,023032.00,A,D*67
$GPGGA,023032.00,4742.1603320,N,01618.1003456,E,2,37,0.4,707.9695,M,43.2066,M,1.7,0136*4E
$GNGNS,023032.00,4742.1603320,N,01618.1003456,E,DAAA,37,0.4,707.9695,43.2066,,*50
$GPGNS,023032.00,,,,,,09,,,,1.7,136*76
$GLGNS,023032.00,,,,,,08,,,,,*77
$GAGNS,023032.00,,,,,,07,,,,,*75
$GBGNS,023032.00,,,,,,13,,,,,*73
$GPLLQ,023032.00,010125,,M,,M,1,37,0.902,,M*1E
$GPVTG,,T,,M,0.00,N,0.01,K,D*27
$GPHDT,,T*1B
$GPTHS,,V*0E
$GPROT,,V*08
$PSSN,HRP,023032.00,010125,,,,,,,00,0,,*61
$PTNL,AVR,023032.00,,Yaw,,Tilt,,,,0,,00*37
$GPGSA,A,3,02,03,04,06,09,17,19,28,31,,,,0.8,0.4,0.7*35
$GPGSA,A,3,69,70,71,78,79,80,85,86,,,,,0.8,0.4,0.7*3D
$GPGSA,A,3,04,05,06,09,11,34,36,,,,,,0.8,0.4,0.7*35
$GPGSA,A,3,05,06,09,16,19,20,22,29,35,37,39,44,0.8,0.4,0.7*3D
$GPGSA,A,3,60,,,,,,,,,,,,0.8,0.4,0.7*3F
$GPGST,023032.00,1.025,0.415,0.302,342.303,0.406,0.314,0.742*50
$GPGBS,023032.00,2.983,1.669,4.970,09,0.0001,0.376,0.628*5B
$GPGRS,023032.00,1,-0.3,0.2,-0.2,-0.0,0.4,-0.1,-0.2,-0.3,-0.3,,,*49
$GPGRS,023032.00,1,-1.2,-1.0,2.2,-1.7,1.3,-0.4,2.5,-1.6,,,,*61
$GPGRS,023032.00,1,-0.0,0.2,0.3,0.5,-0.0,0.3,0.1,,,,,*66
$GPGRS,023032.00,1,1.8,0.9,0.6,1.0,-0.3,-1.3,0.0,0.2,-0.4,0.3,-0.6,0.3*48
$GPGRS,023032.00,1,-1.4,,,,,,,,,,,*48
$GPGSV,6,1,23,04,80,209,49,06,34,311,44,28,14,037,40,19,28,274,43*7C
$GPGSV,6,2,23,02,23,162,42,17,23,243,42,01,28,153,,31,31,059,45*79
$GPGSV,6,3,23,09,50,232,47,03,63,080,49,21,07,155,19,26,02,083,35*74
$GPGSV,6,4,23,07,01,185,,11,00,320,,36,35,170,45,58,13,245,38*72
$GPGSV,6,5,23,40,24,132,36,34,31,208,43,49,34,195,45,57,09,110,38*72
$GPGSV,6,6,23,41,07,108,34,61,03,257,38*7B
$GLGSV,3,1,10,70,71,325,41,69,23,055,46,84,13,173,33,79,21,063,46*6B
$GLGSV,3,2,10,71,32,260,49,86,44,314,50,85,56,213,52,78,10,013,43*64
$GLGSV,3,3,10,80,10,114,44,87,04,338,*6A
$GAGSV,3,1,10,09,85,122,48,05,35,226,43,11,31,153,39,18,21,275,*65
$GAGSV,3,2,10,04,35,054,43,34,38,310,44,06,62,061,47,36,75,212,48*6E
$GAGSV,3,3,10,10,05,147,19,21,02,023,29*6C
$GBGSV,5,1,20,48,78,033,,46,11,136,,22,15,261,42,05,23,128,38*6B
$GBGSV,5,2,20,39,23,040,42,44,20,317,42,21,14,251,,29,25,197,45*64
$GBGSV,5,3,20,37,23,083,44,16,31,048,42,06,32,052,41,35,44,268,48*6D
$GBGSV,5,4,20,09,41,066,42,20,57,061,51,19,66,280,51,12,03,333,*64
$GBGSV,5,5,20,32,04,075,40,02,08,106,34,58,05,127,,60,09,110,39*69
$GPGGA,023032.00,,,,,0,00,,,M,,M,,*48
$PTNL,GGK,023032.00,010125,4742.1603320,N,01618.1003456,E,1,37,0.8,EHT751.1760,M*4E
$GPGGQ,023032.00,010125,4742.1603320,N,01618.1003456,E,1,37,0.902,707.9695,M*33
$GPGFA,023032.00,3.943,6.088,0.415,0.302,342.303,0.742,,VVV*0D
$GPLLK,023032.00,010125,,M,,M,1,37,0.9,,M*06
$GNGMP,023032.00,,,,,DAAA,37,0.4,,,,*56
$GPGMP,023032.00,,,,,,09,,,,1.7,136*76
$GLGMP,023032.00,,,,,,08,,,,,*77
$GAGMP,023032.00,,,,,,07,,,,,*75
$GBGMP,023032.00,,,,,,13,,,,,*73
$PSSN,SNC,[0,268250000,2347]*4F
$GPZDA,023037.00,01,01,2025,,*66
$GPDTM,W84,,00.0000000,N,00.0000000,E,00.0000000,W84*5F
$PSSN,TFM,023037.00,,,,*6A
$GPRMC,023037.00,A,4742.1603343,N,01618.1003480,E,0.0,,010125,5.1,E,D*1D
$GPGLL,4742.1603343,N,01618.1003480,E,023037.00,A,D*6C
$GPGGA,023037.00,4742.1603343,N,01618.1003480,E,2,37,0.4,707.9624,M,43.2066,M,2.7,0136*4C
$GNGNS,023037.00,4742.1603343,N,01618.1003480,E,DAAA,37,0.4,707.9624,43.2066,,*51
$GPGNS,023037.00,,,,,,09,,,,2.7,136*70
$GLGNS,023037.00,,,,,,08,,,,,*72
$GAGNS,023037.00,,,,,,07,,,,,*70
$GBGNS,023037.00,,,,,,13,,,,,*76
$GPLLQ,023037.00,010125,,M,,M,1,37,0.887,,M*17
$GPVTG,,T,,M,0.00,N,0.00,K,D*26
$GPHDT,,T*1B
$GPTHS,,V*0E
$GPROT,,V*08
$PSSN,HRP,023037.00,010125,,,,,,,00,0,,*64
$PTNL,AVR,023037.00,,Yaw,,Tilt,,,,0,,00*32
$GPGSA,A,3,02,03,04,06,09,17,19,28,31,,,,0.8,0.4,0.7*35
$GPGSA,A,3,69,70,71,78,79,80,85,86,,,,,0.8,0.4,0.7*3D
$GPGSA,A,3,04,05,06,09,11,34,36,,,,,,0.8,0.4,0.7*35
$GPGSA,A,3,05,06,09,16,19,20,22,29,35,37,39,44,0.8,0.4,0.7*3D
$GPGSA,A,3,60,,,,,,,,,,,,0.8,0.4,0.7*3F
$GPGST,023037.00,1.114,0.407,0.302,342.904,0.399,0.312,0.728*53
$GPGBS,023037.00,3.019,1.691,5.040,09,0.0001,0.450,0.642*56
$GPGRS,023037.00,1,-0.0,0.1,0.0,-0.1,0.5,0.2,-0.3,-0.9,-0.3,,,*46
$GPGRS,023037.00,1,-1.1,-1.4,2.0,-2.5,0.8,-0.7,2.8,-1.4,,,,*66
$GPGRS,023037.00,1,-0.1,0.1,0.0,0.4,-0.0,0.2,0.0,,,,,*63
$GPGRS,023037.00,1,1.9,0.8,0.6,0.8,-0.2,-1.3,0.7,0.6,-0.3,0.2,-0.8,0.4*49
$GPGRS,023037.00,1,-1.7,,,,,,,,,,,*4E
$GPGSV,6,1,23,04,80,209,49,06,34,311,44,28,14,037,39,19,28,273,43*75
$GPGSV,6,2,23,02,23,162,42,17,23,243,43,01,27,153,,31,31,058,45*76
$GPGSV,6,3,23,09,50,232,48,03,63,080,49,21,07,155,,26,02,083,35*73
$GPGSV,6,4,23,07,01,185,,11,00,320,,36,35,170,44,58,13,245,38*73
$GPGSV,6,5,23,40,24,132,36,34,31,208,43,49,34,195,44,57,09,110,37*7C
$GPGSV,6,6,23,41,07,108,34,61,03,257,38*7B
$GLGSV,3,1,10,70,71,325,42,69,23,055,46,84,13,173,32,79,21,063,46*69
$GLGSV,3,2,10,71,32,260,49,86,44,314,51,85,56,213,53,78,10,013,42*65
$GLGSV,3,3,10,80,10,114,44,87,04,338,*6A
$GAGSV,3,1,10,09,85,122,48,05,35,226,44,11,31,153,39,18,21,275,*62
$GAGSV,3,2,10,04,35,054,43,34,38,310,44,06,62,061,47,36,75,212,48*6E
$GAGSV,3,3,10,10,05,147,20,21,02,023,28*67
$GBGSV,5,1,20,48,78,033,,46,11,136,,21,15,251,,05,23,128,39*6C
$GBGSV,5,2,20,39,23,040,43,44,20,317,43,22,15,261,43,29,25,197,44*63
$GBGSV,5,3,20,37,23,083,43,16,31,048,42,06,32,052,41,35,44,268,48*6A
$GBGSV,5,4,20,09,41,066,42,20,57,061,51,19,67,280,51,12,04,333,*62
$GBGSV,5,5,20,32,04,075,40,02,08,106,34,58,05,127,,60,09,110,39*69
$GPGGA,023037.00,,,,,0,00,,,M,,M,,*4D
$PTNL,GGK,023037.00,010125,4742.1603343,N,01618.1003480,E,1,37,0.8,EHT751.1689,M*43
$GPGGQ,023037.00,010125,4742.1603343,N,01618.1003480,E,1,37,0.887,707.9624,M*3E
$GPGFA,023037.00,3.872,5.968,0.407,0.302,342.904,0.728,,VVV*0D
$GPLLK,023037.00,010125,,M,,M,1,37,0.9,,M*03
$GNGMP,023037.00,,,,,DAAA,37,0.4,,,,*53
$GPGMP,023037.00,,,,,,09,,,,2.7,136*70
$GLGMP,023037.00,,,,,,08,,,,,*72
$GAGMP,023037.00,,,,,,07,,,,,*70
$GBGMP,023037.00,,,,,,13,,,,,*76
$PSSN,SNC,[0,268255000,2347]*4A
$GPZDA,023042.00,01,01,2025,,*64
$GPDTM,W84,,00.0000000,N,00.0000000,E,00.0000000,W84*5F
$PSSN,TFM,023042.00,,,,*68
$GPRMC,023042.00,A,4742.1603384,N,01618.1003506,E,0.0,,010125,5.1,E,D*1B
$GPGLL,4742.1603384,N,01618.1003506,E,023042.00,A,D*6A
$GPGGA,023042.00,4742.1603384,N,01618.1003506,E,2,37,0.4,707.9626,M,43.2066,M,2.8,0136*47
$GNGNS,023042.00,4742.1603384,N,01618.1003506,E,DAAA,37,0.4,707.9626,43.2066,,*55
$GPGNS,023042.00,,,,,,09,,,,2.8,136*7D
$GLGNS,023042.00,,,,,,08,,,,,*70
$GAGNS,023042.00,,,,,,07,,,,,*72
$GBGNS,023042.00,,,,,,13,,,,,*74
$GPLLQ,023042.00,010125,,M,,M,1,37,0.900,,M*1B
$GPVTG,,T,,M,0.00,N,0.00,K,D*26
$GPHDT,,T*1B
$GPTHS,,V*0E
$GPROT,,V*08
$PSSN,HRP,023042.00,010125,,,,,,,00,0,,*66
$PTNL,AVR,023042.00,,Yaw,,Tilt,,,,0,,00*30
$GPGSA,A,3,02,03,04,06,09,17,19,28,31,,,,0.8,0.4,0.7*35
$GPGSA,A,3,69,70,71,78,79,80,85,86,,,,,0.8,0.4,0.7*3D
$GPGSA,A,3,04,05,06,09,11,34,36,,,,,,0.8,0.4,0.7*35
$GPGSA,A,3,05,06,09,16,19,20,22,29,35,37,39,44,0.8,0.4,0.7*3D
$GPGSA,A,3,60,,,,,,,,,,,,0.8,0.4,0.7*3F
$GPGST,023042.00,1.119,0.413,0.304,342.340,0.404,0.316,0.739*52
$GPGBS,023042.00,3.091,1.715,5.099,28,0.0001,-1.189,1.581*7E
$GPGRS,023042.00,1,0.1,0.0,-0.2,-0.1,0.4,0.2,0.2,-1.2,-0.3,,,*61
$GPGRS,023042.00,1,-1.4,-1.0,2.7,-2.0,0.5,-1.6,2.8,-1.2,,,,*6C
$GPGRS,023042.00,1,-0.1,0.2,-0.0,0.1,-0.3,0.1,-0.1,,,,,*66
$GPGRS,023042.00,1,1.6,1.2,0.4,0.2,-0.4,-1.3,0.5,0.1,-0.4,0.7,-0.6,0.5*49
$GPGRS,023042.00,1,-1.4,,,,,,,,,,,*4F
$GPGSV,6,1,23,04,80,209,49,06,34,311,44,28,14,037,39,19,28,273,44*72
$GPGSV,6,2,23,02,23,162,43,17,23,243,43,01,27,153,,31,31,058,46*74
$GPGSV,6,3,23,09,50,232,47,03,63,080,49,21,07,155,20,26,02,083,35*7E
$GPGSV,6,4,23,07,01,185,,11,00,320,,36,35,170,44,58,13,245,38*73
$GPGSV,6,5,23,40,24,132,36,34,31,208,43,49,34,195,44,57,09,110,37*7C
$GPGSV,6,6,23,41,07,108,34,61,03,257,38*7B
$GLGSV,3,1,10,70,71,325,41,69,23,055,46,84,12,173,32,79,21,063,46*6B
$GLGSV,3,2,10,71,33,260,49,86,44,314,51,85,56,213,52,78,10,013,43*64
$GLGSV,3,3,10,80,10,114,44,87,04,338,*6A
$GAGSV,3,1,10,09,85,122,48,05,35,226,44,11,31,153,39,18,21,275,*62
$GAGSV,3,2,10,04,35,054,43,34,38,310,44,06,62,061,47,36,75,212,48*6E
$GAGSV,3,3,10,10,05,147,,21,02,023,29*64
$GBGSV,5,1,20,48,78,033,,46,11,136,,21,15,251,,05,23,128,39*6C
$GBGSV,5,2,20,39,23,040,43,44,20,317,43,22,15,261,43,29,25,197,44*63
$GBGSV,5,3,20,37,23,083,43,16,31,048,42,06,32,052,41,35,44,268,48*6A
$GBGSV,5,4,20,09,41,066,43,20,57,062,51,19,67,280,51,12,04,333,*60
$GBGSV,5,5,20,32,04,075,40,02,08,106,34,58,05,127,,60,09,110,39*69
$GPGGA,023042.00,,,,,0,00,,,M,,M,,*4F
$PTNL,GGK,023042.00,010125,4742.1603384,N,01618.1003506,E,1,37,0.8,EHT751.1692,M*4F
$GPGGQ,023042.00,010125,4742.1603384,N,01618.1003506,E,1,37,0.900,707.9626,M*34
$GPGFA,023042.00,3.926,6.063,0.413,0.304,342.340,0.739,,VVV*07
$GPLLK,023042.00,010125,,M,,M,1,37,0.9,,M*01
$GNGMP,023042.00,,,,,DAAA,37,0.4,,,,*51
$GPGMP,023042.00,,,,,,09,,,,2.8,136*7D
$GLGMP,023042.00,,,,,,08,,,,,*70
$GAGMP,023042.00,,,,,,07,,,,,*72
$GBGMP,023042.00,,,,,,13,,,,,*74
$PSSN,SNC,[0,268260000,2347]*4C
$GPZDA,023047.00,01,01,2025,,*61
$GPDTM,W84,,00.0000000,N,00.0000000,E,00.0000000,W84*5F
$PSSN,TFM,023047.00,,,,*6D
$GPRMC,023047.00,A,4742.1603415,N,01618.1003539,E,0.0,,010125,5.1,E,D*1D
$GPGLL,4742.1603415,N,01618.1003539,E,023047.00,A,D*6C
$GPGGA,023047.00,4742.1603415,N,01618.1003539,E,2,37,0.4,707.9596,M,43.2066,M,2.9,0136*48
$GNGNS,023047.00,4742.1603415,N,01618.1003539,E,DAAA,37,0.4,707.9596,43.2066,,*5B
$GPGNS,023047.00,,,,,,09,,,,2.9,136*79
$GLGNS,023047.00,,,,,,08,,,,,*75
$GAGNS,023047.00,,,,,,07,,,,,*77
$GBGNS,023047.00,,,,,,13,,,,,*71
$GPLLQ,023047.00,010125,,M,,M,1,37,0.910,,M*1F
$GPVTG,,T,,M,0.00,N,0.01,K,D*27
$GPHDT,,T*1B
$GPTHS,,V*0E
$GPROT,,V*08
$PSSN,HRP,023047.00,010125,,,,,,,00,0,,*63
$PTNL,AVR,023047.00,,Yaw,,Tilt,,,,0,,00*35
$GPGSA,A,3,02,03,04,06,09,17,19,28,31,,,,0.8,0.4,0.7*35
$GPGSA,A,3,69,70,71,78,79,80,85,86,,,,,0.8,0.4,0.7*3D
$GPGSA,A,3,04,05,06,09,11,34,36,,,,,,0.8,0.4,0.7*35
$GPGSA,A,3,05,06,09,16,19,20,22,29,35,37,39,44,0.8,0.4,0.7*3D
$GPGSA,A,3,60,,,,,,,,,,,,0.8,0.4,0.7*3F
$GPGST,023047.00,1.075,0.418,0.304,341.726,0.408,0.317,0.749*5A
$GPGBS,023047.00,3.114,1.736,5.176,19,0.0001,0.489,0.799*57
$GPGRS,023047.00,1,0.4,-0.2,-0.3,-0.1,0.3,-0.1,0.5,-1.0,0.0,,,*4D
$GPGRS,023047.00,1,-1.8,-1.0,2.6,-0.9,1.2,-1.4,2.3,-1.2,,,,*60
$GPGRS,023047.00,1,0.1,0.1,-0.1,0.0,0.3,0.3,-0.0,,,,,*63
$GPGRS,023047.00,1,1.1,1.3,0.6,0.4,-0.5,-1.4,0.1,-0.5,-0.5,1.1,-0.6,0.0*66
$GPGRS,023047.00,1,-1.8,,,,,,,,,,,*46
$GPGSV,6,1,23,04,81,209,49,06,34,311,43,28,14,037,39,19,28,273,44*74
$GPGSV,6,2,23,02,23,162,43,17,23,243,43,01,27,153,,31,31,058,45*77
$GPGSV,6,3,23,09,50,232,48,03,63,080,49,21,07,155,,26,02,083,35*73
$GPGSV,6,4,23,07,01,185,,11,01,320,,36,35,170,44,58,13,245,38*72
$GPGSV,6,5,23,40,24,132,36,34,31,208,43,49,34,195,44,57,09,110,38*73
$GPGSV,6,6,23,41,07,108,34,61,03,257,38*7B
$GLGSV,3,1,10,70,71,325,41,69,23,055,46,84,12,173,33,79,21,063,46*6A
$GLGSV,3,2,10,71,33,260,49,86,44,313,51,85,56,213,52,78,09,013,43*6B
$GLGSV,3,3,10,80,10,114,44,87,04,338,*6A
$GAGSV,3,1,10,09,85,121,48,05,35,226,44,11,31,153,39,18,21,275,*61
$GAGSV,3,2,10,04,35,054,43,34,38,310,44,06,61,061,47,36,75,212,48*6D
$GAGSV,3,3,10,10,05,147,19,21,02,023,29*6C
$GBGSV,5,1,20,48,78,033,,46,11,136,,21,15,251,,05,23,128,39*6C
$GBGSV,5,2,20,39,23,040,43,44,20,317,43,22,15,261,43,29,25,197,44*63
$GBGSV,5,3,20,37,23,083,44,16,31,048,42,06,32,052,41,35,44,268,48*6D
$GBGSV,5,4,20,09,41,066,43,20,57,062,51,19,67,280,51,12,04,333,*60
$GBGSV,5,5,20,32,04,075,40,02,08,106,34,58,05,127,,60,09,110,39*69
$GPGGA,023047.00,,,,,0,00,,,M,,M,,*4A
$PTNL,GGK,023047.00,010125,4742.1603415,N,01618.1003539,E,1,37,0.8,EHT751.1661,M*45
$GPGGQ,023047.00,010125,4742.1603415,N,01618.1003539,E,1,37,0.910,707.9596,M*3B
$GPGFA,023047.00,3.977,6.141,0.418,0.304,341.726,0.749,,VVV*0C
$GPLLK,023047.00,010125,,M,,M,1,37,0.9,,M*04
$GNGMP,023047.00,,,,,DAAA,37,0.4,,,,*54
$GPGMP,023047.00,,,,,,09,,,,2.9,136*79
$GLGMP,023047.00,,,,,,08,,,,,*75
$GAGMP,023047.00,,,,,,07,,,,,*77
$GBGMP,023047.00,,,,,,13,,,,,*71
$PSSN,SNC,[0,268265000,2347]*49
$GPZDA,023052.00,01,01,2025,,*65
$GPDTM,W84,,00.0000000,N,00.0000000,E,00.0000000,W84*5F
$PSSN,TFM,023052.00,,,,*69
$GPRMC,023052.00,A,4742.1603426,N,01618.1003569,E,0.0,,010125,5.1,E,D*1C
$GPGLL,4742.1603426,N,01618.1003569,E,023052.00,A,D*6D
$GPGGA,023052.00,4742.1603426,N,01618.1003569,E,2,37,0.4,707.9598,M,43.2066,M,1.7,0136*4A
$GNGNS,023052.00,4742.1603426,N,01618.1003569,E,DAAA,37,0.4,707.9598,43.2066,,*54
$GPGNS,023052.00,,,,,,09,,,,1.7,136*70
$GLGNS,023052.00,,,,,,08,,,,,*71
$GAGNS,023052.00,,,,,,07,,,,,*73
$GBGNS,023052.00,,,,,,13,,,,,*75
$GPLLQ,023052.00,010125,,M,,M,1,37,0.901,,M*1B
$GPVTG,,T,,M,0.01,N,0.01,K,D*26
$GPHDT,,T*1B
$GPTHS,,V*0E
$GPROT,,V*08
$PSSN,HRP,023052.00,010125,,,,,,,00,0,,*67
$PTNL,AVR,023052.00,,Yaw,,Tilt,,,,0,,00*31
$GPGSA,A,3,02,03,04,06,09,17,19,28,31,,,,0.8,0.4,0.7*35
$GPGSA,A,3,69,70,71,78,79,80,85,86,,,,,0.8,0.4,0.7*3D
$GPGSA,A,3,04,05,06,09,11,34,36,,,,,,0.8,0.4,0.7*35
$GPGSA,A,3,05,06,09,16,19,20,22,29,35,37,39,44,0.8,0.4,0.7*3D
$GPGSA,A,3,60,,,,,,,,,,,,0.8,0.4,0.7*3F
$GPGST,023052.00,1.145,0.415,0.302,342.386,0.406,0.314,0.741*5F
$GPGBS,023052.00,2.980,1.665,4.958,09,0.0001,0.324,0.627*50
$GPGRS,023052.00,1,-0.0,-0.0,-0.2,0.3,0.3,-0.3,0.0,-0.8,-0.2,,,*6D
$GPGRS,023052.00,1,-0.8,-1.4,2.5,-1.3,1.5,-1.6,3.0,-1.6,,,,*6A
$GPGRS,023052.00,1,0.2,0.1,0.3,0.2,-0.0,0.2,0.0,,,,,*4B
$GPGRS,023052.00,1,1.3,1.2,0.9,0.4,-0.4,-1.4,0.2,-0.2,-0.5,1.2,-0.6,-0.0*45
$GPGRS,023052.00,1,-1.6,,,,,,,,,,,*4C
$GPGSV,6,1,23,04,81,209,49,06,34,311,44,28,14,037,39,19,28,273,44*73
$GPGSV,6,2,23,02,23,162,43,17,23,243,43,01,27,153,,31,31,058,45*77
$GPGSV,6,3,23,09,50,232,48,03,63,080,49,21,07,155,,26,02,083,35*73
$GPGSV,6,4,23,07,01,185,,11,01,320,,36,35,170,44,58,13,245,38*72
$GPGSV,6,5,23,40,24,132,36,34,31,208,43,49,34,195,44,57,09,110,38*73
$GPGSV,6,6,23,41,07,108,35,61,03,257,38*7A
$GLGSV,3,1,10,70,71,325,41,69,23,055,46,84,12,173,33,79,21,063,46*6A
$GLGSV,3,2,10,71,33,260,49,86,44,313,51,85,56,213,52,78,09,013,42*6A
$GLGSV,3,3,10,80,10,114,43,87,04,338,*6D
$GAGSV,3,1,10,09,85,121,48,05,35,226,44,11,31,153,39,18,21,275,*61
$GAGSV,3,2,10,04,35,054,43,34,38,310,44,06,61,061,47,36,75,212,48*6D
$GAGSV,3,3,10,10,05,147,,21,02,022,29*65
$GBGSV,5,1,20,48,78,033,,46,11,136,,21,15,251,,05,23,128,39*6C
$GBGSV,5,2,20,39,23,040,43,44,20,317,43,22,15,261,43,29,25,197,45*62
$GBGSV,5,3,20,37,23,083,44,16,31,048,42,06,32,051,41,35,44,268,48*6E
$GBGSV,5,4,20,09,41,066,43,20,57,062,51,19,67,280,51,12,04,333,*60
$GBGSV,5,5,20,32,04,075,40,02,08,106,34,58,06,127,,60,09,110,39*6A
$GPGGA,023052.00,,,,,0,00,,,M,,M,,*4E
$PTNL,GGK,023052.00,010125,4742.1603426,N,01618.1003569,E,1,37,0.8,EHT751.1664,M*41
$GPGGQ,023052.00,010125,4742.1603426,N,01618.1003569,E,1,37,0.901,707.9598,M*34
$GPGFA,023052.00,3.944,6.074,0.415,0.302,342.386,0.741,,VVV*01
$GPLLK,023052.00,010125,,M,,M,1,37,0.9,,M*00
$GNGMP,023052.00,,,,,DAAA,37,0.4,,,,*50
$GPGMP,023052.00,,,,,,09,,,,1.7,136*70
$GLGMP,023052.00,,,,,,08,,,,,*71
$GAGMP,023052.00,,,,,,07,,,,,*73
$GBGMP,023052.00,,,,,,13,,,,,*75
$PSSN,SNC,[0,268270000,2347]*4D
$GPZDA,023057.00,01,01,2025,,*60
$GPDTM,W84,,00.0000000,N,00.0000000,E,00.0000000,W84*5F
$PSSN,TFM,023057.00,,,,*6C
$GPRMC,023057.00,A,4742.1603438,N,01618.1003592,E,0.0,,010125,5.1,E,D*12
$GPGLL,4742.1603438,N,01618.1003592,E,023057.00,A,D*63
$GPGGA,023057.00,4742.1603438,N,01618.1003592,E,2,37,0.4,707.9608,M,43.2066,M,2.7,0136*4D
$GNGNS,023057.00,4742.1603438,N,01618.1003592,E,DAAA,37,0.4,707.9608,43.2066,,*50
$GPGNS,023057.00,,,,,,09,,,,2.7,136*76
$GLGNS,023057.00,,,,,,08,,,,,*74
$GAGNS,023057.00,,,,,,07,,,,,*76
$GBGNS,023057.00,,,,,,13,,,,,*70
$GPLLQ,023057.00,010125,,M,,M,1,37,0.886,,M*10
$GPVTG,,T,,M,0.00,N,0.01,K,D*27
$GPHDT,,T*1B
$GPTHS,,V*0E
$GPROT,,V*08
$PSSN,HRP,023057.00,010125,,,,,,,00,0,,*62
$PTNL,AVR,023057.00,,Yaw,,Tilt,,,,0,,00*34
$GPGSA,A,3,02,03,04,06,09,17,19,28,31,,,,0.8,0.4,0.7*35
$GPGSA,A,3,69,70,71,78,79,80,85,86,,,,,0.8,0.4,0.7*3D
$GPGSA,A,3,04,05,06,09,11,34,36,,,,,,0.8,0.4,0.7*35
$GPGSA,A,3,05,06,09,16,19,20,22,29,35,37,39,44,0.8,0.4,0.7*3D
$GPGSA,A,3,60,,,,,,,,,,,,0.8,0.4,0.7*3F
$GPGST,023057.00,1.146,0.407,0.302,343.006,0.400,0.312,0.726*51
$GPGBS,023057.00,3.016,1.687,5.028,85,0.0001,2.919,6.052*51
$GPGRS,023057.00,1,0.2,0.1,-0.1,-0.3,0.2,-0.2,0.3,-0.5,-0.1,,,*48
$GPGRS,023057.00,1,-1.3,-0.8,2.5,-1.8,1.2,-1.4,2.9,-1.7,,,,*6F
$GPGRS,023057.00,1,0.0,-0.3,0.2,0.2,-0.6,0.0,0.1,,,,,*67
$GPGRS,023057.00,1,1.5,1.1,0.5,0.2,-0.3,-1.3,0.7,-0.0,-0.7,1.4,-0.6,-0.3*4F
$GPGRS,023057.00,1,-1.7,,,,,,,,,,,*48
$GPGSV,6,1,23,04,81,209,49,06,34,311,43,28,14,037,40,19,28,273,44*7A
$GPGSV,6,2,23,02,23,162,43,17,23,243,43,01,27,153,,31,31,058,45*77
$GPGSV,6,3,23,09,50,232,48,03,63,080,49,21,07,155,,26,02,083,35*73
$GPGSV,6,4,23,07,01,185,,11,01,320,,36,35,170,44,58,13,245,38*72
$GPGSV,6,5,23,40,24,132,36,34,31,208,43,49,34,195,44,57,09,110,38*73
$GPGSV,6,6,23,41,07,108,34,61,03,257,38*7B
$GLGSV,3,1,10,70,71,325,41,69,23,055,46,84,12,173,33,79,21,063,46*6A
$GLGSV,3,2,10,71,33,260,49,86,44,313,51,85,56,213,53,78,09,013,43*6A
$GLGSV,3,3,10,80,10,114,43,87,04,338,*6D
$GAGSV,3,1,10,09,85,121,48,05,35,226,44,11,31,153,39,18,21,275,*61
$GAGSV,3,2,10,04,35,054,43,34,38,310,44,06,61,061,47,36,75,212,48*6D
$GAGSV,3,3,10,10,05,147,19,21,02,022,31*64
$GBGSV,5,1,20,48,78,033,,46,11,136,,21,15,251,,05,23,128,39*6C
$GBGSV,5,2,20,39,23,040,43,44,20,317,42,22,15,261,43,29,25,197,45*63
$GBGSV,5,3,20,37,23,083,44,16,31,048,42,06,32,051,41,35,44,268,48*6E
$GBGSV,5,4,20,09,41,066,43,20,57,062,51,19,67,280,51,12,04,333,*60
$GBGSV,5,5,20,32,04,075,40,02,08,106,34,58,06,127,,60,09,110,39*6A
$GPGGA,023057.00,,,,,0,00,,,M,,M,,*4B
$PTNL,GGK,023057.00,010125,4742.1603438,N,01618.1003592,E,1,37,0.8,EHT751.1673,M*49
$GPGGQ,023057.00,010125,4742.1603438,N,01618.1003592,E,1,37,0.886,707.9608,M*3E
$GPGFA,023057.00,3.874,5.956,0.407,0.302,343.006,0.726,,VVV*04
$GPLLK,023057.00,010125,,M,,M,1,37,0.9,,M*05
$GNGMP,023057.00,,,,,DAAA,37,0.4,,,,*55
$GPGMP,023057.00,,,,,,09,,,,2.7,136*76
$GLGMP,023057.00,,,,,,08,,,,,*74
$GAGMP,023057.00,,,,,,07,,,,,*76
$GBGMP,023057.00,,,,,,13,,,,,*70
$PSSN,SNC,[0,268275000,2347]*48
$GPZDA,023102.00,01,01,2025,,*61
$GPDTM,W84,,00.0000000,N,00.0000000,E,00.0000000,W84*5F
$PSSN,TFM,023102.00,,,,*6D
$GPRMC,023102.00,A,4742.1603449,N,01618.1003603,E,0.0,,010125,5.1,E,D*1E
$GPGLL,4742.1603449,N,01618.1003603,E,023102.00,A,D*6F
$GPGGA,023102.00,4742.1603449,N,01618.1003603,E,2,37,0.4,707.9575,M,43.2066,M,2.8,0136*47
$GNGNS,023102.00,4742.1603449,N,01618.1003603,E,DAAA,37,0.4,707.9575,43.2066,,*55
$GPGNS,023102.00,,,,,,09,,,,2.8,136*78
$GLGNS,023102.00,,,,,,08,,,,,*75
$GAGNS,023102.00,,,,,,07,,,,,*77
$GBGNS,023102.00,,,,,,13,,,,,*71
$GPLLQ,023102.00,010125,,M,,M,1,37,0.904,,M*1A
$GPVTG,,T,,M,0.00,N,0.01,K,D*27
$GPHDT,,T*1B
$GPTHS,,V*0E
$GPROT,,V*08
$PSSN,HRP,023102.00,010125,,,,,,,00,0,,*63
$PTNL,AVR,023102.00,,Yaw,,Tilt,,,,0,,00*35
$GPGSA,A,3,02,03,04,06,09,17,19,28,31,,,,0.8,0.4,0.7*35
$GPGSA,A,3,69,70,71,78,79,80,85,86,,,,,0.8,0.4,0.7*3D
$GPGSA,A,3,04,05,06,09,11,34,36,,,,,,0.8,0.4,0.7*35
$GPGSA,A,3,05,06,09,16,19,20,22,29,35,37,39,44,0.8,0.4,0.7*3D
$GPGSA,A,3,60,,,,,,,,,,,,0.8,0.4,0.7*3F
$GPGST,023102.00,1.122,0.414,0.308,343.010,0.406,0.319,0.742*52
$GPGBS,023102.00,3.076,1.720,5.135,09,0.0001,0.345,0.658*58
$GPGRS,023102.00,1,-0.2,0.1,-0.3,0.1,0.3,-0.2,0.1,-0.2,-0.0,,,*4C
$GPGRS,023102.00,1,-1.2,-1.2,2.4,-1.6,1.2,-1.5,2.9,-1.7,,,,*6A
$GPGRS,023102.00,1,0.3,-0.1,0.3,0.4,0.0,0.0,0.2,,,,,*48
$GPGRS,023102.00,1,1.8,1.1,0.6,0.4,-0.2,-1.4,0.2,0.2,-0.6,1.1,-0.5,0.1*42
$GPGRS,023102.00,1,-1.5,,,,,,,,,,,*4B
$GPGSV,6,1,23,04,81,209,49,06,34,311,44,28,14,037,40,19,28,273,44*7D
$GPGSV,6,2,23,02,23,162,43,17,23,243,42,01,27,153,,31,31,058,45*76
$GPGSV,6,3,23,09,50,232,48,03,63,080,49,21,07,155,,26,02,083,35*73
$GPGSV,6,4,23,07,01,185,,11,01,320,,36,35,170,44,58,13,245,38*72
$GPGSV,6,5,23,40,24,132,36,34,31,208,43,49,34,195,44,57,09,110,38*73
$GPGSV,6,6,23,41,07,108,34,61,03,257,38*7B
$GLGSV,3,1,10,70,71,326,41,69,23,055,46,84,12,173,33,79,21,063,46*69
$GLGSV,3,2,10,71,33,260,49,86,44,313,51,85,56,213,52,78,09,013,42*6A
$GLGSV,3,3,10,80,10,114,44,87,04,338,*6A
$GAGSV,3,1,10,09,85,120,48,05,35,226,44,11,31,153,39,18,21,275,*60
$GAGSV,3,2,10,04,35,054,43,34,38,310,44,06,61,061,47,36,75,212,48*6D
$GAGSV,3,3,10,10,05,147,,21,02,022,31*6C
$GBGSV,5,1,20,48,78,034,,46,11,136,,21,15,251,,05,23,128,39*6B
$GBGSV,5,2,20,39,23,040,43,44,20,317,42,22,15,261,43,29,25,197,45*63
$GBGSV,5,3,20,37,23,083,44,16,31,048,42,06,32,051,41,35,44,267,48*61
$GBGSV,5,4,20,09,41,066,43,20,57,062,51,19,67,280,51,12,04,333,*60
$GBGSV,5,5,20,32,04,075,40,02,08,106,35,58,06,127,,60,09,110,39*6B
$GPGGA,023102.00,,,,,0,00,,,M,,M,,*4A
$PTNL,GGK,023102.00,010125,4742.1603449,N,01618.1003603,E,1,37,0.8,EHT751.1641,M*44
$GPGGQ,023102.00,010125,4742.1603449,N,01618.1003603,E,1,37,0.904,707.9575,M*30
$GPGFA,023102.00,3.932,6.085,0.414,0.308,343.010,0.742,,VVV*0F
$GPLLK,023102.00,010125,,M,,M,1,37,0.9,,M*04
$GNGMP,023102.00,,,,,DAAA,37,0.4,,,,*54
$GPGMP,023102.00,,,,,,09,,,,2.8,136*78
$GLGMP,023102.00,,,,,,08,,,,,*75
$GAGMP,023102.00,,,,,,07,,,,,*77
$GBGMP,023102.00,,,,,,13,,,,,*71
$PSSN,SNC,[0,268280000,2347]*42
$GPZDA,023107.00,01,01,2025,,*64
$GPDTM,W84,,00.0000000,N,00.0000000,E,00.0000000,W84*5F
$PSSN,TFM,023107.00,,,,*68
$GPRMC,023107.00,A,4742.1603441,N,01618.1003592,E,0.0,,010125,5.1,E,D*18
$GPGLL,4742.1603441,N,01618.1003592,E,023107.00,A,D*69
$GPGGA,023107.00,4742.1603441,N,01618.1003592,E,2,37,0.4,707.9542,M,43.2066,M,2.9,0136*44
$GNGNS,023107.00,4742.1603441,N,01618.1003592,E,DAAA,37,0.4,707.9542,43.2066,,*57
$GPGNS,023107.00,,,,,,09,,,,2.9,136*7C
$GLGNS,023107.00,,,,,,08,,,,,*70
$GAGNS,023107.00,,,,,,07,,,,,*72
$GBGNS,023107.00,,,,,,13,,,,,*74
$GPLLQ,023107.00,010125,,M,,M,1,37,0.914,,M*1E
$GPVTG,,T,,M,0.00,N,0.01,K,D*27
$GPHDT,,T*1B
$GPTHS,,V*0E
$GPROT,,V*08
$PSSN,HRP,023107.00,010125,,,,,,,00,0,,*66
$PTNL,AVR,023107.00,,Yaw,,Tilt,,,,0,,00*30
$GPGSA,A,3,02,03,04,06,09,17,19,28,31,,,,0.8,0.4,0.7*35
$GPGSA,A,3,69,70,71,78,79,80,85,86,,,,,0.8,0.4,0.7*3D
$GPGSA,A,3,04,05,06,09,11,34,36,,,,,,0.8,0.4,0.7*35
$GPGSA,A,3,05,06,09,16,19,20,22,29,35,37,39,44,0.8,0.4,0.7*3D
$GPGSA,A,3,60,,,,,,,,,,,,0.8,0.4,0.7*3F
$GPGST,023107.00,1.142,0.419,0.308,342.365,0.410,0.320,0.752*50
$GPGBS,023107.00,3.098,1.740,5.209,85,0.0001,2.817,6.051*54
$GPGRS,023107.00,1,-0.0,0.0,-0.0,0.2,0.1,-0.2,-0.1,-0.7,0.2,,,*4F
$GPGRS,023107.00,1,-1.4,-2.0,1.9,-2.2,1.7,-0.7,2.8,-1.4,,,,*65
$GPGRS,023107.00,1,0.4,0.3,0.4,0.3,0.1,-0.0,0.4,,,,,*4F
$GPGRS,023107.00,1,1.6,1.5,0.6,0.4,-0.1,-1.1,0.3,0.1,-0.3,0.8,-0.3,0.4*47
$GPGRS,023107.00,1,-1.5,,,,,,,,,,,*4E
$GPGSV,6,1,23,04,81,209,49,06,34,311,44,28,14,037,39,19,28,273,44*73
$GPGSV,6,2,23,02,23,162,43,17,23,243,42,01,27,153,,31,31,058,44*77
$GPGSV,6,3,23,09,50,232,48,03,63,080,49,21,07,155,,26,02,083,35*73
$GPGSV,6,4,23,07,01,185,,11,01,320,,36,35,170,44,58,13,245,38*72
$GPGSV,6,5,23,40,24,132,36,34,31,208,43,49,34,195,44,57,09,110,37*7C
$GPGSV,6,6,23,41,07,108,34,61,03,257,37*74
$GLGSV,3,1,10,70,71,326,41,69,23,055,46,84,12,173,32,79,21,063,45*6B
$GLGSV,3,2,10,71,33,260,48,86,44,313,50,85,56,213,53,78,09,013,42*6B
$GLGSV,3,3,10,80,10,114,44,87,04,338,*6A
$GAGSV,3,1,10,09,85,120,48,05,35,226,44,11,31,153,39,18,21,275,*60
$GAGSV,3,2,10,04,35,055,43,34,38,310,44,06,61,061,47,36,75,212,48*6C
$GAGSV,3,3,10,10,05,147,19,21,02,022,32*67
$GBGSV,5,1,20,48,78,034,,46,11,136,,21,15,251,,05,23,128,38*6A
$GBGSV,5,2,20,39,23,040,42,44,20,317,43,22,15,261,43,29,25,197,45*63
$GBGSV,5,3,20,37,23,083,44,16,31,048,42,06,32,051,41,35,44,267,48*61
$GBGSV,5,4,20,09,41,066,43,20,57,062,51,19,67,280,51,12,04,333,*60
$GBGSV,5,5,20,32,04,075,39,02,08,106,34,58,06,127,,60,09,110,39*64
$GPGGA,023107.00,,,,,0,00,,,M,,M,,*4F
$PTNL,GGK,023107.00,010125,4742.1603441,N,01618.1003592,E,1,37,0.8,EHT751.1608,M*4F
$GPGGQ,023107.00,010125,4742.1603441,N,01618.1003592,E,1,37,0.914,707.9542,M*33
$GPGFA,023107.00,3.984,6.164,0.419,0.308,342.365,0.752,,VVV*05
$GPLLK,023107.00,010125,,M,,M,1,37,0.9,,M*01
$GNGMP,023107.00,,,,,DAAA,37,0.4,,,,*51
$GPGMP,023107.00,,,,,,09,,,,2.9,136*7C
$GLGMP,023107.00,,,,,,08,,,,,*70
$GAGMP,023107.00,,,,,,07,,,,,*72
$GBGMP,023107.00,,,,,,13,,,,,*74
$PSSN,SNC,[0,268285000,2347]*47
$GPZDA,023112.00,01,01,2025,,*60
$GPDTM,W84,,00.0000000,N,00.0000000,E,00.0000000,W84*5F
$PSSN,TFM,023112.00,,,,*6C
$GPRMC,023112.00,A,4742.1603449,N,01618.1003613,E,0.0,,010125,5.1,E,D*1E
$GPGLL,4742.1603449,N,01618.1003613,E,023112.00,A,D*6F
$GPGGA,023112.00,4742.1603449,N,01618.1003613,E,2,37,0.4,707.9574,M,43.2066,M,1.7,0136*4A
$GNGNS,023112.00,4742.1603449,N,01618.1003613,E,DAAA,37,0.4,707.9574,43.2066,,*54
$GPGNS,023112.00,,,,,,09,,,,1.7,136*75
$GLGNS,023112.00,,,,,,08,,,,,*74
$GAGNS,023112.00,,,,,,07,,,,,*76
$GBGNS,023112.00,,,,,,13,,,,,*70
$GPLLQ,023112.00,010125,,M,,M,1,37,0.905,,M*1A
$GPVTG,,T,,M,0.00,N,0.01,K,D*27
$GPHDT,,T*1B
$GPTHS,,V*0E
$GPROT,,V*08
$PSSN,HRP,023112.00,010125,,,,,,,00,0,,*62
$PTNL,AVR,023112.00,,Yaw,,Tilt,,,,0,,00*34
$GPGSA,A,3,02,03,04,06,09,17,19,28,31,,,,0.8,0.4,0.7*35
$GPGSA,A,3,69,70,71,78,79,80,85,86,,,,,0.8,0.4,0.7*3D
$GPGSA,A,3,04,05,06,09,11,34,36,,,,,,0.8,0.4,0.7*35
$GPGSA,A,3,05,06,09,16,19,20,22,29,35,37,39,44,0.8,0.4,0.7*3D
$GPGSA,A,3,60,,,,,,,,,,,,0.8,0.4,0.7*3F
$GPGST,023112.00,1.094,0.416,0.306,343.048,0.407,0.317,0.744*57
$GPGBS,023112.00,2.965,1.671,4.996,19,0.0001,0.742,0.812*54
$GPGRS,023112.00,1,0.1,0.1,-0.4,0.2,0.1,-0.2,0.7,-0.8,0.2,,,*46
$GPGRS,023112.00,1,-0.7,-1.7,1.7,-2.3,0.4,-1.2,2.7,-2.1,,,,*67
$GPGRS,023112.00,1,0.2,-0.5,0.1,0.1,0.1,0.1,-0.1,,,,,*65
$GPGRS,023112.00,1,1.4,1.2,0.5,0.3,-0.4,-1.3,0.2,0.2,-0.7,0.8,-0.5,0.2*43
$GPGRS,023112.00,1,-1.6,,,,,,,,,,,*49
$GPGSV,6,1,23,04,81,209,49,06,35,311,43,28,14,037,39,19,28,273,43*72
$GPGSV,6,2,23,02,23,162,43,17,23,243,43,01,27,153,,31,31,058,44*76
$GPGSV,6,3,23,09,50,232,47,03,63,080,49,21,07,155,,26,02,083,35*7C
$GPGSV,6,4,23,07,01,185,,11,01,320,,36,35,170,44,58,13,245,38*72
$GPGSV,6,5,23,40,24,132,36,34,31,208,43,49,34,195,44,57,09,110,37*7C
$GPGSV,6,6,23,41,07,108,34,61,03,257,37*74
$GLGSV,3,1,10,70,71,326,41,69,23,055,46,84,12,173,32,79,21,063,45*6B
$GLGSV,3,2,10,71,33,260,49,86,44,313,51,85,55,213,53,78,09,013,42*68
$GLGSV,3,3,10,80,10,114,43,87,04,338,*6D
$GAGSV,3,1,10,09,85,119,48,05,35,226,44,11,31,153,40,18,21,275,*64
$GAGSV,3,2,10,04,35,055,44,34,39,310,44,06,61,061,47,36,75,211,48*69
$GAGSV,3,3,10,10,05,147,,21,02,022,32*6F
$GBGSV,5,1,20,48,78,034,,46,11,136,,21,15,251,,05,23,128,39*6B
$GBGSV,5,2,20,39,23,040,42,44,20,317,42,22,15,261,43,29,25,197,44*63
$GBGSV,5,3,20,37,23,083,44,16,31,048,42,06,32,051,41,35,44,267,48*61
$GBGSV,5,4,20,09,41,066,42,20,57,062,51,19,67,280,51,12,04,333,*61
$GBGSV,5,5,20,32,04,075,39,02,08,106,34,58,06,127,,60,09,110,39*64
$GPGGA,023112.00,,,,,0,00,,,M,,M,,*4B
$PTNL,GGK,023112.00,010125,4742.1603449,N,01618.1003613,E,1,37,0.8,EHT751.1639,M*4B
$GPGGQ,023112.00,010125,4742.1603449,N,01618.1003613,E,1,37,0.905,707.9574,M*30
$GPGFA,023112.00,3.952,6.098,0.416,0.306,343.048,0.744,,VVV*03
$GPLLK,023112.00,010125,,M,,M,1,37,0.9,,M*05
$GNGMP,023112.00,,,,,DAAA,37,0.4,,,,*55
$GPGMP,023112.00,,,,,,09,,,,1.7,136*75
$GLGMP,023112.00,,,,,,08,,,,,*74
$GAGMP,023112.00,,,,,,07,,,,,*76
$GBGMP,023112.00,,,,,,13,,,,,*70
$PSSN,SNC,[0,268290000,2347]*43
$GPZDA,023117.00,01,01,2025,,*65
$GPDTM,W84,,00.0000000,N,00.0000000,E,00.0000000,W84*5F
$PSSN,TFM,023117.00,,,,*69
$GPRMC,023117.00,A,4742.1603435,N,01618.1003641,E,0.0,,010125,5.1,E,D*17
$GPGLL,4742.1603435,N,01618.1003641,E,023117.00,A,D*66
$GPGGA,023117.00,4742.1603435,N,01618.1003641,E,2,37,0.4,707.9602,M,43.2066,M,2.7,0136*42
$GNGNS,023117.00,4742.1603435,N,01618.1003641,E,DAAA,37,0.4,707.9602,43.2066,,*5F
$GPGNS,023117.00,,,,,,09,,,,2.7,136*73
$GLGNS,023117.00,,,,,,08,,,,,*71
$GAGNS,023117.00,,,,,,07,,,,,*73
$GBGNS,023117.00,,,,,,13,,,,,*75
$GPLLQ,023117.00,010125,,M,,M,1,37,0.890,,M*12
$GPVTG,,T,,M,0.00,N,0.01,K,D*27
$GPHDT,,T*1B
$GPTHS,,V*0E
$GPROT,,V*08
$PSSN,HRP,023117.00,010125,,,,,,,00,0,,*67
$PTNL,AVR,023117.00,,Yaw,,Tilt,,,,0,,00*31
$GPGSA,A,3,02,03,04,06,09,17,19,28,31,,,,0.8,0.4,0.7*35
$GPGSA,A,3,69,70,71,78,79,80,85,86,,,,,0.8,0.4,0.7*3D
$GPGSA,A,3,04,05,06,09,11,34,36,,,,,,0.8,0.4,0.7*35
$GPGSA,A,3,05,06,09,16,19,20,22,29,35,37,39,44,0.8,0.4,0.7*3D
$GPGSA,A,3,60,,,,,,,,,,,,0.8,0.4,0.7*3F
$GPGST,023117.00,1.079,0.408,0.306,343.709,0.401,0.315,0.730*5B
$GPGBS,023117.00,3.003,1.692,5.065,04,0.0001,-0.392,0.601*74
$GPGRS,023117.00,1,-0.1,0.1,-0.4,-0.0,0.1,-0.1,0.5,-1.1,0.2,,,*48
$GPGRS,023117.00,1,-0.8,-0.8,2.6,-1.0,0.9,-1.4,2.6,-1.5,,,,*6C
$GPGRS,023117.00,1,0.1,-0.2,0.2,0.3,0.2,0.4,-0.1,,,,,*63
$GPGRS,023117.00,1,1.8,0.8,0.5,0.5,-0.1,-1.2,0.0,-0.1,-0.7,1.6,-0.7,0.1*61
$GPGRS,023117.00,1,-1.6,,,,,,,,,,,*4C
$GPGSV,6,1,23,04,81,209,49,06,35,311,43,28,14,037,39,19,28,273,44*75
$GPGSV,6,2,23,02,23,162,43,17,23,243,42,01,27,153,,31,31,058,45*76
$GPGSV,6,3,23,09,50,232,47,03,62,080,49,21,06,155,,26,02,083,36*7F
$GPGSV,6,4,23,07,02,185,,11,01,320,,36,35,170,44,58,13,245,38*71
$GPGSV,6,5,23,40,24,132,36,34,31,208,43,49,34,195,44,57,09,110,37*7C
$GPGSV,6,6,23,41,07,108,34,61,03,257,37*74
$GLGSV,3,1,10,70,71,326,41,69,23,055,46,84,12,174,32,79,21,063,45*6C
$GLGSV,3,2,10,71,33,260,48,86,44,313,51,85,55,212,53,78,09,013,43*69
$GLGSV,3,3,10,80,10,114,43,87,04,338,*6D
$GAGSV,3,1,10,09,85,119,48,05,35,226,44,11,31,153,39,18,21,275,*6A
$GAGSV,3,2,10,04,35,055,44,34,39,310,44,06,61,061,47,36,75,211,48*69
$GAGSV,3,3,10,10,05,147,,21,02,022,32*6F
$GBGSV,5,1,20,48,78,034,,46,11,136,,22,15,261,43,05,23,128,39*6C
