$GPZDA,031442.00,01,01,2025,,*63
$GPDTM,W84,,00.0000000,N,00.0000000,E,00.0000000,W84*5F
$PSSN,TFM,031442.00,,,,*6F
$GPRMC,031442.00,A,4742.1602320,N,01618.1003351,E,0.0,,010125,5.1,E,D*17
$GPGLL,4742.1602320,N,01618.1003351,E,031442.00,A,D*66
$GPGGA,031442.00,4742.1602320,N,01618.1003351,E,2,39,0.4,708.0087,M,43.2066,M,1.6,0136*43
$GNGNS,031442.00,4742.1602320,N,01618.1003351,E,DAAA,39,0.4,708.0087,43.2066,,*5C
$GPGNS,031442.00,,,,,,10,,,,1.6,136*7F
$GLGNS,031442.00,,,,,,08,,,,,*77
$GAGNS,031442.00,,,,,,08,,,,,*7A
$GBGNS,031442.00,,,,,,13,,,,,*73
$GPLLQ,031442.00,010125,,M,,M,1,39,0.801,,M*12
$GPVTG,,T,,M,0.00,N,0.00,K,D*26
$GPHDT,,T*1B
$GPTHS,,V*0E
$GPROT,,V*08
$PSSN,HRP,031442.00,010125,,,,,,,00,0,,*61
$PTNL,AVR,031442.00,,Yaw,,Tilt,,,,0,,00*37
$GPGSA,A,3,03,04,06,07,09,11,17,19,26,31,,,0.7,0.4,0.6*30
$GPGSA,A,3,69,70,71,79,80,85,86,87,,,,,0.7,0.4,0.6*33
$GPGSA,A,3,04,05,06,09,11,15,34,36,,,,,0.7,0.4,0.6*3F
$GPGSA,A,3,05,06,09,16,19,20,22,29,35,37,39,44,0.7,0.4,0.6*33
$GPGSA,A,3,60,,,,,,,,,,,,0.7,0.4,0.6*31
$GPGST,031442.00,1.460,0.407,0.321,352.601,0.406,0.322,0.610*52
$GPGBS,031442.00,2.756,2.157,3.298,03,0.0001,0.558,0.650*51
$GPGRS,031442.00,1,0.6,-0.2,-0.2,-0.3,0.1,0.2,-0.9,0.3,0.5,-0.2,,*68
$GPGRS,031442.00,1,-3.2,-1.8,1.8,1.4,-0.4,4.1,-2.2,-3.7,,,,*62
$GPGRS,031442.00,1,-0.6,0.2,-0.3,0.4,-0.5,1.4,-0.2,0.4,,,,*4B
$GPGRS,031442.00,1,2.0,0.4,0.6,0.1,-0.6,0.4,0.3,-0.0,-0.4,-0.0,-0.9,-0.2*41
$GPGRS,031442.00,1,-1.8,,,,,,,,,,,*44
$GPGSV,6,1,22,04,78,052,49,11,17,318,39,26,10,067,38,07,20,182,42*7E
$GPGSV,6,2,22,19,17,254,41,31,20,043,41,03,45,102,47,06,50,295,47*7B
$GPGSV,6,3,22,09,70,250,50,17,08,230,39,02,04,163,,16,02,095,*7E
$GPGSV,6,4,22,01,08,157,,36,35,170,45,58,13,245,38,40,24,132,36*75
$GPGSV,6,5,22,34,31,208,43,49,34,195,45,57,08,110,39,41,07,108,35*79
$GPGSV,6,6,22,61,03,257,38*46
$GLGSV,3,1,10,70,63,027,42,80,27,098,49,87,23,331,44,79,23,039,47*6F
$GLGSV,3,2,10,85,31,202,49,71,49,284,52,86,53,280,52,73,04,146,*63
$GLGSV,3,3,10,69,06,069,42,72,05,262,*62
$GAGSV,4,1,13,09,72,056,48,11,15,159,36,18,12,250,,04,21,058,40*63
$GAGSV,4,2,13,34,51,299,47,36,58,192,48,06,47,059,45,05,50,239,47*63
$GAGSV,4,3,13,21,01,010,30,23,08,056,,31,01,102,,03,01,238,*6C
$GAGSV,4,4,13,15,06,324,38*56
$GBGSV,5,1,20,19,78,332,51,37,26,065,45,39,18,039,41,12,16,324,*63
$GBGSV,5,2,20,58,20,115,,16,27,044,42,05,23,128,39,06,29,047,41*6E
$GBGSV,5,3,20,46,26,125,,21,29,263,,44,28,301,45,35,35,246,47*6A
$GBGSV,5,4,20,22,29,273,46,09,40,058,43,20,41,075,49,48,63,066,*61
$GBGSV,5,5,20,36,01,168,,29,08,192,41,02,07,106,35,60,08,110,40*60
$GPGGA,031442.00,,,,,0,00,,,M,,M,,*48
$PTNL,GGK,031442.00,010125,4742.1602320,N,01618.1003351,E,1,39,0.7,EHT751.2152,M*4A
$GPGGQ,031442.00,010125,4742.1602320,N,01618.1003351,E,1,39,0.801,708.0087,M*3D
$GPGFA,031442.00,3.873,5.003,0.407,0.321,352.601,0.610,,VVV*0D
$GPLLK,031442.00,010125,,M,,M,1,39,0.8,,M*09
$GNGMP,031442.00,,,,,DAAA,39,0.4,,,,*58
$GPGMP,031442.00,,,,,,10,,,,1.6,136*7F
$GLGMP,031442.00,,,,,,08,,,,,*77
$GAGMP,031442.00,,,,,,08,,,,,*7A
$GBGMP,031442.00,,,,,,13,,,,,*73
$PSSN,SNC,[0,270900000,2347]*48
$GPZDA,031447.00,01,01,2025,,*66
$GPDTM,W84,,00.0000000,N,00.0000000,E,00.0000000,W84*5F
$PSSN,TFM,031447.00,,,,*6A
$GPRMC,031447.00,A,4742.1602311,N,01618.1003323,E,0.0,,010125,5.1,E,D*15
$GPGLL,4742.1602311,N,01618.1003323,E,031447.00,A,D*64
$GPGGA,031447.00,4742.1602311,N,01618.1003323,E,2,39,0.4,708.0053,M,43.2066,M,2.2,0136*4F
$GNGNS,031447.00,4742.1602311,N,01618.1003323,E,DAAA,39,0.4,708.0053,43.2066,,*57
$GPGNS,031447.00,,,,,,10,,,,2.2,136*7D
$GLGNS,031447.00,,,,,,08,,,,,*72
$GAGNS,031447.00,,,,,,08,,,,,*7F
$GBGNS,031447.00,,,,,,13,,,,,*76
$GPLLQ,031447.00,010125,,M,,M,1,39,0.786,,M*17
$GPVTG,,T,,M,0.01,N,0.01,K,D*26
$GPHDT,,T*1B
$GPTHS,,V*0E
$GPROT,,V*08
$PSSN,HRP,031447.00,010125,,,,,,,00,0,,*64
$PTNL,AVR,031447.00,,Yaw,,Tilt,,,,0,,00*32
$GPGSA,A,3,03,04,06,07,09,11,17,19,26,31,,,0.7,0.4,0.6*30
$GPGSA,A,3,69,70,71,79,80,85,86,87,,,,,0.7,0.4,0.6*33
$GPGSA,A,3,04,05,06,09,11,15,34,36,,,,,0.7,0.4,0.6*3F
$GPGSA,A,3,05,06,09,16,19,20,22,29,35,37,39,44,0.7,0.4,0.6*33
$GPGSA,A,3,60,,,,,,,,,,,,0.7,0.4,0.6*31
$GPGST,031447.00,1.483,0.400,0.316,354.117,0.399,0.317,0.599*5A
$GPGBS,031447.00,2.777,2.153,3.307,85,0.0001,4.675,6.100*56
$GPGRS,031447.00,1,0.2,-0.1,-0.0,-0.2,-0.0,0.2,-0.7,0.4,0.6,-0.0,,*4D
$GPGRS,031447.00,1,-3.0,-1.6,1.9,2.0,-1.1,4.7,-1.9,-3.6,,,,*66
$GPGRS,031447.00,1,-0.7,0.1,0.1,0.2,-0.4,1.1,0.1,0.3,,,,*48
$GPGRS,031447.00,1,2.0,0.2,0.4,0.2,-0.5,0.4,0.3,-0.4,-0.1,-0.4,-0.5,0.1*67
$GPGRS,031447.00,1,-1.5,,,,,,,,,,,*4C
$GPGSV,6,1,22,04,78,052,49,11,17,318,41,26,10,067,38,07,20,182,43*70
$GPGSV,6,2,22,19,17,254,42,31,20,043,41,03,45,102,47,06,50,295,47*78
$GPGSV,6,3,22,09,70,250,50,17,08,230,39,02,04,163,,16,02,095,*7E
$GPGSV,6,4,22,01,08,157,,36,35,170,45,58,13,245,37,40,24,132,36*7A
$GPGSV,6,5,22,34,31,208,43,49,34,195,45,57,08,110,39,41,07,108,35*79
$GPGSV,6,6,22,61,03,257,38*46
$GLGSV,3,1,10,70,63,028,42,80,27,098,48,87,23,331,44,79,23,039,47*61
$GLGSV,3,2,10,85,31,202,49,71,49,284,51,86,53,279,52,73,04,146,*66
$GLGSV,3,3,10,69,06,069,41,72,05,262,*61
$GAGSV,4,1,13,09,72,056,49,11,14,159,36,18,12,250,,04,21,058,40*63
$GAGSV,4,2,13,34,51,299,47,36,58,192,48,06,47,059,46,05,50,239,47*60
$GAGSV,4,3,13,21,01,010,31,23,08,056,,31,01,102,,03,01,238,*6D
$GAGSV,4,4,13,15,06,324,37*59
$GBGSV,5,1,20,19,78,333,51,37,26,065,45,39,18,039,41,12,16,324,*62
$GBGSV,5,2,20,58,20,115,,16,27,044,42,05,23,128,39,06,29,047,40*6F
$GBGSV,5,3,20,46,26,125,,21,29,263,,44,28,301,45,35,35,246,47*6A
$GBGSV,5,4,20,22,29,273,46,09,40,058,43,20,41,075,49,48,63,066,*61
$GBGSV,5,5,20,36,01,168,,29,08,192,41,02,07,106,35,60,08,110,40*60
$GPGGA,031447.00,,,,,0,00,,,M,,M,,*4D
$PTNL,GGK,031447.00,010125,4742.1602311,N,01618.1003323,E,1,39,0.7,EHT751.2119,M*47
$GPGGQ,031447.00,010125,4742.1602311,N,01618.1003323,E,1,39,0.786,708.0053,M*36
$GPGFA,031447.00,3.805,4.908,0.400,0.316,354.117,0.599,,VVV*0D
$GPLLK,031447.00,010125,,M,,M,1,39,0.8,,M*0C
$GNGMP,031447.00,,,,,DAAA,39,0.4,,,,*5D
$GPGMP,031447.00,,,,,,10,,,,2.2,136*7D
$GLGMP,031447.00,,,,,,08,,,,,*72
$GAGMP,031447.00,,,,,,08,,,,,*7F
$GBGMP,031447.00,,,,,,13,,,,,*76
$PSSN,SNC,[0,270905000,2347]*4D
$GPZDA,031452.00,01,01,2025,,*62
$GPDTM,W84,,00.0000000,N,00.0000000,E,00.0000000,W84*5F
$PSSN,TFM,031452.00,,,,*6E
$GPRMC,031452.00,A,4742.1602297,N,01618.1003311,E,0.0,,010125,5.1,E,D*1F
$GPGLL,4742.1602297,N,01618.1003311,E,031452.00,A,D*6E
$GPGGA,031452.00,4742.1602297,N,01618.1003311,E,2,39,0.4,708.0119,M,43.2066,M,3.2,0136*4B
$GNGNS,031452.00,4742.1602297,N,01618.1003311,E,DAAA,39,0.4,708.0119,43.2066,,*52
$GPGNS,031452.00,,,,,,10,,,,3.2,136*78
$GLGNS,031452.00,,,,,,08,,,,,*76
$GAGNS,031452.00,,,,,,08,,,,,*7B
$GBGNS,031452.00,,,,,,13,,,,,*72
$GPLLQ,031452.00,010125,,M,,M,1,39,0.796,,M*12
$GPVTG,,T,,M,0.00,N,0.00,K,D*26
$GPHDT,,T*1B
$GPTHS,,V*0E
$GPROT,,V*08
$PSSN,HRP,031452.00,010125,,,,,,,00,0,,*60
$PTNL,AVR,031452.00,,Yaw,,Tilt,,,,0,,00*36
$GPGSA,A,3,03,04,06,07,09,11,17,19,26,31,,,0.7,0.4,0.6*30
$GPGSA,A,3,69,70,71,79,80,85,86,87,,,,,0.7,0.4,0.6*33
$GPGSA,A,3,04,05,06,09,11,15,34,36,,,,,0.7,0.4,0.6*3F
$GPGSA,A,3,05,06,09,16,19,20,22,29,35,37,39,44,0.7,0.4,0.6*33
$GPGSA,A,3,60,,,,,,,,,,,,0.7,0.4,0.6*31
$GPGST,031452.00,1.383,0.404,0.319,352.723,0.403,0.321,0.607*50
$GPGBS,031452.00,2.814,2.173,3.359,85,0.0001,4.769,6.100*5D
$GPGRS,031452.00,1,0.3,-0.3,-0.4,-0.1,0.0,0.7,-0.7,0.4,0.6,-0.0,,*65
$GPGRS,031452.00,1,-2.9,-1.3,1.6,1.8,-0.6,4.8,-1.4,-2.8,,,,*60
$GPGRS,031452.00,1,-0.9,0.1,0.2,0.2,-0.8,1.4,-0.2,0.1,,,,*64
$GPGRS,031452.00,1,1.6,-0.1,0.4,0.4,-0.6,0.3,0.2,-0.7,0.2,-0.3,-0.8,0.1*6C
$GPGRS,031452.00,1,-1.6,,,,,,,,,,,*4B
$GPGSV,6,1,22,04,78,052,48,11,17,318,40,26,10,067,38,07,20,182,43*70
$GPGSV,6,2,22,19,17,254,42,31,20,043,42,03,45,102,47,06,50,295,47*7B
$GPGSV,6,3,22,09,70,250,50,17,08,230,39,02,04,163,,16,02,095,*7E
$GPGSV,6,4,22,01,08,157,,36,35,170,45,58,13,245,38,40,24,132,36*75
$GPGSV,6,5,22,34,31,208,44,49,34,195,45,57,08,110,39,41,07,108,35*7E
$GPGSV,6,6,22,61,03,257,38*46
$GLGSV,3,1,10,70,63,028,42,80,27,098,49,87,23,331,44,79,23,039,47*60
$GLGSV,3,2,10,85,31,202,50,71,49,284,51,86,53,279,52,73,04,146,*6E
$GLGSV,3,3,10,69,06,069,41,72,05,262,*61
$GAGSV,4,1,13,09,72,056,49,11,14,159,37,18,12,250,,04,21,058,40*62
$GAGSV,4,2,13,34,51,299,47,36,58,192,48,06,47,059,46,05,50,239,47*60
$GAGSV,4,3,13,21,01,010,32,23,08,056,,31,01,102,,03,01,238,*6E
$GAGSV,4,4,13,15,06,324,38*56
$GBGSV,5,1,20,19,78,333,51,37,26,065,45,39,18,039,41,12,16,324,*62
$GBGSV,5,2,20,58,20,115,,16,27,044,42,05,23,128,39,06,29,047,40*6F
$GBGSV,5,3,20,46,26,125,,21,29,263,,44,28,301,45,35,35,246,47*6A
$GBGSV,5,4,20,22,29,273,46,09,40,058,43,20,41,075,49,48,63,066,*61
$GBGSV,5,5,20,36,01,168,,29,08,192,41,02,07,106,35,60,08,110,40*60
$GPGGA,031452.00,,,,,0,00,,,M,,M,,*49
$PTNL,GGK,031452.00,010125,4742.1602297,N,01618.1003311,E,1,39,0.7,EHT751.2184,M*49
$GPGGQ,031452.00,010125,4742.1602297,N,01618.1003311,E,1,39,0.796,708.0119,M*32
$GPGFA,031452.00,3.843,4.975,0.404,0.319,352.723,0.607,,VVV*09
$GPLLK,031452.00,010125,,M,,M,1,39,0.8,,M*08
$GNGMP,031452.00,,,,,DAAA,39,0.4,,,,*59
$GPGMP,031452.00,,,,,,10,,,,3.2,136*78
$GLGMP,031452.00,,,,,,08,,,,,*76
$GAGMP,031452.00,,,,,,08,,,,,*7B
$GBGMP,031452.00,,,,,,13,,,,,*72
$PSSN,SNC,[0,270910000,2347]*49
$GPZDA,031457.00,01,01,2025,,*67
$GPDTM,W84,,00.0000000,N,00.0000000,E,00.0000000,W84*5F
$PSSN,TFM,031457.00,,,,*6B
$GPRMC,031457.00,A,4742.1602279,N,01618.1003289,E,0.0,,010125,5.1,E,D*1A
$GPGLL,4742.1602279,N,01618.1003289,E,031457.00,A,D*6B
$GPGGA,031457.00,4742.1602279,N,01618.1003289,E,2,39,0.4,708.0131,M,43.2066,M,3.0,0136*46
$GNGNS,031457.00,4742.1602279,N,01618.1003289,E,DAAA,39,0.4,708.0131,43.2066,,*5D
$GPGNS,031457.00,,,,,,10,,,,3.0,136*7F
$GLGNS,031457.00,,,,,,08,,,,,*73
$GAGNS,031457.00,,,,,,08,,,,,*7E
$GBGNS,031457.00,,,,,,13,,,,,*77
$GPLLQ,031457.00,010125,,M,,M,1,39,0.807,,M*10
$GPVTG,,T,,M,0.00,N,0.00,K,D*26
$GPHDT,,T*1B
$GPTHS,,V*0E
$GPROT,,V*08
$PSSN,HRP,031457.00,010125,,,,,,,00,0,,*65
$PTNL,AVR,031457.00,,Yaw,,Tilt,,,,0,,00*33
$GPGSA,A,3,03,04,06,07,09,11,17,19,26,31,,,0.7,0.4,0.6*30
$GPGSA,A,3,69,70,71,79,80,85,86,87,,,,,0.7,0.4,0.6*33
$GPGSA,A,3,04,05,06,09,11,15,34,36,,,,,0.7,0.4,0.6*3F
$GPGSA,A,3,05,06,09,16,19,20,22,29,35,37,39,44,0.7,0.4,0.6*33
$GPGSA,A,3,60,,,,,,,,,,,,0.7,0.4,0.6*31
$GPGST,031457.00,1.436,0.409,0.323,351.702,0.408,0.325,0.615*54
$GPGBS,031457.00,2.823,2.173,3.430,17,0.0001,-1.065,1.198*7A
$GPGRS,031457.00,1,0.0,-0.1,-0.2,-0.2,0.2,0.9,-1.1,0.1,0.6,0.1,,*46
$GPGRS,031457.00,1,-3.4,-1.4,1.8,1.7,-0.9,4.5,-2.1,-3.0,,,,*62
$GPGRS,031457.00,1,-0.5,0.2,-0.3,0.4,-0.7,1.1,-0.4,0.4,,,,*4D
$GPGRS,031457.00,1,1.5,0.4,0.4,0.3,-0.6,0.4,0.1,-0.3,-0.1,-0.1,-0.9,0.0*69
$GPGRS,031457.00,1,-1.8,,,,,,,,,,,*40
$GPGSV,6,1,22,04,78,052,48,11,17,318,40,26,10,067,39,07,20,182,43*71
$GPGSV,6,2,22,19,17,254,42,31,19,043,42,03,45,102,47,06,50,295,47*71
$GPGSV,6,3,22,09,70,250,50,17,08,230,39,02,04,163,,16,02,095,*7E
$GPGSV,6,4,22,01,08,157,,36,35,170,45,58,13,245,38,40,24,132,35*76
$GPGSV,6,5,22,34,31,208,43,49,34,195,45,57,08,110,39,41,07,108,35*79
$GPGSV,6,6,22,61,03,257,38*46
$GLGSV,3,1,10,70,63,028,41,80,27,098,48,87,23,331,44,79,23,039,47*62
$GLGSV,3,2,10,85,31,202,49,71,49,284,51,86,53,279,52,73,04,146,*66
$GLGSV,3,3,10,69,06,069,41,72,05,262,*61
$GAGSV,4,1,13,09,72,056,49,11,14,159,37,18,12,250,,04,21,058,40*62
$GAGSV,4,2,13,34,51,299,47,36,58,192,48,06,47,059,46,05,50,239,47*60
$GAGSV,4,3,13,21,01,010,32,23,08,056,,31,01,102,,03,01,238,*6E
$GAGSV,4,4,13,15,06,324,38*56
$GBGSV,5,1,20,19,78,333,51,37,26,065,45,39,18,039,41,12,16,324,*62
$GBGSV,5,2,20,58,20,115,,16,27,044,42,05,23,128,39,06,29,047,41*6E
$GBGSV,5,3,20,46,26,125,,21,29,263,,44,28,301,45,35,35,246,47*6A
$GBGSV,5,4,20,22,29,273,46,09,40,058,43,20,41,075,49,48,63,066,*61
$GBGSV,5,5,20,36,01,168,,29,08,192,40,02,07,106,35,60,08,110,40*61
$GPGGA,031457.00,,,,,0,00,,,M,,M,,*4C
$PTNL,GGK,031457.00,010125,4742.1602279,N,01618.1003289,E,1,39,0.7,EHT751.2196,M*4F
$GPGGQ,031457.00,010125,4742.1602279,N,01618.1003289,E,1,39,0.807,708.0131,M*3A
$GPGFA,031457.00,3.892,5.046,0.409,0.323,351.702,0.615,,VVV*0F
$GPLLK,031457.00,010125,,M,,M,1,39,0.8,,M*0D
$GNGMP,031457.00,,,,,DAAA,39,0.4,,,,*5C
$GPGMP,031457.00,,,,,,10,,,,3.0,136*7F
$GLGMP,031457.00,,,,,,08,,,,,*73
$GAGMP,031457.00,,,,,,08,,,,,*7E
$GBGMP,031457.00,,,,,,13,,,,,*77
$PSSN,SNC,[0,270915000,2347]*4C
$GPZDA,031502.00,01,01,2025,,*66
$GPDTM,W84,,00.0000000,N,00.0000000,E,00.0000000,W84*5F
$PSSN,TFM,031502.00,,,,*6A
$GPRMC,031502.00,A,4742.1602258,N,01618.1003294,E,0.0,,010125,5.1,E,D*14
$GPGLL,4742.1602258,N,01618.1003294,E,031502.00,A,D*65
$GPGGA,031502.00,4742.1602258,N,01618.1003294,E,2,39,0.4,708.0157,M,43.2066,M,1.6,0136*4C
$GNGNS,031502.00,4742.1602258,N,01618.1003294,E,DAAA,39,0.4,708.0157,43.2066,,*53
$GPGNS,031502.00,,,,,,10,,,,1.6,136*7A
$GLGNS,031502.00,,,,,,08,,,,,*72
$GAGNS,031502.00,,,,,,08,,,,,*7F
$GBGNS,031502.00,,,,,,13,,,,,*76
$GPLLQ,031502.00,010125,,M,,M,1,39,0.800,,M*16
$GPVTG,,T,,M,0.00,N,0.01,K,D*27
$GPHDT,,T*1B
$GPTHS,,V*0E
$GPROT,,V*08
$PSSN,HRP,031502.00,010125,,,,,,,00,0,,*64
$PTNL,AVR,031502.00,,Yaw,,Tilt,,,,0,,00*32
$GPGSA,A,3,03,04,06,07,09,11,17,19,26,31,,,0.7,0.4,0.6*30
$GPGSA,A,3,69,70,71,79,80,85,86,87,,,,,0.7,0.4,0.6*33
$GPGSA,A,3,04,05,06,09,11,15,34,36,,,,,0.7,0.4,0.6*3F
$GPGSA,A,3,05,06,09,16,19,20,22,29,35,37,39,44,0.7,0.4,0.6*33
$GPGSA,A,3,60,,,,,,,,,,,,0.7,0.4,0.6*31
$GPGST,031502.00,1.423,0.407,0.321,352.665,0.405,0.322,0.610*51
$GPGBS,031502.00,2.755,2.155,3.300,11,0.0001,0.804,1.062*54
$GPGRS,031502.00,1,0.0,-0.3,-0.2,-0.2,0.2,0.8,-0.6,0.6,0.5,-0.2,,*68
$GPGRS,031502.00,1,-2.4,-1.4,1.6,2.0,-0.8,4.6,-2.2,-3.4,,,,*6D
$GPGRS,031502.00,1,-0.4,0.4,-0.3,0.2,-0.8,1.0,-0.3,0.4,,,,*44
$GPGRS,031502.00,1,2.0,0.5,0.6,0.4,-0.5,0.4,0.1,-0.3,-0.6,0.0,-0.8,0.1*42
$GPGRS,031502.00,1,-1.5,,,,,,,,,,,*4C
$GPGSV,6,1,22,04,78,052,49,11,17,318,40,26,11,066,39,07,20,182,43*70
$GPGSV,6,2,22,19,17,254,42,31,19,043,42,03,45,102,47,06,50,295,47*71
$GPGSV,6,3,22,09,70,251,50,17,08,230,39,02,04,163,,16,02,095,*7F
$GPGSV,6,4,22,01,08,157,,36,35,170,45,58,13,245,37,40,24,132,36*7A
$GPGSV,6,5,22,34,31,208,43,49,34,195,45,57,08,110,39,41,07,108,35*79
$GPGSV,6,6,22,61,03,257,37*49
$GLGSV,3,1,10,70,63,028,42,80,27,098,48,87,23,331,44,79,23,039,47*61
$GLGSV,3,2,10,85,31,202,49,71,49,284,51,86,53,279,52,73,04,146,*66
$GLGSV,3,3,10,69,06,069,42,72,05,262,*62
$GAGSV,4,1,13,09,72,056,49,11,14,159,37,18,12,250,,04,21,058,40*62
$GAGSV,4,2,13,34,51,299,47,36,58,191,48,06,47,059,46,05,50,239,47*63
$GAGSV,4,3,13,21,01,010,32,23,08,056,,31,01,102,,03,01,238,*6E
$GAGSV,4,4,13,15,06,324,37*59
$GBGSV,5,1,20,19,78,333,51,37,26,065,46,39,18,039,41,12,16,324,*61
$GBGSV,5,2,20,58,20,115,,16,27,044,42,05,23,128,39,06,29,047,41*6E
$GBGSV,5,3,20,46,26,125,,21,29,263,,44,28,301,45,35,35,246,47*6A
$GBGSV,5,4,20,22,29,273,46,09,40,058,43,20,41,075,49,48,63,066,*61
$GBGSV,5,5,20,36,01,168,,29,08,192,40,02,07,106,35,60,08,110,40*61
$GPGGA,031502.00,,,,,0,00,,,M,,M,,*4D
$PTNL,GGK,031502.00,010125,4742.1602258,N,01618.1003294,E,1,39,0.7,EHT751.2222,M*4D
$GPGGQ,031502.00,010125,4742.1602258,N,01618.1003294,E,1,39,0.800,708.0157,M*33
$GPGFA,031502.00,3.867,4.999,0.407,0.321,352.665,0.610,,VVV*04
$GPLLK,031502.00,010125,,M,,M,1,39,0.8,,M*0C
$GNGMP,031502.00,,,,,DAAA,39,0.4,,,,*5D
$GPGMP,031502.00,,,,,,10,,,,1.6,136*7A
$GLGMP,031502.00,,,,,,08,,,,,*72
$GAGMP,031502.00,,,,,,08,,,,,*7F
$GBGMP,031502.00,,,,,,13,,,,,*76
$PSSN,SNC,[0,270920000,2347]*4A
$GPZDA,031507.00,01,01,2025,,*63
$GPDTM,W84,,00.0000000,N,00.0000000,E,00.0000000,W84*5F
$PSSN,TFM,031507.00,,,,*6F
$GPRMC,031507.00,A,4742.1602258,N,01618.1003324,E,0.0,,010125,5.1,E,D*1B
$GPGLL,4742.1602258,N,01618.1003324,E,031507.00,A,D*6A
$GPGGA,031507.00,4742.1602258,N,01618.1003324,E,2,39,0.4,708.0173,M,43.2066,M,2.2,0136*42
$GNGNS,031507.00,4742.1602258,N,01618.1003324,E,DAAA,39,0.4,708.0173,43.2066,,*5A
$GPGNS,031507.00,,,,,,10,,,,2.2,136*78
$GLGNS,031507.00,,,,,,08,,,,,*77
$GAGNS,031507.00,,,,,,08,,,,,*7A
$GBGNS,031507.00,,,,,,13,,,,,*73
$GPLLQ,031507.00,010125,,M,,M,1,39,0.786,,M*12
$GPVTG,,T,,M,0.00,N,0.00,K,D*26
$GPHDT,,T*1B
$GPTHS,,V*0E
$GPROT,,V*08
$PSSN,HRP,031507.00,010125,,,,,,,00,0,,*61
$PTNL,AVR,031507.00,,Yaw,,Tilt,,,,0,,00*37
$GPGSA,A,3,03,04,06,07,09,11,17,19,26,31,,,0.7,0.4,0.6*30
$GPGSA,A,3,69,70,71,79,80,85,86,87,,,,,0.7,0.4,0.6*33
$GPGSA,A,3,04,05,06,09,11,15,34,36,,,,,0.7,0.4,0.6*3F
$GPGSA,A,3,05,06,09,16,19,20,22,29,35,37,39,44,0.7,0.4,0.6*33
$GPGSA,A,3,60,,,,,,,,,,,,0.7,0.4,0.6*31
$GPGST,031507.00,1.364,0.400,0.315,354.165,0.399,0.316,0.598*57
$GPGBS,031507.00,2.778,2.152,3.310,85,0.0001,4.104,6.100*5A
$GPGRS,031507.00,1,0.0,-0.2,-0.3,0.2,0.1,0.6,-0.3,0.3,-0.0,-0.2,,*65
$GPGRS,031507.00,1,-2.8,-1.0,1.8,1.8,-0.3,4.1,-1.8,-3.2,,,,*66
$GPGRS,031507.00,1,-0.3,0.6,-0.0,0.3,-0.8,1.4,-0.1,0.5,,,,*41
$GPGRS,031507.00,1,2.2,0.5,0.7,0.8,-0.5,0.6,0.5,-0.6,-0.1,-0.1,-0.6,-0.1*43
$GPGRS,031507.00,1,-1.4,,,,,,,,,,,*48
$GPGSV,6,1,22,04,78,052,48,11,17,318,41,26,11,066,39,07,20,182,44*77
$GPGSV,6,2,22,19,17,254,42,31,19,043,42,03,45,102,47,06,50,295,47*71
$GPGSV,6,3,22,09,70,251,50,17,08,230,39,02,04,163,,16,02,095,*7F
$GPGSV,6,4,22,01,08,157,,36,35,170,45,58,13,245,38,40,24,132,36*75
$GPGSV,6,5,22,34,31,208,43,49,34,195,45,57,08,110,39,41,07,108,35*79
$GPGSV,6,6,22,61,03,257,38*46
$GLGSV,3,1,10,70,63,028,42,80,27,097,49,87,23,331,44,79,23,039,47*6F
$GLGSV,3,2,10,85,31,202,49,71,49,284,51,86,53,279,52,73,04,146,*66
$GLGSV,3,3,10,69,06,069,41,72,05,262,*61
$GAGSV,4,1,13,09,72,056,49,11,14,159,36,18,12,250,,04,21,058,40*63
$GAGSV,4,2,13,34,51,299,47,36,58,191,48,06,46,059,46,05,50,239,47*62
$GAGSV,4,3,13,21,01,010,33,23,08,056,,31,02,102,,03,01,238,*6C
$GAGSV,4,4,13,15,06,324,38*56
$GBGSV,5,1,20,19,78,333,51,37,26,065,45,39,18,039,41,12,16,324,*62
$GBGSV,5,2,20,58,20,115,,16,27,044,42,05,23,128,39,06,29,047,41*6E
$GBGSV,5,3,20,46,26,125,,21,29,264,,44,28,301,45,35,35,246,47*6D
$GBGSV,5,4,20,22,29,273,46,09,40,058,43,20,41,076,49,48,63,066,*62
$GBGSV,5,5,20,36,01,168,,29,08,192,40,02,07,106,35,60,08,110,40*61
$GPGGA,031507.00,,,,,0,00,,,M,,M,,*48
$PTNL,GGK,031507.00,010125,4742.1602258,N,01618.1003324,E,1,39,0.7,EHT751.2239,M*48
$GPGGQ,031507.00,010125,4742.1602258,N,01618.1003324,E,1,39,0.786,708.0173,M*3B
$GPGFA,031507.00,3.801,4.905,0.400,0.315,354.165,0.598,,VVV*06
$GPLLK,031507.00,010125,,M,,M,1,39,0.8,,M*09
$GNGMP,031507.00,,,,,DAAA,39,0.4,,,,*58
$GPGMP,031507.00,,,,,,10,,,,2.2,136*78
$GLGMP,031507.00,,,,,,08,,,,,*77
$GAGMP,031507.00,,,,,,08,,,,,*7A
$GBGMP,031507.00,,,,,,13,,,,,*73
$PSSN,SNC,[0,270925000,2347]*4F
$GPZDA,031512.00,01,01,2025,,*67
$GPDTM,W84,,00.0000000,N,00.0000000,E,00.0000000,W84*5F
$PSSN,TFM,031512.00,,,,*6B
$GPRMC,031512.00,A,4742.1602260,N,01618.1003339,E,0.0,,010125,5.1,E,D*18
$GPGLL,4742.1602260,N,01618.1003339,E,031512.00,A,D*69
$GPGGA,031512.00,4742.1602260,N,01618.1003339,E,2,39,0.4,708.0211,M,43.2066,M,3.2,0136*47
$GNGNS,031512.00,4742.1602260,N,01618.1003339,E,DAAA,39,0.4,708.0211,43.2066,,*5E
$GPGNS,031512.00,,,,,,10,,,,3.2,136*7D
$GLGNS,031512.00,,,,,,08,,,,,*73
$GAGNS,031512.00,,,,,,08,,,,,*7E
$GBGNS,031512.00,,,,,,13,,,,,*77
$GPLLQ,031512.00,010125,,M,,M,1,39,0.795,,M*14
$GPVTG,,T,,M,0.00,N,0.00,K,D*26
$GPHDT,,T*1B
$GPTHS,,V*0E
$GPROT,,V*08
$PSSN,HRP,031512.00,010125,,,,,,,00,0,,*65
$PTNL,AVR,031512.00,,Yaw,,Tilt,,,,0,,00*33
$GPGSA,A,3,03,04,06,07,09,11,17,19,26,31,,,0.7,0.4,0.6*30
$GPGSA,A,3,69,70,71,79,80,85,86,87,,,,,0.7,0.4,0.6*33
$GPGSA,A,3,04,05,06,09,11,15,34,36,,,,,0.7,0.4,0.6*3F
$GPGSA,A,3,05,06,09,16,19,20,22,29,35,37,39,44,0.7,0.4,0.6*33
$GPGSA,A,3,60,,,,,,,,,,,,0.7,0.4,0.6*31
$GPGST,031512.00,1.405,0.404,0.319,352.802,0.403,0.321,0.606*51
$GPGBS,031512.00,2.813,2.172,3.362,85,0.0001,4.454,6.100*5B
$GPGRS,031512.00,1,-0.2,-0.1,-0.1,-0.1,-0.1,0.5,-0.0,0.4,0.2,-0.1,,*67
$GPGRS,031512.00,1,-3.3,-0.7,1.9,1.2,-0.4,4.5,-1.7,-3.2,,,,*69
$GPGRS,031512.00,1,-0.2,0.4,0.1,0.4,-0.6,1.2,-0.1,0.4,,,,*64
$GPGRS,031512.00,1,2.1,0.3,0.7,1.0,-0.6,0.5,0.5,-0.5,0.0,-0.3,-0.4,0.1*49
$GPGRS,031512.00,1,-1.7,,,,,,,,,,,*4F
$GPGSV,6,1,22,04,78,052,49,11,17,318,40,26,11,066,40,07,20,182,44*79
$GPGSV,6,2,22,19,17,254,41,31,19,043,42,03,45,102,47,06,50,295,47*72
$GPGSV,6,3,22,09,70,251,50,17,08,230,40,02,04,163,,16,02,095,*71
$GPGSV,6,4,22,01,08,157,,36,35,170,45,58,13,245,38,40,24,132,37*74
$GPGSV,6,5,22,34,31,208,43,49,34,195,45,57,08,110,39,41,07,108,34*78
$GPGSV,6,6,22,61,03,257,37*49
$GLGSV,3,1,10,70,63,028,42,80,27,097,49,87,23,331,43,79,23,039,46*69
$GLGSV,3,2,10,85,31,202,49,71,49,284,51,86,53,279,52,73,04,146,*66
$GLGSV,3,3,10,69,06,069,41,72,05,262,*61
$GAGSV,4,1,13,09,72,056,49,11,14,159,36,18,12,250,,04,21,058,40*63
$GAGSV,4,2,13,34,51,299,47,36,58,191,48,06,46,059,46,05,50,239,47*62
$GAGSV,4,3,13,21,01,010,33,23,08,056,,31,02,102,,03,01,238,*6C
$GAGSV,4,4,13,15,06,324,39*57
$GBGSV,5,1,20,19,78,333,52,37,26,065,45,39,18,039,41,12,16,324,*61
$GBGSV,5,2,20,58,20,115,,16,27,044,42,05,23,128,39,06,29,047,41*6E
$GBGSV,5,3,20,46,26,125,,21,29,264,,44,28,301,45,35,35,246,47*6D
$GBGSV,5,4,20,22,29,273,46,09,40,058,43,20,41,076,49,48,63,066,*62
$GBGSV,5,5,20,36,01,168,,29,07,192,40,02,07,106,35,60,08,110,40*6E
$GPGGA,031512.00,,,,,0,00,,,M,,M,,*4C
$PTNL,GGK,031512.00,010125,4742.1602260,N,01618.1003339,E,1,39,0.7,EHT751.2277,M*41
$GPGGQ,031512.00,010125,4742.1602260,N,01618.1003339,E,1,39,0.795,708.0211,M*3D
$GPGFA,031512.00,3.838,4.971,0.404,0.319,352.802,0.606,,VVV*09
$GPLLK,031512.00,010125,,M,,M,1,39,0.8,,M*0D
$GNGMP,031512.00,,,,,DAAA,39,0.4,,,,*5C
$GPGMP,031512.00,,,,,,10,,,,3.2,136*7D
$GLGMP,031512.00,,,,,,08,,,,,*73
$GAGMP,031512.00,,,,,,08,,,,,*7E
$GBGMP,031512.00,,,,,,13,,,,,*77
$PSSN,SNC,[0,270930000,2347]*4B
$GPZDA,031517.00,01,01,2025,,*62
$GPDTM,W84,,00.0000000,N,00.0000000,E,00.0000000,W84*5F
$PSSN,TFM,031517.00,,,,*6E
$GPRMC,031517.00,A,4742.1602243,N,01618.1003358,E,0.0,,010125,5.1,E,D*1B
$GPGLL,4742.1602243,N,01618.1003358,E,031517.00,A,D*6A
$GPGGA,031517.00,4742.1602243,N,01618.1003358,E,2,40,0.4,708.0235,M,43.2066,M,3.0,0136*4E
$GNGNS,031517.00,4742.1602243,N,01618.1003358,E,DAAA,40,0.4,708.0235,43.2066,,*55
$GPGNS,031517.00,,,,,,10,,,,3.0,136*7A
$GLGNS,031517.00,,,,,,08,,,,,*76
$GAGNS,031517.00,,,,,,08,,,,,*7B
$GBGNS,031517.00,,,,,,14,,,,,*75
$GPLLQ,031517.00,010125,,M,,M,1,40,0.806,,M*1A
$GPVTG,,T,,M,0.00,N,0.01,K,D*27
$GPHDT,,T*1B
$GPTHS,,V*0E
$GPROT,,V*08
$PSSN,HRP,031517.00,010125,,,,,,,00,0,,*60
$PTNL,AVR,031517.00,,Yaw,,Tilt,,,,0,,00*36
$GPGSA,A,3,03,04,06,07,09,11,17,19,26,31,,,0.7,0.4,0.6*30
$GPGSA,A,3,69,70,71,79,80,85,86,87,,,,,0.7,0.4,0.6*33
$GPGSA,A,3,04,05,06,09,11,15,34,36,,,,,0.7,0.4,0.6*3F
$GPGSA,A,3,02,05,06,09,16,19,20,22,29,35,37,39,0.7,0.4,0.6*31
$GPGSA,A,3,44,60,,,,,,,,,,,0.7,0.4,0.6*31
$GPGST,031517.00,1.495,0.409,0.323,351.869,0.407,0.325,0.615*55
$GPGBS,031517.00,2.819,2.169,3.427,85,0.0001,4.588,6.101*59
$GPGRS,031517.00,1,0.4,-0.2,-0.1,-0.6,0.0,0.5,-0.2,0.6,0.8,-0.2,,*68
$GPGRS,031517.00,1,-2.4,-1.6,1.8,1.7,-0.8,4.6,-2.0,-4.3,,,,*63
$GPGRS,031517.00,1,-0.1,0.1,0.1,0.2,-0.7,0.9,-0.2,0.5,,,,*68
$GPGRS,031517.00,1,1.6,1.9,0.4,1.0,0.5,-0.4,0.6,0.7,-0.4,0.2,-0.4,-0.4*43
$GPGRS,031517.00,1,-0.3,-1.6,,,,,,,,,,*4B
$GPGSV,6,1,22,04,78,052,49,11,17,318,41,26,11,066,39,07,20,182,43*71
$GPGSV,6,2,22,19,17,254,41,31,19,043,42,03,45,102,47,06,50,295,47*72
$GPGSV,6,3,22,09,70,251,51,17,07,230,39,02,04,163,,16,02,095,*71
$GPGSV,6,4,22,01,08,157,,36,35,170,44,58,13,245,38,40,24,132,36*74
$GPGSV,6,5,22,34,31,208,43,49,34,195,45,57,08,110,38,41,07,108,35*78
$GPGSV,6,6,22,61,03,257,38*46
$GLGSV,3,1,10,70,63,028,42,80,27,097,49,87,23,331,44,79,23,039,47*6F
$GLGSV,3,2,10,85,31,202,49,71,49,284,51,86,53,279,52,73,04,146,*66
$GLGSV,3,3,10,69,06,069,42,72,05,262,*62
$GAGSV,4,1,13,09,72,056,49,11,14,159,36,18,12,250,,04,21,058,40*63
$GAGSV,4,2,13,34,51,299,47,36,58,191,48,06,46,059,46,05,50,239,47*62
$GAGSV,4,3,13,21,01,010,33,23,08,056,,31,02,102,,03,01,238,*6C
$GAGSV,4,4,13,15,06,324,37*59
$GBGSV,5,1,20,19,78,333,51,37,26,065,45,12,16,324,,39,18,039,41*62
$GBGSV,5,2,20,58,20,115,,16,27,044,42,05,23,128,39,06,29,047,41*6E
$GBGSV,5,3,20,46,26,125,,21,29,264,,44,28,301,45,35,35,246,47*6D
$GBGSV,5,4,20,22,29,273,46,09,40,058,43,20,41,076,49,48,63,067,*63
$GBGSV,5,5,20,36,01,168,,29,07,192,40,02,07,106,35,60,08,110,40*6E
$GPGGA,031517.00,,,,,0,00,,,M,,M,,*49
$PTNL,GGK,031517.00,010125,4742.1602243,N,01618.1003358,E,1,40,0.7,EHT751.2301,M*4C
$GPGGQ,031517.00,010125,4742.1602243,N,01618.1003358,E,1,40,0.806,708.0235,M*33
$GPGFA,031517.00,3.887,5.041,0.409,0.323,351.869,0.615,,VVV*0B
$GPLLK,031517.00,010125,,M,,M,1,40,0.8,,M*06
$GNGMP,031517.00,,,,,DAAA,40,0.4,,,,*57
$GPGMP,031517.00,,,,,,10,,,,3.0,136*7A
$GLGMP,031517.00,,,,,,08,,,,,*76
$GAGMP,031517.00,,,,,,08,,,,,*7B
$GBGMP,031517.00,,,,,,14,,,,,*75
$PSSN,SNC,[0,270935000,2347]*4E
$GPZDA,031522.00,01,01,2025,,*64
$GPDTM,W84,,00.0000000,N,00.0000000,E,00.0000000,W84*5F
$PSSN,TFM,031522.00,,,,*68
$GPRMC,031522.00,A,4742.1602236,N,01618.1003350,E,0.0,,010125,5.1,E,D*17
$GPGLL,4742.1602236,N,01618.1003350,E,031522.00,A,D*66
$GPGGA,031522.00,4742.1602236,N,01618.1003350,E,2,39,0.4,708.0261,M,43.2066,M,1.6,0136*49
$GNGNS,031522.00,4742.1602236,N,01618.1003350,E,DAAA,39,0.4,708.0261,43.2066,,*56
$GPGNS,031522.00,,,,,,10,,,,1.6,136*78
$GLGNS,031522.00,,,,,,08,,,,,*70
$GAGNS,031522.00,,,,,,08,,,,,*7D
$GBGNS,031522.00,,,,,,13,,,,,*74
$GPLLQ,031522.00,010125,,M,,M,1,39,0.806,,M*12
$GPVTG,,T,,M,0.00,N,0.01,K,D*27
$GPHDT,,T*1B
$GPTHS,,V*0E
$GPROT,,V*08
$PSSN,HRP,031522.00,010125,,,,,,,00,0,,*66
$PTNL,AVR,031522.00,,Yaw,,Tilt,,,,0,,00*30
$GPGSA,A,3,03,04,06,07,09,11,17,19,26,31,,,0.7,0.4,0.6*30
$GPGSA,A,3,69,70,71,79,80,85,86,87,,,,,0.7,0.4,0.6*33
$GPGSA,A,3,04,05,06,09,11,15,34,36,,,,,0.7,0.4,0.6*3F
$GPGSA,A,3,05,06,09,16,19,20,22,29,35,37,39,44,0.7,0.4,0.6*33
$GPGSA,A,3,60,,,,,,,,,,,,0.7,0.4,0.6*31
$GPGST,031522.00,1.397,0.407,0.322,353.190,0.406,0.323,0.617*51
$GPGBS,031522.00,2.770,2.139,3.239,19,0.0001,0.755,0.917*59
$GPGRS,031522.00,1,0.4,-0.2,-0.4,-0.5,0.2,0.3,-0.7,0.8,0.2,-0.5,,*6A
$GPGRS,031522.00,1,-2.1,-1.5,1.8,2.0,-0.5,4.3,-1.9,-3.6,,,,*67
$GPGRS,031522.00,1,-0.3,-0.1,-0.0,0.2,-0.9,0.7,-0.3,0.5,,,,*6C
$GPGRS,031522.00,1,1.7,1.0,1.1,0.0,-0.5,0.5,0.4,-0.7,-0.3,-0.0,-0.6,-0.2*4A
$GPGRS,031522.00,1,-1.7,,,,,,,,,,,*4C
$GPGSV,6,1,22,04,78,052,49,11,17,318,41,26,11,066,39,07,20,182,43*71
$GPGSV,6,2,22,19,17,254,41,31,19,043,41,03,45,102,46,06,50,295,47*70
$GPGSV,6,3,22,09,70,251,50,17,07,230,40,02,04,163,,16,02,094,*7F
$GPGSV,6,4,22,01,08,157,,36,35,170,45,58,13,245,38,40,24,132,36*75
$GPGSV,6,5,22,34,31,208,43,49,34,195,45,57,08,110,39,41,07,108,35*79
$GPGSV,6,6,22,61,03,257,38*46
$GLGSV,3,1,10,70,63,028,42,80,27,097,49,87,23,331,45,79,23,039,46*6F
$GLGSV,3,2,10,85,31,202,49,71,49,284,51,86,53,279,52,73,04,146,*66
$GLGSV,3,3,10,69,06,069,41,72,05,262,*61
$GAGSV,4,1,13,09,72,056,48,11,14,159,36,18,12,250,,04,21,058,39*6C
$GAGSV,4,2,13,34,51,298,47,36,58,191,48,06,46,059,46,05,50,239,47*63
$GAGSV,4,3,13,21,01,009,32,23,08,056,,31,02,102,,03,01,238,*65
$GAGSV,4,4,13,15,06,324,37*59
$GBGSV,5,1,20,19,78,334,51,37,26,064,45,12,16,324,,39,18,039,41*64
$GBGSV,5,2,20,58,20,115,,16,27,044,41,05,23,128,39,06,29,047,41*6D
$GBGSV,5,3,20,46,26,125,,21,29,264,,44,28,301,45,35,35,246,47*6D
$GBGSV,5,4,20,22,29,273,46,09,40,058,43,20,41,076,49,48,63,067,*63
$GBGSV,5,5,20,36,01,168,,29,07,192,40,02,07,106,35,60,08,110,40*6E
$GPGGA,031522.00,,,,,0,00,,,M,,M,,*4F
$PTNL,GGK,031522.00,010125,4742.1602236,N,01618.1003350,E,1,39,0.7,EHT751.2327,M*4A
$GPGGQ,031522.00,010125,4742.1602236,N,01618.1003350,E,1,39,0.806,708.0261,M*30
$GPGFA,031522.00,3.867,5.057,0.407,0.322,353.190,0.617,,VVV*04
$GPLLK,031522.00,010125,,M,,M,1,39,0.8,,M*0E
$GNGMP,031522.00,,,,,DAAA,39,0.4,,,,*5F
$GPGMP,031522.00,,,,,,10,,,,1.6,136*78
$GLGMP,031522.00,,,,,,08,,,,,*70
$GAGMP,031522.00,,,,,,08,,,,,*7D
$GBGMP,031522.00,,,,,,13,,,,,*74
$PSSN,SNC,[0,270940000,2347]*4C
$GPZDA,031527.00,01,01,2025,,*61
$GPDTM,W84,,00.0000000,N,00.0000000,E,00.0000000,W84*5F
$PSSN,TFM,031527.00,,,,*6D
$GPRMC,031527.00,A,4742.1602220,N,01618.1003354,E,0.0,,010125,5.1,E,D*11
$GPGLL,4742.1602220,N,01618.1003354,E,031527.00,A,D*60
$GPGGA,031527.00,4742.1602220,N,01618.1003354,E,2,39,0.4,708.0200,M,43.2066,M,2.2,0136*4F
$GNGNS,031527.00,4742.1602220,N,01618.1003354,E,DAAA,39,0.4,708.0200,43.2066,,*57
$GPGNS,031527.00,,,,,,10,,,,2.2,136*7A
$GLGNS,031527.00,,,,,,08,,,,,*75
$GAGNS,031527.00,,,,,,08,,,,,*78
$GBGNS,031527.00,,,,,,13,,,,,*71
$GPLLQ,031527.00,010125,,M,,M,1,39,0.800,,M*11
$GPVTG,,T,,M,0.01,N,0.01,K,D*26
$GPHDT,,T*1B
$GPTHS,,V*0E
$GPROT,,V*08
$PSSN,HRP,031527.00,010125,,,,,,,00,0,,*63
$PTNL,AVR,031527.00,,Yaw,,Tilt,,,,0,,00*35
$GPGSA,A,3,03,04,06,07,09,11,17,19,26,31,,,0.7,0.4,0.6*30
$GPGSA,A,3,69,70,71,79,80,85,86,87,,,,,0.7,0.4,0.6*33
$GPGSA,A,3,04,05,06,09,11,15,34,36,,,,,0.7,0.4,0.6*3F
$GPGSA,A,3,05,06,09,16,19,20,22,29,35,37,39,44,0.7,0.4,0.6*33
$GPGSA,A,3,60,,,,,,,,,,,,0.7,0.4,0.6*31
$GPGST,031527.00,1.203,0.401,0.318,355.349,0.400,0.319,0.615*5A
$GPGBS,031527.00,2.791,2.136,3.295,07,0.0001,-0.638,0.869*7A
$GPGRS,031527.00,1,0.4,-0.1,-0.3,-0.6,0.2,0.3,-0.6,0.7,0.2,-0.3,,*60
$GPGRS,031527.00,1,-2.4,-0.6,2.0,1.3,-0.2,3.5,-1.7,-2.1,,,,*60
$GPGRS,031527.00,1,-0.5,0.1,0.0,0.3,-0.8,1.2,-0.3,0.6,,,,*68
$GPGRS,031527.00,1,1.9,1.1,1.0,0.0,-0.3,0.4,0.2,-0.8,-0.4,-0.1,-0.6,-0.2*49
$GPGRS,031527.00,1,-1.7,,,,,,,,,,,*49
$GPGSV,6,1,22,04,78,052,49,11,17,318,40,26,11,066,38,07,20,182,43*71
$GPGSV,6,2,22,19,17,254,41,31,19,043,41,03,45,102,47,06,50,295,47*71
$GPGSV,6,3,22,09,70,251,50,17,07,230,40,02,04,163,,16,02,094,*7F
$GPGSV,6,4,22,01,08,157,,36,35,170,45,58,13,245,38,40,24,132,36*75
$GPGSV,6,5,22,34,31,208,43,49,34,195,45,57,08,110,39,41,07,108,35*79
$GPGSV,6,6,22,61,03,257,38*46
$GLGSV,3,1,10,70,63,028,42,80,27,097,48,87,23,331,45,79,23,039,46*6E
$GLGSV,3,2,10,85,31,202,49,71,49,284,51,86,53,279,52,73,04,146,*66
$GLGSV,3,3,10,69,06,069,42,72,05,262,*62
$GAGSV,4,1,13,09,72,056,48,11,14,159,36,18,12,250,,04,21,058,39*6C
$GAGSV,4,2,13,34,51,298,47,36,58,191,48,06,46,059,46,05,50,239,46*62
$GAGSV,4,3,13,21,01,009,33,23,08,056,,31,02,102,,03,01,238,*64
$GAGSV,4,4,13,15,06,324,38*56
$GBGSV,5,1,20,19,78,334,51,37,26,064,45,12,16,324,,39,18,039,41*64
$GBGSV,5,2,20,58,20,115,,16,27,044,42,05,23,128,39,06,29,047,41*6E
$GBGSV,5,3,20,46,26,125,,21,29,264,,44,28,301,45,35,35,246,47*6D
$GBGSV,5,4,20,22,29,273,46,09,40,058,43,20,41,076,49,48,63,067,*63
$GBGSV,5,5,20,36,01,168,,29,07,192,40,02,07,106,35,60,08,110,40*6E
$GPGGA,031527.00,,,,,0,00,,,M,,M,,*4A
$PTNL,GGK,031527.00,010125,4742.1602220,N,01618.1003354,E,1,39,0.7,EHT751.2266,M*48
$GPGGQ,031527.00,010125,4742.1602220,N,01618.1003354,E,1,39,0.800,708.0200,M*37
$GPGFA,031527.00,3.809,5.039,0.401,0.318,355.349,0.615,,VVV*0C
$GPLLK,031527.00,010125,,M,,M,1,39,0.8,,M*0B
$GNGMP,031527.00,,,,,DAAA,39,0.4,,,,*5A
$GPGMP,031527.00,,,,,,10,,,,2.2,136*7A
$GLGMP,031527.00,,,,,,08,,,,,*75
$GAGMP,031527.00,,,,,,08,,,,,*78
$GBGMP,031527.00,,,,,,13,,,,,*71
$PSSN,SNC,[0,270945000,2347]*49
$GPZDA,031532.00,01,01,2025,,*65
$GPDTM,W84,,00.0000000,N,00.0000000,E,00.0000000,W84*5F
$PSSN,TFM,031532.00,,,,*69
$GPRMC,031532.00,A,4742.1602194,N,01618.1003359,E,0.0,,010125,5.1,E,D*14
$GPGLL,4742.1602194,N,01618.1003359,E,031532.00,A,D*65
$GPGGA,031532.00,4742.1602194,N,01618.1003359,E,2,39,0.4,708.0228,M,43.2066,M,3.2,0136*41
$GNGNS,031532.00,4742.1602194,N,01618.1003359,E,DAAA,39,0.4,708.0228,43.2066,,*58
$GPGNS,031532.00,,,,,,10,,,,3.2,136*7F
$GLGNS,031532.00,,,,,,08,,,,,*71
$GAGNS,031532.00,,,,,,08,,,,,*7C
$GBGNS,031532.00,,,,,,13,,,,,*75
$GPLLQ,031532.00,010125,,M,,M,1,39,0.809,,M*1C
$GPVTG,,T,,M,0.00,N,0.00,K,D*26
$GPHDT,,T*1B
$GPTHS,,V*0E
$GPROT,,V*08
$PSSN,HRP,031532.00,010125,,,,,,,00,0,,*67
$PTNL,AVR,031532.00,,Yaw,,Tilt,,,,0,,00*31
$GPGSA,A,3,03,04,06,07,09,11,17,19,26,31,,,0.7,0.4,0.6*30
$GPGSA,A,3,69,70,71,79,80,85,86,87,,,,,0.7,0.4,0.6*33
$GPGSA,A,3,04,05,06,09,11,15,34,36,,,,,0.7,0.4,0.6*3F
$GPGSA,A,3,05,06,09,16,19,20,22,29,35,37,39,44,0.7,0.4,0.6*33
$GPGSA,A,3,60,,,,,,,,,,,,0.7,0.4,0.6*31
$GPGST,031532.00,1.297,0.404,0.322,353.904,0.403,0.323,0.623*55
$GPGBS,031532.00,2.827,2.155,3.354,07,0.0001,-0.648,0.881*74
$GPGRS,031532.00,1,0.3,-0.3,-0.0,-0.6,0.0,0.2,-0.4,0.4,0.4,0.4,,*4C
$GPGRS,031532.00,1,-1.3,-1.7,1.7,1.7,-1.1,4.1,-2.3,-2.8,,,,*6F
$GPGRS,031532.00,1,-0.6,0.2,-0.3,-0.0,-1.1,1.1,-0.3,0.3,,,,*62
$GPGRS,031532.00,1,1.8,0.4,0.7,0.1,-0.6,0.2,-0.2,-1.2,-0.4,-0.3,-0.7,-0.1*6A
$GPGRS,031532.00,1,-1.2,,,,,,,,,,,*48
$GPGSV,6,1,22,04,77,052,49,11,17,318,41,26,11,066,39,07,20,182,42*7F
$GPGSV,6,2,22,19,17,254,42,31,19,043,41,03,45,102,47,06,50,295,47*72
$GPGSV,6,3,22,09,70,251,50,17,07,230,39,02,04,163,,16,02,094,*71
$GPGSV,6,4,22,01,08,157,,36,35,170,44,58,13,245,38,40,24,132,36*74
$GPGSV,6,5,22,34,31,208,43,49,34,195,44,57,08,110,39,41,07,108,35*78
$GPGSV,6,6,22,61,03,257,38*46
$GLGSV,3,1,10,70,63,028,42,80,27,097,47,87,23,331,45,79,23,039,46*61
$GLGSV,3,2,10,85,31,202,49,71,49,284,52,86,53,279,51,73,04,146,*66
$GLGSV,3,3,10,69,06,069,42,72,05,262,*62
$GAGSV,4,1,13,09,72,056,48,11,14,159,36,18,12,250,,04,21,058,39*6C
$GAGSV,4,2,13,34,51,298,47,36,58,191,48,06,46,059,46,05,51,239,47*62
$GAGSV,4,3,13,21,01,009,33,23,08,056,,31,02,102,,03,01,239,*65
$GAGSV,4,4,13,15,06,324,38*56
$GBGSV,5,1,20,19,78,334,51,37,26,064,45,12,16,324,,39,18,039,41*64
$GBGSV,5,2,20,58,20,115,,16,27,044,41,05,23,128,39,06,29,047,41*6D
$GBGSV,5,3,20,46,26,125,,21,29,264,,44,28,301,44,35,35,246,47*6C
$GBGSV,5,4,20,22,29,273,46,09,40,058,43,20,41,076,49,48,63,067,*63
$GBGSV,5,5,20,36,01,168,,29,07,192,40,02,07,106,34,60,08,110,40*6F
$GPGGA,031532.00,,,,,0,00,,,M,,M,,*4E
$PTNL,GGK,031532.00,010125,4742.1602194,N,01618.1003359,E,1,39,0.7,EHT751.2294,M*40
$GPGGQ,031532.00,010125,4742.1602194,N,01618.1003359,E,1,39,0.809,708.0228,M*31
$GPGFA,031532.00,3.844,5.106,0.404,0.322,353.904,0.623,,VVV*00
$GPLLK,031532.00,010125,,M,,M,1,39,0.8,,M*0F
$GNGMP,031532.00,,,,,DAAA,39,0.4,,,,*5E
$GPGMP,031532.00,,,,,,10,,,,3.2,136*7F
$GLGMP,031532.00,,,,,,08,,,,,*71
$GAGMP,031532.00,,,,,,08,,,,,*7C
$GBGMP,031532.00,,,,,,13,,,,,*75
$PSSN,SNC,[0,270950000,2347]*4D
$GPZDA,031537.00,01,01,2025,,*60
$GPDTM,W84,,00.0000000,N,00.0000000,E,00.0000000,W84*5F
$PSSN,TFM,031537.00,,,,*6C
$GPRMC,031537.00,A,4742.1602165,N,01618.1003341,E,0.0,,010125,5.1,E,D*16
$GPGLL,4742.1602165,N,01618.1003341,E,031537.00,A,D*67
$GPGGA,031537.00,4742.1602165,N,01618.1003341,E,2,39,0.4,708.0258,M,43.2066,M,3.0,0136*46
$GNGNS,031537.00,4742.1602165,N,01618.1003341,E,DAAA,39,0.4,708.0258,43.2066,,*5D
$GPGNS,031537.00,,,,,,10,,,,3.0,136*78
$GLGNS,031537.00,,,,,,08,,,,,*74
$GAGNS,031537.00,,,,,,08,,,,,*79
$GBGNS,031537.00,,,,,,13,,,,,*70
$GPLLQ,031537.00,010125,,M,,M,1,39,0.830,,M*13
$GPVTG,,T,,M,0.00,N,0.01,K,D*27
$GPHDT,,T*1B
$GPTHS,,V*0E
$GPROT,,V*08
$PSSN,HRP,031537.00,010125,,,,,,,00,0,,*62
$PTNL,AVR,031537.00,,Yaw,,Tilt,,,,0,,00*34
$GPGSA,A,3,03,04,06,07,09,11,17,19,26,31,,,0.7,0.4,0.6*30
$GPGSA,A,3,69,70,71,79,80,85,86,87,,,,,0.7,0.4,0.6*33
$GPGSA,A,3,04,05,06,09,11,15,34,36,,,,,0.7,0.4,0.6*3F
$GPGSA,A,3,05,06,09,16,19,20,22,29,35,37,39,44,0.7,0.4,0.6*33
$GPGSA,A,3,60,,,,,,,,,,,,0.7,0.4,0.6*31
$GPGST,031537.00,1.462,0.411,0.324,353.191,0.410,0.325,0.643*58
$GPGBS,031537.00,2.862,2.151,3.526,19,0.0001,0.827,0.906*5C
$GPGRS,031537.00,1,0.1,-0.2,-0.1,-0.5,-0.1,0.4,-1.0,0.8,0.7,0.5,,*69
$GPGRS,031537.00,1,-2.9,-1.9,1.9,1.2,-1.5,4.5,-2.1,-3.3,,,,*6E
$GPGRS,031537.00,1,-0.2,0.1,-0.4,0.1,-1.6,0.9,-0.3,0.1,,,,*47
$GPGRS,031537.00,1,1.5,0.6,0.6,0.5,-0.7,0.4,0.1,-0.7,-0.2,-0.6,-0.5,0.2*67
$GPGRS,031537.00,1,-1.4,,,,,,,,,,,*4B
$GPGSV,6,1,22,04,77,052,49,11,17,318,41,26,11,066,39,07,20,182,42*7F
$GPGSV,6,2,22,19,17,254,42,31,19,043,41,03,45,102,47,06,50,295,47*72
$GPGSV,6,3,22,09,70,251,51,17,07,230,39,02,03,163,,16,02,094,*77
$GPGSV,6,4,22,01,08,157,,36,35,170,44,58,13,245,38,40,24,132,36*74
$GPGSV,6,5,22,34,31,208,43,49,34,195,45,57,08,110,39,41,07,108,35*79
$GPGSV,6,6,22,61,03,257,38*46
$GLGSV,3,1,10,70,63,028,42,80,27,097,48,87,23,331,44,79,23,039,47*6E
$GLGSV,3,2,10,85,31,202,49,71,49,285,51,86,53,279,52,73,04,146,*67
$GLGSV,3,3,10,69,06,069,42,72,05,262,*62
$GAGSV,4,1,13,09,72,056,48,11,14,159,36,18,12,250,,04,21,058,40*62
$GAGSV,4,2,13,34,51,298,47,36,58,191,48,06,46,059,46,05,51,239,47*62
$GAGSV,4,3,13,21,01,009,33,23,08,056,,31,02,102,,03,01,239,*65
$GAGSV,4,4,13,15,06,324,37*59
$GBGSV,5,1,20,19,78,334,51,37,26,064,45,12,16,324,,39,18,039,40*65
$GBGSV,5,2,20,58,20,115,,16,27,044,42,05,23,128,39,06,29,047,41*6E
$GBGSV,5,3,20,46,26,125,,21,29,264,,44,28,301,44,35,35,246,47*6C
$GBGSV,5,4,20,22,29,273,46,09,40,058,43,20,41,076,49,48,63,067,*63
$GBGSV,5,5,20,36,01,168,,29,07,192,40,02,07,106,35,60,08,110,40*6E
$GPGGA,031537.00,,,,,0,00,,,M,,M,,*4B
$PTNL,GGK,031537.00,010125,4742.1602165,N,01618.1003341,E,1,39,0.7,EHT751.2323,M*4F
$GPGGQ,031537.00,010125,4742.1602165,N,01618.1003341,E,1,39,0.830,708.0258,M*3E
$GPGFA,031537.00,3.910,5.276,0.411,0.324,353.191,0.643,,VVV*01
$GPLLK,031537.00,010125,,M,,M,1,39,0.8,,M*0A
$GNGMP,031537.00,,,,,DAAA,39,0.4,,,,*5B
$GPGMP,031537.00,,,,,,10,,,,3.0,136*78
$GLGMP,031537.00,,,,,,08,,,,,*74
$GAGMP,031537.00,,,,,,08,,,,,*79
$GBGMP,031537.00,,,,,,13,,,,,*70
$PSSN,SNC,[0,270955000,2347]*48
$GPZDA,031542.00,01,01,2025,,*62
$GPDTM,W84,,00.0000000,N,00.0000000,E,00.0000000,W84*5F
$PSSN,TFM,031542.00,,,,*6E
$GPRMC,031542.00,A,4742.1602146,N,01618.1003347,E,0.0,,010125,5.1,E,D*13
$GPGLL,4742.1602146,N,01618.1003347,E,031542.00,A,D*62
$GPGGA,031542.00,4742.1602146,N,01618.1003347,E,2,39,0.4,708.0313,M,43.2066,M,1.6,0136*49
$GNGNS,031542.00,4742.1602146,N,01618.1003347,E,DAAA,39,0.4,708.0313,43.2066,,*56
$GPGNS,031542.00,,,,,,10,,,,1.6,136*7E
$GLGNS,031542.00,,,,,,08,,,,,*76
$GAGNS,031542.00,,,,,,08,,,,,*7B
$GBGNS,031542.00,,,,,,13,,,,,*72
$GPLLQ,031542.00,010125,,M,,M,1,39,0.798,,M*1C
$GPVTG,,T,,M,0.00,N,0.01,K,D*27
$GPHDT,,T*1B
$GPTHS,,V*0E
$GPROT,,V*08
$PSSN,HRP,031542.00,010125,,,,,,,00,0,,*60
$PTNL,AVR,031542.00,,Yaw,,Tilt,,,,0,,00*36
$GPGSA,A,3,03,04,06,07,09,11,17,19,26,31,,,0.7,0.4,0.6*30
$GPGSA,A,3,69,70,71,79,80,85,86,87,,,,,0.7,0.4,0.6*33
$GPGSA,A,3,04,05,06,09,11,15,34,36,,,,,0.7,0.4,0.6*3F
$GPGSA,A,3,05,06,09,16,19,20,22,29,35,37,39,44,0.7,0.4,0.6*33
$GPGSA,A,3,60,,,,,,,,,,,,0.7,0.4,0.6*31
$GPGST,031542.00,1.428,0.406,0.317,351.877,0.404,0.319,0.610*5D
$GPGBS,031542.00,2.767,2.095,3.225,85,0.0001,4.616,6.102*5E
$GPGRS,031542.00,1,0.1,-0.3,-0.2,-0.2,0.2,0.2,-0.2,0.3,0.4,-0.1,,*64
$GPGRS,031542.00,1,-3.1,-1.1,1.4,2.0,-0.0,4.6,-1.5,-3.5,,,,*67
$GPGRS,031542.00,1,-0.6,0.3,-0.1,0.3,-1.2,0.7,-0.0,0.4,,,,*48
$GPGRS,031542.00,1,2.1,1.0,0.7,0.3,-0.5,0.5,0.4,-0.2,-0.4,-0.7,-0.1,0.2*62
$GPGRS,031542.00,1,-1.3,,,,,,,,,,,*4E
$GPGSV,6,1,22,04,77,052,49,11,17,318,41,26,11,066,39,07,20,182,42*7F
$GPGSV,6,2,22,19,17,254,42,31,19,043,41,03,45,102,47,06,50,295,47*72
$GPGSV,6,3,22,09,70,251,50,17,07,230,38,02,03,163,,16,02,094,33*77
$GPGSV,6,4,22,01,08,157,,36,35,170,44,58,13,245,38,40,24,132,36*74
$GPGSV,6,5,22,34,31,208,43,49,34,195,44,57,08,110,38,41,07,108,35*79
$GPGSV,6,6,22,61,03,257,38*46
$GLGSV,3,1,10,70,63,028,42,80,27,097,49,87,23,330,45,79,23,039,46*6E
$GLGSV,3,2,10,85,31,202,49,71,49,285,51,86,53,279,52,73,04,146,*67
$GLGSV,3,3,10,69,06,069,41,72,05,262,*61
$GAGSV,4,1,13,09,72,056,48,11,14,159,35,18,12,250,,04,21,058,40*61
$GAGSV,4,2,13,34,51,298,47,36,58,191,48,06,46,059,46,05,51,239,47*62
$GAGSV,4,3,13,21,01,009,33,23,08,056,,31,02,102,,03,01,239,*65
$GAGSV,4,4,13,15,06,324,37*59
$GBGSV,5,1,20,19,78,334,51,37,26,064,45,12,16,324,,39,18,039,41*64
$GBGSV,5,2,20,58,20,115,,16,27,044,42,05,23,128,39,06,29,047,41*6E
$GBGSV,5,3,20,46,26,125,,21,29,264,,44,28,301,44,35,35,246,47*6C
$GBGSV,5,4,20,22,29,273,46,09,40,058,43,20,41,076,49,48,63,067,*63
$GBGSV,5,5,20,36,01,168,,29,07,192,40,02,07,106,35,60,08,110,40*6E
$GPGGA,031542.00,,,,,0,00,,,M,,M,,*49
$PTNL,GGK,031542.00,010125,4742.1602146,N,01618.1003347,E,1,39,0.7,EHT751.2379,M*45
$GPGGQ,031542.00,010125,4742.1602146,N,01618.1003347,E,1,39,0.798,708.0313,M*38
$GPGFA,031542.00,3.857,5.003,0.406,0.317,351.877,0.610,,VVV*02
$GPLLK,031542.00,010125,,M,,M,1,39,0.8,,M*08
$GNGMP,031542.00,,,,,DAAA,39,0.4,,,,*59
$GPGMP,031542.00,,,,,,10,,,,1.6,136*7E
$GLGMP,031542.00,,,,,,08,,,,,*76
$GAGMP,031542.00,,,,,,08,,,,,*7B
$GBGMP,031542.00,,,,,,13,,,,,*72
$PSSN,SNC,[0,270960000,2347]*4E
$GPZDA,031547.00,01,01,2025,,*67
$GPDTM,W84,,00.0000000,N,00.0000000,E,00.0000000,W84*5F
$PSSN,TFM,031547.00,,,,*6B
$GPRMC,031547.00,A,4742.1602146,N,01618.1003319,E,0.0,,010125,5.1,E,D*1D
$GPGLL,4742.1602146,N,01618.1003319,E,031547.00,A,D*6C
$GPGGA,031547.00,4742.1602146,N,01618.1003319,E,2,39,0.4,708.0338,M,43.2066,M,2.2,0136*49
$GNGNS,031547.00,4742.1602146,N,01618.1003319,E,DAAA,39,0.4,708.0338,43.2066,,*51
$GPGNS,031547.00,,,,,,10,,,,2.2,136*7C
$GLGNS,031547.00,,,,,,08,,,,,*73
$GAGNS,031547.00,,,,,,08,,,,,*7E
$GBGNS,031547.00,,,,,,13,,,,,*77
$GPLLQ,031547.00,010125,,M,,M,1,39,0.777,,M*18
$GPVTG,,T,,M,0.00,N,0.01,K,D*27
$GPHDT,,T*1B
$GPTHS,,V*0E
$GPROT,,V*08
$PSSN,HRP,031547.00,010125,,,,,,,00,0,,*65
$PTNL,AVR,031547.00,,Yaw,,Tilt,,,,0,,00*33
$GPGSA,A,3,03,04,06,07,09,11,17,19,26,31,,,0.7,0.4,0.6*30
$GPGSA,A,3,69,70,71,79,80,85,86,87,,,,,0.7,0.4,0.6*33
$GPGSA,A,3,04,05,06,09,11,15,34,36,,,,,0.7,0.4,0.6*3F
$GPGSA,A,3,05,06,09,16,19,20,22,29,35,37,39,44,0.7,0.4,0.6*33
$GPGSA,A,3,60,,,,,,,,,,,,0.7,0.4,0.6*31
$GPGST,031547.00,1.283,0.399,0.311,352.699,0.398,0.312,0.590*57
$GPGBS,031547.00,2.788,2.094,3.239,85,0.0001,4.182,6.102*5C
$GPGRS,031547.00,1,0.2,-0.1,-0.3,0.1,0.1,0.1,-0.5,0.0,0.5,0.0,,*66
$GPGRS,031547.00,1,-2.5,-0.7,1.4,1.6,-0.2,4.2,-1.6,-2.5,,,,*61
$GPGRS,031547.00,1,-0.8,0.5,-0.0,0.3,-0.9,0.7,-0.3,0.7,,,,*4E
$GPGRS,031547.00,1,2.4,1.3,0.8,0.5,-0.6,0.5,0.6,-0.4,-0.2,-0.6,-0.2,0.4*6D
$GPGRS,031547.00,1,-1.3,,,,,,,,,,,*4B
$GPGSV,6,1,22,04,77,052,49,11,17,318,41,26,11,066,39,07,20,182,43*7E
$GPGSV,6,2,22,19,17,254,42,31,19,043,42,03,45,102,47,06,50,295,47*71
$GPGSV,6,3,22,09,70,251,51,17,07,230,39,02,03,163,,16,02,094,33*77
$GPGSV,6,4,22,01,08,157,,36,35,170,44,58,13,245,37,40,24,132,36*7B
$GPGSV,6,5,22,34,31,208,43,49,34,195,44,57,08,110,38,41,07,108,34*78
$GPGSV,6,6,22,61,03,257,37*49
$GLGSV,3,1,10,70,63,029,42,80,27,097,49,87,23,330,45,79,23,039,45*6C
$GLGSV,3,2,10,85,31,202,49,71,49,285,52,86,53,279,52,73,04,146,*64
$GLGSV,3,3,10,69,06,069,41,72,06,262,*62
$GAGSV,4,1,13,09,72,056,49,11,14,159,35,18,12,250,,04,21,058,40*60
$GAGSV,4,2,13,34,51,298,47,36,58,191,48,06,46,059,46,05,51,239,47*62
$GAGSV,4,3,13,21,01,009,32,23,08,056,,31,02,102,,03,01,239,*64
$GAGSV,4,4,13,15,06,324,37*59
$GBGSV,5,1,20,19,78,334,51,37,26,064,44,12,16,324,,39,18,039,40*64
$GBGSV,5,2,20,58,20,115,,16,27,044,42,05,23,128,39,06,29,047,41*6E
$GBGSV,5,3,20,46,26,125,,21,29,264,,44,28,301,45,35,35,245,47*6E
$GBGSV,5,4,20,22,29,274,46,09,40,058,43,20,41,076,49,48,63,067,*64
$GBGSV,5,5,20,36,02,168,,29,07,192,40,02,07,106,35,60,08,110,40*6D
$GPGGA,031547.00,,,,,0,00,,,M,,M,,*4C
$PTNL,GGK,031547.00,010125,4742.1602146,N,01618.1003319,E,1,39,0.7,EHT751.2404,M*46
$GPGGQ,031547.00,010125,4742.1602146,N,01618.1003319,E,1,39,0.777,708.0338,M*3E
$GPGFA,031547.00,3.794,4.840,0.399,0.311,352.699,0.590,,VVV*08
$GPLLK,031547.00,010125,,M,,M,1,39,0.8,,M*0D
$GNGMP,031547.00,,,,,DAAA,39,0.4,,,,*5C
$GPGMP,031547.00,,,,,,10,,,,2.2,136*7C
$GLGMP,031547.00,,,,,,08,,,,,*73
$GAGMP,031547.00,,,,,,08,,,,,*7E
$GBGMP,031547.00,,,,,,13,,,,,*77
$PSSN,SNC,[0,270965000,2347]*4B
$GPZDA,031552.00,01,01,2025,,*63
$GPDTM,W84,,00.0000000,N,00.0000000,E,00.0000000,W84*5F
$PSSN,TFM,031552.00,,,,*6F
$GPRMC,031552.00,A,4742.1602175,N,01618.1003298,E,0.0,,010125,5.1,E,D*11
$GPGLL,4742.1602175,N,01618.1003298,E,031552.00,A,D*60
$GPGGA,031552.00,4742.1602175,N,01618.1003298,E,2,39,0.4,708.0392,M,43.2066,M,3.2,0136*44
$GNGNS,031552.00,4742.1602175,N,01618.1003298,E,DAAA,39,0.4,708.0392,43.2066,,*5D
$GPGNS,031552.00,,,,,,10,,,,3.2,136*79
$GLGNS,031552.00,,,,,,08,,,,,*77
$GAGNS,031552.00,,,,,,08,,,,,*7A
$GBGNS,031552.00,,,,,,13,,,,,*73
$GPLLQ,031552.00,010125,,M,,M,1,39,0.786,,M*12
$GPVTG,,T,,M,0.00,N,0.00,K,D*26
$GPHDT,,T*1B
$GPTHS,,V*0E
$GPROT,,V*08
$PSSN,HRP,031552.00,010125,,,,,,,00,0,,*61
$PTNL,AVR,031552.00,,Yaw,,Tilt,,,,0,,00*37
$GPGSA,A,3,03,04,06,07,09,11,17,19,26,31,,,0.7,0.4,0.6*30
$GPGSA,A,3,69,70,71,79,80,85,86,87,,,,,0.7,0.4,0.6*33
$GPGSA,A,3,04,05,06,09,11,15,34,36,,,,,0.7,0.4,0.6*3F
$GPGSA,A,3,05,06,09,16,19,20,22,29,35,37,39,44,0.7,0.4,0.6*33
$GPGSA,A,3,60,,,,,,,,,,,,0.7,0.4,0.6*31
$GPGST,031552.00,1.235,0.402,0.315,351.579,0.401,0.317,0.598*5B
$GPGBS,031552.00,2.824,2.113,3.291,85,0.0001,4.136,6.102*52
$GPGRS,031552.00,1,-0.0,-0.1,-0.2,0.4,0.1,-0.2,-0.1,0.2,0.5,-0.1,,*4D
$GPGRS,031552.00,1,-2.4,-0.8,1.1,1.2,-0.6,4.1,-1.9,-2.5,,,,*62
$GPGRS,031552.00,1,-0.7,0.5,0.1,0.3,-0.7,1.1,-0.3,0.7,,,,*60
$GPGRS,031552.00,1,2.1,0.8,0.5,0.5,-0.5,0.6,0.2,-0.4,0.0,-0.0,-0.6,0.1*47
$GPGRS,031552.00,1,-1.5,,,,,,,,,,,*49
$GPGSV,6,1,22,04,77,052,49,11,18,318,40,26,11,066,39,07,20,182,43*70
$GPGSV,6,2,22,19,17,254,42,31,19,042,42,03,45,102,47,06,50,295,48*7F
$GPGSV,6,3,22,09,70,251,51,17,07,230,40,02,03,163,,16,02,094,33*79
$GPGSV,6,4,22,01,08,157,,36,35,170,45,58,13,245,37,40,24,132,36*7A
$GPGSV,6,5,22,34,31,208,43,49,34,195,44,57,08,110,39,41,07,108,34*79
$GPGSV,6,6,22,61,03,257,37*49
$GLGSV,3,1,10,70,62,029,42,80,27,097,48,87,23,330,45,79,23,039,46*6F
$GLGSV,3,2,10,85,31,202,49,71,49,285,51,86,53,278,52,73,04,146,*66
$GLGSV,3,3,10,69,06,069,41,72,06,262,*62
$GAGSV,4,1,13,09,72,056,48,11,14,159,35,18,12,250,,04,21,058,40*61
$GAGSV,4,2,13,34,51,298,47,36,57,191,48,06,46,059,46,05,51,239,47*6D
$GAGSV,4,3,13,21,01,009,32,23,08,056,,31,02,102,,03,01,239,*64
$GAGSV,4,4,13,15,06,324,37*59
$GBGSV,5,1,20,19,78,335,51,37,26,064,45,12,16,323,,39,18,039,40*63
$GBGSV,5,2,20,58,20,115,,16,27,044,42,05,23,128,39,06,29,047,40*6F
$GBGSV,5,3,20,46,26,125,,21,29,264,,44,28,301,44,35,35,245,47*6F
$GBGSV,5,4,20,22,29,274,46,09,40,058,43,20,41,076,49,48,63,067,*64
$GBGSV,5,5,20,36,02,168,,29,07,192,40,02,07,106,35,60,08,110,40*6D
$GPGGA,031552.00,,,,,0,00,,,M,,M,,*48
$PTNL,GGK,031552.00,010125,4742.1602175,N,01618.1003298,E,1,39,0.7,EHT751.2457,M*4C
$GPGGQ,031552.00,010125,4742.1602175,N,01618.1003298,E,1,39,0.786,708.0392,M*3C
$GPGFA,031552.00,3.825,4.905,0.402,0.315,351.579,0.598,,VVV*0E
$GPLLK,031552.00,010125,,M,,M,1,39,0.8,,M*09
$GNGMP,031552.00,,,,,DAAA,39,0.4,,,,*58
$GPGMP,031552.00,,,,,,10,,,,3.2,136*79
$GLGMP,031552.00,,,,,,08,,,,,*77
$GAGMP,031552.00,,,,,,08,,,,,*7A
$GBGMP,031552.00,,,,,,13,,,,,*73
$PSSN,SNC,[0,270970000,2347]*4F
$GPZDA,031557.00,01,01,2025,,*66
$GPDTM,W84,,00.0000000,N,00.0000000,E,00.0000000,W84*5F
$PSSN,TFM,031557.00,,,,*6A
$GPRMC,031557.00,A,4742.1602198,N,01618.1003314,E,0.0,,010125,5.1,E,D*12
$GPGLL,4742.1602198,N,01618.1003314,E,031557.00,A,D*63
$GPGGA,031557.00,4742.1602198,N,01618.1003314,E,2,39,0.4,708.0359,M,43.2066,M,3.0,0136*42
$GNGNS,031557.00,4742.1602198,N,01618.1003314,E,DAAA,39,0.4,708.0359,43.2066,,*59
$GPGNS,031557.00,,,,,,10,,,,3.0,136*7E
$GLGNS,031557.00,,,,,,08,,,,,*72
$GAGNS,031557.00,,,,,,08,,,,,*7F
$GBGNS,031557.00,,,,,,13,,,,,*76
$GPLLQ,031557.00,010125,,M,,M,1,39,0.797,,M*17
$GPVTG,,T,,M,0.00,N,0.00,K,D*26
$GPHDT,,T*1B
$GPTHS,,V*0E
$GPROT,,V*08
$PSSN,HRP,031557.00,010125,,,,,,,00,0,,*64
$PTNL,AVR,031557.00,,Yaw,,Tilt,,,,0,,00*32
$GPGSA,A,3,03,04,06,07,09,11,17,19,26,31,,,0.7,0.4,0.6*30
$GPGSA,A,3,69,70,71,79,80,85,86,87,,,,,0.7,0.4,0.6*33
$GPGSA,A,3,04,05,06,09,11,15,34,36,,,,,0.7,0.4,0.6*3F
$GPGSA,A,3,05,06,09,16,19,20,22,29,35,37,39,44,0.7,0.4,0.6*33
$GPGSA,A,3,60,,,,,,,,,,,,0.7,0.4,0.6*31
$GPGST,031557.00,1.331,0.407,0.318,350.553,0.405,0.321,0.606*5F
$GPGBS,031557.00,2.833,2.110,3.356,85,0.0001,4.563,6.102*5C
$GPGRS,031557.00,1,0.2,-0.2,-0.3,0.3,0.1,0.4,-0.7,0.5,0.2,-0.7,,*49
$GPGRS,031557.00,1,-3.0,-0.5,1.8,1.7,-0.7,4.6,-1.9,-1.9,,,,*6A
$GPGRS,031557.00,1,-0.9,0.1,0.0,0.1,-0.9,0.8,-0.4,0.5,,,,*6F
$GPGRS,031557.00,1,2.0,0.4,0.4,0.5,-0.3,0.4,0.2,-0.6,0.0,-0.1,-0.7,-0.2*66
$GPGRS,031557.00,1,-1.7,,,,,,,,,,,*4E
$GPGSV,6,1,22,04,77,052,49,11,18,318,41,26,11,066,38,07,20,182,43*70
$GPGSV,6,2,22,19,17,254,42,31,19,042,42,03,45,102,47,06,50,295,47*70
$GPGSV,6,3,22,09,70,251,51,17,07,230,40,02,03,163,,16,02,094,34*7E
$GPGSV,6,4,22,01,08,157,,36,35,170,45,58,13,245,37,40,24,132,36*7A
$GPGSV,6,5,22,34,31,208,43,49,34,195,45,57,08,110,39,41,07,108,34*78
$GPGSV,6,6,22,61,03,257,37*49
$GLGSV,3,1,10,70,62,029,43,80,27,097,47,87,23,330,46,79,23,039,46*62
$GLGSV,3,2,10,85,31,202,49,71,49,285,51,86,53,278,52,73,04,146,*66
$GLGSV,3,3,10,69,06,069,42,72,06,262,*61
$GAGSV,4,1,13,09,72,056,49,11,14,159,36,18,11,250,,04,21,058,40*60
$GAGSV,4,2,13,34,51,298,47,36,57,191,48,06,46,059,46,05,51,239,47*6D
$GAGSV,4,3,13,21,01,009,32,23,08,056,,31,02,102,,03,01,239,*64
$GAGSV,4,4,13,15,06,324,37*59
$GBGSV,5,1,20,19,78,335,51,37,26,064,44,12,16,323,,39,18,039,40*62
$GBGSV,5,2,20,58,20,115,,16,27,044,42,05,23,128,39,06,29,047,40*6F
$GBGSV,5,3,20,46,26,125,,21,29,264,,44,28,301,44,35,35,245,47*6F
$GBGSV,5,4,20,22,29,274,47,09,40,058,43,20,41,076,48,48,63,067,*64
$GBGSV,5,5,20,36,02,168,,29,07,192,41,02,07,106,35,60,08,110,40*6C
$GPGGA,031557.00,,,,,0,00,,,M,,M,,*4D
$PTNL,GGK,031557.00,010125,4742.1602198,N,01618.1003314,E,1,39,0.7,EHT751.2424,M*4B
$GPGGQ,031557.00,010125,4742.1602198,N,01618.1003314,E,1,39,0.797,708.0359,M*38
$GPGFA,031557.00,3.873,4.973,0.407,0.318,350.553,0.606,,VVV*0C
$GPLLK,031557.00,010125,,M,,M,1,39,0.8,,M*0C
$GNGMP,031557.00,,,,,DAAA,39,0.4,,,,*5D
$GPGMP,031557.00,,,,,,10,,,,3.0,136*7E
$GLGMP,031557.00,,,,,,08,,,,,*72
$GAGMP,031557.00,,,,,,08,,,,,*7F
$GBGMP,031557.00,,,,,,13,,,,,*76
$PSSN,SNC,[0,270975000,2347]*4A
$GPZDA,031602.00,01,01,2025,,*65
$GPDTM,W84,,00.0000000,N,00.0000000,E,00.0000000,W84*5F
$PSSN,TFM,031602.00,,,,*69
$GPRMC,031602.00,A,4742.1602211,N,01618.1003289,E,0.0,,010125,5.1,E,D*16
$GPGLL,4742.1602211,N,01618.1003289,E,031602.00,A,D*67
$GPGGA,031602.00,4742.1602211,N,01618.1003289,E,2,39,0.4,708.0399,M,43.2066,M,1.6,0136*4E
$GNGNS,031602.00,4742.1602211,N,01618.1003289,E,DAAA,39,0.4,708.0399,43.2066,,*51
$GPGNS,031602.00,,,,,,10,,,,1.6,136*79
$GLGNS,031602.00,,,,,,08,,,,,*71
$GAGNS,031602.00,,,,,,08,,,,,*7C
$GBGNS,031602.00,,,,,,13,,,,,*75
$GPLLQ,031602.00,010125,,M,,M,1,39,0.790,,M*13
$GPVTG,,T,,M,0.00,N,0.00,K,D*26
$GPHDT,,T*1B
$GPTHS,,V*0E
$GPROT,,V*08
$PSSN,HRP,031602.00,010125,,,,,,,00,0,,*67
$PTNL,AVR,031602.00,,Yaw,,Tilt,,,,0,,00*31
$GPGSA,A,3,03,04,06,07,09,11,17,19,26,31,,,0.7,0.4,0.6*30
$GPGSA,A,3,69,70,71,79,80,85,86,87,,,,,0.7,0.4,0.6*33
$GPGSA,A,3,04,05,06,09,11,15,34,36,,,,,0.7,0.4,0.6*3F
$GPGSA,A,3,05,06,09,16,19,20,22,29,35,37,39,44,0.7,0.4,0.6*33
$GPGSA,A,3,60,,,,,,,,,,,,0.7,0.4,0.6*31
$GPGST,031602.00,1.298,0.405,0.316,351.399,0.403,0.318,0.601*58
$GPGBS,031602.00,2.767,2.095,3.229,17,0.0001,-1.112,1.219*7B
$GPGRS,031602.00,1,0.4,-0.1,-0.6,-0.0,0.2,0.4,-1.1,0.3,0.9,0.0,,*47
$GPGRS,031602.00,1,-2.1,-0.6,1.7,1.2,-0.4,4.7,-1.6,-2.6,,,,*61
$GPGRS,031602.00,1,-0.4,0.3,0.0,0.2,-0.9,1.4,-0.2,0.5,,,,*6B
$GPGRS,031602.00,1,1.8,0.4,0.2,0.6,-0.5,0.4,-0.1,-0.5,0.1,0.0,-0.7,0.2*40
$GPGRS,031602.00,1,-1.3,,,,,,,,,,,*49
$GPGSV,6,1,22,04,77,052,49,11,18,318,41,26,11,066,38,07,20,182,43*70
$GPGSV,6,2,22,19,17,254,41,31,19,042,42,03,45,102,47,06,50,294,48*7D
$GPGSV,6,3,22,09,70,251,50,17,07,230,39,02,03,163,,16,02,094,35*70
$GPGSV,6,4,22,01,08,157,,36,35,170,45,58,13,245,38,40,24,132,36*75
$GPGSV,6,5,22,34,31,208,43,49,34,195,45,57,08,110,39,41,07,108,35*79
$GPGSV,6,6,22,61,03,257,37*49
$GLGSV,3,1,10,70,62,029,42,80,27,097,48,87,24,330,44,79,23,039,46*69
$GLGSV,3,2,10,85,30,202,49,71,49,285,52,86,53,278,52,73,04,146,*64
$GLGSV,3,3,10,69,06,069,42,72,06,262,*61
$GAGSV,4,1,13,09,72,056,48,11,14,159,36,18,11,250,,04,21,058,40*61
$GAGSV,4,2,13,34,51,298,47,36,57,191,48,06,46,059,46,05,51,239,47*6D
$GAGSV,4,3,13,21,01,009,32,23,08,056,,31,02,102,,03,01,239,*64
$GAGSV,4,4,13,15,06,324,37*59
$GBGSV,5,1,20,19,78,335,51,37,26,064,44,12,16,323,,39,18,039,40*62
$GBGSV,5,2,20,58,20,115,,16,27,044,42,05,23,128,39,06,29,047,40*6F
$GBGSV,5,3,20,46,26,125,,21,29,264,,44,28,301,45,35,35,245,47*6E
$GBGSV,5,4,20,22,29,274,47,09,40,058,43,20,41,076,49,48,63,067,*65
$GBGSV,5,5,20,36,02,168,,29,07,192,41,02,07,106,35,60,08,110,40*6C
$GPGGA,031602.00,,,,,0,00,,,M,,M,,*4E
$PTNL,GGK,031602.00,010125,4742.1602211,N,01618.1003289,E,1,39,0.7,EHT751.2464,M*4B
$GPGGQ,031602.00,010125,4742.1602211,N,01618.1003289,E,1,39,0.790,708.0399,M*37
$GPGFA,031602.00,3.849,4.926,0.405,0.316,351.399,0.601,,VVV*0C
$GPLLK,031602.00,010125,,M,,M,1,39,0.8,,M*0F
$GNGMP,031602.00,,,,,DAAA,39,0.4,,,,*5E
$GPGMP,031602.00,,,,,,10,,,,1.6,136*79
$GLGMP,031602.00,,,,,,08,,,,,*71
$GAGMP,031602.00,,,,,,08,,,,,*7C
$GBGMP,031602.00,,,,,,13,,,,,*75
$PSSN,SNC,[0,270980000,2347]*40
$GPZDA,031607.00,01,01,2025,,*60
$GPDTM,W84,,00.0000000,N,00.0000000,E,00.0000000,W84*5F
$PSSN,TFM,031607.00,,,,*6C
$GPRMC,031607.00,A,4742.1602204,N,01618.1003256,E,0.0,,010125,5.1,E,D*15
$GPGLL,4742.1602204,N,01618.1003256,E,031607.00,A,D*64
$GPGGA,031607.00,4742.1602204,N,01618.1003256,E,2,39,0.4,708.0388,M,43.2066,M,2.2,0136*4A
$GNGNS,031607.00,4742.1602204,N,01618.1003256,E,DAAA,39,0.4,708.0388,43.2066,,*52
$GPGNS,031607.00,,,,,,10,,,,2.2,136*7B
$GLGNS,031607.00,,,,,,08,,,,,*74
$GAGNS,031607.00,,,,,,08,,,,,*79
$GBGNS,031607.00,,,,,,13,,,,,*70
$GPLLQ,031607.00,010125,,M,,M,1,39,0.776,,M*1E
$GPVTG,,T,,M,0.00,N,0.00,K,D*26
$GPHDT,,T*1B
$GPTHS,,V*0E
$GPROT,,V*08
$PSSN,HRP,031607.00,010125,,,,,,,00,0,,*62
$PTNL,AVR,031607.00,,Yaw,,Tilt,,,,0,,00*34
$GPGSA,A,3,03,04,06,07,09,11,17,19,26,31,,,0.7,0.4,0.6*30
$GPGSA,A,3,69,70,71,79,80,85,86,87,,,,,0.7,0.4,0.6*33
$GPGSA,A,3,04,05,06,09,11,15,34,36,,,,,0.7,0.4,0.6*3F
$GPGSA,A,3,05,06,09,16,19,20,22,29,35,37,39,44,0.7,0.4,0.6*33
$GPGSA,A,3,60,,,,,,,,,,,,0.7,0.4,0.6*31
$GPGST,031607.00,1.319,0.398,0.311,352.900,0.397,0.312,0.590*53
$GPGBS,031607.00,2.789,2.094,3.245,85,0.0001,3.870,6.103*53
$GPGRS,031607.00,1,0.2,-0.1,-0.3,0.0,0.1,0.6,-0.7,0.1,0.5,-0.4,,*4D
$GPGRS,031607.00,1,-1.9,-0.8,1.7,1.6,-0.5,3.9,-1.7,-3.7,,,,*6C
$GPGRS,031607.00,1,-0.6,0.2,0.3,0.4,-0.9,1.6,0.1,0.5,,,,*44
$GPGRS,031607.00,1,2.1,0.6,0.5,0.5,-0.4,0.7,-0.2,-0.5,-0.1,0.2,-0.8,0.3*69
$GPGRS,031607.00,1,-1.4,,,,,,,,,,,*4B
$GPGSV,6,1,22,04,77,052,49,11,18,318,41,26,11,066,38,07,20,182,44*77
$GPGSV,6,2,22,19,17,254,42,31,19,042,42,03,45,102,47,06,50,294,48*7E
$GPGSV,6,3,22,09,70,251,50,17,07,230,40,02,03,163,,16,02,094,35*7E
$GPGSV,6,4,22,01,08,157,,36,35,170,45,58,13,245,37,40,24,132,36*7A
$GPGSV,6,5,22,34,31,208,43,49,34,195,44,57,08,110,39,41,07,108,35*78
$GPGSV,6,6,22,61,03,257,38*46
$GLGSV,3,1,10,70,62,029,42,80,27,097,48,87,24,330,45,79,22,039,47*68
$GLGSV,3,2,10,85,30,202,49,71,49,285,52,86,53,278,52,73,04,146,*64
$GLGSV,3,3,10,69,06,069,42,72,06,262,*61
$GAGSV,4,1,13,09,72,056,49,11,14,159,36,18,11,250,,04,21,058,41*61
$GAGSV,4,2,13,34,51,298,47,36,57,191,48,06,46,059,46,05,51,239,47*6D
$GAGSV,4,3,13,21,01,009,32,23,08,056,,31,02,102,,03,01,239,*64
$GAGSV,4,4,13,15,06,324,38*56
$GBGSV,5,1,20,19,78,335,51,37,26,064,45,12,16,323,,39,18,039,40*63
$GBGSV,5,2,20,58,20,115,,16,27,044,42,05,23,128,39,06,29,047,40*6F
$GBGSV,5,3,20,46,26,125,,21,29,264,,44,28,301,45,35,35,245,47*6E
$GBGSV,5,4,20,22,29,274,46,09,40,058,43,20,41,076,49,48,62,067,*65
$GBGSV,5,5,20,36,02,168,,29,07,192,41,02,07,106,35,60,08,110,40*6C
$GPGGA,031607.00,,,,,0,00,,,M,,M,,*4B
$PTNL,GGK,031607.00,010125,4742.1602204,N,01618.1003256,E,1,39,0.7,EHT751.2454,M*4B
$GPGGQ,031607.00,010125,4742.1602204,N,01618.1003256,E,1,39,0.776,708.0388,M*3C
$GPGFA,031607.00,3.781,4.836,0.398,0.311,352.900,0.590,,VVV*04
$GPLLK,031607.00,010125,,M,,M,1,39,0.8,,M*0A
$GNGMP,031607.00,,,,,DAAA,39,0.4,,,,*5B
$GPGMP,031607.00,,,,,,10,,,,2.2,136*7B
$GLGMP,031607.00,,,,,,08,,,,,*74
$GAGMP,031607.00,,,,,,08,,,,,*79
$GBGMP,031607.00,,,,,,13,,,,,*70
$PSSN,SNC,[0,270985000,2347]*45
$GPZDA,031612.00,01,01,2025,,*64
$GPDTM,W84,,00.0000000,N,00.0000000,E,00.0000000,W84*5F
$PSSN,TFM,031612.00,,,,*68
$GPRMC,031612.00,A,4742.1602218,N,01618.1003240,E,0.0,,010125,5.1,E,D*1B
$GPGLL,4742.1602218,N,01618.1003240,E,031612.00,A,D*6A
$GPGGA,031612.00,4742.1602218,N,01618.1003240,E,2,39,0.4,708.0424,M,43.2066,M,3.2,0136*44
$GNGNS,031612.00,4742.1602218,N,01618.1003240,E,DAAA,39,0.4,708.0424,43.2066,,*5D
$GPGNS,031612.00,,,,,,10,,,,3.2,136*7E
$GLGNS,031612.00,,,,,,08,,,,,*70
$GAGNS,031612.00,,,,,,08,,,,,*7D
$GBGNS,031612.00,,,,,,13,,,,,*74
$GPLLQ,031612.00,010125,,M,,M,1,39,0.786,,M*15
$GPVTG,,T,,M,0.00,N,0.00,K,D*26
$GPHDT,,T*1B
$GPTHS,,V*0E
$GPROT,,V*08
$PSSN,HRP,031612.00,010125,,,,,,,00,0,,*66
$PTNL,AVR,031612.00,,Yaw,,Tilt,,,,0,,00*30
$GPGSA,A,3,03,04,06,07,09,11,17,19,26,31,,,0.7,0.4,0.6*30
$GPGSA,A,3,69,70,71,79,80,85,86,87,,,,,0.7,0.4,0.6*33
$GPGSA,A,3,04,05,06,09,11,15,34,36,,,,,0.7,0.4,0.6*3F
$GPGSA,A,3,05,06,09,16,19,20,22,29,35,37,39,44,0.7,0.4,0.6*33
$GPGSA,A,3,60,,,,,,,,,,,,0.7,0.4,0.6*31
$GPGST,031612.00,1.253,0.402,0.315,351.653,0.400,0.317,0.598*56
$GPGBS,031612.00,2.825,2.114,3.296,19,0.0001,0.609,0.946*50
$GPGRS,031612.00,1,0.4,-0.1,-0.4,-0.2,-0.1,0.6,-0.0,0.6,0.8,-0.5,,*46
$GPGRS,031612.00,1,-2.1,-1.0,2.2,1.2,-0.5,3.7,-1.9,-2.5,,,,*6B
$GPGRS,031612.00,1,-0.5,0.3,0.1,0.2,-0.9,1.1,-0.0,0.3,,,,*6B
$GPGRS,031612.00,1,2.3,0.1,0.3,0.8,-0.4,0.7,-0.3,-0.2,-0.4,0.4,-1.0,-0.1*40
$GPGRS,031612.00,1,-1.3,,,,,,,,,,,*48
$GPGSV,6,1,22,04,77,052,49,11,18,318,41,26,11,066,38,07,20,182,43*70
$GPGSV,6,2,22,19,17,254,41,31,19,042,42,03,45,102,47,06,50,294,48*7D
$GPGSV,6,3,22,09,70,251,50,17,07,230,40,02,03,163,,16,02,094,35*7E
$GPGSV,6,4,22,01,08,157,,36,35,170,45,58,13,245,38,40,24,132,36*75
$GPGSV,6,5,22,34,31,208,43,49,34,195,45,57,08,110,39,41,07,108,34*78
$GPGSV,6,6,22,61,03,257,38*46
$GLGSV,3,1,10,70,62,029,42,80,27,097,48,87,24,330,44,79,22,038,46*69
$GLGSV,3,2,10,85,30,202,49,71,49,285,52,86,53,278,52,73,05,146,*65
$GLGSV,3,3,10,69,06,069,42,72,06,262,*61
$GAGSV,4,1,13,09,72,056,49,11,14,159,36,18,11,250,,04,21,058,40*60
$GAGSV,4,2,13,34,51,298,47,36,57,191,48,06,46,059,46,05,51,239,47*6D
$GAGSV,4,3,13,21,01,009,33,23,08,056,,31,02,102,,03,01,239,*65
$GAGSV,4,4,13,15,06,324,37*59
$GBGSV,5,1,20,19,78,335,51,37,26,064,45,12,16,323,,39,18,039,40*63
$GBGSV,5,2,20,58,20,115,,16,27,044,42,05,23,128,39,06,29,047,41*6E
$GBGSV,5,3,20,46,26,125,,21,29,264,,44,28,301,45,35,35,245,47*6E
$GBGSV,5,4,20,22,29,274,46,09,40,058,43,20,41,076,49,48,62,067,*65
$GBGSV,5,5,20,36,02,168,,29,07,192,41,02,07,106,35,60,08,110,40*6C
$GPGGA,031612.00,,,,,0,00,,,M,,M,,*4F
$PTNL,GGK,031612.00,010125,4742.1602218,N,01618.1003240,E,1,39,0.7,EHT751.2490,M*4D
$GPGGQ,031612.00,010125,4742.1602218,N,01618.1003240,E,1,39,0.786,708.0424,M*3C
$GPGFA,031612.00,3.820,4.904,0.402,0.315,351.653,0.598,,VVV*06
$GPLLK,031612.00,010125,,M,,M,1,39,0.8,,M*0E
$GNGMP,031612.00,,,,,DAAA,39,0.4,,,,*5F
$GPGMP,031612.00,,,,,,10,,,,3.2,136*7E
$GLGMP,031612.00,,,,,,08,,,,,*70
$GAGMP,031612.00,,,,,,08,,,,,*7D
$GBGMP,031612.00,,,,,,13,,,,,*74
$PSSN,SNC,[0,270990000,2347]*41
$GPZDA,031617.00,01,01,2025,,*61
$GPDTM,W84,,00.0000000,N,00.0000000,E,00.0000000,W84*5F
$PSSN,TFM,031617.00,,,,*6D
$GPRMC,031617.00,A,4742.1602230,N,01618.1003217,E,0.0,,010125,5.1,E,D*16
$GPGLL,4742.1602230,N,01618.1003217,E,031617.00,A,D*67
$GPGGA,031617.00,4742.1602230,N,01618.1003217,E,2,39,0.4,708.0466,M,43.2066,M,3.0,0136*4D
$GNGNS,031617.00,4742.1602230,N,01618.1003217,E,DAAA,39,0.4,708.0466,43.2066,,*56
$GPGNS,031617.00,,,,,,10,,,,3.0,136*79
$GLGNS,031617.00,,,,,,08,,,,,*75
$GAGNS,031617.00,,,,,,08,,,,,*78
$GBGNS,031617.00,,,,,,13,,,,,*71
$GPLLQ,031617.00,010125,,M,,M,1,39,0.797,,M*10
$GPVTG,,T,,M,0.00,N,0.00,K,D*26
$GPHDT,,T*1B
$GPTHS,,V*0E
$GPROT,,V*08
$PSSN,HRP,031617.00,010125,,,,,,,00,0,,*63
$PTNL,AVR,031617.00,,Yaw,,Tilt,,,,0,,00*35
$GPGSA,A,3,03,04,06,07,09,11,17,19,26,31,,,0.7,0.4,0.6*30
$GPGSA,A,3,69,70,71,79,80,85,86,87,,,,,0.7,0.4,0.6*33
$GPGSA,A,3,04,05,06,09,11,15,34,36,,,,,0.7,0.4,0.6*3F
$GPGSA,A,3,05,06,09,16,19,20,22,29,35,37,39,44,0.7,0.4,0.6*33
$GPGSA,A,3,60,,,,,,,,,,,,0.7,0.4,0.6*31
$GPGST,031617.00,1.348,0.407,0.318,350.614,0.405,0.321,0.606*56
$GPGBS,031617.00,2.834,2.111,3.360,06,0.0001,-0.763,0.688*7B
$GPGRS,031617.00,1,0.4,-0.0,-0.8,-0.4,0.1,0.7,-0.3,0.4,0.3,-0.4,,*6F
$GPGRS,031617.00,1,-2.5,-0.6,1.9,1.1,-0.2,4.4,-1.9,-3.2,,,,*63
$GPGRS,031617.00,1,-0.7,0.6,-0.1,0.3,-1.2,0.8,-0.2,0.3,,,,*45
