$GPZDA,112942.00,01,01,2025,,*6E
$GPDTM,W84,,00.0000000,N,00.0000000,E,00.0000000,W84*5F
$PSSN,TFM,112942.00,,,,*62
$GPRMC,112942.00,A,4742.1600488,N,01618.1003032,E,0.0,,010125,5.1,E,D*1B
$GPGLL,4742.1600488,N,01618.1003032,E,112942.00,A,D*6A
$GPGGA,112942.00,4742.1600488,N,01618.1003032,E,2,39,0.4,708.0704,M,43.2066,M,2.7,0136*41
$GNGNS,112942.00,4742.1600488,N,01618.1003032,E,DAAA,39,0.4,708.0704,43.2066,,*5C
$GPGNS,112942.00,,,,,,11,,,,2.7,136*71
$GLGNS,112942.00,,,,,,09,,,,,*7B
$GAGNS,112942.00,,,,,,07,,,,,*78
$GBGNS,112942.00,,,,,,12,,,,,*7F
$GPLLQ,112942.00,010125,,M,,M,1,39,0.906,,M*19
$GPVTG,,T,,M,0.00,N,0.00,K,D*26
$GPHDT,,T*1B
$GPTHS,,V*0E
$GPROT,,V*08
$PSSN,HRP,112942.00,010125,,,,,,,00,0,,*6C
$PTNL,AVR,112942.00,,Yaw,,Tilt,,,,0,,00*3A
$GPGSA,A,3,10,12,13,14,15,17,19,23,24,25,32,,0.7,0.4,0.6*39
$GPGSA,A,3,66,67,68,76,77,78,85,86,87,,,,0.7,0.4,0.6*3A
$GPGSA,A,3,02,03,07,08,10,25,30,,,,,,0.7,0.4,0.6*3C
$GPGSA,A,3,05,07,10,14,24,26,33,35,40,42,45,60,0.7,0.4,0.6*30
$GPGST,112942.00,2.768,0.442,0.349,339.641,0.432,0.361,0.709*58
$GPGBS,112942.00,2.586,2.079,5.085,77,0.0001,-7.920,6.056*7A
$GPGRS,112942.00,1,0.1,0.1,-0.4,-4.4,0.7,0.2,-0.2,-1.2,0.1,-0.1,-0.6,*6B
$GPGRS,112942.00,1,-3.8,5.5,7.0,-2.0,-7.9,-4.1,4.7,1.7,-2.4,,,*46
$GPGRS,112942.00,1,0.0,-0.5,0.2,0.5,0.6,0.4,0.1,,,,,*41
$GPGRS,112942.00,1,0.4,2.0,0.9,1.9,0.2,-1.3,-0.0,-0.6,0.2,0.2,1.0,-1.4*46
$GPGSV,6,1,22,24,81,300,50,15,34,195,47,22,26,060,,13,17,161,41*7F
$GPGSV,6,2,22,10,14,301,41,17,32,052,45,19,50,089,47,12,48,245,48*70
$GPGSV,6,3,22,14,06,064,38,23,09,261,39,06,04,112,35,25,10,247,38*7B
$GPGSV,6,4,22,32,06,325,39,36,35,170,45,58,13,245,36,40,23,133,37*7F
$GPGSV,6,5,22,34,31,208,43,49,34,195,45,57,07,111,37,41,07,108,35*79
$GPGSV,6,6,22,61,03,257,38*46
$GLGSV,3,1,09,77,63,312,46,85,21,031,46,78,12,269,45,87,11,136,42*6A
$GLGSV,3,2,09,66,26,203,48,68,26,328,46,86,29,091,47,76,49,052,50*65
$GLGSV,3,3,09,67,50,269,52*52
$GAGSV,3,1,11,02,74,054,49,03,13,162,38,11,11,059,35,07,48,295,46*65
$GAGSV,3,2,11,25,21,060,40,08,55,199,48,30,48,243,47,10,09,032,38*61
$GAGSV,3,3,11,29,03,325,37,12,04,011,32,36,05,104,37*57
$GBGSV,5,1,20,26,68,069,51,44,15,158,,41,13,327,,07,21,051,40*61
$GBGSV,5,2,20,45,13,086,41,05,20,130,39,40,18,039,41,42,24,218,44*60
$GBGSV,5,3,20,35,35,112,46,10,33,058,41,33,35,279,46,14,34,246,45*6D
$GBGSV,5,4,20,56,38,061,,24,55,282,50,25,54,273,,23,02,262,*69
$GBGSV,5,5,20,50,09,197,,02,04,109,30,57,01,337,,60,07,111,40*67
$GPGGA,112942.00,,,,,0,00,,,M,,M,,*45
$PTNL,GGK,112942.00,010125,4742.1600488,N,01618.1003032,E,1,39,0.7,EHT751.2769,M*48
$GPGGQ,112942.00,010125,4742.1600488,N,01618.1003032,E,1,39,0.906,708.0704,M*3B
$GPGFA,112942.00,4.202,5.817,0.442,0.349,339.641,0.709,,VVV*09
$GPLLK,112942.00,010125,,M,,M,1,39,0.8,,M*04
$GNGMP,112942.00,,,,,DAAA,39,0.4,,,,*55
$GPGMP,112942.00,,,,,,11,,,,2.7,136*71
$GLGMP,112942.00,,,,,,09,,,,,*7B
$GAGMP,112942.00,,,,,,07,,,,,*78
$GBGMP,112942.00,,,,,,12,,,,,*7F
$PSSN,SNC,[0,300600000,2347]*41
$GPZDA,112947.00,01,01,2025,,*6B
$GPDTM,W84,,00.0000000,N,00.0000000,E,00.0000000,W84*5F
$PSSN,TFM,112947.00,,,,*67
$GPRMC,112947.00,A,4742.1600501,N,01618.1003010,E,0.0,,010125,5.1,E,D*1E
$GPGLL,4742.1600501,N,01618.1003010,E,112947.00,A,D*6F
$GPGGA,112947.00,4742.1600501,N,01618.1003010,E,2,40,0.4,708.0651,M,43.2066,M,3.4,0136*49
$GNGNS,112947.00,4742.1600501,N,01618.1003010,E,DAAA,40,0.4,708.0651,43.2066,,*56
$GPGNS,112947.00,,,,,,11,,,,3.4,136*76
$GLGNS,112947.00,,,,,,09,,,,,*7E
$GAGNS,112947.00,,,,,,08,,,,,*72
$GBGNS,112947.00,,,,,,12,,,,,*7A
$GPLLQ,112947.00,010125,,M,,M,1,40,0.892,,M*1E
$GPVTG,,T,,M,0.00,N,0.00,K,D*26
$GPHDT,,T*1B
$GPTHS,,V*0E
$GPROT,,V*08
$PSSN,HRP,112947.00,010125,,,,,,,00,0,,*69
$PTNL,AVR,112947.00,,Yaw,,Tilt,,,,0,,00*3F
$GPGSA,A,3,10,12,13,14,15,17,19,23,24,25,32,,0.7,0.4,0.6*39
$GPGSA,A,3,66,67,68,76,77,78,85,86,87,,,,0.7,0.4,0.6*3A
$GPGSA,A,3,02,03,07,08,10,11,25,30,,,,,0.7,0.4,0.6*3C
$GPGSA,A,3,05,07,10,14,24,26,33,35,40,42,45,60,0.7,0.4,0.6*30
$GPGST,112947.00,2.672,0.433,0.344,339.519,0.423,0.356,0.700*5F
$GPGBS,112947.00,2.591,2.082,5.128,77,0.0001,-8.138,6.056*75
$GPGRS,112947.00,1,0.1,-0.2,-0.1,-4.2,0.5,0.4,0.1,-1.1,-0.0,0.5,-0.7,*6E
$GPGRS,112947.00,1,-3.0,5.6,6.0,-2.0,-8.1,-4.0,5.0,0.9,-3.3,,,*40
$GPGRS,112947.00,1,-0.1,-0.8,-0.2,0.3,0.3,-0.6,0.2,0.1,,,,*48
$GPGRS,112947.00,1,0.1,1.4,0.7,2.4,-0.0,-1.7,-0.0,-0.9,-0.0,0.1,0.8,-1.3*47
$GPGSV,6,1,22,24,81,300,51,15,34,195,46,22,26,060,,13,17,161,41*7F
$GPGSV,6,2,22,10,14,301,41,17,32,052,45,19,50,089,47,12,48,245,48*70
$GPGSV,6,3,22,14,06,064,38,23,09,261,38,06,04,112,34,25,10,247,39*7A
$GPGSV,6,4,22,32,06,325,40,36,35,170,45,58,13,245,36,40,23,133,37*71
$GPGSV,6,5,22,34,31,208,43,49,34,195,44,57,07,111,37,41,07,108,35*78
$GPGSV,6,6,22,61,03,257,38*46
$GLGSV,3,1,09,77,63,312,46,85,21,031,46,78,12,269,45,87,11,136,42*6A
$GLGSV,3,2,09,66,26,203,49,68,26,328,47,86,29,091,46,76,49,052,50*64
$GLGSV,3,3,09,67,50,269,51*51
$GAGSV,3,1,11,02,74,054,49,03,13,162,38,11,11,059,35,07,48,295,46*65
$GAGSV,3,2,11,25,21,060,40,08,55,199,49,30,48,243,47,10,09,032,39*61
$GAGSV,3,3,11,29,03,325,37,12,04,011,32,36,05,104,37*57
$GBGSV,5,1,20,26,68,069,51,44,15,158,,41,13,327,,07,21,051,39*6F
$GBGSV,5,2,20,45,13,086,41,05,20,130,39,40,18,039,41,42,24,218,44*60
$GBGSV,5,3,20,35,35,112,46,10,33,058,41,33,35,279,46,14,34,246,45*6D
$GBGSV,5,4,20,56,38,061,,24,55,282,50,25,54,273,,23,02,262,*69
$GBGSV,5,5,20,50,09,197,,02,04,109,31,57,01,337,,60,07,111,40*66
$GPGGA,112947.00,,,,,0,00,,,M,,M,,*40
$PTNL,GGK,112947.00,010125,4742.1600501,N,01618.1003010,E,1,40,0.7,EHT751.2717,M*4A
$GPGGQ,112947.00,010125,4742.1600501,N,01618.1003010,E,1,40,0.892,708.0651,M*3D
$GPGFA,112947.00,4.121,5.739,0.433,0.344,339.519,0.700,,VVV*01
$GPLLK,112947.00,010125,,M,,M,1,40,0.8,,M*0F
$GNGMP,112947.00,,,,,DAAA,40,0.4,,,,*5E
$GPGMP,112947.00,,,,,,11,,,,3.4,136*76
$GLGMP,112947.00,,,,,,09,,,,,*7E
$GAGMP,112947.00,,,,,,08,,,,,*72
$GBGMP,112947.00,,,,,,12,,,,,*7A
$PSSN,SNC,[0,300605000,2347]*44
$GPZDA,112952.00,01,01,2025,,*6F
$GPDTM,W84,,00.0000000,N,00.0000000,E,00.0000000,W84*5F
$PSSN,TFM,112952.00,,,,*63
$GPRMC,112952.00,A,4742.1600505,N,01618.1002987,E,0.0,,010125,5.1,E,D*18
$GPGLL,4742.1600505,N,01618.1002987,E,112952.00,A,D*69
$GPGGA,112952.00,4742.1600505,N,01618.1002987,E,2,40,0.4,708.0625,M,43.2066,M,2.2,0136*4B
$GNGNS,112952.00,4742.1600505,N,01618.1002987,E,DAAA,40,0.4,708.0625,43.2066,,*53
$GPGNS,112952.00,,,,,,11,,,,2.2,136*75
$GLGNS,112952.00,,,,,,09,,,,,*7A
$GAGNS,112952.00,,,,,,08,,,,,*76
$GBGNS,112952.00,,,,,,12,,,,,*7E
$GPLLQ,112952.00,010125,,M,,M,1,40,0.889,,M*10
$GPVTG,,T,,M,0.00,N,0.00,K,D*26
$GPHDT,,T*1B
$GPTHS,,V*0E
$GPROT,,V*08
$PSSN,HRP,112952.00,010125,,,,,,,00,0,,*6D
$PTNL,AVR,112952.00,,Yaw,,Tilt,,,,0,,00*3B
$GPGSA,A,3,10,12,13,14,15,17,19,23,24,25,32,,0.7,0.4,0.6*39
$GPGSA,A,3,66,67,68,76,77,78,85,86,87,,,,0.7,0.4,0.6*3A
$GPGSA,A,3,02,03,07,08,10,11,25,30,,,,,0.7,0.4,0.6*3C
$GPGSA,A,3,05,07,10,14,24,26,33,35,40,42,45,60,0.7,0.4,0.6*30
$GPGST,112952.00,2.601,0.434,0.343,339.074,0.423,0.356,0.697*5E
$GPGBS,112952.00,2.641,2.084,5.113,77,0.0001,-7.785,6.056*7E
$GPGRS,112952.00,1,0.6,0.2,0.1,-4.2,-0.1,-0.1,0.0,-1.1,0.0,0.2,-1.2,*43
$GPGRS,112952.00,1,-3.1,5.5,6.2,-1.3,-7.8,-3.4,5.1,1.2,-3.3,,,*4A
$GPGRS,112952.00,1,0.0,-0.8,0.1,0.4,-0.1,0.2,0.1,0.2,,,,*4F
$GPGRS,112952.00,1,0.4,1.1,0.6,1.7,0.1,-1.6,0.3,-0.7,0.2,-0.2,1.0,-1.3*47
$GPGSV,6,1,22,24,81,300,51,15,33,195,45,22,26,060,,13,17,161,41*7B
$GPGSV,6,2,22,10,14,301,41,17,32,052,44,19,50,089,47,12,49,245,48*70
$GPGSV,6,3,22,14,06,064,38,23,09,261,38,06,04,112,33,25,10,247,38*7C
$GPGSV,6,4,22,32,06,325,40,36,35,170,45,58,13,245,36,40,23,133,37*71
$GPGSV,6,5,22,34,31,208,43,49,34,195,44,57,07,111,37,41,07,108,35*78
$GPGSV,6,6,22,61,03,257,38*46
$GLGSV,3,1,09,77,63,312,46,85,21,030,46,78,12,269,45,87,11,136,42*6B
$GLGSV,3,2,09,66,26,203,48,68,26,328,48,86,29,091,47,76,49,052,51*6A
$GLGSV,3,3,09,67,50,268,51*50
$GAGSV,3,1,11,02,74,054,49,03,13,162,38,11,11,059,35,07,48,295,46*65
$GAGSV,3,2,11,25,21,060,40,08,55,199,49,30,48,243,47,10,09,032,38*60
$GAGSV,3,3,11,29,03,325,37,12,04,011,31,36,05,104,37*54
$GBGSV,5,1,20,26,68,070,51,44,15,158,,41,13,327,,07,21,051,39*67
$GBGSV,5,2,20,45,13,086,41,05,20,130,39,40,18,039,41,42,24,218,44*60
$GBGSV,5,3,20,35,35,112,47,10,33,058,42,33,35,279,46,14,34,246,44*6E
$GBGSV,5,4,20,56,38,061,,24,55,282,50,25,54,273,,23,02,262,*69
$GBGSV,5,5,20,50,09,197,,02,04,109,30,57,01,337,,60,07,111,40*67
$GPGGA,112952.00,,,,,0,00,,,M,,M,,*44
$PTNL,GGK,112952.00,010125,4742.1600505,N,01618.1002987,E,1,40,0.7,EHT751.2691,M*43
$GPGGQ,112952.00,010125,4742.1600505,N,01618.1002987,E,1,40,0.889,708.0625,M*32
$GPGFA,112952.00,4.125,5.713,0.434,0.343,339.074,0.697,,VVV*08
$GPLLK,112952.00,010125,,M,,M,1,40,0.8,,M*0B
$GNGMP,112952.00,,,,,DAAA,40,0.4,,,,*5A
$GPGMP,112952.00,,,,,,11,,,,2.2,136*75
$GLGMP,112952.00,,,,,,09,,,,,*7A
$GAGMP,112952.00,,,,,,08,,,,,*76
$GBGMP,112952.00,,,,,,12,,,,,*7E
$PSSN,SNC,[0,300610000,2347]*40
$GPZDA,112957.00,01,01,2025,,*6A
$GPDTM,W84,,00.0000000,N,00.0000000,E,00.0000000,W84*5F
$PSSN,TFM,112957.00,,,,*66
$GPRMC,112957.00,A,4742.1600523,N,01618.1003004,E,0.0,,010125,5.1,E,D*1A
$GPGLL,4742.1600523,N,01618.1003004,E,112957.00,A,D*6B
$GPGGA,112957.00,4742.1600523,N,01618.1003004,E,2,40,0.4,708.0599,M,43.2066,M,1.7,0136*4B
$GNGNS,112957.00,4742.1600523,N,01618.1003004,E,DAAA,40,0.4,708.0599,43.2066,,*55
$GPGNS,112957.00,,,,,,11,,,,1.7,136*76
$GLGNS,112957.00,,,,,,09,,,,,*7F
$GAGNS,112957.00,,,,,,08,,,,,*73
$GBGNS,112957.00,,,,,,12,,,,,*7B
$GPLLQ,112957.00,010125,,M,,M,1,40,0.871,,M*12
$GPVTG,,T,,M,0.00,N,0.00,K,D*26
$GPHDT,,T*1B
$GPTHS,,V*0E
$GPROT,,V*08
$PSSN,HRP,112957.00,010125,,,,,,,00,0,,*68
$PTNL,AVR,112957.00,,Yaw,,Tilt,,,,0,,00*3E
$GPGSA,A,3,10,12,13,14,15,17,19,23,24,25,32,,0.7,0.4,0.6*39
$GPGSA,A,3,66,67,68,76,77,78,85,86,87,,,,0.7,0.4,0.6*3A
$GPGSA,A,3,02,03,07,08,10,11,25,30,,,,,0.7,0.4,0.6*3C
$GPGSA,A,3,05,07,10,14,24,26,33,35,40,42,45,60,0.7,0.4,0.6*30
$GPGST,112957.00,2.674,0.428,0.335,338.961,0.418,0.349,0.681*58
$GPGBS,112957.00,2.571,2.065,4.984,77,0.0001,-8.006,6.056*70
$GPGRS,112957.00,1,0.1,0.4,0.4,-4.5,0.2,-0.1,-0.4,0.1,-0.1,-0.1,-1.2,*6C
$GPGRS,112957.00,1,-2.9,5.4,6.8,-1.4,-8.0,-4.4,4.7,2.2,-3.0,,,*4D
$GPGRS,112957.00,1,-0.1,-0.9,0.0,0.4,-0.2,0.0,0.2,0.1,,,,*67
$GPGRS,112957.00,1,0.1,1.2,0.7,1.2,0.1,-1.4,-0.2,-0.6,0.2,0.1,0.7,-1.4*40
$GPGSV,6,1,22,24,81,300,51,15,33,195,45,22,26,060,,13,17,161,41*7B
$GPGSV,6,2,22,10,13,301,41,17,32,052,45,19,50,089,47,12,49,245,49*77
$GPGSV,6,3,22,14,06,064,39,23,09,261,39,06,04,112,32,25,10,247,38*7D
$GPGSV,6,4,22,32,06,325,40,36,35,170,45,58,13,245,36,40,23,133,36*70
$GPGSV,6,5,22,34,31,208,43,49,34,195,44,57,07,111,37,41,07,108,35*78
$GPGSV,6,6,22,61,03,257,38*46
$GLGSV,3,1,09,77,63,312,46,85,21,030,46,78,12,269,44,87,11,136,42*6A
$GLGSV,3,2,09,66,25,203,48,68,26,328,47,86,29,091,47,76,49,052,51*66
$GLGSV,3,3,09,67,50,268,51*50
$GAGSV,3,1,11,02,74,054,49,03,13,162,38,11,11,059,35,07,48,295,46*65
$GAGSV,3,2,11,25,21,060,40,08,55,199,48,30,48,243,47,10,09,032,37*6E
$GAGSV,3,3,11,29,03,325,36,12,04,011,31,36,05,104,37*55
$GBGSV,5,1,20,26,68,070,51,44,15,158,,41,13,327,,07,21,051,39*67
$GBGSV,5,2,20,45,13,086,41,05,20,130,39,40,18,039,41,42,24,218,44*60
$GBGSV,5,3,20,35,35,112,47,10,33,058,41,33,35,279,46,14,34,246,45*6C
$GBGSV,5,4,20,56,38,061,,24,55,282,50,25,54,273,,23,02,262,*69
$GBGSV,5,5,20,50,09,197,,02,04,109,31,57,01,337,,60,07,111,40*66
$GPGGA,112957.00,,,,,0,00,,,M,,M,,*41
$PTNL,GGK,112957.00,010125,4742.1600523,N,01618.1003004,E,1,40,0.7,EHT751.2665,M*4A
$GPGGQ,112957.00,010125,4742.1600523,N,01618.1003004,E,1,40,0.871,708.0599,M*33
$GPGFA,112957.00,4.073,5.582,0.428,0.335,338.961,0.681,,VVV*02
$GPLLK,112957.00,010125,,M,,M,1,40,0.8,,M*0E
$GNGMP,112957.00,,,,,DAAA,40,0.4,,,,*5F
$GPGMP,112957.00,,,,,,11,,,,1.7,136*76
$GLGMP,112957.00,,,,,,09,,,,,*7F
$GAGMP,112957.00,,,,,,08,,,,,*73
$GBGMP,112957.00,,,,,,12,,,,,*7B
$PSSN,SNC,[0,300615000,2347]*45
$GPZDA,113002.00,01,01,2025,,*62
$GPDTM,W84,,00.0000000,N,00.0000000,E,00.0000000,W84*5F
$PSSN,TFM,113002.00,,,,*6E
$GPRMC,113002.00,A,4742.1600540,N,01618.1003031,E,0.0,,010125,5.1,E,D*11
$GPGLL,4742.1600540,N,01618.1003031,E,113002.00,A,D*60
$GPGGA,113002.00,4742.1600540,N,01618.1003031,E,2,39,0.4,708.0595,M,43.2066,M,2.7,0136*41
$GNGNS,113002.00,4742.1600540,N,01618.1003031,E,DAAA,39,0.4,708.0595,43.2066,,*5C
$GPGNS,113002.00,,,,,,11,,,,2.7,136*7D
$GLGNS,113002.00,,,,,,09,,,,,*77
$GAGNS,113002.00,,,,,,07,,,,,*74
$GBGNS,113002.00,,,,,,12,,,,,*73
$GPLLQ,113002.00,010125,,M,,M,1,39,0.879,,M*1C
$GPVTG,,T,,M,0.00,N,0.01,K,D*27
$GPHDT,,T*1B
$GPTHS,,V*0E
$GPROT,,V*08
$PSSN,HRP,113002.00,010125,,,,,,,00,0,,*60
$PTNL,AVR,113002.00,,Yaw,,Tilt,,,,0,,00*36
$GPGSA,A,3,10,12,13,14,15,17,19,23,24,25,32,,0.7,0.4,0.6*39
$GPGSA,A,3,66,67,68,76,77,78,85,86,87,,,,0.7,0.4,0.6*3A
$GPGSA,A,3,02,03,07,08,10,25,30,,,,,,0.7,0.4,0.6*3C
$GPGSA,A,3,05,07,10,14,24,26,33,35,40,42,45,60,0.7,0.4,0.6*30
$GPGST,113002.00,2.681,0.429,0.339,339.642,0.419,0.351,0.688*59
$GPGBS,113002.00,2.589,2.081,5.069,77,0.0001,-7.940,6.056*7A
$GPGRS,113002.00,1,-0.1,0.2,-0.3,-4.4,0.5,0.5,-0.1,-0.3,-0.1,-0.5,-1.3,*65
$GPGRS,113002.00,1,-2.9,5.3,6.1,-1.8,-7.9,-4.3,4.4,2.0,-3.7,,,*40
$GPGRS,113002.00,1,0.0,-1.0,0.1,0.2,-0.0,0.2,-0.0,,,,,*4C
$GPGRS,113002.00,1,0.9,0.7,0.5,2.0,0.2,-1.5,-0.2,-0.7,-0.1,0.0,0.3,-1.5*6E
$GPGSV,6,1,22,24,81,300,51,15,33,195,46,22,26,060,,13,17,161,41*78
$GPGSV,6,2,22,10,13,301,41,17,32,052,45,19,50,089,47,12,49,245,48*76
$GPGSV,6,3,22,14,05,064,39,23,09,261,38,06,04,112,32,25,10,247,38*7F
$GPGSV,6,4,22,32,06,325,40,36,35,170,45,58,13,245,36,40,23,133,37*71
$GPGSV,6,5,22,34,31,208,43,49,34,195,44,57,07,111,37,41,07,108,35*78
$GPGSV,6,6,22,61,03,257,38*46
$GLGSV,3,1,09,77,63,312,46,85,21,030,45,78,12,269,46,87,11,136,41*68
$GLGSV,3,2,09,66,25,203,48,68,26,328,48,86,29,091,48,76,49,052,50*67
$GLGSV,3,3,09,67,50,268,51*50
$GAGSV,3,1,11,02,74,054,48,03,13,162,38,11,11,058,35,07,48,295,46*65
$GAGSV,3,2,11,25,21,060,40,08,55,199,48,30,48,243,47,10,09,032,37*6E
$GAGSV,3,3,11,29,03,325,36,12,04,011,31,36,05,104,37*55
$GBGSV,5,1,20,26,68,070,51,44,15,158,,41,13,327,,07,21,051,39*67
$GBGSV,5,2,20,45,13,086,41,05,20,130,39,40,18,039,41,42,24,218,44*60
$GBGSV,5,3,20,35,35,112,47,10,33,058,41,33,35,279,46,14,34,246,44*6D
$GBGSV,5,4,20,56,38,061,,24,55,282,50,25,54,273,,23,03,262,*68
$GBGSV,5,5,20,50,09,197,,02,04,109,31,57,01,337,,60,07,111,39*68
$GPGGA,113002.00,,,,,0,00,,,M,,M,,*49
$PTNL,GGK,113002.00,010125,4742.1600540,N,01618.1003031,E,1,39,0.7,EHT751.2661,M*4B
$GPGGQ,113002.00,010125,4742.1600540,N,01618.1003031,E,1,39,0.879,708.0595,M*32
$GPGFA,113002.00,4.080,5.643,0.429,0.339,339.642,0.688,,VVV*03
$GPLLK,113002.00,010125,,M,,M,1,39,0.8,,M*08
$GNGMP,113002.00,,,,,DAAA,39,0.4,,,,*59
$GPGMP,113002.00,,,,,,11,,,,2.7,136*7D
$GLGMP,113002.00,,,,,,09,,,,,*77
$GAGMP,113002.00,,,,,,07,,,,,*74
$GBGMP,113002.00,,,,,,12,,,,,*73
$PSSN,SNC,[0,300620000,2347]*43
$GPZDA,113007.00,01,01,2025,,*67
$GPDTM,W84,,00.0000000,N,00.0000000,E,00.0000000,W84*5F
$PSSN,TFM,113007.00,,,,*6B
$GPRMC,113007.00,A,4742.1600553,N,01618.1003003,E,0.0,,010125,5.1,E,D*17
$GPGLL,4742.1600553,N,01618.1003003,E,113007.00,A,D*66
$GPGGA,113007.00,4742.1600553,N,01618.1003003,E,2,39,0.4,708.0559,M,43.2066,M,3.4,0136*45
$GNGNS,113007.00,4742.1600553,N,01618.1003003,E,DAAA,39,0.4,708.0559,43.2066,,*5A
$GPGNS,113007.00,,,,,,11,,,,3.4,136*7A
$GLGNS,113007.00,,,,,,09,,,,,*72
$GAGNS,113007.00,,,,,,07,,,,,*71
$GBGNS,113007.00,,,,,,12,,,,,*76
$GPLLQ,113007.00,010125,,M,,M,1,39,0.892,,M*1C
$GPVTG,,T,,M,0.00,N,0.00,K,D*26
$GPHDT,,T*1B
$GPTHS,,V*0E
$GPROT,,V*08
$PSSN,HRP,113007.00,010125,,,,,,,00,0,,*65
$PTNL,AVR,113007.00,,Yaw,,Tilt,,,,0,,00*33
$GPGSA,A,3,10,12,13,14,15,17,19,23,24,25,32,,0.7,0.4,0.6*39
$GPGSA,A,3,66,67,68,76,77,78,85,86,87,,,,0.7,0.4,0.6*3A
$GPGSA,A,3,02,03,07,08,10,25,30,,,,,,0.7,0.4,0.6*3C
$GPGSA,A,3,05,07,10,14,24,26,33,35,40,42,45,60,0.7,0.4,0.6*30
$GPGST,113007.00,2.789,0.434,0.344,339.455,0.424,0.356,0.699*5E
$GPGBS,113007.00,2.601,2.092,5.139,77,0.0001,-7.992,6.056*75
$GPGRS,113007.00,1,0.4,0.0,-0.1,-4.7,0.4,-0.0,-0.1,-0.2,0.1,0.1,-1.4,*60
$GPGRS,113007.00,1,-3.2,5.4,7.1,-1.8,-8.0,-3.5,5.4,2.2,-3.3,,,*49
$GPGRS,113007.00,1,-0.0,-0.6,0.1,0.4,0.1,0.2,0.3,,,,,*67
$GPGRS,113007.00,1,0.4,0.5,0.8,1.9,0.2,-1.5,-0.0,-0.6,0.2,0.3,0.5,-1.5*4B
$GPGSV,6,1,22,24,81,300,51,15,33,195,46,22,26,060,,13,17,161,41*78
$GPGSV,6,2,22,10,13,301,41,17,32,052,45,19,50,088,48,12,49,245,49*79
$GPGSV,6,3,22,14,05,064,39,23,09,261,39,06,04,112,33,25,10,247,39*7E
$GPGSV,6,4,22,32,06,325,40,36,35,170,45,58,13,245,36,40,23,133,37*71
$GPGSV,6,5,22,34,31,208,43,49,34,195,44,57,07,111,37,41,07,108,35*78
$GPGSV,6,6,22,61,03,257,38*46
$GLGSV,3,1,09,77,63,312,46,85,21,030,46,78,12,269,46,87,11,136,41*6B
$GLGSV,3,2,09,66,25,203,49,68,26,328,47,86,29,090,48,76,49,052,50*68
$GLGSV,3,3,09,67,50,268,51*50
$GAGSV,3,1,11,02,74,054,48,03,13,162,38,11,11,058,34,07,48,295,46*64
$GAGSV,3,2,11,25,21,060,40,08,55,199,48,30,48,243,47,10,09,032,37*6E
$GAGSV,3,3,11,29,03,325,37,12,04,011,31,36,05,104,37*54
$GBGSV,5,1,20,26,68,070,51,44,15,158,,41,13,327,,07,21,051,39*67
$GBGSV,5,2,20,45,13,086,41,05,20,130,39,40,18,039,41,42,24,218,44*60
$GBGSV,5,3,20,35,35,112,47,10,33,058,42,33,35,279,46,14,34,246,45*6F
$GBGSV,5,4,20,56,38,061,,24,55,282,50,25,54,273,,23,03,262,*68
$GBGSV,5,5,20,50,09,197,,02,04,109,31,57,01,337,,60,07,111,40*66
$GPGGA,113007.00,,,,,0,00,,,M,,M,,*4C
$PTNL,GGK,113007.00,010125,4742.1600553,N,01618.1003003,E,1,39,0.7,EHT751.2624,M*4C
$GPGGQ,113007.00,010125,4742.1600553,N,01618.1003003,E,1,39,0.892,708.0559,M*31
$GPGFA,113007.00,4.123,5.732,0.434,0.344,339.455,0.699,,VVV*0B
$GPLLK,113007.00,010125,,M,,M,1,39,0.8,,M*0D
$GNGMP,113007.00,,,,,DAAA,39,0.4,,,,*5C
$GPGMP,113007.00,,,,,,11,,,,3.4,136*7A
$GLGMP,113007.00,,,,,,09,,,,,*72
$GAGMP,113007.00,,,,,,07,,,,,*71
$GBGMP,113007.00,,,,,,12,,,,,*76
$PSSN,SNC,[0,300625000,2347]*46
$GPZDA,113012.00,01,01,2025,,*63
$GPDTM,W84,,00.0000000,N,00.0000000,E,00.0000000,W84*5F
$PSSN,TFM,113012.00,,,,*6F
$GPRMC,113012.00,A,4742.1600576,N,01618.1003015,E,0.0,,010125,5.1,E,D*13
$GPGLL,4742.1600576,N,01618.1003015,E,113012.00,A,D*62
$GPGGA,113012.00,4742.1600576,N,01618.1003015,E,2,39,0.4,708.0504,M,43.2066,M,2.2,0136*4E
$GNGNS,113012.00,4742.1600576,N,01618.1003015,E,DAAA,39,0.4,708.0504,43.2066,,*56
$GPGNS,113012.00,,,,,,11,,,,2.2,136*79
$GLGNS,113012.00,,,,,,09,,,,,*76
$GAGNS,113012.00,,,,,,07,,,,,*75
$GBGNS,113012.00,,,,,,12,,,,,*72
$GPLLQ,113012.00,010125,,M,,M,1,39,0.888,,M*13
$GPVTG,,T,,M,0.00,N,0.00,K,D*26
$GPHDT,,T*1B
$GPTHS,,V*0E
$GPROT,,V*08
$PSSN,HRP,113012.00,010125,,,,,,,00,0,,*61
$PTNL,AVR,113012.00,,Yaw,,Tilt,,,,0,,00*37
$GPGSA,A,3,10,12,13,14,15,17,19,23,24,25,32,,0.7,0.4,0.6*39
$GPGSA,A,3,66,67,68,76,77,78,85,86,87,,,,0.7,0.4,0.6*3A
$GPGSA,A,3,02,03,07,08,10,25,30,,,,,,0.7,0.4,0.6*3C
$GPGSA,A,3,05,07,10,14,24,26,33,35,40,42,45,60,0.7,0.4,0.6*30
$GPGST,113012.00,2.794,0.433,0.343,338.987,0.423,0.356,0.695*5E
$GPGBS,113012.00,2.650,2.093,5.125,77,0.0001,-7.686,6.056*73
$GPGRS,113012.00,1,0.2,0.2,-0.0,-4.4,0.6,0.3,-0.2,-0.0,-0.2,-0.4,-1.6,*4B
$GPGRS,113012.00,1,-2.8,6.7,6.6,-2.8,-7.7,-3.5,4.3,1.9,-4.3,,,*42
$GPGRS,113012.00,1,0.0,-0.4,0.0,0.4,0.4,0.2,0.1,,,,,*4A
$GPGRS,113012.00,1,0.6,0.7,1.0,1.6,0.4,-1.8,0.0,-1.0,-0.0,-0.0,0.3,-1.5*6F
$GPGSV,6,1,22,24,81,300,51,15,33,195,45,22,26,060,,13,17,161,40*7A
$GPGSV,6,2,22,10,13,301,40,17,32,052,45,19,50,088,48,12,49,245,49*78
$GPGSV,6,3,22,14,05,064,39,23,09,261,39,06,04,112,33,25,10,247,40*70
$GPGSV,6,4,22,32,06,325,40,36,35,170,45,58,13,245,36,40,23,133,37*71
$GPGSV,6,5,22,34,31,208,43,49,34,195,44,57,07,111,37,41,07,108,35*78
$GPGSV,6,6,22,61,03,257,37*49
$GLGSV,3,1,09,77,63,312,46,85,21,030,46,78,12,269,45,87,11,136,41*68
$GLGSV,3,2,09,66,25,203,49,68,26,328,47,86,30,090,47,76,49,052,50*6F
$GLGSV,3,3,09,67,50,268,51*50
$GAGSV,3,1,11,02,74,054,48,03,13,162,38,11,11,058,35,07,48,295,46*65
$GAGSV,3,2,11,25,21,060,40,08,55,199,48,30,48,243,47,10,09,032,37*6E
$GAGSV,3,3,11,29,03,325,36,12,04,011,31,36,05,104,37*55
$GBGSV,5,1,20,26,67,070,51,44,15,158,,41,13,327,,07,21,051,39*68
$GBGSV,5,2,20,45,13,086,40,05,20,130,39,40,18,039,41,42,24,218,44*61
$GBGSV,5,3,20,35,35,112,47,10,33,058,41,33,35,279,46,14,34,246,45*6C
$GBGSV,5,4,20,56,38,061,,24,55,282,50,25,54,273,,23,03,262,*68
$GBGSV,5,5,20,50,09,197,,02,04,109,31,57,01,337,,60,07,111,40*66
$GPGGA,113012.00,,,,,0,00,,,M,,M,,*48
$PTNL,GGK,113012.00,010125,4742.1600576,N,01618.1003015,E,1,39,0.7,EHT751.2569,M*42
$GPGGQ,113012.00,010125,4742.1600576,N,01618.1003015,E,1,39,0.888,708.0504,M*36
$GPGFA,113012.00,4.120,5.700,0.433,0.343,338.987,0.695,,VVV*02
$GPLLK,113012.00,010125,,M,,M,1,39,0.8,,M*09
$GNGMP,113012.00,,,,,DAAA,39,0.4,,,,*58
$GPGMP,113012.00,,,,,,11,,,,2.2,136*79
$GLGMP,113012.00,,,,,,09,,,,,*76
$GAGMP,113012.00,,,,,,07,,,,,*75
$GBGMP,113012.00,,,,,,12,,,,,*72
$PSSN,SNC,[0,300630000,2347]*42
$GPZDA,113017.00,01,01,2025,,*66
$GPDTM,W84,,00.0000000,N,00.0000000,E,00.0000000,W84*5F
$PSSN,TFM,113017.00,,,,*6A
$GPRMC,113017.00,A,4742.1600584,N,01618.1003009,E,0.0,,010125,5.1,E,D*16
$GPGLL,4742.1600584,N,01618.1003009,E,113017.00,A,D*67
$GPGGA,113017.00,4742.1600584,N,01618.1003009,E,2,40,0.4,708.0541,M,43.2066,M,1.7,0136*42
$GNGNS,113017.00,4742.1600584,N,01618.1003009,E,DAAA,40,0.4,708.0541,43.2066,,*5C
$GPGNS,113017.00,,,,,,11,,,,1.7,136*7A
$GLGNS,113017.00,,,,,,09,,,,,*73
$GAGNS,113017.00,,,,,,08,,,,,*7F
$GBGNS,113017.00,,,,,,12,,,,,*77
$GPLLQ,113017.00,010125,,M,,M,1,40,0.887,,M*17
$GPVTG,,T,,M,0.00,N,0.01,K,D*27
$GPHDT,,T*1B
$GPTHS,,V*0E
$GPROT,,V*08
$PSSN,HRP,113017.00,010125,,,,,,,00,0,,*64
$PTNL,AVR,113017.00,,Yaw,,Tilt,,,,0,,00*32
$GPGSA,A,3,10,12,13,14,15,17,19,23,24,25,32,,0.7,0.4,0.6*39
$GPGSA,A,3,66,67,68,76,77,78,85,86,87,,,,0.7,0.4,0.6*3A
$GPGSA,A,3,02,03,07,08,10,11,25,30,,,,,0.7,0.4,0.6*3C
$GPGSA,A,3,05,07,10,14,24,26,33,35,40,42,45,60,0.7,0.4,0.6*30
$GPGST,113017.00,2.733,0.437,0.341,338.802,0.425,0.355,0.692*5E
$GPGBS,113017.00,2.578,2.067,4.969,77,0.0001,-7.714,6.056*7F
$GPGRS,113017.00,1,0.3,-0.0,0.3,-4.3,0.4,0.7,-0.3,-0.7,-0.2,0.2,-0.9,*6C
$GPGRS,113017.00,1,-3.8,6.4,6.7,-2.8,-7.7,-4.2,3.1,1.8,-3.8,,,*4C
$GPGRS,113017.00,1,0.2,-0.5,-0.1,0.5,0.7,0.1,0.4,0.1,,,,*4B
$GPGRS,113017.00,1,0.4,0.7,0.9,1.8,-0.0,-1.6,0.0,-1.1,-0.0,0.4,-0.2,-1.5*4D
$GPGSV,6,1,22,24,81,300,51,15,33,195,46,22,26,060,,13,17,161,40*79
$GPGSV,6,2,22,10,13,301,40,17,32,052,46,19,50,088,48,12,49,245,49*7B
$GPGSV,6,3,22,14,05,064,39,23,09,261,39,06,04,112,33,25,10,247,40*70
$GPGSV,6,4,22,32,06,325,40,36,35,170,45,58,13,245,36,40,23,133,36*70
$GPGSV,6,5,22,34,31,208,42,49,34,195,44,57,07,111,37,41,07,108,35*79
$GPGSV,6,6,22,61,03,257,37*49
$GLGSV,3,1,09,77,63,313,46,85,21,030,45,78,12,269,45,87,11,136,42*69
$GLGSV,3,2,09,66,25,203,48,68,26,328,47,86,30,090,48,76,49,052,50*61
$GLGSV,3,3,09,67,50,268,51*50
$GAGSV,3,1,11,02,74,054,49,03,13,162,39,11,11,058,36,07,48,295,46*66
$GAGSV,3,2,11,25,21,060,40,08,55,199,48,30,48,243,47,10,09,032,37*6E
$GAGSV,3,3,11,29,03,325,37,12,04,011,31,36,05,104,37*54
$GBGSV,5,1,20,26,67,070,51,44,15,158,,41,13,327,,07,21,051,39*68
$GBGSV,5,2,20,45,13,086,40,05,20,130,39,40,18,039,41,42,24,217,44*6E
$GBGSV,5,3,20,35,35,112,47,10,33,058,42,33,35,279,47,14,34,246,45*6E
$GBGSV,5,4,20,56,38,061,,24,55,282,50,25,54,273,,23,03,262,*68
$GBGSV,5,5,20,50,09,197,,02,04,109,30,57,01,337,,60,07,111,40*67
$GPGGA,113017.00,,,,,0,00,,,M,,M,,*4D
$PTNL,GGK,113017.00,010125,4742.1600584,N,01618.1003009,E,1,40,0.7,EHT751.2607,M*42
$GPGGQ,113017.00,010125,4742.1600584,N,01618.1003009,E,1,40,0.887,708.0541,M*33
$GPGFA,113017.00,4.151,5.674,0.437,0.341,338.802,0.692,,VVV*0E
$GPLLK,113017.00,010125,,M,,M,1,40,0.8,,M*02
$GNGMP,113017.00,,,,,DAAA,40,0.4,,,,*53
$GPGMP,113017.00,,,,,,11,,,,1.7,136*7A
$GLGMP,113017.00,,,,,,09,,,,,*73
$GAGMP,113017.00,,,,,,08,,,,,*7F
$GBGMP,113017.00,,,,,,12,,,,,*77
$PSSN,SNC,[0,300635000,2347]*47
$GPZDA,113022.00,01,01,2025,,*60
$GPDTM,W84,,00.0000000,N,00.0000000,E,00.0000000,W84*5F
$PSSN,TFM,113022.00,,,,*6C
$GPRMC,113022.00,A,4742.1600584,N,01618.1002989,E,0.0,,010125,5.1,E,D*10
$GPGLL,4742.1600584,N,01618.1002989,E,113022.00,A,D*61
$GPGGA,113022.00,4742.1600584,N,01618.1002989,E,2,40,0.4,708.0542,M,43.2066,M,2.7,0136*44
$GNGNS,113022.00,4742.1600584,N,01618.1002989,E,DAAA,40,0.4,708.0542,43.2066,,*59
$GPGNS,113022.00,,,,,,11,,,,2.7,136*7F
$GLGNS,113022.00,,,,,,09,,,,,*75
$GAGNS,113022.00,,,,,,08,,,,,*79
$GBGNS,113022.00,,,,,,12,,,,,*71
$GPLLQ,113022.00,010125,,M,,M,1,40,0.904,,M*1B
$GPVTG,,T,,M,0.01,N,0.01,K,D*26
$GPHDT,,T*1B
$GPTHS,,V*0E
$GPROT,,V*08
$PSSN,HRP,113022.00,010125,,,,,,,00,0,,*62
$PTNL,AVR,113022.00,,Yaw,,Tilt,,,,0,,00*34
$GPGSA,A,3,10,12,13,14,15,17,19,23,24,25,32,,0.7,0.4,0.6*39
$GPGSA,A,3,66,67,68,76,77,78,85,86,87,,,,0.7,0.4,0.6*3A
$GPGSA,A,3,02,03,07,08,10,11,25,30,,,,,0.7,0.4,0.6*3C
$GPGSA,A,3,05,07,10,14,24,26,33,35,40,42,45,60,0.7,0.4,0.6*30
$GPGST,113022.00,2.734,0.443,0.348,339.313,0.433,0.362,0.707*51
$GPGBS,113022.00,2.591,2.074,5.028,77,0.0001,-7.612,6.056*76
$GPGRS,113022.00,1,0.3,-0.2,0.5,-4.2,0.6,0.6,-0.2,-0.6,-0.1,-0.3,-0.8,*42
$GPGRS,113022.00,1,-4.2,6.7,6.6,-2.5,-7.6,-4.3,2.5,2.9,-3.4,,,*43
$GPGRS,113022.00,1,0.1,-0.8,-0.0,0.4,0.4,0.4,-0.0,0.1,,,,*6C
$GPGRS,113022.00,1,0.6,0.2,0.8,2.3,0.2,-1.3,0.0,-0.6,-0.1,0.3,-0.2,-1.3*69
$GPGSV,6,1,22,24,81,299,51,15,33,195,46,22,26,060,,13,17,161,41*79
$GPGSV,6,2,22,10,13,301,41,17,32,052,45,19,50,088,47,12,49,245,49*76
$GPGSV,6,3,22,14,05,064,38,23,09,261,39,06,04,112,34,25,10,247,40*76
$GPGSV,6,4,22,32,06,325,41,36,35,170,45,58,13,245,36,40,23,133,36*71
$GPGSV,6,5,22,34,31,208,43,49,34,195,44,57,07,111,37,41,07,108,35*78
$GPGSV,6,6,22,61,03,257,38*46
$GLGSV,3,1,09,77,63,313,46,85,21,030,46,78,12,269,45,87,11,136,42*6A
$GLGSV,3,2,09,66,25,203,48,68,26,328,47,86,30,090,48,76,49,052,51*60
$GLGSV,3,3,09,67,50,268,52*53
$GAGSV,3,1,11,02,74,054,49,03,13,162,39,11,11,058,36,07,48,295,46*66
$GAGSV,3,2,11,25,21,060,40,08,55,199,48,30,48,243,47,10,09,032,37*6E
$GAGSV,3,3,11,29,03,325,37,12,04,011,31,36,05,104,37*54
$GBGSV,5,1,20,26,67,070,51,44,15,158,,41,13,327,,07,21,051,38*69
$GBGSV,5,2,20,45,13,086,40,05,20,130,39,40,18,039,41,42,24,217,43*69
$GBGSV,5,3,20,35,35,111,47,10,33,058,42,33,35,279,47,14,34,246,45*6D
$GBGSV,5,4,20,56,38,061,,24,55,282,50,25,54,273,,23,03,262,*68
$GBGSV,5,5,20,50,09,197,,02,04,109,31,57,01,337,,60,07,111,40*66
$GPGGA,113022.00,,,,,0,00,,,M,,M,,*4B
$PTNL,GGK,113022.00,010125,4742.1600584,N,01618.1002989,E,1,40,0.7,EHT751.2608,M*4B
$GPGGQ,113022.00,010125,4742.1600584,N,01618.1002989,E,1,40,0.904,708.0542,M*3C
$GPGFA,113022.00,4.215,5.798,0.443,0.348,339.313,0.707,,VVV*05
$GPLLK,113022.00,010125,,M,,M,1,40,0.8,,M*04
$GNGMP,113022.00,,,,,DAAA,40,0.4,,,,*55
$GPGMP,113022.00,,,,,,11,,,,2.7,136*7F
$GLGMP,113022.00,,,,,,09,,,,,*75
$GAGMP,113022.00,,,,,,08,,,,,*79
$GBGMP,113022.00,,,,,,12,,,,,*71
$PSSN,SNC,[0,300640000,2347]*45
$GPZDA,113027.00,01,01,2025,,*65
$GPDTM,W84,,00.0000000,N,00.0000000,E,00.0000000,W84*5F
$PSSN,TFM,113027.00,,,,*69
$GPRMC,113027.00,A,4742.1600613,N,01618.1002944,E,0.0,,010125,5.1,E,D*19
$GPGLL,4742.1600613,N,01618.1002944,E,113027.00,A,D*68
$GPGGA,113027.00,4742.1600613,N,01618.1002944,E,2,40,0.4,708.0535,M,43.2066,M,3.4,0136*4F
$GNGNS,113027.00,4742.1600613,N,01618.1002944,E,DAAA,40,0.4,708.0535,43.2066,,*50
$GPGNS,113027.00,,,,,,11,,,,3.4,136*78
$GLGNS,113027.00,,,,,,09,,,,,*70
$GAGNS,113027.00,,,,,,08,,,,,*7C
$GBGNS,113027.00,,,,,,12,,,,,*74
$GPLLQ,113027.00,010125,,M,,M,1,40,0.940,,M*1E
$GPVTG,,T,,M,0.00,N,0.01,K,D*27
$GPHDT,,T*1B
$GPTHS,,V*0E
$GPROT,,V*08
$PSSN,HRP,113027.00,010125,,,,,,,00,0,,*67
$PTNL,AVR,113027.00,,Yaw,,Tilt,,,,0,,00*31
$GPGSA,A,3,10,12,13,14,15,17,19,23,24,25,32,,0.7,0.4,0.6*39
$GPGSA,A,3,66,67,68,76,77,78,85,86,87,,,,0.7,0.4,0.6*3A
$GPGSA,A,3,02,03,07,08,10,11,25,30,,,,,0.7,0.4,0.6*3C
$GPGSA,A,3,05,07,10,14,24,26,33,35,40,42,45,60,0.7,0.4,0.6*30
$GPGST,113027.00,2.869,0.459,0.363,339.093,0.448,0.376,0.736*51
$GPGBS,113027.00,2.602,2.085,5.098,77,0.0001,-7.749,6.056*70
$GPGRS,113027.00,1,0.3,0.1,0.7,-4.3,0.7,0.2,-0.3,-0.6,-0.0,-1.1,-0.7,*63
$GPGRS,113027.00,1,-3.7,7.3,6.8,-2.6,-7.7,-3.4,4.7,2.3,-3.9,,,*4E
$GPGRS,113027.00,1,0.2,-0.6,0.3,0.5,0.2,0.2,0.2,0.2,,,,*67
$GPGRS,113027.00,1,0.7,0.2,0.9,2.9,0.3,-1.5,0.3,-0.7,-0.3,-0.1,0.3,-1.6*67
$GPGSV,6,1,22,24,81,299,51,15,33,195,46,22,26,060,,13,17,161,41*79
$GPGSV,6,2,22,10,13,301,41,17,32,052,45,19,50,088,47,12,49,245,48*77
$GPGSV,6,3,22,14,05,064,38,23,09,261,40,06,04,112,33,25,10,247,39*71
$GPGSV,6,4,22,32,06,325,40,36,35,170,45,58,13,245,36,40,23,133,37*71
$GPGSV,6,5,22,34,31,208,43,49,34,195,45,57,07,111,37,41,07,108,35*79
$GPGSV,6,6,22,61,03,257,38*46
$GLGSV,3,1,09,77,63,313,47,85,21,030,46,78,12,269,44,87,11,136,41*69
$GLGSV,3,2,09,66,25,203,48,68,26,328,47,86,30,090,47,76,49,052,50*6E
$GLGSV,3,3,09,67,50,268,52*53
$GAGSV,3,1,11,02,74,054,49,03,13,162,38,11,11,058,36,07,48,295,46*67
$GAGSV,3,2,11,25,21,060,40,08,55,199,48,30,48,243,47,10,09,032,37*6E
$GAGSV,3,3,11,29,03,325,37,12,04,011,31,36,05,104,37*54
$GBGSV,5,1,20,26,67,070,51,44,15,158,,41,13,327,,07,21,051,38*69
$GBGSV,5,2,20,45,13,086,41,05,20,130,39,40,18,039,41,42,24,217,43*68
$GBGSV,5,3,20,35,35,111,47,10,33,058,42,33,35,279,47,14,34,246,44*6C
$GBGSV,5,4,20,56,38,061,,24,55,282,50,25,54,273,,23,03,262,*68
$GBGSV,5,5,20,50,09,197,,02,04,109,30,57,01,337,,60,07,111,40*67
$GPGGA,113027.00,,,,,0,00,,,M,,M,,*4E
$PTNL,GGK,113027.00,010125,4742.1600613,N,01618.1002944,E,1,40,0.7,EHT751.2601,M*4B
$GPGGQ,113027.00,010125,4742.1600613,N,01618.1002944,E,1,40,0.940,708.0535,M*35
$GPGFA,113027.00,4.365,6.036,0.459,0.363,339.093,0.736,,VVV*0D
$GPLLK,113027.00,010125,,M,,M,1,40,0.8,,M*01
$GNGMP,113027.00,,,,,DAAA,40,0.4,,,,*50
$GPGMP,113027.00,,,,,,11,,,,3.4,136*78
$GLGMP,113027.00,,,,,,09,,,,,*70
$GAGMP,113027.00,,,,,,08,,,,,*7C
$GBGMP,113027.00,,,,,,12,,,,,*74
$PSSN,SNC,[0,300645000,2347]*40
$GPZDA,113032.00,01,01,2025,,*61
$GPDTM,W84,,00.0000000,N,00.0000000,E,00.0000000,W84*5F
$PSSN,TFM,113032.00,,,,*6D
$GPRMC,113032.00,A,4742.1600623,N,01618.1002925,E,0.0,,010125,5.1,E,D*19
$GPGLL,4742.1600623,N,01618.1002925,E,113032.00,A,D*68
$GPGGA,113032.00,4742.1600623,N,01618.1002925,E,2,40,0.4,708.0509,M,43.2066,M,2.2,0136*47
$GNGNS,113032.00,4742.1600623,N,01618.1002925,E,DAAA,40,0.4,708.0509,43.2066,,*5F
$GPGNS,113032.00,,,,,,11,,,,2.2,136*7B
$GLGNS,113032.00,,,,,,09,,,,,*74
$GAGNS,113032.00,,,,,,08,,,,,*78
$GBGNS,113032.00,,,,,,12,,,,,*70
$GPLLQ,113032.00,010125,,M,,M,1,40,0.911,,M*1E
$GPVTG,,T,,M,0.01,N,0.01,K,D*26
$GPHDT,,T*1B
$GPTHS,,V*0E
$GPROT,,V*08
$PSSN,HRP,113032.00,010125,,,,,,,00,0,,*63
$PTNL,AVR,113032.00,,Yaw,,Tilt,,,,0,,00*35
$GPGSA,A,3,10,12,13,14,15,17,19,23,24,25,32,,0.7,0.4,0.6*39
$GPGSA,A,3,66,67,68,76,77,78,85,86,87,,,,0.7,0.4,0.6*3A
$GPGSA,A,3,02,03,07,08,10,11,25,30,,,,,0.7,0.4,0.6*3C
$GPGSA,A,3,05,07,10,14,24,26,33,35,40,42,45,60,0.7,0.4,0.6*30
$GPGST,113032.00,2.741,0.446,0.352,338.686,0.435,0.366,0.713*53
$GPGBS,113032.00,2.648,2.086,5.085,77,0.0001,-7.102,6.056*7C
$GPGRS,113032.00,1,0.6,-0.0,0.4,-4.4,0.4,0.6,-0.2,-0.5,-0.1,-0.5,-1.0,*4D
$GPGRS,113032.00,1,-3.0,6.3,6.3,-2.8,-7.1,-4.5,5.1,2.0,-4.3,,,*40
$GPGRS,113032.00,1,0.2,-0.5,0.3,0.7,0.3,0.5,0.4,0.1,,,,*61
$GPGRS,113032.00,1,0.4,0.3,1.1,1.6,0.2,-1.6,0.0,-0.9,-0.3,0.1,0.7,-1.3*47
$GPGSV,6,1,22,24,81,299,51,15,33,195,46,22,26,060,,13,17,161,42*7A
$GPGSV,6,2,22,10,13,301,41,17,32,052,45,19,50,088,47,12,49,245,48*77
$GPGSV,6,3,22,14,05,064,38,23,09,260,39,06,05,112,33,25,10,247,38*7E
$GPGSV,6,4,22,32,06,325,40,36,35,170,45,58,13,245,36,40,23,133,37*71
$GPGSV,6,5,22,34,31,208,43,49,34,195,45,57,07,111,37,41,07,108,35*79
$GPGSV,6,6,22,61,03,257,38*46
$GLGSV,3,1,09,77,63,313,46,85,21,030,46,78,12,269,44,87,12,136,41*6B
$GLGSV,3,2,09,66,25,203,48,86,30,090,48,68,26,328,47,76,49,052,50*61
$GLGSV,3,3,09,67,50,268,51*50
$GAGSV,3,1,11,02,74,054,49,03,13,162,38,11,11,058,36,07,48,295,46*67
$GAGSV,3,2,11,25,21,060,40,08,55,199,48,30,49,243,47,10,09,032,37*6F
$GAGSV,3,3,11,29,03,325,37,12,03,011,31,36,05,104,37*53
$GBGSV,5,1,20,26,67,070,51,44,15,158,,45,13,086,41,41,13,327,*6A
$GBGSV,5,2,20,40,18,039,41,05,20,130,39,07,21,051,38,42,23,217,44*6B
$GBGSV,5,3,20,35,35,111,47,10,33,058,42,33,35,278,47,14,34,246,44*6D
$GBGSV,5,4,20,56,38,061,,24,55,282,50,25,54,273,,23,03,262,*68
$GBGSV,5,5,20,50,09,197,,02,04,109,31,57,01,337,,60,07,111,40*66
$GPGGA,113032.00,,,,,0,00,,,M,,M,,*4A
$PTNL,GGK,113032.00,010125,4742.1600623,N,01618.1002925,E,1,40,0.7,EHT751.2574,M*4A
$GPGGQ,113032.00,010125,4742.1600623,N,01618.1002925,E,1,40,0.911,708.0509,M*3E
$GPGFA,113032.00,4.243,5.843,0.446,0.352,338.686,0.713,,VVV*0D
$GPLLK,113032.00,010125,,M,,M,1,40,0.8,,M*05
$GNGMP,113032.00,,,,,DAAA,40,0.4,,,,*54
$GPGMP,113032.00,,,,,,11,,,,2.2,136*7B
$GLGMP,113032.00,,,,,,09,,,,,*74
$GAGMP,113032.00,,,,,,08,,,,,*78
$GBGMP,113032.00,,,,,,12,,,,,*70
$PSSN,SNC,[0,300650000,2347]*44
$GPZDA,113037.00,01,01,2025,,*64
$GPDTM,W84,,00.0000000,N,00.0000000,E,00.0000000,W84*5F
$PSSN,TFM,113037.00,,,,*68
$GPRMC,113037.00,A,4742.1600633,N,01618.1002893,E,0.0,,010125,5.1,E,D*11
$GPGLL,4742.1600633,N,01618.1002893,E,113037.00,A,D*60
$GPGGA,113037.00,4742.1600633,N,01618.1002893,E,2,40,0.4,708.0477,M,43.2066,M,1.7,0136*41
$GNGNS,113037.00,4742.1600633,N,01618.1002893,E,DAAA,40,0.4,708.0477,43.2066,,*5F
$GPGNS,113037.00,,,,,,11,,,,1.7,136*78
$GLGNS,113037.00,,,,,,09,,,,,*71
$GAGNS,113037.00,,,,,,08,,,,,*7D
$GBGNS,113037.00,,,,,,12,,,,,*75
$GPLLQ,113037.00,010125,,M,,M,1,40,0.912,,M*18
$GPVTG,,T,,M,0.00,N,0.00,K,D*26
$GPHDT,,T*1B
$GPTHS,,V*0E
$GPROT,,V*08
$PSSN,HRP,113037.00,010125,,,,,,,00,0,,*66
$PTNL,AVR,113037.00,,Yaw,,Tilt,,,,0,,00*30
$GPGSA,A,3,10,12,13,14,15,17,19,23,24,25,32,,0.7,0.4,0.6*39
$GPGSA,A,3,66,67,68,76,77,78,85,86,87,,,,0.7,0.4,0.6*3A
$GPGSA,A,3,02,03,07,08,10,11,25,30,,,,,0.7,0.4,0.6*3C
$GPGSA,A,3,05,07,10,14,24,26,33,35,40,42,45,60,0.7,0.4,0.6*30
$GPGST,113037.00,2.778,0.449,0.352,338.671,0.438,0.366,0.711*54
$GPGBS,113037.00,2.581,2.068,4.955,77,0.0001,-7.574,6.056*7F
$GPGRS,113037.00,1,0.1,0.4,0.1,-4.6,0.4,0.6,-0.2,-1.3,-0.0,-0.3,-1.2,*63
$GPGRS,113037.00,1,-3.2,6.1,6.6,-2.8,-7.6,-4.1,4.8,2.4,-3.9,,,*42
$GPGRS,113037.00,1,0.1,-0.6,0.5,0.5,0.0,0.1,0.5,0.2,,,,*65
$GPGRS,113037.00,1,0.7,0.4,1.2,0.9,0.0,-1.3,-0.1,-0.8,0.1,0.7,1.3,-1.6*48
$GPGSV,6,1,22,24,81,299,51,15,33,195,46,22,26,060,,13,17,161,42*7A
$GPGSV,6,2,22,10,13,301,41,17,32,052,45,19,50,088,47,12,49,245,48*77
$GPGSV,6,3,22,14,05,064,38,23,09,260,39,06,05,112,33,25,10,247,38*7E
$GPGSV,6,4,22,32,06,325,39,36,35,170,45,58,13,245,36,40,23,133,37*7F
$GPGSV,6,5,22,34,31,208,43,49,34,195,45,57,07,111,37,41,07,108,35*79
$GPGSV,6,6,22,61,03,257,38*46
$GLGSV,3,1,09,77,63,313,46,85,21,030,47,78,12,269,46,87,12,136,41*68
$GLGSV,3,2,09,66,25,203,48,86,30,090,48,68,26,327,47,76,49,052,50*6E
$GLGSV,3,3,09,67,50,268,51*50
$GAGSV,3,1,11,02,74,054,49,03,13,162,38,11,11,058,36,07,48,295,46*67
$GAGSV,3,2,11,25,21,060,40,08,55,199,48,30,49,243,47,10,09,032,37*6F
$GAGSV,3,3,11,29,03,325,37,12,03,011,31,36,05,104,37*53
$GBGSV,5,1,20,26,67,070,51,44,15,158,,41,13,327,,07,21,051,38*69
$GBGSV,5,2,20,45,13,086,41,05,20,130,39,40,18,039,41,42,23,217,44*68
$GBGSV,5,3,20,35,35,111,48,10,33,058,42,33,35,278,47,14,34,246,44*62
$GBGSV,5,4,20,56,38,061,,24,55,282,50,25,54,273,,23,03,262,*68
$GBGSV,5,5,20,50,09,197,,02,04,109,30,57,01,337,,60,07,111,40*67
$GPGGA,113037.00,,,,,0,00,,,M,,M,,*4F
$PTNL,GGK,113037.00,010125,4742.1600633,N,01618.1002893,E,1,40,0.7,EHT751.2542,M*47
$GPGGQ,113037.00,010125,4742.1600633,N,01618.1002893,E,1,40,0.912,708.0477,M*3D
$GPGFA,113037.00,4.273,5.829,0.449,0.352,338.671,0.711,,VVV*02
$GPLLK,113037.00,010125,,M,,M,1,40,0.8,,M*00
$GNGMP,113037.00,,,,,DAAA,40,0.4,,,,*51
$GPGMP,113037.00,,,,,,11,,,,1.7,136*78
$GLGMP,113037.00,,,,,,09,,,,,*71
$GAGMP,113037.00,,,,,,08,,,,,*7D
$GBGMP,113037.00,,,,,,12,,,,,*75
$PSSN,SNC,[0,300655000,2347]*41
$GPZDA,113042.00,01,01,2025,,*66
$GPDTM,W84,,00.0000000,N,00.0000000,E,00.0000000,W84*5F
$PSSN,TFM,113042.00,,,,*6A
$GPRMC,113042.00,A,4742.1600632,N,01618.1002882,E,0.0,,010125,5.1,E,D*12
$GPGLL,4742.1600632,N,01618.1002882,E,113042.00,A,D*63
$GPGGA,113042.00,4742.1600632,N,01618.1002882,E,2,40,0.4,708.0425,M,43.2066,M,2.7,0136*46
$GNGNS,113042.00,4742.1600632,N,01618.1002882,E,DAAA,40,0.4,708.0425,43.2066,,*5B
$GPGNS,113042.00,,,,,,11,,,,2.7,136*79
$GLGNS,113042.00,,,,,,09,,,,,*73
$GAGNS,113042.00,,,,,,08,,,,,*7F
$GBGNS,113042.00,,,,,,12,,,,,*77
$GPLLQ,113042.00,010125,,M,,M,1,40,0.920,,M*1B
$GPVTG,,T,,M,0.00,N,0.01,K,D*27
$GPHDT,,T*1B
$GPTHS,,V*0E
$GPROT,,V*08
$PSSN,HRP,113042.00,010125,,,,,,,00,0,,*64
$PTNL,AVR,113042.00,,Yaw,,Tilt,,,,0,,00*32
$GPGSA,A,3,10,12,13,14,15,17,19,23,24,25,32,,0.7,0.4,0.6*39
$GPGSA,A,3,66,67,68,76,77,78,85,86,87,,,,0.7,0.4,0.6*3A
$GPGSA,A,3,02,03,07,08,10,11,25,30,,,,,0.7,0.4,0.6*3C
$GPGSA,A,3,05,07,10,14,24,26,33,35,40,42,45,60,0.7,0.4,0.6*30
$GPGST,113042.00,2.941,0.451,0.355,339.290,0.440,0.368,0.719*5F
$GPGBS,113042.00,2.596,2.077,5.015,77,0.0001,-8.077,6.056*70
$GPGRS,113042.00,1,-0.0,0.3,-0.5,-5.0,0.5,0.2,0.2,-0.8,-0.1,-0.1,-0.7,*41
$GPGRS,113042.00,1,-3.1,6.7,7.5,-2.7,-8.1,-3.3,5.0,2.6,-4.7,,,*47
$GPGRS,113042.00,1,0.2,-0.6,0.3,0.5,-0.3,-0.0,0.4,0.2,,,,*61
$GPGRS,113042.00,1,0.6,0.1,1.3,1.3,0.1,-1.4,-0.1,-0.9,0.1,0.3,1.2,-1.2*42
$GPGSV,6,1,22,24,81,299,51,15,33,195,46,22,26,060,,13,17,161,41*79
$GPGSV,6,2,22,10,13,301,41,17,32,052,45,19,50,088,47,12,49,245,48*77
$GPGSV,6,3,22,14,05,064,38,23,09,260,39,06,05,112,34,25,10,247,38*79
$GPGSV,6,4,22,32,06,325,40,36,35,170,45,58,13,245,36,40,23,133,37*71
$GPGSV,6,5,22,34,31,208,43,49,34,195,45,57,07,111,37,41,07,108,35*79
$GPGSV,6,6,22,61,03,257,38*46
$GLGSV,3,1,09,77,63,313,46,85,21,030,46,78,12,269,45,87,12,136,41*6A
$GLGSV,3,2,09,66,25,203,48,86,30,090,48,68,26,327,48,76,49,052,50*61
$GLGSV,3,3,09,67,50,268,51*50
$GAGSV,3,1,11,02,74,054,49,03,13,162,38,11,11,058,35,07,48,295,46*64
$GAGSV,3,2,11,25,21,060,40,08,55,199,48,30,49,243,47,10,09,032,37*6F
$GAGSV,3,3,11,29,03,325,37,12,03,011,30,36,05,104,37*52
$GBGSV,5,1,20,26,67,070,51,44,15,158,,41,13,327,,07,21,051,38*69
$GBGSV,5,2,20,45,13,086,41,40,18,039,41,05,20,130,39,42,23,217,44*68
$GBGSV,5,3,20,35,35,111,48,10,33,058,42,33,35,278,47,14,34,246,45*63
$GBGSV,5,4,20,56,38,061,,24,55,282,50,25,54,273,,23,03,262,*68
$GBGSV,5,5,20,50,09,197,,02,04,109,31,57,01,337,,60,07,111,40*66
$GPGGA,113042.00,,,,,0,00,,,M,,M,,*4D
$PTNL,GGK,113042.00,010125,4742.1600632,N,01618.1002882,E,1,40,0.7,EHT751.2491,M*4B
$GPGGQ,113042.00,010125,4742.1600632,N,01618.1002882,E,1,40,0.920,708.0425,M*38
$GPGFA,113042.00,4.286,5.894,0.451,0.355,339.290,0.719,,VVV*00
$GPLLK,113042.00,010125,,M,,M,1,40,0.8,,M*02
$GNGMP,113042.00,,,,,DAAA,40,0.4,,,,*53
$GPGMP,113042.00,,,,,,11,,,,2.7,136*79
$GLGMP,113042.00,,,,,,09,,,,,*73
$GAGMP,113042.00,,,,,,08,,,,,*7F
$GBGMP,113042.00,,,,,,12,,,,,*77
$PSSN,SNC,[0,300660000,2347]*47
$GPZDA,113047.00,01,01,2025,,*63
$GPDTM,W84,,00.0000000,N,00.0000000,E,00.0000000,W84*5F
$PSSN,TFM,113047.00,,,,*6F
$GPRMC,113047.00,A,4742.1600624,N,01618.1002877,E,0.0,,010125,5.1,E,D*1A
$GPGLL,4742.1600624,N,01618.1002877,E,113047.00,A,D*6B
$GPGGA,113047.00,4742.1600624,N,01618.1002877,E,2,39,0.4,708.0361,M,43.2066,M,3.4,0136*45
$GNGNS,113047.00,4742.1600624,N,01618.1002877,E,DAAA,39,0.4,708.0361,43.2066,,*5A
$GPGNS,113047.00,,,,,,11,,,,3.4,136*7E
$GLGNS,113047.00,,,,,,09,,,,,*76
$GAGNS,113047.00,,,,,,07,,,,,*75
$GBGNS,113047.00,,,,,,12,,,,,*72
$GPLLQ,113047.00,010125,,M,,M,1,39,0.894,,M*1E
$GPVTG,,T,,M,0.01,N,0.01,K,D*26
$GPHDT,,T*1B
$GPTHS,,V*0E
$GPROT,,V*08
$PSSN,HRP,113047.00,010125,,,,,,,00,0,,*61
$PTNL,AVR,113047.00,,Yaw,,Tilt,,,,0,,00*37
$GPGSA,A,3,10,12,13,14,15,17,19,23,24,25,32,,0.7,0.4,0.6*39
$GPGSA,A,3,66,67,68,76,77,78,85,86,87,,,,0.7,0.4,0.6*3A
$GPGSA,A,3,02,03,07,08,10,25,30,,,,,,0.7,0.4,0.6*3C
$GPGSA,A,3,05,07,10,14,24,26,33,35,40,42,45,60,0.7,0.4,0.6*30
$GPGST,113047.00,2.852,0.436,0.346,339.132,0.426,0.359,0.700*5B
$GPGBS,113047.00,2.610,2.095,5.109,77,0.0001,-7.838,6.056*74
$GPGRS,113047.00,1,0.8,0.1,-0.4,-5.1,0.5,0.2,0.0,-0.5,-0.2,0.2,-0.9,*4F
$GPGRS,113047.00,1,-3.7,6.5,7.4,-2.2,-7.8,-3.6,3.5,2.1,-3.4,,,*41
$GPGRS,113047.00,1,-0.0,-0.6,0.0,0.6,0.2,0.1,-0.1,,,,,*4F
$GPGRS,113047.00,1,0.3,-0.5,1.4,1.6,0.2,-1.6,-0.1,-1.3,-0.0,0.2,0.8,-1.6*41
$GPGSV,6,1,22,24,81,299,50,15,33,195,46,22,26,060,,13,17,161,41*78
$GPGSV,6,2,22,10,13,301,41,17,32,052,45,19,50,088,47,12,49,245,48*77
$GPGSV,6,3,22,14,05,064,38,23,09,260,39,06,05,112,34,25,10,247,38*79
$GPGSV,6,4,22,32,06,325,40,36,35,170,45,58,13,245,36,40,23,133,37*71
$GPGSV,6,5,22,34,31,208,43,49,34,195,44,57,07,111,37,41,07,108,35*78
$GPGSV,6,6,22,61,03,257,38*46
$GLGSV,3,1,09,77,63,313,47,85,21,030,46,78,12,269,46,87,12,136,42*6B
$GLGSV,3,2,09,66,25,203,48,86,30,090,47,68,26,327,48,76,49,052,51*6F
$GLGSV,3,3,09,67,50,268,51*50
$GAGSV,3,1,11,02,74,054,49,03,13,162,38,11,11,058,34,07,48,295,46*65
$GAGSV,3,2,11,25,21,060,40,08,55,199,48,30,49,243,47,10,09,032,37*6F
$GAGSV,3,3,11,29,03,325,36,12,03,011,31,36,05,104,37*52
$GBGSV,5,1,20,26,67,070,51,44,16,158,,41,13,327,,07,21,051,38*6A
$GBGSV,5,2,20,45,13,086,41,40,18,039,41,05,20,130,39,42,23,217,44*68
$GBGSV,5,3,20,35,35,111,47,10,33,058,42,33,35,278,47,14,34,246,44*6D
$GBGSV,5,4,20,56,38,061,,24,55,282,50,25,54,273,,23,03,262,*68
$GBGSV,5,5,20,50,09,197,,02,04,109,31,57,01,337,,60,07,111,40*66
$GPGGA,113047.00,,,,,0,00,,,M,,M,,*48
$PTNL,GGK,113047.00,010125,4742.1600624,N,01618.1002877,E,1,39,0.7,EHT751.2427,M*40
$GPGGQ,113047.00,010125,4742.1600624,N,01618.1002877,E,1,39,0.894,708.0361,M*37
$GPGFA,113047.00,4.147,5.739,0.436,0.346,339.132,0.700,,VVV*03
$GPLLK,113047.00,010125,,M,,M,1,39,0.8,,M*09
$GNGMP,113047.00,,,,,DAAA,39,0.4,,,,*58
$GPGMP,113047.00,,,,,,11,,,,3.4,136*7E
$GLGMP,113047.00,,,,,,09,,,,,*76
$GAGMP,113047.00,,,,,,07,,,,,*75
$GBGMP,113047.00,,,,,,12,,,,,*72
$PSSN,SNC,[0,300665000,2347]*42
$GPZDA,113052.00,01,01,2025,,*67
$GPDTM,W84,,00.0000000,N,00.0000000,E,00.0000000,W84*5F
$PSSN,TFM,113052.00,,,,*6B
$GPRMC,113052.00,A,4742.1600639,N,01618.1002899,E,0.0,,010125,5.1,E,D*12
$GPGLL,4742.1600639,N,01618.1002899,E,113052.00,A,D*63
$GPGGA,113052.00,4742.1600639,N,01618.1002899,E,2,39,0.4,708.0386,M,43.2066,M,2.2,0136*43
$GNGNS,113052.00,4742.1600639,N,01618.1002899,E,DAAA,39,0.4,708.0386,43.2066,,*5B
$GPGNS,113052.00,,,,,,11,,,,2.2,136*7D
$GLGNS,113052.00,,,,,,09,,,,,*72
$GAGNS,113052.00,,,,,,07,,,,,*71
$GBGNS,113052.00,,,,,,12,,,,,*76
$GPLLQ,113052.00,010125,,M,,M,1,39,0.888,,M*17
$GPVTG,,T,,M,0.00,N,0.01,K,D*27
$GPHDT,,T*1B
$GPTHS,,V*0E
$GPROT,,V*08
$PSSN,HRP,113052.00,010125,,,,,,,00,0,,*65
$PTNL,AVR,113052.00,,Yaw,,Tilt,,,,0,,00*33
$GPGSA,A,3,10,12,13,14,15,17,19,23,24,25,32,,0.7,0.4,0.6*39
$GPGSA,A,3,66,67,68,76,77,78,85,86,87,,,,0.7,0.4,0.6*3A
$GPGSA,A,3,02,03,07,08,10,25,30,,,,,,0.7,0.4,0.6*3C
$GPGSA,A,3,05,07,10,14,24,26,33,35,40,42,45,60,0.7,0.4,0.6*30
$GPGST,113052.00,2.744,0.435,0.343,338.695,0.424,0.357,0.694*5A
$GPGBS,113052.00,2.658,2.096,5.099,77,0.0001,-7.538,6.056*7A
$GPGRS,113052.00,1,0.1,0.2,-0.5,-5.5,0.3,0.5,-0.1,-0.5,-0.1,0.4,-0.5,*60
$GPGRS,113052.00,1,-3.2,5.9,6.4,-2.3,-7.5,-4.2,4.0,1.8,-3.2,,,*4F
$GPGRS,113052.00,1,-0.1,-0.8,-0.1,0.4,0.4,0.1,-0.1,,,,,*6C
$GPGRS,113052.00,1,0.2,-0.5,1.0,1.8,0.3,-1.6,0.1,-1.2,-0.1,0.2,0.7,-2.0*68
$GPGSV,6,1,22,24,81,299,50,15,33,195,46,25,10,247,38,13,17,161,41*76
$GPGSV,6,2,22,10,13,301,40,22,26,060,,17,32,052,45,19,50,088,47*75
$GPGSV,6,3,22,12,49,245,49,23,09,260,39,06,05,112,34,14,05,064,38*75
$GPGSV,6,4,22,32,06,325,40,36,35,170,45,58,13,245,36,40,23,133,37*71
$GPGSV,6,5,22,34,31,208,43,49,34,195,45,57,07,111,37,41,07,108,35*79
$GPGSV,6,6,22,61,03,257,38*46
$GLGSV,3,1,09,77,63,313,46,85,21,030,47,78,12,269,45,87,12,136,41*6B
$GLGSV,3,2,09,66,25,203,49,86,30,090,47,68,26,327,47,76,49,052,51*61
$GLGSV,3,3,09,67,50,268,51*50
$GAGSV,3,1,11,02,74,054,49,03,13,162,38,11,11,058,35,07,48,295,46*64
$GAGSV,3,2,11,25,21,060,40,08,55,199,48,30,49,243,47,10,09,032,37*6F
$GAGSV,3,3,11,29,03,325,37,12,03,011,31,36,05,104,37*53
$GBGSV,5,1,20,26,67,070,51,44,16,158,,45,13,087,41,41,13,327,*68
$GBGSV,5,2,20,40,18,039,41,05,20,130,39,07,21,051,38,42,23,217,44*6B
$GBGSV,5,3,20,35,35,111,47,10,33,058,42,33,35,278,47,14,34,246,45*6C
$GBGSV,5,4,20,56,38,061,,24,55,282,50,25,54,273,,23,03,262,*68
$GBGSV,5,5,20,50,09,197,,02,04,109,31,57,01,336,,60,07,111,40*67
$GPGGA,113052.00,,,,,0,00,,,M,,M,,*4C
$PTNL,GGK,113052.00,010125,4742.1600639,N,01618.1002899,E,1,39,0.7,EHT751.2451,M*49
$GPGGQ,113052.00,010125,4742.1600639,N,01618.1002899,E,1,39,0.888,708.0386,M*3B
$GPGFA,113052.00,4.132,5.690,0.435,0.343,338.695,0.694,,VVV*06
$GPLLK,113052.00,010125,,M,,M,1,39,0.8,,M*0D
$GNGMP,113052.00,,,,,DAAA,39,0.4,,,,*5C
$GPGMP,113052.00,,,,,,11,,,,2.2,136*7D
$GLGMP,113052.00,,,,,,09,,,,,*72
$GAGMP,113052.00,,,,,,07,,,,,*71
$GBGMP,113052.00,,,,,,12,,,,,*76
$PSSN,SNC,[0,300670000,2347]*46
$GPZDA,113057.00,01,01,2025,,*62
$GPDTM,W84,,00.0000000,N,00.0000000,E,00.0000000,W84*5F
$PSSN,TFM,113057.00,,,,*6E
$GPRMC,113057.00,A,4742.1600623,N,01618.1002910,E,0.0,,010125,5.1,E,D*1C
$GPGLL,4742.1600623,N,01618.1002910,E,113057.00,A,D*6D
$GPGGA,113057.00,4742.1600623,N,01618.1002910,E,2,39,0.4,708.0381,M,43.2066,M,1.7,0136*4C
$GNGNS,113057.00,4742.1600623,N,01618.1002910,E,DAAA,39,0.4,708.0381,43.2066,,*52
$GPGNS,113057.00,,,,,,11,,,,1.7,136*7E
$GLGNS,113057.00,,,,,,09,,,,,*77
$GAGNS,113057.00,,,,,,07,,,,,*74
$GBGNS,113057.00,,,,,,12,,,,,*73
$GPLLQ,113057.00,010125,,M,,M,1,39,0.890,,M*1B
$GPVTG,,T,,M,0.00,N,0.01,K,D*27
$GPHDT,,T*1B
$GPTHS,,V*0E
$GPROT,,V*08
$PSSN,HRP,113057.00,010125,,,,,,,00,0,,*60
$PTNL,AVR,113057.00,,Yaw,,Tilt,,,,0,,00*36
$GPGSA,A,3,10,12,13,14,15,17,19,23,24,25,32,,0.7,0.4,0.6*39
$GPGSA,A,3,66,67,68,76,77,78,85,86,87,,,,0.7,0.4,0.6*3A
$GPGSA,A,3,02,03,07,08,10,25,30,,,,,,0.7,0.4,0.6*3C
$GPGSA,A,3,05,07,10,14,24,26,33,35,40,42,45,60,0.7,0.4,0.6*30
$GPGST,113057.00,2.777,0.439,0.344,338.667,0.428,0.358,0.694*5A
$GPGBS,113057.00,2.591,2.078,4.964,77,0.0001,-7.770,6.056*7D
$GPGRS,113057.00,1,1.0,0.4,-0.0,-4.8,0.3,0.4,-0.5,-0.8,-0.1,-0.1,-0.7,*48
$GPGRS,113057.00,1,-2.6,6.0,5.8,-2.7,-7.8,-4.4,4.1,2.1,-4.6,,,*4D
$GPGRS,113057.00,1,-0.0,-0.7,-0.1,0.5,0.0,0.3,0.0,,,,,*4C
$GPGRS,113057.00,1,0.7,-0.4,1.1,2.5,0.3,-1.5,-0.1,-0.7,0.1,-0.2,0.6,-1.7*49
$GPGSV,6,1,22,24,81,299,50,15,33,195,46,25,10,247,39,13,17,161,41*77
$GPGSV,6,2,22,10,13,301,40,22,26,060,,17,32,052,45,19,50,088,47*75
$GPGSV,6,3,22,12,49,245,49,23,09,260,39,06,05,112,34,14,05,064,38*75
$GPGSV,6,4,22,32,06,325,40,36,35,170,45,58,13,245,36,40,23,133,37*71
$GPGSV,6,5,22,34,31,208,43,49,34,195,45,57,07,111,37,41,07,108,35*79
$GPGSV,6,6,22,61,03,257,38*46
$GLGSV,3,1,09,77,63,313,46,85,21,030,46,78,12,269,46,87,12,136,41*69
$GLGSV,3,2,09,66,25,203,49,86,30,090,47,68,26,327,47,76,49,052,51*61
$GLGSV,3,3,09,67,50,268,51*50
$GAGSV,3,1,11,02,74,054,49,03,13,162,38,11,11,058,35,07,48,295,46*64
$GAGSV,3,2,11,25,21,060,40,08,55,199,48,30,49,243,47,10,09,032,37*6F
$GAGSV,3,3,11,29,03,325,36,12,03,011,30,36,05,104,37*53
$GBGSV,5,1,20,26,67,070,50,44,16,158,,45,13,087,41,41,13,327,*69
$GBGSV,5,2,20,40,18,039,41,05,20,130,39,07,21,051,38,42,23,217,44*6B
$GBGSV,5,3,20,35,35,111,47,10,33,058,42,33,35,278,47,14,34,246,45*6C
$GBGSV,5,4,20,56,38,061,,24,55,283,50,25,54,273,,23,03,262,*69
$GBGSV,5,5,20,50,09,197,,02,04,109,31,57,01,336,,60,07,111,40*67
$GPGGA,113057.00,,,,,0,00,,,M,,M,,*49
$PTNL,GGK,113057.00,010125,4742.1600623,N,01618.1002910,E,1,39,0.7,EHT751.2446,M*41
$GPGGQ,113057.00,010125,4742.1600623,N,01618.1002910,E,1,39,0.890,708.0381,M*3B
$GPGFA,113057.00,4.173,5.692,0.439,0.344,338.667,0.694,,VVV*02
$GPLLK,113057.00,010125,,M,,M,1,39,0.8,,M*08
$GNGMP,113057.00,,,,,DAAA,39,0.4,,,,*59
$GPGMP,113057.00,,,,,,11,,,,1.7,136*7E
$GLGMP,113057.00,,,,,,09,,,,,*77
$GAGMP,113057.00,,,,,,07,,,,,*74
$GBGMP,113057.00,,,,,,12,,,,,*73
$PSSN,SNC,[0,300675000,2347]*43
$GPZDA,113102.00,01,01,2025,,*63
$GPDTM,W84,,00.0000000,N,00.0000000,E,00.0000000,W84*5F
$PSSN,TFM,113102.00,,,,*6F
$GPRMC,113102.00,A,4742.1600617,N,01618.1002926,E,0.0,,010125,5.1,E,D*1F
$GPGLL,4742.1600617,N,01618.1002926,E,113102.00,A,D*6E
$GPGGA,113102.00,4742.1600617,N,01618.1002926,E,2,41,0.4,708.0352,M,43.2066,M,2.7,0136*4D
$GNGNS,113102.00,4742.1600617,N,01618.1002926,E,DAAA,41,0.4,708.0352,43.2066,,*50
$GPGNS,113102.00,,,,,,11,,,,2.7,136*7C
$GLGNS,113102.00,,,,,,09,,,,,*76
$GAGNS,113102.00,,,,,,09,,,,,*7B
$GBGNS,113102.00,,,,,,12,,,,,*72
$GPLLQ,113102.00,010125,,M,,M,1,41,0.895,,M*10
$GPVTG,,T,,M,0.01,N,0.01,K,D*26
$GPHDT,,T*1B
$GPTHS,,V*0E
$GPROT,,V*08
$PSSN,HRP,113102.00,010125,,,,,,,00,0,,*61
$PTNL,AVR,113102.00,,Yaw,,Tilt,,,,0,,00*37
$GPGSA,A,3,10,12,13,14,15,17,19,23,24,25,32,,0.7,0.4,0.6*39
$GPGSA,A,3,66,67,68,76,77,78,85,86,87,,,,0.7,0.4,0.6*3A
$GPGSA,A,3,02,03,07,08,10,11,25,30,36,,,,0.7,0.4,0.6*39
$GPGSA,A,3,05,07,10,14,24,26,33,35,40,42,45,60,0.7,0.4,0.6*30
$GPGST,113102.00,3.017,0.440,0.346,339.232,0.429,0.359,0.699*5F
$GPGBS,113102.00,2.600,2.076,4.990,77,0.0001,-7.764,6.056*77
$GPGRS,113102.00,1,0.3,0.0,-0.0,-5.2,0.6,0.3,-0.2,-1.2,0.1,0.0,-0.8,*44
$GPGRS,113102.00,1,-3.5,6.6,6.5,-3.2,-7.8,-3.3,4.7,2.1,-3.7,,,*42
$GPGRS,113102.00,1,0.2,-0.5,0.0,0.5,0.6,0.2,0.2,0.3,-6.7,,,*66
$GPGRS,113102.00,1,0.8,0.2,0.9,2.5,0.2,-1.6,0.1,-0.6,0.3,-0.1,0.6,-1.6*4B
$GPGSV,6,1,22,24,81,299,50,15,33,195,45,25,10,247,38,13,17,161,40*74
$GPGSV,6,2,22,10,13,301,40,22,26,060,,17,32,052,45,19,50,088,47*75
$GPGSV,6,3,22,12,49,245,49,23,09,260,40,06,05,112,34,14,05,064,38*7B
$GPGSV,6,4,22,32,06,325,39,36,35,170,45,58,13,245,36,40,23,133,37*7F
$GPGSV,6,5,22,34,31,208,43,49,34,195,45,57,07,111,37,41,07,108,35*79
$GPGSV,6,6,22,61,03,257,38*46
$GLGSV,3,1,09,77,63,313,46,85,21,030,46,78,12,269,46,87,12,136,42*6A
$GLGSV,3,2,09,66,25,203,49,86,30,090,47,68,26,327,47,76,49,053,50*61
$GLGSV,3,3,09,67,50,267,51*5F
$GAGSV,3,1,11,02,74,054,49,03,13,162,38,11,11,058,35,07,48,295,46*64
$GAGSV,3,2,11,25,21,060,40,08,54,199,48,30,49,243,47,10,09,032,38*61
$GAGSV,3,3,11,29,03,325,37,12,03,011,31,36,05,104,37*53
$GBGSV,5,1,20,26,67,070,50,44,16,158,,45,13,087,41,41,13,327,*69
$GBGSV,5,2,20,40,18,039,41,05,20,130,39,07,21,051,39,42,23,217,44*6A
$GBGSV,5,3,20,35,35,111,47,10,33,058,41,33,35,278,46,14,34,246,45*6E
$GBGSV,5,4,20,56,38,061,,24,55,283,50,25,54,273,,23,03,262,*69
$GBGSV,5,5,20,50,09,197,,02,04,109,31,57,01,336,,60,07,111,40*67
$GPGGA,113102.00,,,,,0,00,,,M,,M,,*48
$PTNL,GGK,113102.00,010125,4742.1600617,N,01618.1002926,E,1,41,0.7,EHT751.2418,M*46
$GPGGQ,113102.00,010125,4742.1600617,N,01618.1002926,E,1,41,0.895,708.0352,M*3C
$GPGFA,113102.00,4.183,5.730,0.440,0.346,339.232,0.699,,VVV*01
$GPLLK,113102.00,010125,,M,,M,1,41,0.8,,M*06
$GNGMP,113102.00,,,,,DAAA,41,0.4,,,,*57
$GPGMP,113102.00,,,,,,11,,,,2.7,136*7C
$GLGMP,113102.00,,,,,,09,,,,,*76
$GAGMP,113102.00,,,,,,09,,,,,*7B
$GBGMP,113102.00,,,,,,12,,,,,*72
$PSSN,SNC,[0,300680000,2347]*49
$GPZDA,113107.00,01,01,2025,,*66
$GPDTM,W84,,00.0000000,N,00.0000000,E,00.0000000,W84*5F
$PSSN,TFM,113107.00,,,,*6A
$GPRMC,113107.00,A,4742.1600635,N,01618.1002912,E,0.0,,010125,5.1,E,D*1D
$GPGLL,4742.1600635,N,01618.1002912,E,113107.00,A,D*6C
$GPGGA,113107.00,4742.1600635,N,01618.1002912,E,2,41,0.4,708.0341,M,43.2066,M,3.4,0136*4F
$GNGNS,113107.00,4742.1600635,N,01618.1002912,E,DAAA,41,0.4,708.0341,43.2066,,*50
$GPGNS,113107.00,,,,,,11,,,,3.4,136*7B
$GLGNS,113107.00,,,,,,09,,,,,*73
$GAGNS,113107.00,,,,,,09,,,,,*7E
$GBGNS,113107.00,,,,,,12,,,,,*77
$GPLLQ,113107.00,010125,,M,,M,1,41,0.923,,M*19
$GPVTG,,T,,M,0.01,N,0.01,K,D*26
$GPHDT,,T*1B
$GPTHS,,V*0E
$GPROT,,V*08
$PSSN,HRP,113107.00,010125,,,,,,,00,0,,*64
$PTNL,AVR,113107.00,,Yaw,,Tilt,,,,0,,00*32
$GPGSA,A,3,10,12,13,14,15,17,19,23,24,25,32,,0.7,0.4,0.6*39
$GPGSA,A,3,66,67,68,76,77,78,85,86,87,,,,0.7,0.4,0.6*3A
$GPGSA,A,3,02,03,07,08,10,11,25,30,36,,,,0.7,0.4,0.6*39
$GPGSA,A,3,05,07,10,14,24,26,33,35,40,42,45,60,0.7,0.4,0.6*30
$GPGST,113107.00,3.013,0.452,0.357,339.106,0.441,0.370,0.722*5D
$GPGBS,113107.00,2.612,2.087,5.059,77,0.0001,-7.411,6.056*73
$GPGRS,113107.00,1,0.5,-0.1,0.1,-4.8,0.5,0.6,-0.1,-1.0,0.1,-0.4,-0.9,*63
$GPGRS,113107.00,1,-3.6,6.6,6.6,-3.3,-7.4,-3.3,4.8,1.8,-4.1,,,*4E
$GPGRS,113107.00,1,-0.1,-0.8,0.2,0.4,0.5,0.3,0.1,0.2,-6.7,,,*43
$GPGRS,113107.00,1,0.3,0.3,0.8,2.9,0.0,-1.7,-0.1,-1.2,-0.1,0.1,0.1,-1.6*67
$GPGSV,6,1,22,24,81,299,50,15,33,195,45,25,10,248,38,13,17,162,40*78
$GPGSV,6,2,22,10,13,301,40,22,26,060,,17,32,052,45,19,50,088,47*75
$GPGSV,6,3,22,12,49,245,48,23,09,260,39,06,05,112,34,14,05,064,37*7B
$GPGSV,6,4,22,32,06,325,39,36,35,170,45,58,13,245,36,40,23,133,37*7F
$GPGSV,6,5,22,34,31,208,43,49,34,195,45,57,07,111,37,41,07,108,35*79
$GPGSV,6,6,22,61,03,257,38*46
$GLGSV,3,1,09,77,64,313,47,85,21,030,46,78,12,269,46,87,12,136,41*6F
$GLGSV,3,2,09,66,25,203,48,86,30,090,47,68,26,327,47,76,49,053,50*60
$GLGSV,3,3,09,67,50,267,52*5C
$GAGSV,3,1,11,02,74,054,49,03,13,162,38,11,11,058,35,07,48,295,46*64
$GAGSV,3,2,11,25,21,060,40,08,54,199,49,30,49,243,47,10,09,032,38*60
$GAGSV,3,3,11,29,03,325,37,12,03,010,31,36,05,104,37*52
$GBGSV,5,1,20,26,67,070,51,44,16,158,,45,13,087,40,41,13,327,*69
$GBGSV,5,2,20,40,18,039,41,05,20,130,39,07,21,051,38,42,23,217,44*6B
$GBGSV,5,3,20,35,35,111,47,10,33,058,41,33,35,278,46,14,34,245,45*6D
$GBGSV,5,4,20,56,38,061,,24,55,283,50,25,54,273,,23,03,262,*69
$GBGSV,5,5,20,50,09,197,,02,04,109,31,57,01,336,,60,07,111,39*69
$GPGGA,113107.00,,,,,0,00,,,M,,M,,*4D
$PTNL,GGK,113107.00,010125,4742.1600635,N,01618.1002912,E,1,41,0.7,EHT751.2406,M*4B
$GPGGQ,113107.00,010125,4742.1600635,N,01618.1002912,E,1,41,0.923,708.0341,M*30
$GPGFA,113107.00,4.295,5.919,0.452,0.357,339.106,0.722,,VVV*03
$GPLLK,113107.00,010125,,M,,M,1,41,0.8,,M*03
$GNGMP,113107.00,,,,,DAAA,41,0.4,,,,*52
$GPGMP,113107.00,,,,,,11,,,,3.4,136*7B
$GLGMP,113107.00,,,,,,09,,,,,*73
$GAGMP,113107.00,,,,,,09,,,,,*7E
$GBGMP,113107.00,,,,,,12,,,,,*77
$PSSN,SNC,[0,300685000,2347]*4C
$GPZDA,113112.00,01,01,2025,,*62
$GPDTM,W84,,00.0000000,N,00.0000000,E,00.0000000,W84*5F
$PSSN,TFM,113112.00,,,,*6E
$GPRMC,113112.00,A,4742.1600627,N,01618.1002879,E,0.0,,010125,5.1,E,D*16
$GPGLL,4742.1600627,N,01618.1002879,E,113112.00,A,D*67
$GPGGA,113112.00,4742.1600627,N,01618.1002879,E,2,41,0.4,708.0292,M,43.2066,M,2.2,0136*4C
$GNGNS,113112.00,4742.1600627,N,01618.1002879,E,DAAA,41,0.4,708.0292,43.2066,,*54
$GPGNS,113112.00,,,,,,11,,,,2.2,136*78
$GLGNS,113112.00,,,,,,09,,,,,*77
$GAGNS,113112.00,,,,,,09,,,,,*7A
$GBGNS,113112.00,,,,,,12,,,,,*73
$GPLLQ,113112.00,010125,,M,,M,1,41,0.883,,M*16
$GPVTG,,T,,M,0.00,N,0.01,K,D*27
$GPHDT,,T*1B
$GPTHS,,V*0E
$GPROT,,V*08
$PSSN,HRP,113112.00,010125,,,,,,,00,0,,*60
$PTNL,AVR,113112.00,,Yaw,,Tilt,,,,0,,00*36
$GPGSA,A,3,10,12,13,14,15,17,19,23,24,25,32,,0.7,0.4,0.6*39
$GPGSA,A,3,66,67,68,76,77,78,85,86,87,,,,0.7,0.4,0.6*3A
$GPGSA,A,3,02,03,07,08,10,11,25,30,36,,,,0.7,0.4,0.6*39
$GPGSA,A,3,05,07,10,14,24,26,33,35,40,42,45,60,0.7,0.4,0.6*30
$GPGST,113112.00,2.991,0.434,0.342,338.337,0.423,0.356,0.689*5E
$GPGBS,113112.00,2.659,2.088,5.051,77,0.0001,-7.281,6.056*70
$GPGRS,113112.00,1,0.9,-0.1,-0.1,-4.7,0.7,0.3,-0.2,-0.8,-0.0,0.1,-0.9,*40
$GPGRS,113112.00,1,-4.0,6.5,6.9,-2.5,-7.3,-3.6,4.2,1.8,-3.9,,,*47
$GPGRS,113112.00,1,-0.1,-0.8,0.1,0.4,0.3,0.6,0.1,-0.1,-7.1,,,*6E
$GPGRS,113112.00,1,0.1,0.1,0.6,2.5,0.1,-1.6,-0.1,-1.2,-0.1,0.2,0.1,-1.5*61
$GPGSV,6,1,22,24,81,299,50,15,33,195,46,25,10,248,38,13,17,162,40*7B
$GPGSV,6,2,22,10,13,301,41,22,25,060,,17,32,052,44,19,50,088,47*76
$GPGSV,6,3,22,12,49,245,48,23,09,260,40,06,05,112,34,14,05,064,37*75
$GPGSV,6,4,22,32,06,325,39,36,35,170,45,58,13,245,36,40,23,133,37*7F
$GPGSV,6,5,22,34,31,208,43,49,34,195,45,57,07,111,37,41,07,108,35*79
$GPGSV,6,6,22,61,03,257,38*46
$GLGSV,3,1,09,77,64,314,46,85,21,030,45,78,12,269,46,87,12,136,42*69
$GLGSV,3,2,09,66,25,203,48,86,30,090,47,68,26,327,48,76,49,053,51*6E
$GLGSV,3,3,09,67,50,267,51*5F
$GAGSV,3,1,11,02,74,054,49,03,13,162,38,11,11,058,35,07,48,295,46*64
$GAGSV,3,2,11,25,21,060,40,08,54,199,48,30,49,244,47,10,09,032,38*66
$GAGSV,3,3,11,29,03,325,37,12,03,010,31,36,05,104,37*52
$GBGSV,5,1,20,26,67,070,51,44,16,158,,41,13,327,,07,21,051,39*6B
$GBGSV,5,2,20,45,13,087,40,40,18,039,41,05,20,130,39,42,23,217,45*69
$GBGSV,5,3,20,35,35,111,47,10,33,058,41,33,35,278,46,14,34,245,45*6D
$GBGSV,5,4,20,56,38,061,,24,55,283,50,25,54,273,,23,03,263,*68
$GBGSV,5,5,20,50,09,197,,02,04,109,31,57,01,336,,60,07,111,40*67
$GPGGA,113112.00,,,,,0,00,,,M,,M,,*49
$PTNL,GGK,113112.00,010125,4742.1600627,N,01618.1002879,E,1,41,0.7,EHT751.2358,M*4C
$GPGGQ,113112.00,010125,4742.1600627,N,01618.1002879,E,1,41,0.883,708.0292,M*3F
$GPGFA,113112.00,4.127,5.646,0.434,0.342,338.337,0.689,,VVV*0D
$GPLLK,113112.00,010125,,M,,M,1,41,0.8,,M*07
$GNGMP,113112.00,,,,,DAAA,41,0.4,,,,*56
$GPGMP,113112.00,,,,,,11,,,,2.2,136*78
$GLGMP,113112.00,,,,,,09,,,,,*77
$GAGMP,113112.00,,,,,,09,,,,,*7A
$GBGMP,113112.00,,,,,,12,,,,,*73
$PSSN,SNC,[0,300690000,2347]*48
$GPZDA,113117.00,01,01,2025,,*67
$GPDTM,W84,,00.0000000,N,00.0000000,E,00.0000000,W84*5F
$PSSN,TFM,113117.00,,,,*6B
$GPRMC,113117.00,A,4742.1600638,N,01618.1002912,E,0.0,,010125,5.1,E,D*11
$GPGLL,4742.1600638,N,01618.1002912,E,113117.00,A,D*60
$GPGGA,113117.00,4742.1600638,N,01618.1002912,E,2,41,0.4,708.0259,M,43.2066,M,1.7,0136*4A
$GNGNS,113117.00,4742.1600638,N,01618.1002912,E,DAAA,41,0.4,708.0259,43.2066,,*54
$GPGNS,113117.00,,,,,,11,,,,1.7,136*7B
$GLGNS,113117.00,,,,,,09,,,,,*72
$GAGNS,113117.00,,,,,,09,,,,,*7F
$GBGNS,113117.00,,,,,,12,,,,,*76
$GPLLQ,113117.00,010125,,M,,M,1,41,0.868,,M*16
$GPVTG,,T,,M,0.01,N,0.01,K,D*26
$GPHDT,,T*1B
$GPTHS,,V*0E
$GPROT,,V*08
$PSSN,HRP,113117.00,010125,,,,,,,00,0,,*65
$PTNL,AVR,113117.00,,Yaw,,Tilt,,,,0,,00*33
$GPGSA,A,3,10,12,13,14,15,17,19,23,24,25,32,,0.7,0.4,0.6*39
$GPGSA,A,3,66,67,68,76,77,78,85,86,87,,,,0.7,0.4,0.6*3A
$GPGSA,A,3,02,03,07,08,10,11,25,30,36,,,,0.7,0.4,0.6*39
$GPGSA,A,3,05,07,10,14,24,26,33,35,40,42,45,60,0.7,0.4,0.6*30
$GPGST,113117.00,2.925,0.429,0.335,338.520,0.418,0.349,0.676*5E
$GPGBS,113117.00,2.593,2.070,4.918,77,0.0001,-7.318,6.056*73
$GPGRS,113117.00,1,0.2,0.3,-0.4,-5.0,0.7,0.0,-0.4,-0.8,0.1,0.4,-1.2,*44
$GPGRS,113117.00,1,-3.5,6.3,6.3,-2.4,-7.3,-3.8,3.6,2.1,-4.5,,,*41
$GPGRS,113117.00,1,-0.0,-0.7,0.1,0.2,-0.2,0.4,0.0,-0.2,-6.9,,,*46
$GPGRS,113117.00,1,0.4,0.1,0.8,1.2,-0.1,-1.6,-0.2,-1.1,0.2,0.1,0.5,-1.9*63
$GPGSV,6,1,22,24,81,299,50,15,33,195,47,25,10,248,38,13,17,162,40*7A
$GPGSV,6,2,22,10,13,301,42,22,25,060,,17,32,052,45,19,50,088,47*74
$GPGSV,6,3,22,12,49,245,48,23,09,260,39,06,05,112,34,14,05,064,38*74
$GPGSV,6,4,22,32,06,325,40,36,35,170,45,58,13,245,36,40,23,133,37*71
$GPGSV,6,5,22,34,31,208,43,49,34,195,45,57,07,111,37,41,07,108,35*79
$GPGSV,6,6,22,61,03,257,38*46
$GLGSV,3,1,09,77,64,314,47,85,21,030,46,78,12,269,45,87,12,136,42*68
$GLGSV,3,2,09,66,25,203,48,86,30,090,48,68,26,327,48,76,49,053,50*60
$GLGSV,3,3,09,67,50,267,51*5F
$GAGSV,3,1,11,02,74,054,49,03,12,162,39,11,11,058,35,07,48,295,46*64
$GAGSV,3,2,11,25,21,060,40,08,54,199,48,30,49,244,47,10,09,032,38*66
$GAGSV,3,3,11,29,03,325,38,12,03,010,31,36,05,104,37*5D
$GBGSV,5,1,20,26,67,070,51,44,16,158,,45,13,087,41,41,13,327,*68
$GBGSV,5,2,20,40,18,039,41,05,20,130,39,07,21,051,39,42,23,217,44*6A
$GBGSV,5,3,20,35,35,111,47,10,33,058,41,33,35,278,47,14,34,245,44*6D
$GBGSV,5,4,20,56,38,061,,24,55,283,50,25,54,273,,23,03,263,*68
$GBGSV,5,5,20,50,09,197,,02,04,109,31,57,01,336,,60,07,111,39*69
$GPGGA,113117.00,,,,,0,00,,,M,,M,,*4C
$PTNL,GGK,113117.00,010125,4742.1600638,N,01618.1002912,E,1,41,0.7,EHT751.2324,M*40
$GPGGQ,113117.00,010125,4742.1600638,N,01618.1002912,E,1,41,0.868,708.0259,M*3A
$GPGFA,113117.00,4.083,5.540,0.429,0.335,338.520,0.676,,VVV*0E
$GPLLK,113117.00,010125,,M,,M,1,41,0.8,,M*02
$GNGMP,113117.00,,,,,DAAA,41,0.4,,,,*53
$GPGMP,113117.00,,,,,,11,,,,1.7,136*7B
$GLGMP,113117.00,,,,,,09,,,,,*72
$GAGMP,113117.00,,,,,,09,,,,,*7F
$GBGMP,113117.00,,,,,,12,,,,,*76
$PSSN,SNC,[0,300695000,2347]*4D
$GPZDA,113122.00,01,01,2025,,*61
$GPDTM,W84,,00.0000000,N,00.0000000,E,00.0000000,W84*5F
$PSSN,TFM,113122.00,,,,*6D
$GPRMC,113122.00,A,4742.1600659,N,01618.1002911,E,0.0,,010125,5.1,E,D*13
$GPGLL,4742.1600659,N,01618.1002911,E,113122.00,A,D*62
$GPGGA,113122.00,4742.1600659,N,01618.1002911,E,2,40,0.4,708.0246,M,43.2066,M,2.8,0136*4B
$GNGNS,113122.00,4742.1600659,N,01618.1002911,E,DAAA,40,0.4,708.0246,43.2066,,*59
$GPGNS,113122.00,,,,,,10,,,,2.8,136*70
$GLGNS,113122.00,,,,,,09,,,,,*74
