$GPZDA,095942.00,01,01,2025,,*60
$GPDTM,W84,,00.0000000,N,00.0000000,E,00.0000000,W84*5F
$PSSN,TFM,095942.00,,,,*6C
$GPRMC,095942.00,A,4742.1598821,N,01618.1000486,E,0.0,,010125,5.1,E,D*10
$GPGLL,4742.1598821,N,01618.1000486,E,095942.00,A,D*61
$GPGGA,095942.00,4742.1598821,N,01618.1000486,E,2,36,0.4,708.3958,M,43.2066,M,2.4,0136*42
$GNGNS,095942.00,4742.1598821,N,01618.1000486,E,DAAA,36,0.4,708.3958,43.2066,,*5C
$GPGNS,095942.00,,,,,,11,,,,2.4,136*7C
$GLGNS,095942.00,,,,,,07,,,,,*7B
$GAGNS,095942.00,,,,,,06,,,,,*77
$GBGNS,095942.00,,,,,,12,,,,,*71
$GPLLQ,095942.00,010125,,M,,M,1,36,0.831,,M*1D
$GPVTG,,T,,M,0.01,N,0.01,K,D*26
$GPHDT,,T*1B
$GPTHS,,V*0E
$GPROT,,V*08
$PSSN,HRP,095942.00,010125,,,,,,,00,0,,*62
$PTNL,AVR,095942.00,,Yaw,,Tilt,,,,0,,00*34
$GPGSA,A,3,05,10,12,13,14,15,17,19,23,24,30,,0.8,0.4,0.7*37
$GPGSA,A,3,65,66,67,75,76,77,85,,,,,,0.8,0.4,0.7*35
$GPGSA,A,3,02,03,07,08,25,30,,,,,,,0.8,0.4,0.7*33
$GPGSA,A,3,05,07,10,14,21,24,26,33,40,42,45,60,0.8,0.4,0.7*3B
$GPGST,095942.00,2.264,0.402,0.287,10.657,0.398,0.291,0.668*68
$GPGBS,095942.00,2.050,1.420,4.021,77,0.0001,-8.355,6.169*74
$GPGRS,095942.00,1,-0.5,0.2,0.6,0.1,-0.1,-0.3,0.5,-0.3,0.5,0.0,-0.9,*46
$GPGRS,095942.00,1,1.8,-1.3,7.2,-1.3,-1.1,-8.4,3.2,,,,,*62
$GPGRS,095942.00,1,0.0,0.5,-0.1,-0.4,0.1,-0.3,,,,,,*62
$GPGRS,095942.00,1,0.4,-0.0,-0.1,1.9,-0.0,-0.3,-0.3,-0.5,-1.0,-0.1,-1.3,-0.1*46
$GPGSV,6,1,23,15,67,246,50,19,27,135,43,12,11,222,40,23,25,299,43*74
$GPGSV,6,2,23,30,14,092,40,14,41,057,46,24,40,286,45,13,60,152,50*7D
$GPGSV,6,3,23,17,37,099,46,22,62,066,,21,01,024,,10,07,336,39*77
$GPGSV,6,4,23,02,02,043,33,05,06,206,38,36,35,170,44,58,13,245,36*7D
$GPGSV,6,5,23,40,23,133,36,34,31,208,42,49,34,195,44,57,07,112,38*78
$GPGSV,6,6,23,41,07,108,35,61,03,257,38*7A
$GLGSV,2,1,08,76,73,300,52,84,14,025,31,85,14,077,43,65,33,179,46*62
$GLGSV,2,2,08,67,29,325,49,77,31,251,42,75,33,049,48,66,69,253,52*63
$GAGSV,3,1,10,08,72,278,49,30,18,220,41,07,22,311,41,16,26,051,*6F
$GAGSV,3,2,10,03,47,151,47,25,50,057,46,02,70,197,49,24,02,047,33*6C
$GAGSV,3,3,10,12,00,038,,33,02,349,36*68
$GBGSV,5,1,19,26,75,274,51,21,30,188,47,05,20,130,38,40,27,044,42*6F
$GBGSV,5,2,19,33,24,317,44,25,22,245,,07,28,056,41,24,24,254,45*6A
$GBGSV,5,3,19,14,43,294,46,50,45,212,,56,35,077,,10,37,068,42*67
$GBGSV,5,4,19,45,43,066,48,42,53,253,50,09,00,095,25,35,06,137,*6E
$GBGSV,5,5,19,02,04,109,31,29,08,037,,60,07,112,40*5F
$GPGGA,095942.00,,,,,0,00,,,M,,M,,*4B
$PTNL,GGK,095942.00,010125,4742.1598821,N,01618.1000486,E,1,36,0.8,EHT751.6023,M*4E
$GPGGQ,095942.00,010125,4742.1598821,N,01618.1000486,E,1,36,0.831,708.3958,M*3E
$GPGFA,095942.00,3.819,5.479,0.402,0.287,10.657,0.668,,VVV*3A
$GPLLK,095942.00,010125,,M,,M,1,36,0.9,,M*04
$GNGMP,095942.00,,,,,DAAA,36,0.4,,,,*54
$GPGMP,095942.00,,,,,,11,,,,2.4,136*7C
$GLGMP,095942.00,,,,,,07,,,,,*7B
$GAGMP,095942.00,,,,,,06,,,,,*77
$GBGMP,095942.00,,,,,,12,,,,,*71
$PSSN,SNC,[0,295200000,2347]*48
$GPZDA,095947.00,01,01,2025,,*65
$GPDTM,W84,,00.0000000,N,00.0000000,E,00.0000000,W84*5F
$PSSN,TFM,095947.00,,,,*69
$GPRMC,095947.00,A,4742.1598816,N,01618.1000483,E,0.0,,010125,5.1,E,D*14
$GPGLL,4742.1598816,N,01618.1000483,E,095947.00,A,D*65
$GPGGA,095947.00,4742.1598816,N,01618.1000483,E,2,36,0.4,708.3977,M,43.2066,M,3.4,0136*4A
$GNGNS,095947.00,4742.1598816,N,01618.1000483,E,DAAA,36,0.4,708.3977,43.2066,,*55
$GPGNS,095947.00,,,,,,11,,,,3.4,136*78
$GLGNS,095947.00,,,,,,07,,,,,*7E
$GAGNS,095947.00,,,,,,06,,,,,*72
$GBGNS,095947.00,,,,,,12,,,,,*74
$GPLLQ,095947.00,010125,,M,,M,1,36,0.842,,M*1C
$GPVTG,,T,,M,0.00,N,0.01,K,D*27
$GPHDT,,T*1B
$GPTHS,,V*0E
$GPROT,,V*08
$PSSN,HRP,095947.00,010125,,,,,,,00,0,,*67
$PTNL,AVR,095947.00,,Yaw,,Tilt,,,,0,,00*31
$GPGSA,A,3,05,10,12,13,14,15,17,19,23,24,30,,0.8,0.4,0.7*37
$GPGSA,A,3,65,66,67,75,76,77,85,,,,,,0.8,0.4,0.7*35
$GPGSA,A,3,02,03,07,08,25,30,,,,,,,0.8,0.4,0.7*33
$GPGSA,A,3,05,07,10,14,21,24,26,33,40,42,45,60,0.8,0.4,0.7*3B
$GPGST,095947.00,2.172,0.406,0.290,10.410,0.403,0.295,0.677*65
$GPGBS,095947.00,2.091,1.434,4.075,77,0.0001,-7.684,6.169*7E
$GPGRS,095947.00,1,-0.6,0.8,0.4,0.3,-0.2,-0.3,0.8,0.1,0.2,-0.1,-1.1,*49
$GPGRS,095947.00,1,1.4,-1.6,6.9,-1.9,-1.5,-7.7,2.3,,,,,*66
$GPGRS,095947.00,1,-0.2,0.4,0.2,-0.6,-0.1,-0.7,,,,,,*4C
$GPGRS,095947.00,1,0.8,0.4,0.0,1.5,-0.0,-0.7,-0.3,-0.6,-1.2,-0.2,-1.7,-0.8*4D
$GPGSV,6,1,23,15,67,246,49,19,27,135,43,12,11,222,40,23,25,299,43*7C
$GPGSV,6,2,23,30,14,092,40,14,41,057,46,24,40,286,45,13,60,152,49*75
$GPGSV,6,3,23,17,37,099,47,22,62,066,,21,01,024,,10,07,336,39*76
$GPGSV,6,4,23,02,02,043,33,05,06,206,38,36,35,170,44,58,13,245,36*7D
$GPGSV,6,5,23,40,23,133,36,34,31,208,42,49,34,195,44,57,07,112,37*77
$GPGSV,6,6,23,41,07,108,35,61,03,257,38*7A
$GLGSV,2,1,08,76,73,301,52,84,14,025,31,85,14,077,42,65,32,179,45*60
$GLGSV,2,2,08,67,29,325,49,77,31,251,42,75,33,049,48,66,69,253,53*62
$GAGSV,3,1,10,08,72,278,49,30,18,220,41,07,22,311,41,16,26,051,*6F
$GAGSV,3,2,10,03,47,151,47,25,50,057,46,02,70,197,49,24,02,047,33*6C
$GAGSV,3,3,10,12,00,038,,33,02,349,36*68
$GBGSV,5,1,19,26,75,274,51,21,29,188,47,05,20,130,38,40,27,044,42*67
$GBGSV,5,2,19,33,24,317,44,25,22,245,,07,28,056,41,24,24,255,44*6A
$GBGSV,5,3,19,14,43,294,46,50,45,212,,56,35,077,,10,37,068,42*67
$GBGSV,5,4,19,45,43,066,47,42,53,253,49,09,00,095,26,35,06,137,*6A
$GBGSV,5,5,19,02,04,109,31,29,08,037,,60,07,112,40*5F
$GPGGA,095947.00,,,,,0,00,,,M,,M,,*4E
$PTNL,GGK,095947.00,010125,4742.1598816,N,01618.1000483,E,1,36,0.8,EHT751.6043,M*4C
$GPGGQ,095947.00,010125,4742.1598816,N,01618.1000483,E,1,36,0.842,708.3977,M*33
$GPGFA,095947.00,3.863,5.554,0.406,0.290,10.410,0.677,,VVV*31
$GPLLK,095947.00,010125,,M,,M,1,36,0.9,,M*01
$GNGMP,095947.00,,,,,DAAA,36,0.4,,,,*51
$GPGMP,095947.00,,,,,,11,,,,3.4,136*78
$GLGMP,095947.00,,,,,,07,,,,,*7E
$GAGMP,095947.00,,,,,,06,,,,,*72
$GBGMP,095947.00,,,,,,12,,,,,*74
$PSSN,SNC,[0,295205000,2347]*4D
$GPZDA,095952.00,01,01,2025,,*61
$GPDTM,W84,,00.0000000,N,00.0000000,E,00.0000000,W84*5F
$PSSN,TFM,095952.00,,,,*6D
$GPRMC,095952.00,A,4742.1598797,N,01618.1000466,E,0.0,,010125,5.1,E,D*1D
$GPGLL,4742.1598797,N,01618.1000466,E,095952.00,A,D*6C
$GPGGA,095952.00,4742.1598797,N,01618.1000466,E,2,36,0.4,708.3974,M,43.2066,M,2.5,0136*40
$GNGNS,095952.00,4742.1598797,N,01618.1000466,E,DAAA,36,0.4,708.3974,43.2066,,*5F
$GPGNS,095952.00,,,,,,11,,,,2.5,136*7C
$GLGNS,095952.00,,,,,,07,,,,,*7A
$GAGNS,095952.00,,,,,,06,,,,,*76
$GBGNS,095952.00,,,,,,12,,,,,*70
$GPLLQ,095952.00,010125,,M,,M,1,36,0.854,,M*1F
$GPVTG,,T,,M,0.00,N,0.00,K,D*26
$GPHDT,,T*1B
$GPTHS,,V*0E
$GPROT,,V*08
$PSSN,HRP,095952.00,010125,,,,,,,00,0,,*63
$PTNL,AVR,095952.00,,Yaw,,Tilt,,,,0,,00*35
$GPGSA,A,3,05,10,12,13,14,15,17,19,23,24,30,,0.8,0.4,0.7*37
$GPGSA,A,3,65,66,67,75,76,77,85,,,,,,0.8,0.4,0.7*35
$GPGSA,A,3,02,03,07,08,25,30,,,,,,,0.8,0.4,0.7*33
$GPGSA,A,3,05,07,10,14,21,24,26,33,40,42,45,60,0.8,0.4,0.7*3B
$GPGST,095952.00,2.222,0.414,0.293,10.988,0.410,0.298,0.687*6B
$GPGBS,095952.00,2.052,1.467,4.163,77,0.0001,-7.871,6.169*71
$GPGRS,095952.00,1,-1.0,0.6,0.3,0.1,-0.1,-0.2,0.9,0.4,0.3,-0.5,-1.2,*41
$GPGRS,095952.00,1,1.2,-1.6,7.4,-1.6,-1.2,-7.9,2.4,,,,,*69
$GPGRS,095952.00,1,-0.1,0.4,-0.0,-0.4,0.1,-0.8,,,,,,*44
$GPGRS,095952.00,1,0.7,0.3,-0.1,1.4,-0.0,-0.1,-0.3,-0.7,-1.2,-0.1,-1.6,-0.5*64
$GPGSV,6,1,23,15,67,246,49,19,27,135,43,12,11,222,40,23,25,299,43*7C
$GPGSV,6,2,23,30,13,092,39,14,41,057,45,24,40,286,45,13,60,152,50*77
$GPGSV,6,3,23,17,37,099,46,22,62,066,,21,01,024,,10,07,336,40*79
$GPGSV,6,4,23,02,02,043,32,05,06,206,39,36,35,170,44,58,13,245,36*7D
$GPGSV,6,5,23,40,23,133,37,34,31,208,42,49,34,195,44,57,07,112,38*79
$GPGSV,6,6,23,41,07,108,35,61,03,257,38*7A
$GLGSV,2,1,08,76,73,301,52,84,14,025,32,85,14,077,43,65,32,179,45*62
$GLGSV,2,2,08,67,30,325,50,77,31,251,42,75,33,049,49,66,69,253,52*62
$GAGSV,3,1,10,08,72,278,48,30,18,220,40,07,22,311,41,16,26,051,*6F
$GAGSV,3,2,10,03,47,151,46,25,50,057,46,02,70,197,49,24,02,047,33*6D
$GAGSV,3,3,10,12,00,038,,33,02,349,36*68
$GBGSV,5,1,19,26,75,274,51,21,29,188,47,05,20,130,38,40,27,044,42*67
$GBGSV,5,2,19,33,24,317,44,25,22,245,,07,28,056,41,24,24,255,45*6B
$GBGSV,5,3,19,14,43,294,46,50,45,211,,56,35,077,,10,37,068,42*64
$GBGSV,5,4,19,45,43,066,48,42,53,253,49,09,00,095,25,35,06,137,*66
$GBGSV,5,5,19,02,04,109,31,29,08,037,,60,07,112,40*5F
$GPGGA,095952.00,,,,,0,00,,,M,,M,,*4A
$PTNL,GGK,095952.00,010125,4742.1598797,N,01618.1000466,E,1,36,0.8,EHT751.6040,M*46
$GPGGQ,095952.00,010125,4742.1598797,N,01618.1000466,E,1,36,0.854,708.3974,M*3E
$GPGFA,095952.00,3.938,5.637,0.414,0.293,10.988,0.687,,VVV*3F
$GPLLK,095952.00,010125,,M,,M,1,36,0.9,,M*05
$GNGMP,095952.00,,,,,DAAA,36,0.4,,,,*55
$GPGMP,095952.00,,,,,,11,,,,2.5,136*7C
$GLGMP,095952.00,,,,,,07,,,,,*7A
$GAGMP,095952.00,,,,,,06,,,,,*76
$GBGMP,095952.00,,,,,,12,,,,,*70
$PSSN,SNC,[0,295210000,2347]*49
$GPZDA,095957.00,01,01,2025,,*64
$GPDTM,W84,,00.0000000,N,00.0000000,E,00.0000000,W84*5F
$PSSN,TFM,095957.00,,,,*68
$GPRMC,095957.00,A,4742.1598794,N,01618.1000419,E,0.0,,010125,5.1,E,D*13
$GPGLL,4742.1598794,N,01618.1000419,E,095957.00,A,D*62
$GPGGA,095957.00,4742.1598794,N,01618.1000419,E,2,36,0.4,708.3939,M,43.2066,M,1.7,0136*46
$GNGNS,095957.00,4742.1598794,N,01618.1000419,E,DAAA,36,0.4,708.3939,43.2066,,*58
$GPGNS,095957.00,,,,,,11,,,,1.7,136*78
$GLGNS,095957.00,,,,,,07,,,,,*7F
$GAGNS,095957.00,,,,,,06,,,,,*73
$GBGNS,095957.00,,,,,,12,,,,,*75
$GPLLQ,095957.00,010125,,M,,M,1,36,0.838,,M*10
$GPVTG,,T,,M,0.01,N,0.01,K,D*26
$GPHDT,,T*1B
$GPTHS,,V*0E
$GPROT,,V*08
$PSSN,HRP,095957.00,010125,,,,,,,00,0,,*66
$PTNL,AVR,095957.00,,Yaw,,Tilt,,,,0,,00*30
$GPGSA,A,3,05,10,12,13,14,15,17,19,23,24,30,,0.8,0.4,0.7*37
$GPGSA,A,3,65,66,67,75,76,77,85,,,,,,0.8,0.4,0.7*35
$GPGSA,A,3,02,03,07,08,25,30,,,,,,,0.8,0.4,0.7*33
$GPGSA,A,3,05,07,10,14,21,24,26,33,40,42,45,60,0.8,0.4,0.7*3B
$GPGST,095957.00,2.336,0.408,0.285,11.418,0.404,0.291,0.674*65
$GPGBS,095957.00,2.041,1.427,4.017,67,0.0001,8.208,6.162*5C
$GPGRS,095957.00,1,-0.7,0.4,0.3,0.3,0.1,-0.3,0.6,0.0,-0.3,-0.5,-0.7,*4C
$GPGRS,095957.00,1,1.9,-1.6,8.2,-0.5,-0.9,-8.1,2.9,,,,,*6C
$GPGRS,095957.00,1,0.1,0.4,-0.0,-0.2,0.0,-0.3,,,,,,*60
$GPGRS,095957.00,1,0.3,0.3,0.2,2.1,0.1,-0.1,-0.3,-0.4,-1.0,0.0,-1.3,-0.3*4F
$GPGSV,6,1,23,15,67,245,50,19,27,135,44,12,11,222,41,23,25,299,43*71
$GPGSV,6,2,23,30,13,092,39,14,41,057,46,13,60,152,50,17,37,099,46*7B
$GPGSV,6,3,23,24,40,286,45,22,62,066,,21,01,024,,10,07,336,40*76
$GPGSV,6,4,23,05,06,206,39,02,02,043,33,36,35,170,44,58,13,245,36*7C
$GPGSV,6,5,23,40,23,133,36,34,31,208,42,49,34,195,44,57,07,112,38*78
$GPGSV,6,6,23,41,07,108,35,61,03,257,38*7A
$GLGSV,2,1,08,76,73,301,52,84,14,025,33,85,14,077,42,65,32,179,46*61
$GLGSV,2,2,08,67,30,325,50,77,31,251,42,75,33,049,48,66,69,253,52*63
$GAGSV,3,1,10,08,72,278,48,30,18,220,40,07,22,311,41,16,26,051,*6F
$GAGSV,3,2,10,03,47,151,46,25,50,057,46,02,70,197,49,24,02,047,33*6D
$GAGSV,3,3,10,12,00,038,,33,02,349,36*68
$GBGSV,5,1,19,26,75,274,51,21,29,188,46,05,20,130,38,40,27,044,42*66
$GBGSV,5,2,19,33,24,317,44,25,22,245,,07,28,056,41,24,24,255,45*6B
$GBGSV,5,3,19,14,43,294,46,50,45,211,,56,35,077,,10,37,068,42*64
$GBGSV,5,4,19,45,43,066,48,42,53,253,49,09,00,095,25,35,06,137,*66
$GBGSV,5,5,19,02,04,109,31,29,08,037,,60,07,112,40*5F
$GPGGA,095957.00,,,,,0,00,,,M,,M,,*4F
$PTNL,GGK,095957.00,010125,4742.1598794,N,01618.1000419,E,1,36,0.8,EHT751.6005,M*49
$GPGGQ,095957.00,010125,4742.1598794,N,01618.1000419,E,1,36,0.838,708.3939,M*33
$GPGFA,095957.00,3.878,5.530,0.408,0.285,11.418,0.674,,VVV*38
$GPLLK,095957.00,010125,,M,,M,1,36,0.9,,M*00
$GNGMP,095957.00,,,,,DAAA,36,0.4,,,,*50
$GPGMP,095957.00,,,,,,11,,,,1.7,136*78
$GLGMP,095957.00,,,,,,07,,,,,*7F
$GAGMP,095957.00,,,,,,06,,,,,*73
$GBGMP,095957.00,,,,,,12,,,,,*75
$PSSN,SNC,[0,295215000,2347]*4C
$GPZDA,100002.00,01,01,2025,,*60
$GPDTM,W84,,00.0000000,N,00.0000000,E,00.0000000,W84*5F
$PSSN,TFM,100002.00,,,,*6C
$GPRMC,100002.00,A,4742.1598785,N,01618.1000382,E,0.0,,010125,5.1,E,D*12
$GPGLL,4742.1598785,N,01618.1000382,E,100002.00,A,D*63
$GPGGA,100002.00,4742.1598785,N,01618.1000382,E,2,36,0.4,708.3936,M,43.2066,M,2.4,0136*48
$GNGNS,100002.00,4742.1598785,N,01618.1000382,E,DAAA,36,0.4,708.3936,43.2066,,*56
$GPGNS,100002.00,,,,,,11,,,,2.4,136*7C
$GLGNS,100002.00,,,,,,07,,,,,*7B
$GAGNS,100002.00,,,,,,06,,,,,*77
$GBGNS,100002.00,,,,,,12,,,,,*71
$GPLLQ,100002.00,010125,,M,,M,1,36,0.835,,M*19
$GPVTG,,T,,M,0.00,N,0.00,K,D*26
$GPHDT,,T*1B
$GPTHS,,V*0E
$GPROT,,V*08
$PSSN,HRP,100002.00,010125,,,,,,,00,0,,*62
$PTNL,AVR,100002.00,,Yaw,,Tilt,,,,0,,00*34
$GPGSA,A,3,05,10,12,13,14,15,17,19,23,24,30,,0.8,0.4,0.7*37
$GPGSA,A,3,65,66,67,75,76,77,85,,,,,,0.8,0.4,0.7*35
$GPGSA,A,3,02,03,07,08,25,30,,,,,,,0.8,0.4,0.7*33
$GPGSA,A,3,05,07,10,14,21,24,26,33,40,42,45,60,0.8,0.4,0.7*3B
$GPGST,100002.00,2.196,0.404,0.287,10.821,0.400,0.292,0.673*60
$GPGBS,100002.00,2.047,1.420,4.036,67,0.0001,7.455,6.162*5B
$GPGRS,100002.00,1,-0.7,-0.0,0.0,0.3,0.2,-0.1,0.5,0.3,0.4,-0.5,-0.8,*46
$GPGRS,100002.00,1,1.1,-1.4,7.5,-1.4,-1.0,-7.4,3.4,,,,,*64
$GPGRS,100002.00,1,-0.1,0.6,-0.2,-0.3,-0.2,0.1,,,,,,*48
$GPGRS,100002.00,1,0.1,0.1,-0.1,2.4,0.2,-0.3,-0.3,-0.5,-1.1,-0.1,-1.3,-0.3*4D
$GPGSV,6,1,23,15,67,245,50,19,27,135,44,12,11,223,40,23,25,299,43*71
$GPGSV,6,2,23,30,13,092,40,14,41,057,46,13,60,152,49,17,37,099,46*7D
$GPGSV,6,3,23,24,40,286,45,22,62,066,,21,01,024,,10,07,336,40*76
$GPGSV,6,4,23,05,06,206,38,02,02,043,34,36,35,170,44,58,13,245,36*7A
$GPGSV,6,5,23,40,23,133,36,34,31,208,42,49,34,195,44,57,07,112,38*78
$GPGSV,6,6,23,41,07,108,35,61,03,257,38*7A
$GLGSV,2,1,08,76,73,301,52,84,14,025,34,85,14,077,43,65,32,179,46*67
$GLGSV,2,2,08,67,30,325,50,75,33,049,48,77,31,251,42,66,69,253,53*62
$GAGSV,3,1,10,08,72,278,48,30,18,220,41,07,22,311,41,16,26,051,*6E
$GAGSV,3,2,10,03,47,151,46,25,50,057,45,02,70,197,49,24,02,047,33*6E
$GAGSV,3,3,10,12,00,038,,33,02,349,35*6B
$GBGSV,5,1,19,26,75,275,51,21,29,188,46,05,20,130,38,40,27,044,43*66
$GBGSV,5,2,19,33,24,316,44,25,22,245,,07,28,056,41,24,24,255,44*6B
$GBGSV,5,3,19,14,43,294,46,50,45,211,,56,35,077,,10,37,068,42*64
$GBGSV,5,4,19,45,43,066,48,42,53,253,49,09,00,095,24,35,06,137,*67
$GBGSV,5,5,19,02,04,109,31,29,08,037,,60,07,112,40*5F
$GPGGA,100002.00,,,,,0,00,,,M,,M,,*4B
$PTNL,GGK,100002.00,010125,4742.1598785,N,01618.1000382,E,1,36,0.8,EHT751.6002,M*4F
$GPGGQ,100002.00,010125,4742.1598785,N,01618.1000382,E,1,36,0.835,708.3936,M*30
$GPGFA,100002.00,3.840,5.515,0.404,0.287,10.821,0.673,,VVV*3E
$GPLLK,100002.00,010125,,M,,M,1,36,0.9,,M*04
$GNGMP,100002.00,,,,,DAAA,36,0.4,,,,*54
$GPGMP,100002.00,,,,,,11,,,,2.4,136*7C
$GLGMP,100002.00,,,,,,07,,,,,*7B
$GAGMP,100002.00,,,,,,06,,,,,*77
$GBGMP,100002.00,,,,,,12,,,,,*71
$PSSN,SNC,[0,295220000,2347]*4A
$GPZDA,100007.00,01,01,2025,,*65
$GPDTM,W84,,00.0000000,N,00.0000000,E,00.0000000,W84*5F
$PSSN,TFM,100007.00,,,,*69
$GPRMC,100007.00,A,4742.1598766,N,01618.1000344,E,0.0,,010125,5.1,E,D*10
$GPGLL,4742.1598766,N,01618.1000344,E,100007.00,A,D*61
$GPGGA,100007.00,4742.1598766,N,01618.1000344,E,2,36,0.4,708.3906,M,43.2066,M,3.4,0136*48
$GNGNS,100007.00,4742.1598766,N,01618.1000344,E,DAAA,36,0.4,708.3906,43.2066,,*57
$GPGNS,100007.00,,,,,,11,,,,3.4,136*78
$GLGNS,100007.00,,,,,,07,,,,,*7E
$GAGNS,100007.00,,,,,,06,,,,,*72
$GBGNS,100007.00,,,,,,12,,,,,*74
$GPLLQ,100007.00,010125,,M,,M,1,36,0.846,,M*18
$GPVTG,,T,,M,0.00,N,0.01,K,D*27
$GPHDT,,T*1B
$GPTHS,,V*0E
$GPROT,,V*08
$PSSN,HRP,100007.00,010125,,,,,,,00,0,,*67
$PTNL,AVR,100007.00,,Yaw,,Tilt,,,,0,,00*31
$GPGSA,A,3,05,10,12,13,14,15,17,19,23,24,30,,0.8,0.4,0.7*37
$GPGSA,A,3,65,66,67,75,76,77,85,,,,,,0.8,0.4,0.7*35
$GPGSA,A,3,02,03,07,08,25,30,,,,,,,0.8,0.4,0.7*33
$GPGSA,A,3,05,07,10,14,21,24,26,33,40,42,45,60,0.8,0.4,0.7*3B
$GPGST,100007.00,2.265,0.409,0.290,10.581,0.405,0.295,0.682*6A
$GPGBS,100007.00,2.085,1.433,4.089,77,0.0001,-7.929,6.169*77
$GPGRS,100007.00,1,-0.7,-0.7,0.2,0.1,0.4,-0.1,0.6,-0.0,0.5,-0.3,-0.7,*67
$GPGRS,100007.00,1,1.4,-1.3,7.3,-1.9,-1.0,-7.9,3.5,,,,,*64
$GPGRS,100007.00,1,-0.1,0.7,0.0,-0.2,0.1,-0.5,,,,,,*65
$GPGRS,100007.00,1,0.2,0.4,-0.1,2.3,0.1,-0.3,-0.2,-0.2,-1.1,-0.0,-1.4,-0.1*48
$GPGSV,6,1,23,15,67,245,50,19,27,135,43,12,11,223,40,23,25,299,43*76
$GPGSV,6,2,23,30,13,092,40,14,41,057,46,13,60,152,50,17,37,099,46*75
$GPGSV,6,3,23,24,40,286,45,22,62,066,,21,01,024,,10,07,336,39*78
$GPGSV,6,4,23,05,06,206,38,02,02,043,34,36,35,170,44,58,13,245,36*7A
$GPGSV,6,5,23,40,23,133,36,34,31,208,42,49,34,195,44,57,07,112,38*78
$GPGSV,6,6,23,41,07,108,35,61,03,257,38*7A
$GLGSV,2,1,08,76,73,301,52,84,14,025,33,85,14,077,43,65,32,179,46*60
$GLGSV,2,2,08,67,30,325,49,75,33,049,48,77,31,251,42,66,69,253,52*6B
$GAGSV,3,1,10,08,72,278,48,30,18,220,40,07,22,311,41,16,26,051,*6F
$GAGSV,3,2,10,03,47,151,47,25,50,057,45,02,70,197,49,24,02,047,34*68
$GAGSV,3,3,10,12,00,038,,33,02,349,35*6B
$GBGSV,5,1,19,26,75,275,51,21,29,188,46,05,20,130,38,40,27,044,43*66
$GBGSV,5,2,19,33,24,316,44,25,22,245,,07,28,056,41,24,24,255,45*6A
$GBGSV,5,3,19,14,43,294,46,50,45,211,,56,35,077,,10,37,068,42*64
$GBGSV,5,4,19,45,43,066,48,42,53,253,49,09,00,095,24,35,06,137,*67
$GBGSV,5,5,19,02,04,109,31,29,08,037,,60,07,112,40*5F
$GPGGA,100007.00,,,,,0,00,,,M,,M,,*4E
$PTNL,GGK,100007.00,010125,4742.1598766,N,01618.1000344,E,1,36,0.8,EHT751.5972,M*40
$GPGGQ,100007.00,010125,4742.1598766,N,01618.1000344,E,1,36,0.846,708.3906,M*35
$GPGFA,100007.00,3.885,5.591,0.409,0.290,10.581,0.682,,VVV*3C
$GPLLK,100007.00,010125,,M,,M,1,36,0.9,,M*01
$GNGMP,100007.00,,,,,DAAA,36,0.4,,,,*51
$GPGMP,100007.00,,,,,,11,,,,3.4,136*78
$GLGMP,100007.00,,,,,,07,,,,,*7E
$GAGMP,100007.00,,,,,,06,,,,,*72
$GBGMP,100007.00,,,,,,12,,,,,*74
$PSSN,SNC,[0,295225000,2347]*4F
$GPZDA,100012.00,01,01,2025,,*61
$GPDTM,W84,,00.0000000,N,00.0000000,E,00.0000000,W84*5F
$PSSN,TFM,100012.00,,,,*6D
$GPRMC,100012.00,A,4742.1598760,N,01618.1000311,E,0.0,,010125,5.1,E,D*12
$GPGLL,4742.1598760,N,01618.1000311,E,100012.00,A,D*63
$GPGGA,100012.00,4742.1598760,N,01618.1000311,E,2,36,0.4,708.3824,M,43.2066,M,2.5,0136*4B
$GNGNS,100012.00,4742.1598760,N,01618.1000311,E,DAAA,36,0.4,708.3824,43.2066,,*54
$GPGNS,100012.00,,,,,,11,,,,2.5,136*7C
$GLGNS,100012.00,,,,,,07,,,,,*7A
$GAGNS,100012.00,,,,,,06,,,,,*76
$GBGNS,100012.00,,,,,,12,,,,,*70
$GPLLQ,100012.00,010125,,M,,M,1,36,0.850,,M*1B
$GPVTG,,T,,M,0.00,N,0.01,K,D*27
$GPHDT,,T*1B
$GPTHS,,V*0E
$GPROT,,V*08
$PSSN,HRP,100012.00,010125,,,,,,,00,0,,*63
$PTNL,AVR,100012.00,,Yaw,,Tilt,,,,0,,00*35
$GPGSA,A,3,05,10,12,13,14,15,17,19,23,24,30,,0.8,0.4,0.7*37
$GPGSA,A,3,65,66,67,75,76,77,85,,,,,,0.8,0.4,0.7*35
$GPGSA,A,3,02,03,07,08,25,30,,,,,,,0.8,0.4,0.7*33
$GPGSA,A,3,05,07,10,14,21,24,26,33,40,42,45,60,0.8,0.4,0.7*3B
$GPGST,100012.00,2.278,0.412,0.290,11.144,0.408,0.295,0.685*6E
$GPGBS,100012.00,2.051,1.466,4.176,77,0.0001,-8.191,6.169*7F
$GPGRS,100012.00,1,-0.5,-0.5,-0.3,0.3,0.1,-0.3,0.7,-0.3,0.3,0.1,-0.7,*61
$GPGRS,100012.00,1,1.4,-1.7,6.8,-1.5,-1.4,-8.2,4.3,,,,,*63
$GPGRS,100012.00,1,-0.1,0.5,-0.0,-0.1,0.2,-0.5,,,,,,*4E
$GPGRS,100012.00,1,0.9,0.3,0.0,1.6,0.2,0.5,-0.1,-0.2,-1.1,-0.1,-1.5,-0.2*42
$GPGSV,6,1,23,15,67,245,49,19,27,135,43,12,11,223,40,23,25,299,43*7E
$GPGSV,6,2,23,30,13,092,40,14,41,057,46,13,60,152,49,17,37,099,46*7D
$GPGSV,6,3,23,24,40,286,45,22,62,066,,21,01,024,,10,07,336,39*78
$GPGSV,6,4,23,05,06,206,38,02,02,043,33,36,35,170,44,58,13,245,36*7D
$GPGSV,6,5,23,40,23,133,36,34,31,208,42,49,34,195,44,57,07,112,38*78
$GPGSV,6,6,23,41,07,108,35,61,03,257,38*7A
$GLGSV,2,1,08,76,74,301,52,84,14,025,32,85,14,077,43,65,32,179,46*66
$GLGSV,2,2,08,67,30,325,49,75,33,049,49,77,31,251,42,66,69,253,53*6B
$GAGSV,3,1,10,08,72,278,48,30,18,220,40,07,22,311,41,16,26,051,*6F
$GAGSV,3,2,10,03,47,151,47,25,50,057,46,02,70,197,49,24,02,047,33*6C
$GAGSV,3,3,10,12,00,038,,33,02,349,35*6B
$GBGSV,5,1,19,26,75,275,51,21,29,188,46,05,20,130,38,40,27,044,43*66
$GBGSV,5,2,19,33,24,316,44,25,22,245,,07,28,056,41,24,24,255,45*6A
$GBGSV,5,3,19,14,43,294,46,50,45,211,,56,35,077,,10,37,068,42*64
$GBGSV,5,4,19,45,43,066,47,42,53,253,50,09,00,095,23,35,06,137,*67
$GBGSV,5,5,19,02,04,109,31,29,08,037,,60,07,112,40*5F
$GPGGA,100012.00,,,,,0,00,,,M,,M,,*4A
$PTNL,GGK,100012.00,010125,4742.1598760,N,01618.1000311,E,1,36,0.8,EHT751.5890,M*4F
$GPGGQ,100012.00,010125,4742.1598760,N,01618.1000311,E,1,36,0.850,708.3824,M*31
$GPGFA,100012.00,3.919,5.614,0.412,0.290,11.144,0.685,,VVV*33
$GPLLK,100012.00,010125,,M,,M,1,36,0.9,,M*05
$GNGMP,100012.00,,,,,DAAA,36,0.4,,,,*55
$GPGMP,100012.00,,,,,,11,,,,2.5,136*7C
$GLGMP,100012.00,,,,,,07,,,,,*7A
$GAGMP,100012.00,,,,,,06,,,,,*76
$GBGMP,100012.00,,,,,,12,,,,,*70
$PSSN,SNC,[0,295230000,2347]*4B
$GPZDA,100017.00,01,01,2025,,*64
$GPDTM,W84,,00.0000000,N,00.0000000,E,00.0000000,W84*5F
$PSSN,TFM,100017.00,,,,*68
$GPRMC,100017.00,A,4742.1598742,N,01618.1000289,E,0.0,,010125,5.1,E,D*17
$GPGLL,4742.1598742,N,01618.1000289,E,100017.00,A,D*66
$GPGGA,100017.00,4742.1598742,N,01618.1000289,E,2,36,0.4,708.3777,M,43.2066,M,1.7,0136*46
$GNGNS,100017.00,4742.1598742,N,01618.1000289,E,DAAA,36,0.4,708.3777,43.2066,,*58
$GPGNS,100017.00,,,,,,11,,,,1.7,136*78
$GLGNS,100017.00,,,,,,07,,,,,*7F
$GAGNS,100017.00,,,,,,06,,,,,*73
$GBGNS,100017.00,,,,,,12,,,,,*75
$GPLLQ,100017.00,010125,,M,,M,1,36,0.839,,M*11
$GPVTG,,T,,M,0.00,N,0.01,K,D*27
$GPHDT,,T*1B
$GPTHS,,V*0E
$GPROT,,V*08
$PSSN,HRP,100017.00,010125,,,,,,,00,0,,*66
$PTNL,AVR,100017.00,,Yaw,,Tilt,,,,0,,00*30
$GPGSA,A,3,05,10,12,13,14,15,17,19,23,24,30,,0.8,0.4,0.7*37
$GPGSA,A,3,65,66,67,75,76,77,85,,,,,,0.8,0.4,0.7*35
$GPGSA,A,3,02,03,07,08,25,30,,,,,,,0.8,0.4,0.7*33
$GPGSA,A,3,05,07,10,14,21,24,26,33,40,42,45,60,0.8,0.4,0.7*3B
$GPGST,100017.00,2.207,0.408,0.285,11.383,0.404,0.291,0.675*62
$GPGBS,100017.00,2.043,1.426,4.021,77,0.0001,-7.810,6.167*7F
$GPGRS,100017.00,1,-0.5,0.0,-0.1,0.1,0.1,-0.2,0.7,-0.1,0.4,-0.3,-1.0,*61
$GPGRS,100017.00,1,1.4,-1.8,6.7,-1.3,-1.2,-7.8,4.3,,,,,*63
$GPGRS,100017.00,1,-0.0,0.5,-0.2,-0.3,0.1,-0.1,,,,,,*4D
$GPGRS,100017.00,1,0.3,0.3,-0.0,1.4,1.1,0.6,-0.2,-0.1,-1.2,0.1,-0.4,-0.1*4E
$GPGSV,6,1,23,15,67,245,49,19,27,135,43,12,11,223,40,23,25,299,43*7E
$GPGSV,6,2,23,30,13,092,40,14,41,057,46,13,60,152,49,17,37,099,46*7D
$GPGSV,6,3,23,24,40,286,45,22,62,066,,21,01,024,,10,07,336,40*76
$GPGSV,6,4,23,05,06,206,38,02,02,043,32,36,35,170,44,58,13,245,36*7C
$GPGSV,6,5,23,40,23,133,36,34,31,208,42,49,34,195,44,57,07,112,38*78
$GPGSV,6,6,23,41,07,108,35,61,03,257,38*7A
$GLGSV,2,1,08,76,74,302,52,84,14,025,32,85,14,076,44,65,32,179,46*63
$GLGSV,2,2,08,67,30,325,49,75,33,049,49,77,31,251,42,66,69,252,52*6B
$GAGSV,3,1,10,08,72,277,48,30,18,220,39,07,22,311,41,16,26,051,*6E
$GAGSV,3,2,10,03,47,151,46,25,50,057,45,02,70,197,49,24,02,047,34*69
$GAGSV,3,3,10,12,00,038,,33,02,349,36*68
$GBGSV,5,1,19,26,75,275,51,21,29,188,46,05,20,130,38,40,27,044,43*66
$GBGSV,5,2,19,33,24,316,44,25,22,245,,07,28,056,41,24,24,255,45*6A
$GBGSV,5,3,19,14,43,294,46,50,45,211,,56,35,077,,10,37,068,42*64
$GBGSV,5,4,19,45,43,066,47,42,53,253,50,09,00,095,21,35,06,137,*65
$GBGSV,5,5,19,02,04,109,31,29,08,037,,60,07,112,40*5F
$GPGGA,100017.00,,,,,0,00,,,M,,M,,*4F
$PTNL,GGK,100017.00,010125,4742.1598742,N,01618.1000289,E,1,36,0.8,EHT751.5842,M*45
$GPGGQ,100017.00,010125,4742.1598742,N,01618.1000289,E,1,36,0.839,708.3777,M*32
$GPGFA,100017.00,3.877,5.538,0.408,0.285,11.383,0.675,,VVV*3B
$GPLLK,100017.00,010125,,M,,M,1,36,0.9,,M*00
$GNGMP,100017.00,,,,,DAAA,36,0.4,,,,*50
$GPGMP,100017.00,,,,,,11,,,,1.7,136*78
$GLGMP,100017.00,,,,,,07,,,,,*7F
$GAGMP,100017.00,,,,,,06,,,,,*73
$GBGMP,100017.00,,,,,,12,,,,,*75
$PSSN,SNC,[0,295235000,2347]*4E
$GPZDA,100022.00,01,01,2025,,*62
$GPDTM,W84,,00.0000000,N,00.0000000,E,00.0000000,W84*5F
$PSSN,TFM,100022.00,,,,*6E
$GPRMC,100022.00,A,4742.1598725,N,01618.1000274,E,0.0,,010125,5.1,E,D*12
$GPGLL,4742.1598725,N,01618.1000274,E,100022.00,A,D*63
$GPGGA,100022.00,4742.1598725,N,01618.1000274,E,2,36,0.4,708.3749,M,43.2066,M,2.4,0136*4E
$GNGNS,100022.00,4742.1598725,N,01618.1000274,E,DAAA,36,0.4,708.3749,43.2066,,*50
$GPGNS,100022.00,,,,,,11,,,,2.4,136*7E
$GLGNS,100022.00,,,,,,07,,,,,*79
$GAGNS,100022.00,,,,,,06,,,,,*75
$GBGNS,100022.00,,,,,,12,,,,,*73
$GPLLQ,100022.00,010125,,M,,M,1,36,0.862,,M*19
$GPVTG,,T,,M,0.00,N,0.01,K,D*27
$GPHDT,,T*1B
$GPTHS,,V*0E
$GPROT,,V*08
$PSSN,HRP,100022.00,010125,,,,,,,00,0,,*60
$PTNL,AVR,100022.00,,Yaw,,Tilt,,,,0,,00*36
$GPGSA,A,3,05,10,12,13,14,15,17,19,23,24,30,,0.8,0.4,0.7*37
$GPGSA,A,3,65,66,67,75,76,77,85,,,,,,0.8,0.4,0.7*35
$GPGSA,A,3,02,03,07,08,25,30,,,,,,,0.8,0.4,0.7*33
$GPGSA,A,3,05,07,10,14,21,24,26,33,40,42,45,60,0.8,0.4,0.7*3B
$GPGST,100022.00,2.346,0.416,0.295,10.807,0.413,0.300,0.694*68
$GPGBS,100022.00,2.046,1.420,4.040,30,0.0001,-1.671,1.156*74
$GPGRS,100022.00,1,-0.1,0.4,-0.3,0.3,0.0,-0.2,0.9,-0.1,0.2,-0.1,-1.7,*6B
$GPGRS,100022.00,1,0.5,-1.9,7.3,-1.6,-1.3,-8.1,4.5,,,,,*65
$GPGRS,100022.00,1,-0.1,0.3,0.1,-0.3,-0.2,-0.0,,,,,,*4D
$GPGRS,100022.00,1,0.5,0.7,-0.0,1.9,1.1,0.1,-0.4,-0.3,-1.5,-0.3,-0.6,-0.2*6D
$GPGSV,6,1,23,15,67,245,49,19,27,135,43,12,11,223,40,23,25,299,43*7E
$GPGSV,6,2,23,30,13,092,39,14,41,057,46,13,60,152,49,17,37,099,46*73
$GPGSV,6,3,23,24,40,286,45,22,62,066,,21,01,024,,10,07,335,40*75
$GPGSV,6,4,23,05,06,206,39,02,02,042,33,36,35,170,44,58,13,245,36*7D
$GPGSV,6,5,23,40,23,133,36,34,31,208,42,49,34,195,44,57,07,112,38*78
$GPGSV,6,6,23,41,07,108,35,61,03,257,38*7A
$GLGSV,2,1,08,76,74,302,52,84,14,025,32,85,14,076,44,65,32,179,45*60
$GLGSV,2,2,08,67,30,325,50,75,33,049,49,77,31,251,42,66,69,252,52*63
$GAGSV,3,1,10,08,72,277,48,30,18,221,39,07,22,311,40,16,26,051,*6E
$GAGSV,3,2,10,03,47,151,46,25,50,057,45,02,70,197,49,24,01,047,33*6D
$GAGSV,3,3,10,12,00,038,,33,02,349,35*6B
$GBGSV,5,1,19,26,75,275,51,21,29,188,46,05,20,130,38,40,27,044,43*66
$GBGSV,5,2,19,33,24,316,44,25,23,245,,07,28,056,41,24,24,255,45*6B
$GBGSV,5,3,19,14,43,294,46,50,45,211,,56,35,077,,10,37,068,42*64
$GBGSV,5,4,19,45,43,066,47,42,53,253,49,09,00,095,22,35,06,137,*6E
$GBGSV,5,5,19,02,04,109,31,29,08,037,,60,07,112,40*5F
$GPGGA,100022.00,,,,,0,00,,,M,,M,,*49
$PTNL,GGK,100022.00,010125,4742.1598725,N,01618.1000274,E,1,36,0.8,EHT751.5815,M*42
$GPGGQ,100022.00,010125,4742.1598725,N,01618.1000274,E,1,36,0.862,708.3749,M*34
$GPGFA,100022.00,3.957,5.695,0.416,0.295,10.807,0.694,,VVV*3D
$GPLLK,100022.00,010125,,M,,M,1,36,0.9,,M*06
$GNGMP,100022.00,,,,,DAAA,36,0.4,,,,*56
$GPGMP,100022.00,,,,,,11,,,,2.4,136*7E
$GLGMP,100022.00,,,,,,07,,,,,*79
$GAGMP,100022.00,,,,,,06,,,,,*75
$GBGMP,100022.00,,,,,,12,,,,,*73
$PSSN,SNC,[0,295240000,2347]*4C
$GPZDA,100027.00,01,01,2025,,*67
$GPDTM,W84,,00.0000000,N,00.0000000,E,00.0000000,W84*5F
$PSSN,TFM,100027.00,,,,*6B
$GPRMC,100027.00,A,4742.1598715,N,01618.1000247,E,0.0,,010125,5.1,E,D*14
$GPGLL,4742.1598715,N,01618.1000247,E,100027.00,A,D*65
$GPGGA,100027.00,4742.1598715,N,01618.1000247,E,2,36,0.4,708.3723,M,43.2066,M,3.4,0136*45
$GNGNS,100027.00,4742.1598715,N,01618.1000247,E,DAAA,36,0.4,708.3723,43.2066,,*5A
$GPGNS,100027.00,,,,,,11,,,,3.4,136*7A
$GLGNS,100027.00,,,,,,07,,,,,*7C
$GAGNS,100027.00,,,,,,06,,,,,*70
$GBGNS,100027.00,,,,,,12,,,,,*76
$GPLLQ,100027.00,010125,,M,,M,1,36,0.847,,M*1B
$GPVTG,,T,,M,0.00,N,0.00,K,D*26
$GPHDT,,T*1B
$GPTHS,,V*0E
$GPROT,,V*08
$PSSN,HRP,100027.00,010125,,,,,,,00,0,,*65
$PTNL,AVR,100027.00,,Yaw,,Tilt,,,,0,,00*33
$GPGSA,A,3,05,10,12,13,14,15,17,19,23,24,30,,0.8,0.4,0.7*37
$GPGSA,A,3,65,66,67,75,76,77,85,,,,,,0.8,0.4,0.7*35
$GPGSA,A,3,02,03,07,08,25,30,,,,,,,0.8,0.4,0.7*33
$GPGSA,A,3,05,07,10,14,21,24,26,33,40,42,45,60,0.8,0.4,0.7*3B
$GPGST,100027.00,2.338,0.408,0.291,10.554,0.405,0.295,0.683*68
$GPGBS,100027.00,2.083,1.436,4.098,77,0.0001,-8.123,6.167*75
$GPGRS,100027.00,1,-0.8,0.1,0.0,0.2,-0.1,-0.3,0.8,-0.1,0.1,-0.2,-0.8,*6F
$GPGRS,100027.00,1,0.5,-1.6,7.6,-1.8,-1.4,-8.1,4.2,,,,,*64
$GPGRS,100027.00,1,-0.1,0.3,0.2,-0.2,-0.1,-0.1,,,,,,*48
$GPGRS,100027.00,1,0.2,0.4,0.3,1.8,0.8,0.2,-0.3,-0.3,-1.5,-0.1,-0.5,-0.1*4D
$GPGSV,6,1,23,15,67,245,50,19,27,135,42,12,11,223,40,23,25,299,43*77
$GPGSV,6,2,23,30,13,093,39,14,41,057,46,13,60,152,50,17,37,099,46*7A
$GPGSV,6,3,23,24,40,286,45,22,62,066,,21,01,024,,10,07,335,40*75
$GPGSV,6,4,23,05,06,206,39,02,02,042,33,36,35,170,44,58,13,245,36*7D
$GPGSV,6,5,23,40,23,133,36,34,31,208,42,49,34,195,44,57,07,112,38*78
$GPGSV,6,6,23,41,07,108,35,61,03,257,38*7A
$GLGSV,2,1,08,76,74,302,52,84,14,025,32,85,14,076,44,65,32,179,45*60
$GLGSV,2,2,08,67,30,325,49,75,33,049,48,77,31,251,42,66,69,252,52*6A
$GAGSV,3,1,10,08,72,277,48,30,18,221,40,07,22,311,41,16,26,051,*61
$GAGSV,3,2,10,03,47,151,46,25,50,057,46,02,70,197,49,24,01,047,33*6E
$GAGSV,3,3,10,12,00,037,,33,02,349,35*64
$GBGSV,5,1,19,26,75,275,51,21,29,188,45,05,20,130,38,40,27,044,43*65
$GBGSV,5,2,19,33,24,316,44,25,23,245,,07,28,056,41,24,24,255,45*6B
$GBGSV,5,3,19,14,43,294,46,50,45,211,,56,35,077,,10,37,068,42*64
$GBGSV,5,4,19,45,43,066,48,42,53,253,49,09,00,095,21,35,06,137,*62
$GBGSV,5,5,19,02,04,109,31,29,08,037,,60,07,112,40*5F
$GPGGA,100027.00,,,,,0,00,,,M,,M,,*4C
$PTNL,GGK,100027.00,010125,4742.1598715,N,01618.1000247,E,1,36,0.8,EHT751.5789,M*4E
$GPGGQ,100027.00,010125,4742.1598715,N,01618.1000247,E,1,36,0.847,708.3723,M*39
$GPGFA,100027.00,3.883,5.600,0.408,0.291,10.554,0.683,,VVV*3A
$GPLLK,100027.00,010125,,M,,M,1,36,0.9,,M*03
$GNGMP,100027.00,,,,,DAAA,36,0.4,,,,*53
$GPGMP,100027.00,,,,,,11,,,,3.4,136*7A
$GLGMP,100027.00,,,,,,07,,,,,*7C
$GAGMP,100027.00,,,,,,06,,,,,*70
$GBGMP,100027.00,,,,,,12,,,,,*76
$PSSN,SNC,[0,295245000,2347]*49
$GPZDA,100032.00,01,01,2025,,*63
$GPDTM,W84,,00.0000000,N,00.0000000,E,00.0000000,W84*5F
$PSSN,TFM,100032.00,,,,*6F
$GPRMC,100032.00,A,4742.1598715,N,01618.1000223,E,0.0,,010125,5.1,E,D*12
$GPGLL,4742.1598715,N,01618.1000223,E,100032.00,A,D*63
$GPGGA,100032.00,4742.1598715,N,01618.1000223,E,2,36,0.4,708.3686,M,43.2066,M,2.5,0136*4D
$GNGNS,100032.00,4742.1598715,N,01618.1000223,E,DAAA,36,0.4,708.3686,43.2066,,*52
$GPGNS,100032.00,,,,,,11,,,,2.5,136*7E
$GLGNS,100032.00,,,,,,07,,,,,*78
$GAGNS,100032.00,,,,,,06,,,,,*74
$GBGNS,100032.00,,,,,,12,,,,,*72
$GPLLQ,100032.00,010125,,M,,M,1,36,0.851,,M*18
$GPVTG,,T,,M,0.00,N,0.01,K,D*27
$GPHDT,,T*1B
$GPTHS,,V*0E
$GPROT,,V*08
$PSSN,HRP,100032.00,010125,,,,,,,00,0,,*61
$PTNL,AVR,100032.00,,Yaw,,Tilt,,,,0,,00*37
$GPGSA,A,3,05,10,12,13,14,15,17,19,23,24,30,,0.8,0.4,0.7*37
$GPGSA,A,3,65,66,67,75,76,77,85,,,,,,0.8,0.4,0.7*35
$GPGSA,A,3,02,03,07,08,25,30,,,,,,,0.8,0.4,0.7*33
$GPGSA,A,3,05,07,10,14,21,24,26,33,40,42,45,60,0.8,0.4,0.7*3B
$GPGST,100032.00,2.239,0.412,0.290,11.129,0.408,0.295,0.686*61
$GPGBS,100032.00,2.051,1.472,4.188,77,0.0001,-8.141,6.167*7A
$GPGRS,100032.00,1,-1.1,-0.5,0.1,0.6,-0.0,-0.2,0.7,-0.0,0.2,-0.3,-1.4,*4E
$GPGRS,100032.00,1,1.1,-1.3,6.8,-1.6,-1.3,-8.1,3.7,,,,,*64
$GPGRS,100032.00,1,-0.1,0.8,0.3,-0.2,-0.0,0.0,,,,,,*6B
$GPGRS,100032.00,1,0.6,0.4,-0.0,1.7,0.5,0.3,-0.1,-0.0,-1.5,-0.2,-0.2,0.1*48
$GPGSV,6,1,23,15,67,245,50,19,27,135,42,12,11,223,40,23,25,299,43*77
$GPGSV,6,2,23,30,13,093,38,14,41,057,46,13,60,152,49,17,37,099,46*73
$GPGSV,6,3,23,24,40,286,44,22,62,066,,21,01,024,,10,07,335,40*74
$GPGSV,6,4,23,05,06,206,39,02,02,042,32,36,35,170,44,58,13,245,36*7C
$GPGSV,6,5,23,40,23,133,36,34,31,208,42,49,34,195,44,57,07,112,37*77
$GPGSV,6,6,23,41,07,108,35,61,03,257,38*7A
$GLGSV,2,1,08,76,74,302,52,84,14,025,33,85,14,076,44,65,32,179,45*61
$GLGSV,2,2,08,67,30,325,50,75,32,049,48,77,31,251,42,66,69,252,53*62
$GAGSV,3,1,10,08,73,277,48,30,18,221,40,07,22,311,41,16,26,051,*60
$GAGSV,3,2,10,03,47,151,46,25,50,057,46,02,70,197,49,24,01,047,33*6E
$GAGSV,3,3,10,12,00,037,,33,02,349,35*64
$GBGSV,5,1,19,26,75,275,51,21,29,188,46,05,20,130,38,40,27,044,43*66
$GBGSV,5,2,19,33,24,316,44,25,23,245,,07,28,056,41,24,24,255,45*6B
$GBGSV,5,3,19,14,43,294,46,50,45,211,,56,35,077,,10,37,068,42*64
$GBGSV,5,4,19,45,43,066,48,42,53,253,49,09,00,095,22,35,06,137,*61
$GBGSV,5,5,19,02,04,109,31,29,08,037,,60,07,112,40*5F
$GPGGA,100032.00,,,,,0,00,,,M,,M,,*48
$PTNL,GGK,100032.00,010125,4742.1598715,N,01618.1000223,E,1,36,0.8,EHT751.5751,M*4D
$GPGGQ,100032.00,010125,4742.1598715,N,01618.1000223,E,1,36,0.851,708.3686,M*36
$GPGFA,100032.00,3.915,5.623,0.412,0.290,11.129,0.686,,VVV*31
$GPLLK,100032.00,010125,,M,,M,1,36,0.9,,M*07
$GNGMP,100032.00,,,,,DAAA,36,0.4,,,,*57
$GPGMP,100032.00,,,,,,11,,,,2.5,136*7E
$GLGMP,100032.00,,,,,,07,,,,,*78
$GAGMP,100032.00,,,,,,06,,,,,*74
$GBGMP,100032.00,,,,,,12,,,,,*72
$PSSN,SNC,[0,295250000,2347]*4D
$GPZDA,100037.00,01,01,2025,,*66
$GPDTM,W84,,00.0000000,N,00.0000000,E,00.0000000,W84*5F
$PSSN,TFM,100037.00,,,,*6A
$GPRMC,100037.00,A,4742.1598726,N,01618.1000211,E,0.0,,010125,5.1,E,D*16
$GPGLL,4742.1598726,N,01618.1000211,E,100037.00,A,D*67
$GPGGA,100037.00,4742.1598726,N,01618.1000211,E,2,36,0.4,708.3564,M,43.2066,M,1.7,0136*47
$GNGNS,100037.00,4742.1598726,N,01618.1000211,E,DAAA,36,0.4,708.3564,43.2066,,*59
$GPGNS,100037.00,,,,,,11,,,,1.7,136*7A
$GLGNS,100037.00,,,,,,07,,,,,*7D
$GAGNS,100037.00,,,,,,06,,,,,*71
$GBGNS,100037.00,,,,,,12,,,,,*77
$GPLLQ,100037.00,010125,,M,,M,1,36,0.873,,M*1D
$GPVTG,,T,,M,0.01,N,0.01,K,D*26
$GPHDT,,T*1B
$GPTHS,,V*0E
$GPROT,,V*08
$PSSN,HRP,100037.00,010125,,,,,,,00,0,,*64
$PTNL,AVR,100037.00,,Yaw,,Tilt,,,,0,,00*32
$GPGSA,A,3,05,10,12,13,14,15,17,19,23,24,30,,0.8,0.4,0.7*37
$GPGSA,A,3,65,66,67,75,76,77,85,,,,,,0.8,0.4,0.7*35
$GPGSA,A,3,02,03,07,08,25,30,,,,,,,0.8,0.4,0.7*33
$GPGSA,A,3,05,07,10,14,21,24,26,33,40,42,45,60,0.8,0.4,0.7*3B
$GPGST,100037.00,2.283,0.423,0.296,11.371,0.419,0.302,0.703*6D
$GPGBS,100037.00,2.044,1.432,4.037,30,0.0001,-1.583,1.197*72
$GPGRS,100037.00,1,-1.1,-0.9,0.1,0.4,0.0,-0.0,0.7,0.3,0.2,-0.2,-1.6,*47
$GPGRS,100037.00,1,1.5,-1.5,7.2,-1.5,-1.0,-8.1,3.4,,,,,*6B
$GPGRS,100037.00,1,-0.1,0.8,-0.0,-0.3,-0.0,-0.0,,,,,,*6C
$GPGRS,100037.00,1,0.1,0.6,0.1,2.2,0.6,-0.1,-0.2,0.2,-1.3,-0.1,-0.3,0.1*66
$GPGSV,6,1,23,15,67,245,50,19,27,135,43,12,11,223,41,23,25,299,44*70
$GPGSV,6,2,23,30,13,093,38,14,41,057,46,13,60,152,50,17,37,099,47*7A
$GPGSV,6,3,23,24,40,286,44,22,62,066,,21,01,024,,10,07,335,39*7A
$GPGSV,6,4,23,05,06,206,38,02,02,042,33,36,35,170,44,58,13,245,36*7C
$GPGSV,6,5,23,40,23,133,36,34,31,208,42,49,34,195,44,57,07,112,38*78
$GPGSV,6,6,23,41,07,108,35,61,03,257,38*7A
$GLGSV,2,1,08,76,74,302,52,84,14,025,33,85,15,076,44,65,32,179,45*60
$GLGSV,2,2,08,67,30,325,49,75,32,049,48,77,31,252,43,66,69,252,53*68
$GAGSV,3,1,10,08,73,277,48,30,18,221,40,07,22,311,41,16,26,051,*60
$GAGSV,3,2,10,03,46,151,46,25,50,057,46,02,70,197,49,24,01,047,33*6F
$GAGSV,3,3,10,12,00,037,,33,02,349,35*64
$GBGSV,5,1,19,26,75,275,51,21,29,188,46,05,20,130,38,40,27,044,43*66
$GBGSV,5,2,19,33,24,316,44,25,23,245,,07,28,056,41,24,24,255,45*6B
$GBGSV,5,3,19,14,43,293,46,50,45,211,,56,35,077,,10,37,068,42*63
$GBGSV,5,4,19,45,43,066,48,42,53,253,49,09,00,095,23,35,06,137,*60
$GBGSV,5,5,19,02,04,109,31,29,08,037,,60,07,112,40*5F
$GPGGA,100037.00,,,,,0,00,,,M,,M,,*4D
$PTNL,GGK,100037.00,010125,4742.1598726,N,01618.1000211,E,1,36,0.8,EHT751.5630,M*4F
$GPGGQ,100037.00,010125,4742.1598726,N,01618.1000211,E,1,36,0.873,708.3564,M*3D
$GPGFA,100037.00,4.026,5.766,0.423,0.296,11.371,0.703,,VVV*3D
$GPLLK,100037.00,010125,,M,,M,1,36,0.9,,M*02
$GNGMP,100037.00,,,,,DAAA,36,0.4,,,,*52
$GPGMP,100037.00,,,,,,11,,,,1.7,136*7A
$GLGMP,100037.00,,,,,,07,,,,,*7D
$GAGMP,100037.00,,,,,,06,,,,,*71
$GBGMP,100037.00,,,,,,12,,,,,*77
$PSSN,SNC,[0,295255000,2347]*48
$GPZDA,100042.00,01,01,2025,,*64
$GPDTM,W84,,00.0000000,N,00.0000000,E,00.0000000,W84*5F
$PSSN,TFM,100042.00,,,,*68
$GPRMC,100042.00,A,4742.1598734,N,01618.1000173,E,0.0,,010125,5.1,E,D*10
$GPGLL,4742.1598734,N,01618.1000173,E,100042.00,A,D*61
$GPGGA,100042.00,4742.1598734,N,01618.1000173,E,2,36,0.4,708.3484,M,43.2066,M,2.4,0136*4E
$GNGNS,100042.00,4742.1598734,N,01618.1000173,E,DAAA,36,0.4,708.3484,43.2066,,*50
$GPGNS,100042.00,,,,,,11,,,,2.4,136*78
$GLGNS,100042.00,,,,,,07,,,,,*7F
$GAGNS,100042.00,,,,,,06,,,,,*73
$GBGNS,100042.00,,,,,,12,,,,,*75
$GPLLQ,100042.00,010125,,M,,M,1,36,0.921,,M*19
$GPVTG,,T,,M,0.00,N,0.00,K,D*26
$GPHDT,,T*1B
$GPTHS,,V*0E
$GPROT,,V*08
$PSSN,HRP,100042.00,010125,,,,,,,00,0,,*66
$PTNL,AVR,100042.00,,Yaw,,Tilt,,,,0,,00*30
$GPGSA,A,3,05,10,12,13,14,15,17,19,23,24,30,,0.8,0.4,0.7*37
$GPGSA,A,3,65,66,67,75,76,77,85,,,,,,0.8,0.4,0.7*35
$GPGSA,A,3,02,03,07,08,25,30,,,,,,,0.8,0.4,0.7*33
$GPGSA,A,3,05,07,10,14,21,24,26,33,40,42,45,60,0.8,0.4,0.7*3B
$GPGST,100042.00,2.523,0.444,0.315,10.821,0.440,0.321,0.743*6F
$GPGBS,100042.00,2.050,1.428,4.058,30,0.0001,-1.720,1.172*77
$GPGRS,100042.00,1,-0.8,-0.4,-0.4,0.4,0.2,-0.2,0.8,0.3,0.3,-0.3,-1.7,*66
$GPGRS,100042.00,1,1.8,-1.5,8.0,-1.6,-0.9,-8.7,4.3,,,,,*64
$GPGRS,100042.00,1,0.2,0.7,0.3,-0.1,0.1,0.4,,,,,,*66
$GPGRS,100042.00,1,0.7,0.5,0.4,2.5,1.1,0.1,-0.2,0.5,-1.4,0.0,-0.2,0.3*67
$GPGSV,6,1,23,15,67,245,49,19,27,135,42,12,11,223,40,23,25,299,43*7F
$GPGSV,6,2,23,30,13,093,38,14,41,057,46,13,60,152,49,17,37,099,47*72
$GPGSV,6,3,23,24,40,286,44,22,62,066,,21,01,024,,10,07,335,39*7A
$GPGSV,6,4,23,05,06,206,38,02,02,042,33,36,35,170,44,58,13,245,36*7C
$GPGSV,6,5,23,40,23,133,36,34,31,208,42,49,34,195,44,57,07,112,38*78
$GPGSV,6,6,23,41,07,108,35,61,03,257,38*7A
$GLGSV,2,1,08,76,74,302,52,84,14,025,33,85,15,076,44,65,32,179,45*60
$GLGSV,2,2,08,67,30,325,49,75,32,049,48,77,31,252,42,66,69,252,53*69
$GAGSV,3,1,10,08,73,277,49,30,18,221,41,07,22,311,41,16,26,051,*60
$GAGSV,3,2,10,03,46,151,46,25,50,057,46,02,70,197,49,24,01,047,34*68
$GAGSV,3,3,10,12,00,037,,33,02,349,36*67
$GBGSV,5,1,19,26,75,275,51,21,29,188,46,05,20,130,38,40,27,044,43*66
$GBGSV,5,2,19,33,24,316,44,25,23,245,,07,28,056,41,24,24,255,45*6B
$GBGSV,5,3,19,50,45,211,,14,43,293,46,56,35,077,,10,37,068,42*63
$GBGSV,5,4,19,45,43,066,48,42,53,252,49,09,00,095,24,35,06,137,*66
$GBGSV,5,5,19,02,04,109,31,29,08,037,,60,07,112,40*5F
$GPGGA,100042.00,,,,,0,00,,,M,,M,,*4F
$PTNL,GGK,100042.00,010125,4742.1598734,N,01618.1000173,E,1,36,0.8,EHT751.5550,M*4C
$GPGGQ,100042.00,010125,4742.1598734,N,01618.1000173,E,1,36,0.921,708.3484,M*32
$GPGFA,100042.00,4.220,6.091,0.444,0.315,10.821,0.743,,VVV*37
$GPLLK,100042.00,010125,,M,,M,1,36,0.9,,M*00
$GNGMP,100042.00,,,,,DAAA,36,0.4,,,,*50
$GPGMP,100042.00,,,,,,11,,,,2.4,136*78
$GLGMP,100042.00,,,,,,07,,,,,*7F
$GAGMP,100042.00,,,,,,06,,,,,*73
$GBGMP,100042.00,,,,,,12,,,,,*75
$PSSN,SNC,[0,295260000,2347]*4E
$GPZDA,100047.00,01,01,2025,,*61
$GPDTM,W84,,00.0000000,N,00.0000000,E,00.0000000,W84*5F
$PSSN,TFM,100047.00,,,,*6D
$GPRMC,100047.00,A,4742.1598736,N,01618.1000152,E,0.0,,010125,5.1,E,D*14
$GPGLL,4742.1598736,N,01618.1000152,E,100047.00,A,D*65
$GPGGA,100047.00,4742.1598736,N,01618.1000152,E,2,36,0.4,708.3420,M,43.2066,M,3.4,0136*45
$GNGNS,100047.00,4742.1598736,N,01618.1000152,E,DAAA,36,0.4,708.3420,43.2066,,*5A
$GPGNS,100047.00,,,,,,11,,,,3.4,136*7C
$GLGNS,100047.00,,,,,,07,,,,,*7A
$GAGNS,100047.00,,,,,,06,,,,,*76
$GBGNS,100047.00,,,,,,12,,,,,*70
$GPLLQ,100047.00,010125,,M,,M,1,36,0.852,,M*19
$GPVTG,,T,,M,0.01,N,0.01,K,D*26
$GPHDT,,T*1B
$GPTHS,,V*0E
$GPROT,,V*08
$PSSN,HRP,100047.00,010125,,,,,,,00,0,,*63
$PTNL,AVR,100047.00,,Yaw,,Tilt,,,,0,,00*35
$GPGSA,A,3,05,10,12,13,14,15,17,19,23,24,30,,0.8,0.4,0.7*37
$GPGSA,A,3,65,66,67,75,76,77,85,,,,,,0.8,0.4,0.7*35
$GPGSA,A,3,02,03,07,08,25,30,,,,,,,0.8,0.4,0.7*33
$GPGSA,A,3,05,07,10,14,21,24,26,33,40,42,45,60,0.8,0.4,0.7*3B
$GPGST,100047.00,2.341,0.410,0.292,10.624,0.407,0.297,0.688*65
$GPGBS,100047.00,2.081,1.444,4.115,77,0.0001,-8.293,6.166*79
$GPGRS,100047.00,1,-1.1,-0.3,0.3,0.4,0.1,-0.1,0.3,0.3,0.4,-0.0,-1.4,*4A
$GPGRS,100047.00,1,1.9,-1.3,7.0,-1.9,-0.8,-8.3,4.2,,,,,*62
$GPGRS,100047.00,1,0.1,0.7,0.1,-0.1,0.1,0.5,,,,,,*63
$GPGRS,100047.00,1,0.8,0.3,0.1,2.1,0.9,-0.1,-0.2,0.2,-1.5,-0.2,-0.4,0.2*60
$GPGSV,6,1,23,15,67,244,49,19,27,135,43,12,11,223,39,23,25,299,43*71
$GPGSV,6,2,23,30,13,093,38,14,41,057,46,13,59,152,50,17,37,099,46*71
$GPGSV,6,3,23,24,40,286,44,22,62,066,,21,01,024,,10,07,335,40*74
$GPGSV,6,4,23,05,06,206,38,02,02,042,32,36,35,170,44,58,13,245,36*7D
$GPGSV,6,5,23,40,23,133,36,34,31,208,42,49,34,195,44,57,07,112,37*77
$GPGSV,6,6,23,41,07,108,35,61,03,257,38*7A
$GLGSV,2,1,08,76,74,303,52,84,14,025,33,85,15,076,44,65,32,179,46*62
$GLGSV,2,2,08,67,30,325,49,75,32,049,48,77,31,252,42,66,69,252,53*69
$GAGSV,3,1,10,08,73,277,48,30,18,221,41,07,22,311,41,16,26,051,*61
$GAGSV,3,2,10,03,46,151,46,25,50,057,46,02,70,197,49,24,01,047,34*68
$GAGSV,3,3,10,12,00,037,,33,02,349,36*67
$GBGSV,5,1,19,26,75,275,51,21,29,188,46,05,20,130,38,40,27,044,43*66
$GBGSV,5,2,19,33,24,316,44,25,23,245,,07,28,056,41,24,24,255,45*6B
$GBGSV,5,3,19,50,45,211,,14,43,293,46,56,35,077,,10,37,068,42*63
$GBGSV,5,4,19,45,43,066,48,42,53,252,49,09,00,095,22,35,06,137,*60
$GBGSV,5,5,19,02,04,109,31,29,08,037,,60,07,112,40*5F
$GPGGA,100047.00,,,,,0,00,,,M,,M,,*4A
$PTNL,GGK,100047.00,010125,4742.1598736,N,01618.1000152,E,1,36,0.8,EHT751.5485,M*41
$GPGGQ,100047.00,010125,4742.1598736,N,01618.1000152,E,1,36,0.852,708.3420,M*3D
$GPGFA,100047.00,3.898,5.640,0.410,0.292,10.624,0.688,,VVV*37
$GPLLK,100047.00,010125,,M,,M,1,36,0.9,,M*05
$GNGMP,100047.00,,,,,DAAA,36,0.4,,,,*55
$GPGMP,100047.00,,,,,,11,,,,3.4,136*7C
$GLGMP,100047.00,,,,,,07,,,,,*7A
$GAGMP,100047.00,,,,,,06,,,,,*76
$GBGMP,100047.00,,,,,,12,,,,,*70
$PSSN,SNC,[0,295265000,2347]*4B
$GPZDA,100052.00,01,01,2025,,*65
$GPDTM,W84,,00.0000000,N,00.0000000,E,00.0000000,W84*5F
$PSSN,TFM,100052.00,,,,*69
$GPRMC,100052.00,A,4742.1598712,N,01618.1000151,E,0.0,,010125,5.1,E,D*15
$GPGLL,4742.1598712,N,01618.1000151,E,100052.00,A,D*64
$GPGGA,100052.00,4742.1598712,N,01618.1000151,E,2,36,0.4,708.3370,M,43.2066,M,2.5,0136*46
$GNGNS,100052.00,4742.1598712,N,01618.1000151,E,DAAA,36,0.4,708.3370,43.2066,,*59
$GPGNS,100052.00,,,,,,11,,,,2.5,136*78
$GLGNS,100052.00,,,,,,07,,,,,*7E
$GAGNS,100052.00,,,,,,06,,,,,*72
$GBGNS,100052.00,,,,,,12,,,,,*74
$GPLLQ,100052.00,010125,,M,,M,1,36,0.853,,M*1C
$GPVTG,,T,,M,0.01,N,0.01,K,D*26
$GPHDT,,T*1B
$GPTHS,,V*0E
$GPROT,,V*08
$PSSN,HRP,100052.00,010125,,,,,,,00,0,,*67
$PTNL,AVR,100052.00,,Yaw,,Tilt,,,,0,,00*31
$GPGSA,A,3,05,10,12,13,14,15,17,19,23,24,30,,0.8,0.4,0.7*37
$GPGSA,A,3,65,66,67,75,76,77,85,,,,,,0.8,0.4,0.7*35
$GPGSA,A,3,02,03,07,08,25,30,,,,,,,0.8,0.4,0.7*33
$GPGSA,A,3,05,07,10,14,21,24,26,33,40,42,45,60,0.8,0.4,0.7*3B
$GPGST,100052.00,2.394,0.412,0.290,11.202,0.408,0.296,0.688*66
$GPGBS,100052.00,2.056,1.479,4.203,77,0.0001,-8.990,6.167*74
$GPGRS,100052.00,1,-0.7,-0.1,0.3,0.3,0.2,-0.2,0.3,0.3,0.3,0.2,-1.2,*62
$GPGRS,100052.00,1,1.3,-1.9,6.9,-2.0,-1.2,-9.0,4.3,,,,,*6C
$GPGRS,100052.00,1,-0.3,0.7,0.0,-0.1,0.1,-0.1,,,,,,*60
$GPGRS,100052.00,1,0.6,0.0,0.0,1.4,0.6,-0.1,-0.5,0.2,-1.6,-0.3,-0.3,0.1*60
$GPGSV,6,1,23,15,67,244,50,19,27,135,43,12,11,223,39,23,25,299,43*79
$GPGSV,6,2,23,30,13,093,38,14,41,057,46,13,59,152,49,17,37,098,46*78
$GPGSV,6,3,23,24,40,286,45,22,62,065,,21,01,024,,10,07,335,39*78
$GPGSV,6,4,23,05,06,206,38,02,02,042,34,36,35,170,44,58,13,245,36*7B
$GPGSV,6,5,23,40,23,133,36,34,31,208,42,49,34,195,44,57,07,112,37*77
$GPGSV,6,6,23,41,07,108,35,61,03,257,38*7A
$GLGSV,2,1,08,76,74,303,52,84,14,025,34,85,15,076,44,65,32,179,46*65
$GLGSV,2,2,08,67,30,325,49,75,32,049,48,77,31,252,42,66,69,251,52*6B
$GAGSV,3,1,10,08,73,277,48,30,18,221,41,07,22,311,41,16,25,051,*62
$GAGSV,3,2,10,03,46,151,46,25,50,057,46,02,70,197,49,24,01,047,33*6F
$GAGSV,3,3,10,12,00,037,,33,02,349,35*64
$GBGSV,5,1,19,26,75,275,51,21,29,188,46,05,20,130,38,40,27,044,43*66
$GBGSV,5,2,19,33,24,316,44,25,23,245,,07,28,056,41,24,24,255,45*6B
$GBGSV,5,3,19,50,45,211,,14,43,293,46,56,35,077,,10,37,068,42*63
$GBGSV,5,4,19,45,43,066,48,42,53,252,49,09,00,095,22,35,06,137,*60
$GBGSV,5,5,19,02,04,109,31,29,08,037,,60,07,112,40*5F
$GPGGA,100052.00,,,,,0,00,,,M,,M,,*4E
$PTNL,GGK,100052.00,010125,4742.1598712,N,01618.1000151,E,1,36,0.8,EHT751.5436,M*48
$GPGGQ,100052.00,010125,4742.1598712,N,01618.1000151,E,1,36,0.853,708.3370,M*3F
$GPGFA,100052.00,3.915,5.641,0.412,0.290,11.202,0.688,,VVV*37
$GPLLK,100052.00,010125,,M,,M,1,36,0.9,,M*01
$GNGMP,100052.00,,,,,DAAA,36,0.4,,,,*51
$GPGMP,100052.00,,,,,,11,,,,2.5,136*78
$GLGMP,100052.00,,,,,,07,,,,,*7E
$GAGMP,100052.00,,,,,,06,,,,,*72
$GBGMP,100052.00,,,,,,12,,,,,*74
$PSSN,SNC,[0,295270000,2347]*4F
$GPZDA,100057.00,01,01,2025,,*60
$GPDTM,W84,,00.0000000,N,00.0000000,E,00.0000000,W84*5F
$PSSN,TFM,100057.00,,,,*6C
$GPRMC,100057.00,A,4742.1598727,N,01618.1000157,E,0.0,,010125,5.1,E,D*10
$GPGLL,4742.1598727,N,01618.1000157,E,100057.00,A,D*61
$GPGGA,100057.00,4742.1598727,N,01618.1000157,E,2,36,0.4,708.3343,M,43.2066,M,1.7,0136*42
$GNGNS,100057.00,4742.1598727,N,01618.1000157,E,DAAA,36,0.4,708.3343,43.2066,,*5C
$GPGNS,100057.00,,,,,,11,,,,1.7,136*7C
$GLGNS,100057.00,,,,,,07,,,,,*7B
$GAGNS,100057.00,,,,,,06,,,,,*77
$GBGNS,100057.00,,,,,,12,,,,,*71
$GPLLQ,100057.00,010125,,M,,M,1,36,0.842,,M*19
$GPVTG,,T,,M,0.00,N,0.00,K,D*26
$GPHDT,,T*1B
$GPTHS,,V*0E
$GPROT,,V*08
$PSSN,HRP,100057.00,010125,,,,,,,00,0,,*62
$PTNL,AVR,100057.00,,Yaw,,Tilt,,,,0,,00*34
$GPGSA,A,3,05,10,12,13,14,15,17,19,23,24,30,,0.8,0.4,0.7*37
$GPGSA,A,3,65,66,67,75,76,77,85,,,,,,0.8,0.4,0.7*35
$GPGSA,A,3,02,03,07,08,25,30,,,,,,,0.8,0.4,0.7*33
$GPGSA,A,3,05,07,10,14,21,24,26,33,40,42,45,60,0.8,0.4,0.7*3B
$GPGST,100057.00,2.401,0.408,0.285,11.402,0.404,0.291,0.679*64
$GPGBS,100057.00,2.048,1.437,4.051,77,0.0001,-8.399,6.166*73
$GPGRS,100057.00,1,-1.2,-0.2,0.5,0.0,-0.1,-0.0,0.5,0.4,0.4,-0.0,-1.1,*63
$GPGRS,100057.00,1,1.4,-2.0,7.1,-1.6,-1.2,-8.4,5.1,,,,,*6E
$GPGRS,100057.00,1,-0.1,0.5,0.3,-0.3,-0.2,-0.2,,,,,,*49
$GPGRS,100057.00,1,0.1,0.1,0.1,1.3,0.9,-0.3,-0.4,0.0,-1.8,-0.3,-0.3,0.1*65
$GPGSV,6,1,23,15,67,244,50,19,27,135,43,12,11,223,41,23,25,299,43*76
$GPGSV,6,2,23,30,13,093,39,14,41,057,46,13,59,152,50,17,37,098,46*71
$GPGSV,6,3,23,24,40,286,45,22,62,065,,21,01,024,,10,07,335,38*79
$GPGSV,6,4,23,05,05,206,39,02,02,042,33,36,35,170,44,58,13,245,36*7E
$GPGSV,6,5,23,40,23,133,36,34,31,208,42,49,34,195,44,57,07,112,38*78
$GPGSV,6,6,23,41,07,108,35,61,03,257,38*7A
$GLGSV,2,1,08,76,74,303,52,84,14,025,33,85,15,076,44,65,32,179,45*61
$GLGSV,2,2,08,67,30,325,49,75,32,049,48,77,31,252,42,66,69,251,53*6A
$GAGSV,3,1,10,08,73,277,48,30,18,221,41,07,22,311,41,16,25,051,*62
$GAGSV,3,2,10,03,46,151,46,25,50,057,46,02,70,197,49,24,01,047,33*6F
$GAGSV,3,3,10,12,00,037,,33,02,349,35*64
$GBGSV,5,1,19,26,75,275,51,21,29,188,46,05,20,130,38,40,27,044,43*66
$GBGSV,5,2,19,33,24,316,44,25,23,245,,07,28,056,41,24,24,255,45*6B
$GBGSV,5,3,19,50,45,211,,14,43,293,46,56,35,077,,10,37,068,42*63
$GBGSV,5,4,19,45,43,066,48,42,53,252,49,09,00,095,21,35,06,137,*63
$GBGSV,5,5,19,02,04,109,31,29,08,037,,60,07,112,40*5F
$GPGGA,100057.00,,,,,0,00,,,M,,M,,*4B
$PTNL,GGK,100057.00,010125,4742.1598727,N,01618.1000157,E,1,36,0.8,EHT751.5409,M*41
$GPGGQ,100057.00,010125,4742.1598727,N,01618.1000157,E,1,36,0.842,708.3343,M*3A
$GPGFA,100057.00,3.876,5.568,0.408,0.285,11.402,0.679,,VVV*39
$GPLLK,100057.00,010125,,M,,M,1,36,0.9,,M*04
$GNGMP,100057.00,,,,,DAAA,36,0.4,,,,*54
$GPGMP,100057.00,,,,,,11,,,,1.7,136*7C
$GLGMP,100057.00,,,,,,07,,,,,*7B
$GAGMP,100057.00,,,,,,06,,,,,*77
$GBGMP,100057.00,,,,,,12,,,,,*71
$PSSN,SNC,[0,295275000,2347]*4A
$GPZDA,100102.00,01,01,2025,,*61
$GPDTM,W84,,00.0000000,N,00.0000000,E,00.0000000,W84*5F
$PSSN,TFM,100102.00,,,,*6D
$GPRMC,100102.00,A,4742.1598723,N,01618.1000173,E,0.0,,010125,5.1,E,D*13
$GPGLL,4742.1598723,N,01618.1000173,E,100102.00,A,D*62
$GPGGA,100102.00,4742.1598723,N,01618.1000173,E,2,36,0.4,708.3313,M,43.2066,M,2.4,0136*44
$GNGNS,100102.00,4742.1598723,N,01618.1000173,E,DAAA,36,0.4,708.3313,43.2066,,*5A
$GPGNS,100102.00,,,,,,11,,,,2.4,136*7D
$GLGNS,100102.00,,,,,,07,,,,,*7A
$GAGNS,100102.00,,,,,,06,,,,,*76
$GBGNS,100102.00,,,,,,12,,,,,*70
$GPLLQ,100102.00,010125,,M,,M,1,36,0.843,,M*19
$GPVTG,,T,,M,0.01,N,0.01,K,D*26
$GPHDT,,T*1B
$GPTHS,,V*0E
$GPROT,,V*08
$PSSN,HRP,100102.00,010125,,,,,,,00,0,,*63
$PTNL,AVR,100102.00,,Yaw,,Tilt,,,,0,,00*35
$GPGSA,A,3,05,10,12,13,14,15,17,19,23,24,30,,0.8,0.4,0.7*37
$GPGSA,A,3,65,66,67,75,76,77,85,,,,,,0.8,0.4,0.7*35
$GPGSA,A,3,02,03,07,08,25,30,,,,,,,0.8,0.4,0.7*33
$GPGSA,A,3,05,07,10,14,21,24,26,33,40,42,45,60,0.8,0.4,0.7*3B
$GPGST,100102.00,2.310,0.405,0.288,10.831,0.402,0.293,0.680*6D
$GPGBS,100102.00,2.052,1.434,4.073,30,0.0001,-1.675,1.186*7E
$GPGRS,100102.00,1,-0.6,-0.1,0.7,0.2,0.1,-0.2,0.4,0.1,0.5,-0.2,-1.7,*4A
$GPGRS,100102.00,1,0.9,-1.4,6.8,-2.1,-1.1,-8.0,5.0,,,,,*6E
$GPGRS,100102.00,1,-0.1,0.8,0.3,-0.2,-0.1,0.1,,,,,,*69
$GPGRS,100102.00,1,0.5,-0.4,-0.4,1.8,0.7,-0.1,-0.4,-0.2,-1.4,-0.2,-0.2,-0.2*6A
$GPGSV,6,1,23,15,67,244,50,19,27,135,43,12,11,223,41,23,25,298,43*77
$GPGSV,6,2,23,30,13,093,38,14,41,057,46,13,59,152,50,17,37,098,46*70
$GPGSV,6,3,23,24,40,286,45,22,62,065,,21,01,024,,10,07,335,38*79
$GPGSV,6,4,23,05,05,206,39,02,02,042,33,36,35,170,44,58,13,245,36*7E
$GPGSV,6,5,23,40,23,133,36,34,31,208,42,49,34,195,44,57,07,112,38*78
$GPGSV,6,6,23,41,07,108,35,61,03,257,38*7A
$GLGSV,2,1,08,76,74,303,52,84,14,024,32,85,15,076,43,65,32,179,45*66
$GLGSV,2,2,08,67,30,325,49,75,32,049,48,77,31,252,42,66,69,251,53*6A
$GAGSV,3,1,10,08,73,277,48,30,19,221,40,07,22,311,41,16,25,051,*62
$GAGSV,3,2,10,03,46,151,46,25,50,057,46,02,70,197,49,24,01,047,32*6E
$GAGSV,3,3,10,12,00,037,,33,02,349,35*64
$GBGSV,5,1,19,26,75,276,51,21,29,188,46,05,20,130,38,40,27,044,43*65
$GBGSV,5,2,19,33,24,316,44,25,23,245,,07,28,056,41,24,24,255,44*6A
$GBGSV,5,3,19,50,45,211,,14,43,293,46,56,35,077,,10,37,068,42*63
$GBGSV,5,4,19,45,43,066,47,42,53,252,49,09,00,095,25,35,06,137,*68
$GBGSV,5,5,19,02,04,109,31,29,08,037,,60,07,112,40*5F
$GPGGA,100102.00,,,,,0,00,,,M,,M,,*4A
$PTNL,GGK,100102.00,010125,4742.1598723,N,01618.1000173,E,1,36,0.8,EHT751.5378,M*43
$GPGGQ,100102.00,010125,4742.1598723,N,01618.1000173,E,1,36,0.843,708.3313,M*3D
$GPGFA,100102.00,3.853,5.580,0.405,0.288,10.831,0.680,,VVV*32
$GPLLK,100102.00,010125,,M,,M,1,36,0.9,,M*05
$GNGMP,100102.00,,,,,DAAA,36,0.4,,,,*55
$GPGMP,100102.00,,,,,,11,,,,2.4,136*7D
$GLGMP,100102.00,,,,,,07,,,,,*7A
$GAGMP,100102.00,,,,,,06,,,,,*76
$GBGMP,100102.00,,,,,,12,,,,,*70
$PSSN,SNC,[0,295280000,2347]*40
$GPZDA,100107.00,01,01,2025,,*64
$GPDTM,W84,,00.0000000,N,00.0000000,E,00.0000000,W84*5F
$PSSN,TFM,100107.00,,,,*68
$GPRMC,100107.00,A,4742.1598717,N,01618.1000185,E,0.0,,010125,5.1,E,D*18
$GPGLL,4742.1598717,N,01618.1000185,E,100107.00,A,D*69
$GPGGA,100107.00,4742.1598717,N,01618.1000185,E,2,36,0.4,708.3297,M,43.2066,M,3.4,0136*43
$GNGNS,100107.00,4742.1598717,N,01618.1000185,E,DAAA,36,0.4,708.3297,43.2066,,*5C
$GPGNS,100107.00,,,,,,11,,,,3.4,136*79
$GLGNS,100107.00,,,,,,07,,,,,*7F
$GAGNS,100107.00,,,,,,06,,,,,*73
$GBGNS,100107.00,,,,,,12,,,,,*75
$GPLLQ,100107.00,010125,,M,,M,1,36,0.850,,M*1E
$GPVTG,,T,,M,0.00,N,0.01,K,D*27
$GPHDT,,T*1B
$GPTHS,,V*0E
$GPROT,,V*08
$PSSN,HRP,100107.00,010125,,,,,,,00,0,,*66
$PTNL,AVR,100107.00,,Yaw,,Tilt,,,,0,,00*30
$GPGSA,A,3,05,10,12,13,14,15,17,19,23,24,30,,0.8,0.4,0.7*37
$GPGSA,A,3,65,66,67,75,76,77,85,,,,,,0.8,0.4,0.7*35
$GPGSA,A,3,02,03,07,08,25,30,,,,,,,0.8,0.4,0.7*33
$GPGSA,A,3,05,07,10,14,21,24,26,33,40,42,45,60,0.8,0.4,0.7*3B
$GPGST,100107.00,2.440,0.408,0.291,10.641,0.405,0.296,0.687*63
$GPGBS,100107.00,2.080,1.449,4.130,77,0.0001,-8.983,6.166*7D
$GPGRS,100107.00,1,-0.2,0.7,0.2,0.1,-0.0,-0.2,0.4,0.0,0.2,-0.4,-1.5,*48
$GPGRS,100107.00,1,1.5,-1.5,7.4,-1.9,-1.2,-9.0,4.2,,,,,*60
$GPGRS,100107.00,1,0.0,0.6,0.6,-0.2,-0.1,-0.0,,,,,,*67
$GPGRS,100107.00,1,0.6,-0.0,-0.3,1.7,0.6,0.5,-0.2,0.1,-1.3,-0.1,-0.5,0.2*4E
$GPGSV,6,1,23,15,67,244,50,19,27,135,43,12,11,223,41,23,25,298,43*77
$GPGSV,6,2,23,30,13,093,39,14,41,057,46,13,59,152,50,17,37,098,46*71
$GPGSV,6,3,23,24,40,286,45,22,62,065,,21,01,024,,10,07,335,38*79
$GPGSV,6,4,23,05,05,206,39,02,02,042,32,36,35,170,45,58,13,245,36*7E
$GPGSV,6,5,23,40,23,133,37,34,31,208,42,49,34,195,44,57,07,112,38*79
$GPGSV,6,6,23,41,07,108,35,61,03,257,38*7A
$GLGSV,2,1,08,76,74,303,52,84,14,024,32,85,15,076,44,65,32,179,45*61
$GLGSV,2,2,08,67,30,325,49,75,32,049,48,77,31,252,43,66,69,251,53*6B
$GAGSV,3,1,10,08,73,277,49,30,19,221,40,07,22,311,41,16,25,051,*63
$GAGSV,3,2,10,03,46,151,46,25,50,057,46,02,70,197,49,24,01,047,32*6E
$GAGSV,3,3,10,12,00,037,,33,02,349,35*64
$GBGSV,5,1,19,26,75,276,51,21,29,188,46,05,20,130,38,40,27,044,43*65
$GBGSV,5,2,19,33,24,316,44,25,23,245,,07,28,056,41,24,24,255,45*6B
$GBGSV,5,3,19,50,45,211,,14,43,293,46,56,35,077,,10,37,068,42*63
$GBGSV,5,4,19,45,43,066,47,42,53,252,49,09,00,095,21,35,06,137,*6C
$GBGSV,5,5,19,02,04,109,31,29,08,037,,60,07,112,40*5F
$GPGGA,100107.00,,,,,0,00,,,M,,M,,*4F
$PTNL,GGK,100107.00,010125,4742.1598717,N,01618.1000185,E,1,36,0.8,EHT751.5363,M*42
$GPGGQ,100107.00,010125,4742.1598717,N,01618.1000185,E,1,36,0.850,708.3297,M*39
$GPGFA,100107.00,3.881,5.632,0.408,0.291,10.641,0.687,,VVV*39
$GPLLK,100107.00,010125,,M,,M,1,36,0.9,,M*00
$GNGMP,100107.00,,,,,DAAA,36,0.4,,,,*50
$GPGMP,100107.00,,,,,,11,,,,3.4,136*79
$GLGMP,100107.00,,,,,,07,,,,,*7F
$GAGMP,100107.00,,,,,,06,,,,,*73
$GBGMP,100107.00,,,,,,12,,,,,*75
$PSSN,SNC,[0,295285000,2347]*45
$GPZDA,100112.00,01,01,2025,,*60
$GPDTM,W84,,00.0000000,N,00.0000000,E,00.0000000,W84*5F
$PSSN,TFM,100112.00,,,,*6C
$GPRMC,100112.00,A,4742.1598707,N,01618.1000178,E,0.0,,010125,5.1,E,D*1F
$GPGLL,4742.1598707,N,01618.1000178,E,100112.00,A,D*6E
$GPGGA,100112.00,4742.1598707,N,01618.1000178,E,2,36,0.4,708.3325,M,43.2066,M,2.5,0136*4C
$GNGNS,100112.00,4742.1598707,N,01618.1000178,E,DAAA,36,0.4,708.3325,43.2066,,*53
$GPGNS,100112.00,,,,,,11,,,,2.5,136*7D
$GLGNS,100112.00,,,,,,07,,,,,*7B
$GAGNS,100112.00,,,,,,06,,,,,*77
$GBGNS,100112.00,,,,,,12,,,,,*71
$GPLLQ,100112.00,010125,,M,,M,1,36,0.859,,M*13
$GPVTG,,T,,M,0.00,N,0.00,K,D*26
$GPHDT,,T*1B
$GPTHS,,V*0E
$GPROT,,V*08
$PSSN,HRP,100112.00,010125,,,,,,,00,0,,*62
$PTNL,AVR,100112.00,,Yaw,,Tilt,,,,0,,00*34
$GPGSA,A,3,05,10,12,13,14,15,17,19,23,24,30,,0.8,0.4,0.7*37
$GPGSA,A,3,65,66,67,75,76,77,85,,,,,,0.8,0.4,0.7*35
$GPGSA,A,3,02,03,07,08,25,30,,,,,,,0.8,0.4,0.7*33
$GPGSA,A,3,05,07,10,14,21,24,26,33,40,42,45,60,0.8,0.4,0.7*3B
$GPGST,100112.00,2.366,0.413,0.293,11.636,0.409,0.299,0.694*6C
$GPGBS,100112.00,2.065,1.584,4.342,77,0.0001,-8.323,6.165*76
$GPGRS,100112.00,1,-0.2,0.7,-0.3,0.1,-0.3,-0.2,0.6,0.4,0.6,-0.4,-0.7,*62
$GPGRS,100112.00,1,1.2,-1.3,7.6,-1.3,-1.3,-8.3,4.5,,,,,*69
$GPGRS,100112.00,1,0.0,0.5,0.6,-0.3,0.1,-0.4,,,,,,*48
$GPGRS,100112.00,1,0.2,0.0,-0.1,1.2,0.7,0.8,-0.3,0.3,-1.2,-0.0,-0.3,0.1*6E
$GPGSV,6,1,23,15,67,244,49,19,27,135,44,12,11,223,41,23,25,298,43*78
$GPGSV,6,2,23,30,13,093,39,14,41,057,45,13,59,152,50,17,37,098,46*72
$GPGSV,6,3,23,24,40,286,45,22,62,065,,21,01,024,,10,07,335,38*79
$GPGSV,6,4,23,05,05,206,39,02,02,042,31,36,35,170,44,58,13,245,36*7C
$GPGSV,6,5,23,40,23,133,37,34,31,208,42,49,34,195,44,57,07,112,38*79
$GPGSV,6,6,23,41,07,108,35,61,03,257,38*7A
$GLGSV,2,1,08,76,74,303,52,84,14,024,32,85,15,076,44,65,32,179,45*61
$GLGSV,2,2,08,67,30,325,49,75,32,049,48,77,31,252,42,66,69,251,53*6A
$GAGSV,3,1,10,08,73,277,48,30,19,221,40,07,23,311,41,16,25,051,*63
$GAGSV,3,2,10,03,46,151,46,25,50,057,45,02,70,197,49,24,01,047,32*6D
$GAGSV,3,3,10,12,00,037,,33,02,348,35*65
$GBGSV,5,1,19,26,76,276,51,21,29,188,46,05,20,130,38,40,27,044,42*67
$GBGSV,5,2,19,33,24,316,44,25,23,245,,07,28,056,41,24,24,255,45*6B
$GBGSV,5,3,19,50,45,211,,14,43,293,46,56,35,077,,10,37,068,42*63
$GBGSV,5,4,19,45,43,066,47,42,53,252,49,09,00,095,21,35,06,137,*6C
$GBGSV,5,5,19,02,04,109,30,29,08,037,,60,07,112,40*5E
$GPGGA,100112.00,,,,,0,00,,,M,,M,,*4B
$PTNL,GGK,100112.00,010125,4742.1598707,N,01618.1000178,E,1,36,0.8,EHT751.5391,M*48
$GPGGQ,100112.00,010125,4742.1598707,N,01618.1000178,E,1,36,0.859,708.3325,M*3F
$GPGFA,100112.00,3.925,5.694,0.413,0.293,11.636,0.694,,VVV*35
$GPLLK,100112.00,010125,,M,,M,1,36,0.9,,M*04
$GNGMP,100112.00,,,,,DAAA,36,0.4,,,,*54
$GPGMP,100112.00,,,,,,11,,,,2.5,136*7D
$GLGMP,100112.00,,,,,,07,,,,,*7B
$GAGMP,100112.00,,,,,,06,,,,,*77
$GBGMP,100112.00,,,,,,12,,,,,*71
$PSSN,SNC,[0,295290000,2347]*41
$GPZDA,100117.00,01,01,2025,,*65
$GPDTM,W84,,00.0000000,N,00.0000000,E,00.0000000,W84*5F
$PSSN,TFM,100117.00,,,,*69
$GPRMC,100117.00,A,4742.1598690,N,01618.1000146,E,0.0,,010125,5.1,E,D*18
$GPGLL,4742.1598690,N,01618.1000146,E,100117.00,A,D*69
$GPGGA,100117.00,4742.1598690,N,01618.1000146,E,2,36,0.4,708.3299,M,43.2066,M,1.7,0136*4C
$GNGNS,100117.00,4742.1598690,N,01618.1000146,E,DAAA,36,0.4,708.3299,43.2066,,*52
$GPGNS,100117.00,,,,,,11,,,,1.7,136*79
$GLGNS,100117.00,,,,,,07,,,,,*7E
$GAGNS,100117.00,,,,,,06,,,,,*72
$GBGNS,100117.00,,,,,,12,,,,,*74
$GPLLQ,100117.00,010125,,M,,M,1,36,0.856,,M*19
$GPVTG,,T,,M,0.00,N,0.00,K,D*26
$GPHDT,,T*1B
$GPTHS,,V*0E
$GPROT,,V*08
$PSSN,HRP,100117.00,010125,,,,,,,00,0,,*67
$PTNL,AVR,100117.00,,Yaw,,Tilt,,,,0,,00*31
$GPGSA,A,3,05,10,12,13,14,15,17,19,23,24,30,,0.8,0.4,0.7*37
$GPGSA,A,3,65,66,67,75,76,77,85,,,,,,0.8,0.4,0.7*35
$GPGSA,A,3,02,03,07,08,25,30,,,,,,,0.8,0.4,0.7*33
$GPGSA,A,3,05,07,10,14,21,24,26,33,40,42,45,60,0.8,0.4,0.7*3B
$GPGST,100117.00,2.404,0.410,0.293,12.686,0.405,0.300,0.691*69
$GPGBS,100117.00,2.057,1.515,4.193,77,0.0001,-8.683,6.165*7B
$GPGRS,100117.00,1,-0.2,0.2,-0.3,0.3,-0.1,-0.2,0.6,-0.0,0.7,-0.3,-1.0,*4B
$GPGRS,100117.00,1,1.0,-1.3,7.6,-1.8,-1.1,-8.7,4.2,,,,,*64
$GPGRS,100117.00,1,0.1,0.5,0.3,-0.3,0.1,-0.3,,,,,,*4E
$GPGRS,100117.00,1,0.6,0.1,0.2,2.1,0.6,0.3,-0.3,0.0,-1.0,-0.1,-0.1,0.2*4B
$GPGSV,6,1,23,15,67,244,49,19,27,135,44,12,11,223,40,23,25,298,43*79
$GPGSV,6,2,23,30,13,093,38,14,41,057,45,13,59,152,49,17,37,098,46*7B
$GPGSV,6,3,23,24,40,286,45,22,62,065,,21,01,024,,10,07,335,39*78
$GPGSV,6,4,23,05,05,206,39,02,02,042,31,36,35,170,44,58,13,245,36*7C
$GPGSV,6,5,23,40,23,133,36,34,31,208,42,49,34,195,44,57,07,112,38*78
$GPGSV,6,6,23,41,07,108,35,61,03,257,38*7A
$GLGSV,2,1,08,76,74,304,52,84,14,024,33,85,15,076,44,65,32,179,45*67
$GLGSV,2,2,08,67,30,325,49,75,32,049,48,77,31,252,43,66,69,251,53*6B
$GAGSV,3,1,10,08,73,276,49,30,19,221,40,07,23,311,41,16,25,051,*63
$GAGSV,3,2,10,03,46,151,46,25,50,057,46,02,70,197,49,24,01,047,32*6E
$GAGSV,3,3,10,12,00,037,,33,02,348,36*66
$GBGSV,5,1,19,26,76,276,51,21,29,188,47,05,20,130,38,40,27,044,42*66
$GBGSV,5,2,19,33,24,316,44,25,23,245,,07,28,056,41,24,24,255,45*6B
$GBGSV,5,3,19,50,45,211,,14,43,293,46,56,35,077,,10,37,068,42*63
$GBGSV,5,4,19,45,43,066,48,42,53,252,50,09,00,095,22,35,06,137,*68
$GBGSV,5,5,19,02,04,109,31,29,08,037,,60,07,112,40*5F
$GPGGA,100117.00,,,,,0,00,,,M,,M,,*4E
$PTNL,GGK,100117.00,010125,4742.1598690,N,01618.1000146,E,1,36,0.8,EHT751.5364,M*45
$GPGGQ,100117.00,010125,4742.1598690,N,01618.1000146,E,1,36,0.856,708.3299,M*31
$GPGFA,100117.00,3.900,5.668,0.410,0.293,12.686,0.691,,VVV*3A
$GPLLK,100117.00,010125,,M,,M,1,36,0.9,,M*01
$GNGMP,100117.00,,,,,DAAA,36,0.4,,,,*51
$GPGMP,100117.00,,,,,,11,,,,1.7,136*79
$GLGMP,100117.00,,,,,,07,,,,,*7E
$GAGMP,100117.00,,,,,,06,,,,,*72
$GBGMP,100117.00,,,,,,12,,,,,*74
$PSSN,SNC,[0,295295000,2347]*44
$GPZDA,100122.00,01,01,2025,,*63
$GPDTM,W84,,00.0000000,N,00.0000000,E,00.0000000,W84*5F
$PSSN,TFM,100122.00,,,,*6F
$GPRMC,100122.00,A,4742.1598658,N,01618.1000123,E,0.0,,010125,5.1,E,D*19
$GPGLL,4742.1598658,N,01618.1000123,E,100122.00,A,D*68
$GPGGA,100122.00,4742.1598658,N,01618.1000123,E,2,36,0.4,708.3281,M,43.2066,M,2.4,0136*44
$GNGNS,100122.00,4742.1598658,N,01618.1000123,E,DAAA,36,0.4,708.3281,43.2066,,*5A
$GPGNS,100122.00,,,,,,11,,,,2.4,136*7F
$GLGNS,100122.00,,,,,,07,,,,,*78
$GAGNS,100122.00,,,,,,06,,,,,*74
$GBGNS,100122.00,,,,,,12,,,,,*72
$GPLLQ,100122.00,010125,,M,,M,1,36,0.850,,M*19
$GPVTG,,T,,M,0.00,N,0.01,K,D*27
$GPHDT,,T*1B
$GPTHS,,V*0E
$GPROT,,V*08
$PSSN,HRP,100122.00,010125,,,,,,,00,0,,*61
$PTNL,AVR,100122.00,,Yaw,,Tilt,,,,0,,00*37
$GPGSA,A,3,05,10,12,13,14,15,17,19,23,24,30,,0.8,0.4,0.7*37
$GPGSA,A,3,65,66,67,75,76,77,85,,,,,,0.8,0.4,0.7*35
$GPGSA,A,3,02,03,07,08,25,30,,,,,,,0.8,0.4,0.7*33
$GPGSA,A,3,05,07,10,14,21,24,26,33,40,42,45,60,0.8,0.4,0.7*3B
$GPGST,100122.00,2.425,0.404,0.295,12.048,0.400,0.301,0.687*68
$GPGBS,100122.00,2.067,1.519,4.214,77,0.0001,-9.010,6.165*73
$GPGRS,100122.00,1,-0.9,0.1,-0.2,0.0,0.5,-0.2,0.6,0.0,0.2,-0.1,-0.9,*4C
$GPGRS,100122.00,1,0.7,-1.6,7.0,-1.6,-1.3,-9.0,4.8,,,,,*67
$GPGRS,100122.00,1,-0.1,0.4,0.2,-0.4,-0.1,-0.3,,,,,,*4F
$GPGRS,100122.00,1,0.7,-0.3,0.4,1.9,1.1,0.4,-0.5,-0.0,-1.1,-0.3,-0.3,-0.1*6B
$GPGSV,6,1,23,15,67,244,49,19,27,135,45,12,11,223,40,23,25,298,42*79
$GPGSV,6,2,23,30,13,093,39,14,40,057,45,13,59,152,50,17,37,098,46*73
$GPGSV,6,3,23,24,40,286,45,22,62,065,,21,01,023,,10,07,335,38*7E
$GPGSV,6,4,23,05,05,206,39,02,02,042,31,36,35,170,44,58,13,245,36*7C
$GPGSV,6,5,23,40,23,133,36,34,31,208,42,49,34,195,44,57,07,112,38*78
$GPGSV,6,6,23,41,07,108,35,61,03,257,38*7A
