$GPZDA,102942.00,01,01,2025,,*6F
$GPDTM,W84,,00.0000000,N,00.0000000,E,00.0000000,W84*5F
$PSSN,TFM,102942.00,,,,*63
$GPRMC,102942.00,A,4742.1600802,N,01618.0999275,E,0.0,,010125,5.1,E,D*1E
$GPGLL,4742.1600802,N,01618.0999275,E,102942.00,A,D*6F
$GPGGA,102942.00,4742.1600802,N,01618.0999275,E,2,36,0.4,708.3447,M,43.2066,M,1.6,0136*4E
$GNGNS,102942.00,4742.1600802,N,01618.0999275,E,DAAA,36,0.4,708.3447,43.2066,,*51
$GPGNS,102942.00,,,,,,09,,,,1.6,136*7B
$GLGNS,102942.00,,,,,,08,,,,,*7B
$GAGNS,102942.00,,,,,,06,,,,,*78
$GBGNS,102942.00,,,,,,13,,,,,*7F
$GPLLQ,102942.00,010125,,M,,M,1,36,1.112,,M*1B
$GPVTG,,T,,M,0.00,N,0.01,K,D*27
$GPHDT,,T*1B
$GPTHS,,V*0E
$GPROT,,V*08
$PSSN,HRP,102942.00,010125,,,,,,,00,0,,*6D
$PTNL,AVR,102942.00,,Yaw,,Tilt,,,,0,,00*3B
$GPGSA,A,3,10,12,13,14,15,17,19,23,24,,,,0.9,0.4,0.8*3F
$GPGSA,A,3,65,66,67,75,76,77,85,86,,,,,0.9,0.4,0.8*35
$GPGSA,A,3,02,03,07,08,25,30,,,,,,,0.9,0.4,0.8*3D
$GPGSA,A,3,05,07,10,14,21,24,26,33,35,40,42,45,0.9,0.4,0.8*35
$GPGSA,A,3,60,,,,,,,,,,,,0.9,0.4,0.8*31
$GPGST,102942.00,2.256,0.428,0.300,9.087,0.425,0.304,0.981*57
$GPGBS,102942.00,2.576,1.692,5.816,77,0.0001,-7.288,6.090*75
$GPGRS,102942.00,1,-1.2,-0.5,-0.4,0.4,0.1,0.1,-0.2,0.7,0.3,,,*6C
$GPGRS,102942.00,1,1.2,-1.1,7.0,-2.1,-1.8,-7.3,3.9,0.6,,,,*44
$GPGRS,102942.00,1,0.2,-0.4,0.7,0.2,0.3,-0.1,,,,,,*43
$GPGRS,102942.00,1,0.9,0.6,0.7,2.1,1.6,-0.3,-0.3,0.1,-2.4,-0.9,-0.1,0.6*6A
$GPGRS,102942.00,1,-0.3,,,,,,,,,,,*42
$GPGSV,6,1,22,15,59,216,49,10,12,326,41,23,23,285,43,12,23,228,44*7C
$GPGSV,6,2,22,19,38,125,46,14,29,057,45,13,45,156,48,17,40,082,46*70
$GPGSV,6,3,22,22,50,058,,24,52,293,48,02,04,032,37,21,01,013,*72
$GPGSV,6,4,22,30,03,100,33,36,35,170,45,58,13,245,36,40,23,133,36*76
$GPGSV,6,5,22,34,31,208,42,49,34,195,44,57,07,111,37,41,07,108,35*79
$GPGSV,6,6,22,61,03,257,38*46
$GLGSV,3,1,10,76,71,358,52,85,22,063,45,67,42,315,50,75,20,058,44*69
$GLGSV,3,2,10,84,11,011,30,65,16,180,40,77,43,266,45,66,58,221,52*6C
$GLGSV,3,3,10,68,01,339,43,86,07,114,41*6D
$GAGSV,3,1,09,02,81,190,49,07,32,310,43,16,16,052,,30,28,226,43*61
$GAGSV,3,2,09,03,35,156,44,25,40,055,45,08,74,238,49,12,04,029,31*64
$GAGSV,3,3,09,10,03,051,34*50
$GBGSV,5,1,18,26,82,331,51,07,26,053,41,35,16,130,43,40,25,041,43*68
$GBGSV,5,2,18,05,20,130,38,21,17,186,42,25,33,253,,24,34,263,46*60
$GBGSV,5,3,18,50,33,205,,33,31,307,46,45,33,072,46,10,37,064,42*65
$GBGSV,5,4,18,56,37,072,,14,45,277,46,42,46,236,48,02,04,109,30*67
$GBGSV,5,5,18,29,06,027,,60,07,111,41*6F
$GPGGA,102942.00,,,,,0,00,,,M,,M,,*44
$PTNL,GGK,102942.00,010125,4742.1600802,N,01618.0999275,E,1,36,0.9,EHT751.5512,M*45
$GPGGQ,102942.00,010125,4742.1600802,N,01618.0999275,E,1,36,1.112,708.3447,M*3A
$GPGFA,102942.00,4.066,8.045,0.428,0.300,9.087,0.981,,VVV*09
$GPLLK,102942.00,010125,,M,,M,1,36,1.0,,M*03
$GNGMP,102942.00,,,,,DAAA,36,0.4,,,,*5B
$GPGMP,102942.00,,,,,,09,,,,1.6,136*7B
$GLGMP,102942.00,,,,,,08,,,,,*7B
$GAGMP,102942.00,,,,,,06,,,,,*78
$GBGMP,102942.00,,,,,,13,,,,,*7F
$PSSN,SNC,[0,297000000,2347]*48
$GPZDA,102947.00,01,01,2025,,*6A
$GPDTM,W84,,00.0000000,N,00.0000000,E,00.0000000,W84*5F
$PSSN,TFM,102947.00,,,,*66
$GPRMC,102947.00,A,4742.1600794,N,01618.0999296,E,0.0,,010125,5.1,E,D*16
$GPGLL,4742.1600794,N,01618.0999296,E,102947.00,A,D*67
$GPGGA,102947.00,4742.1600794,N,01618.0999296,E,2,36,0.4,708.3405,M,43.2066,M,2.6,0136*43
$GNGNS,102947.00,4742.1600794,N,01618.0999296,E,DAAA,36,0.4,708.3405,43.2066,,*5F
$GPGNS,102947.00,,,,,,09,,,,2.6,136*7D
$GLGNS,102947.00,,,,,,08,,,,,*7E
$GAGNS,102947.00,,,,,,06,,,,,*7D
$GBGNS,102947.00,,,,,,13,,,,,*7A
$GPLLQ,102947.00,010125,,M,,M,1,36,1.117,,M*1B
$GPVTG,,T,,M,0.01,N,0.01,K,D*26
$GPHDT,,T*1B
$GPTHS,,V*0E
$GPROT,,V*08
$PSSN,HRP,102947.00,010125,,,,,,,00,0,,*68
$PTNL,AVR,102947.00,,Yaw,,Tilt,,,,0,,00*3E
$GPGSA,A,3,10,12,13,14,15,17,19,23,24,,,,0.9,0.4,0.8*3F
$GPGSA,A,3,65,66,67,75,76,77,85,86,,,,,0.9,0.4,0.8*35
$GPGSA,A,3,02,03,07,08,25,30,,,,,,,0.9,0.4,0.8*3D
$GPGSA,A,3,05,07,10,14,21,24,26,33,35,40,42,45,0.9,0.4,0.8*35
$GPGSA,A,3,60,,,,,,,,,,,,0.9,0.4,0.8*31
$GPGST,102947.00,2.275,0.425,0.302,8.644,0.423,0.306,0.988*59
$GPGBS,102947.00,2.610,1.706,5.937,77,0.0001,-8.001,6.090*71
$GPGRS,102947.00,1,-1.3,0.2,-0.0,0.1,0.1,0.3,-0.5,0.6,0.2,,,*46
$GPGRS,102947.00,1,0.9,-1.0,7.3,-1.6,-1.8,-8.0,3.0,0.6,,,,*48
$GPGRS,102947.00,1,0.2,-0.5,0.6,0.2,0.3,0.1,,,,,,*6B
$GPGRS,102947.00,1,0.9,0.5,0.6,2.0,1.6,-0.2,-0.0,0.3,-1.9,-0.9,0.2,0.4*4E
$GPGRS,102947.00,1,-0.4,,,,,,,,,,,*40
$GPGSV,6,1,22,15,59,216,49,10,12,326,41,23,23,285,43,12,23,228,43*7B
$GPGSV,6,2,22,19,38,125,46,14,29,057,44,13,45,156,48,17,40,082,47*70
$GPGSV,6,3,22,22,50,058,,24,53,293,47,02,04,032,38,21,01,013,*73
$GPGSV,6,4,22,30,03,100,34,36,35,170,45,58,13,245,36,40,23,133,37*70
$GPGSV,6,5,22,34,31,208,42,49,34,195,44,57,07,111,37,41,07,108,35*79
$GPGSV,6,6,22,61,03,257,38*46
$GLGSV,3,1,10,76,71,358,52,85,22,063,45,67,42,315,50,75,20,058,44*69
$GLGSV,3,2,10,84,11,011,30,65,16,180,41,77,43,266,44,66,58,220,52*6D
$GLGSV,3,3,10,68,01,339,42,86,07,114,42*6F
$GAGSV,3,1,09,02,82,190,49,07,32,310,43,16,16,052,,30,28,227,43*63
$GAGSV,3,2,09,03,35,156,44,25,40,055,45,08,74,238,49,12,04,029,30*65
$GAGSV,3,3,09,10,03,051,35*51
$GBGSV,5,1,18,26,82,332,50,07,26,053,41,35,16,130,43,40,25,041,43*6A
$GBGSV,5,2,18,05,20,130,38,21,17,186,41,25,33,253,,24,34,263,46*63
$GBGSV,5,3,18,50,33,205,,33,31,307,45,45,33,072,46,10,37,064,42*66
$GBGSV,5,4,18,56,37,072,,14,45,277,46,42,46,236,48,02,04,109,30*67
$GBGSV,5,5,18,29,06,027,,60,07,111,41*6F
$GPGGA,102947.00,,,,,0,00,,,M,,M,,*41
$PTNL,GGK,102947.00,010125,4742.1600794,N,01618.0999296,E,1,36,0.9,EHT751.5471,M*49
$GPGGQ,102947.00,010125,4742.1600794,N,01618.0999296,E,1,36,1.117,708.3405,M*31
$GPGFA,102947.00,4.044,8.103,0.425,0.302,8.644,0.988,,VVV*01
$GPLLK,102947.00,010125,,M,,M,1,36,1.0,,M*06
$GNGMP,102947.00,,,,,DAAA,36,0.4,,,,*5E
$GPGMP,102947.00,,,,,,09,,,,2.6,136*7D
$GLGMP,102947.00,,,,,,08,,,,,*7E
$GAGMP,102947.00,,,,,,06,,,,,*7D
$GBGMP,102947.00,,,,,,13,,,,,*7A
$PSSN,SNC,[0,297005000,2347]*4D
$GPZDA,102952.00,01,01,2025,,*6E
$GPDTM,W84,,00.0000000,N,00.0000000,E,00.0000000,W84*5F
$PSSN,TFM,102952.00,,,,*62
$GPRMC,102952.00,A,4742.1600795,N,01618.0999285,E,0.0,,010125,5.1,E,D*11
$GPGLL,4742.1600795,N,01618.0999285,E,102952.00,A,D*60
$GPGGA,102952.00,4742.1600795,N,01618.0999285,E,2,36,0.4,708.3389,M,43.2066,M,3.6,0136*46
$GNGNS,102952.00,4742.1600795,N,01618.0999285,E,DAAA,36,0.4,708.3389,43.2066,,*5B
$GPGNS,102952.00,,,,,,09,,,,3.6,136*78
$GLGNS,102952.00,,,,,,08,,,,,*7A
$GAGNS,102952.00,,,,,,06,,,,,*79
$GBGNS,102952.00,,,,,,13,,,,,*7E
$GPLLQ,102952.00,010125,,M,,M,1,36,1.136,,M*1C
$GPVTG,,T,,M,0.00,N,0.01,K,D*27
$GPHDT,,T*1B
$GPTHS,,V*0E
$GPROT,,V*08
$PSSN,HRP,102952.00,010125,,,,,,,00,0,,*6C
$PTNL,AVR,102952.00,,Yaw,,Tilt,,,,0,,00*3A
$GPGSA,A,3,10,12,13,14,15,17,19,23,24,,,,0.9,0.4,0.8*3F
$GPGSA,A,3,65,66,67,75,76,77,85,86,,,,,0.9,0.4,0.8*35
$GPGSA,A,3,02,03,07,08,25,30,,,,,,,0.9,0.4,0.8*3D
$GPGSA,A,3,05,07,10,14,21,24,26,33,35,40,42,45,0.9,0.4,0.8*35
$GPGSA,A,3,60,,,,,,,,,,,,0.9,0.4,0.8*31
$GPGST,102952.00,2.332,0.432,0.307,8.413,0.429,0.310,1.005*5C
$GPGBS,102952.00,2.646,1.713,6.068,77,0.0001,-8.003,6.090*70
$GPGRS,102952.00,1,-0.4,-0.0,-0.1,-0.4,0.1,0.6,0.0,0.1,-0.1,,,*46
$GPGRS,102952.00,1,1.6,-1.2,7.2,-0.9,-2.0,-8.0,4.0,1.0,,,,*44
$GPGRS,102952.00,1,0.3,-0.6,1.0,0.3,0.2,-0.0,,,,,,*46
$GPGRS,102952.00,1,0.8,0.9,0.8,1.5,1.5,-0.4,-0.2,0.5,-2.0,-1.3,0.1,0.5*4D
$GPGRS,102952.00,1,-0.6,,,,,,,,,,,*46
$GPGSV,6,1,22,15,59,216,50,10,12,326,42,23,23,285,43,12,23,228,43*70
$GPGSV,6,2,22,19,38,125,46,14,29,057,43,13,45,156,48,17,40,082,47*77
$GPGSV,6,3,22,22,50,058,,24,53,293,47,02,04,032,38,21,01,013,*73
$GPGSV,6,4,22,30,03,100,34,36,35,170,45,58,13,245,36,40,23,133,37*70
$GPGSV,6,5,22,34,31,208,42,49,34,195,45,57,07,111,37,41,07,108,35*78
$GPGSV,6,6,22,61,03,257,38*46
$GLGSV,3,1,10,76,71,359,51,85,22,062,45,67,42,315,50,75,20,058,45*6B
$GLGSV,3,2,10,84,11,011,30,65,16,180,41,77,43,266,44,66,58,220,52*6D
$GLGSV,3,3,10,68,01,339,42,86,07,114,42*6F
$GAGSV,3,1,09,02,82,190,49,07,32,310,43,16,16,052,,30,28,227,43*63
$GAGSV,3,2,09,03,35,156,44,25,40,055,45,08,74,238,49,12,04,029,31*64
$GAGSV,3,3,09,10,03,051,36*52
$GBGSV,5,1,18,26,82,332,50,07,26,053,41,35,16,130,43,40,25,041,43*6A
$GBGSV,5,2,18,05,20,130,38,21,17,186,41,25,33,253,,24,34,263,46*63
$GBGSV,5,3,18,50,33,205,,33,31,307,46,45,33,072,46,10,37,064,42*65
$GBGSV,5,4,18,56,37,072,,14,45,277,46,42,46,236,48,02,04,109,30*67
$GBGSV,5,5,18,29,06,027,,60,07,111,41*6F
$GPGGA,102952.00,,,,,0,00,,,M,,M,,*45
$PTNL,GGK,102952.00,010125,4742.1600795,N,01618.0999285,E,1,36,0.9,EHT751.5454,M*49
$GPGGQ,102952.00,010125,4742.1600795,N,01618.0999285,E,1,36,1.136,708.3389,M*36
$GPGFA,102952.00,4.103,8.242,0.432,0.307,8.413,1.005,,VVV*0F
$GPLLK,102952.00,010125,,M,,M,1,36,1.0,,M*02
$GNGMP,102952.00,,,,,DAAA,36,0.4,,,,*5A
$GPGMP,102952.00,,,,,,09,,,,3.6,136*78
$GLGMP,102952.00,,,,,,08,,,,,*7A
$GAGMP,102952.00,,,,,,06,,,,,*79
$GBGMP,102952.00,,,,,,13,,,,,*7E
$PSSN,SNC,[0,297010000,2347]*49
$GPZDA,102957.00,01,01,2025,,*6B
$GPDTM,W84,,00.0000000,N,00.0000000,E,00.0000000,W84*5F
$PSSN,TFM,102957.00,,,,*67
$GPRMC,102957.00,A,4742.1600812,N,01618.0999259,E,0.0,,010125,5.1,E,D*15
$GPGLL,4742.1600812,N,01618.0999259,E,102957.00,A,D*64
$GPGGA,102957.00,4742.1600812,N,01618.0999259,E,2,36,0.4,708.3358,M,43.2066,M,2.3,0136*4A
$GNGNS,102957.00,4742.1600812,N,01618.0999259,E,DAAA,36,0.4,708.3358,43.2066,,*53
$GPGNS,102957.00,,,,,,09,,,,2.3,136*79
$GLGNS,102957.00,,,,,,08,,,,,*7F
$GAGNS,102957.00,,,,,,06,,,,,*7C
$GBGNS,102957.00,,,,,,13,,,,,*7B
$GPLLQ,102957.00,010125,,M,,M,1,36,1.134,,M*1B
$GPVTG,,T,,M,0.00,N,0.00,K,D*26
$GPHDT,,T*1B
$GPTHS,,V*0E
$GPROT,,V*08
$PSSN,HRP,102957.00,010125,,,,,,,00,0,,*69
$PTNL,AVR,102957.00,,Yaw,,Tilt,,,,0,,00*3F
$GPGSA,A,3,10,12,13,14,15,17,19,23,24,,,,0.9,0.4,0.8*3F
$GPGSA,A,3,65,66,67,75,76,77,85,86,,,,,0.9,0.4,0.8*35
$GPGSA,A,3,02,03,07,08,25,30,,,,,,,0.9,0.4,0.8*3D
$GPGSA,A,3,05,07,10,14,21,24,26,33,35,40,42,45,0.9,0.4,0.8*35
$GPGSA,A,3,60,,,,,,,,,,,,0.9,0.4,0.8*31
$GPGST,102957.00,2.296,0.434,0.305,8.622,0.431,0.308,1.003*54
$GPGBS,102957.00,2.594,1.740,5.798,77,0.0001,-7.888,6.090*70
$GPGRS,102957.00,1,-0.9,0.1,-0.1,-0.1,-0.0,0.2,-0.2,0.4,0.1,,,*48
$GPGRS,102957.00,1,1.4,-1.5,7.4,-0.2,-2.2,-7.9,3.3,1.0,,,,*49
$GPGRS,102957.00,1,0.2,-0.6,0.7,0.2,0.2,-0.2,,,,,,*47
$GPGRS,102957.00,1,1.0,0.7,0.8,1.7,0.7,-0.3,-0.5,0.6,-2.4,-1.0,-0.1,0.2*60
$GPGRS,102957.00,1,-0.5,,,,,,,,,,,*40
$GPGSV,6,1,22,15,59,216,49,10,12,326,41,23,23,285,43,12,23,228,43*7B
$GPGSV,6,2,22,19,38,125,46,14,29,057,43,13,45,156,48,17,40,082,47*77
$GPGSV,6,3,22,22,50,058,,24,53,293,47,02,04,032,37,21,01,013,*7C
$GPGSV,6,4,22,30,03,100,34,36,35,170,45,58,13,245,36,40,23,133,37*70
$GPGSV,6,5,22,34,31,208,42,49,34,195,45,57,07,111,37,41,07,108,35*78
$GPGSV,6,6,22,61,03,257,38*46
$GLGSV,3,1,10,76,71,359,51,85,22,062,44,67,42,315,50,75,20,058,46*69
$GLGSV,3,2,10,84,11,011,30,65,16,180,41,77,43,266,44,66,58,220,52*6D
$GLGSV,3,3,10,68,01,339,42,86,07,114,41*6C
$GAGSV,3,1,09,02,82,190,49,07,32,310,43,16,16,052,,30,28,227,43*63
$GAGSV,3,2,09,03,35,156,44,25,40,055,45,08,74,238,49,12,04,029,31*64
$GAGSV,3,3,09,10,03,051,36*52
$GBGSV,5,1,18,26,82,332,50,07,26,053,41,35,16,130,43,40,25,041,43*6A
$GBGSV,5,2,18,05,20,130,38,21,17,186,41,45,33,072,45,24,34,263,46*65
$GBGSV,5,3,18,50,33,205,,33,31,307,46,25,33,253,,10,37,064,42*60
$GBGSV,5,4,18,56,37,072,,14,45,277,46,42,46,236,48,02,04,109,30*67
$GBGSV,5,5,18,29,06,027,,60,07,111,41*6F
$GPGGA,102957.00,,,,,0,00,,,M,,M,,*40
$PTNL,GGK,102957.00,010125,4742.1600812,N,01618.0999259,E,1,36,0.9,EHT751.5424,M*4A
$GPGGQ,102957.00,010125,4742.1600812,N,01618.0999259,E,1,36,1.134,708.3358,M*3C
$GPGFA,102957.00,4.123,8.222,0.434,0.305,8.622,1.003,,VVV*0C
$GPLLK,102957.00,010125,,M,,M,1,36,1.0,,M*07
$GNGMP,102957.00,,,,,DAAA,36,0.4,,,,*5F
$GPGMP,102957.00,,,,,,09,,,,2.3,136*79
$GLGMP,102957.00,,,,,,08,,,,,*7F
$GAGMP,102957.00,,,,,,06,,,,,*7C
$GBGMP,102957.00,,,,,,13,,,,,*7B
$PSSN,SNC,[0,297015000,2347]*4C
$GPZDA,103002.00,01,01,2025,,*63
$GPDTM,W84,,00.0000000,N,00.0000000,E,00.0000000,W84*5F
$PSSN,TFM,103002.00,,,,*6F
$GPRMC,103002.00,A,4742.1600824,N,01618.0999270,E,0.0,,010125,5.1,E,D*13
$GPGLL,4742.1600824,N,01618.0999270,E,103002.00,A,D*62
$GPGGA,103002.00,4742.1600824,N,01618.0999270,E,2,36,0.4,708.3322,M,43.2066,M,1.6,0136*47
$GNGNS,103002.00,4742.1600824,N,01618.0999270,E,DAAA,36,0.4,708.3322,43.2066,,*58
$GPGNS,103002.00,,,,,,09,,,,1.6,136*77
$GLGNS,103002.00,,,,,,08,,,,,*77
$GAGNS,103002.00,,,,,,06,,,,,*74
$GBGNS,103002.00,,,,,,13,,,,,*73
$GPLLQ,103002.00,010125,,M,,M,1,36,1.111,,M*14
$GPVTG,,T,,M,0.00,N,0.00,K,D*26
$GPHDT,,T*1B
$GPTHS,,V*0E
$GPROT,,V*08
$PSSN,HRP,103002.00,010125,,,,,,,00,0,,*61
$PTNL,AVR,103002.00,,Yaw,,Tilt,,,,0,,00*37
$GPGSA,A,3,10,12,13,14,15,17,19,23,24,,,,0.9,0.4,0.8*3F
$GPGSA,A,3,65,66,67,75,76,77,85,86,,,,,0.9,0.4,0.8*35
$GPGSA,A,3,02,03,07,08,25,30,,,,,,,0.9,0.4,0.8*3D
$GPGSA,A,3,05,07,10,14,21,24,26,33,35,40,42,45,0.9,0.4,0.8*35
$GPGSA,A,3,60,,,,,,,,,,,,0.9,0.4,0.8*31
$GPGST,103002.00,2.265,0.427,0.298,8.936,0.424,0.302,0.982*52
$GPGBS,103002.00,2.553,1.688,5.861,77,0.0001,-8.031,6.090*7A
$GPGRS,103002.00,1,-1.4,0.2,0.2,-0.0,-0.3,0.1,-0.0,0.4,0.3,,,*60
$GPGRS,103002.00,1,1.4,-1.3,6.9,-0.9,-2.2,-8.0,2.8,0.9,,,,*44
$GPGRS,103002.00,1,0.2,-0.7,0.7,0.0,0.1,-0.6,,,,,,*4B
$GPGRS,103002.00,1,0.5,0.9,0.3,2.0,0.4,-0.7,-0.5,0.1,-2.7,-0.8,0.1,-0.1*64
$GPGRS,103002.00,1,-0.7,,,,,,,,,,,*4A
$GPGSV,6,1,22,15,59,216,49,10,12,326,41,23,23,285,42,12,23,228,43*7A
$GPGSV,6,2,22,19,38,125,46,14,29,057,43,13,45,156,48,17,40,082,47*77
$GPGSV,6,3,22,22,50,058,,24,53,293,47,02,04,032,37,21,01,013,*7C
$GPGSV,6,4,22,30,03,100,35,36,35,170,45,58,13,245,36,40,23,133,37*71
$GPGSV,6,5,22,34,31,208,42,49,34,195,44,57,07,111,37,41,07,108,35*79
$GPGSV,6,6,22,61,03,257,38*46
$GLGSV,3,1,10,76,71,359,51,85,22,062,44,67,42,315,51,75,20,058,46*68
$GLGSV,3,2,10,84,11,011,30,65,16,180,42,77,43,266,44,66,58,220,52*6E
$GLGSV,3,3,10,68,01,339,42,86,07,114,41*6C
$GAGSV,3,1,09,02,82,190,49,07,32,310,43,16,16,052,,30,28,227,43*63
$GAGSV,3,2,09,03,35,156,44,25,40,055,45,08,74,238,49,12,04,029,32*67
$GAGSV,3,3,09,10,03,051,35*51
$GBGSV,5,1,18,26,82,333,51,07,26,053,41,35,16,130,43,40,25,041,43*6A
$GBGSV,5,2,18,05,20,130,38,21,17,186,42,45,33,072,45,24,34,263,46*66
$GBGSV,5,3,18,50,33,205,,33,31,307,46,25,33,253,,10,37,064,42*60
$GBGSV,5,4,18,56,37,072,,14,45,277,46,42,46,236,48,02,04,109,30*67
$GBGSV,5,5,18,29,06,027,,60,07,111,41*6F
$GPGGA,103002.00,,,,,0,00,,,M,,M,,*48
$PTNL,GGK,103002.00,010125,4742.1600824,N,01618.0999270,E,1,36,0.9,EHT751.5388,M*4D
$GPGGQ,103002.00,010125,4742.1600824,N,01618.0999270,E,1,36,1.111,708.3322,M*30
$GPGFA,103002.00,4.056,8.051,0.427,0.298,8.936,0.982,,VVV*0D
$GPLLK,103002.00,010125,,M,,M,1,36,1.0,,M*0F
$GNGMP,103002.00,,,,,DAAA,36,0.4,,,,*57
$GPGMP,103002.00,,,,,,09,,,,1.6,136*77
$GLGMP,103002.00,,,,,,08,,,,,*77
$GAGMP,103002.00,,,,,,06,,,,,*74
$GBGMP,103002.00,,,,,,13,,,,,*73
$PSSN,SNC,[0,297020000,2347]*4A
$GPZDA,103007.00,01,01,2025,,*66
$GPDTM,W84,,00.0000000,N,00.0000000,E,00.0000000,W84*5F
$PSSN,TFM,103007.00,,,,*6A
$GPRMC,103007.00,A,4742.1600830,N,01618.0999260,E,0.0,,010125,5.1,E,D*12
$GPGLL,4742.1600830,N,01618.0999260,E,103007.00,A,D*63
$GPGGA,103007.00,4742.1600830,N,01618.0999260,E,2,36,0.4,708.3304,M,43.2066,M,2.6,0136*41
$GNGNS,103007.00,4742.1600830,N,01618.0999260,E,DAAA,36,0.4,708.3304,43.2066,,*5D
$GPGNS,103007.00,,,,,,09,,,,2.6,136*71
$GLGNS,103007.00,,,,,,08,,,,,*72
$GAGNS,103007.00,,,,,,06,,,,,*71
$GBGNS,103007.00,,,,,,13,,,,,*76
$GPLLQ,103007.00,010125,,M,,M,1,36,1.117,,M*17
$GPVTG,,T,,M,0.00,N,0.01,K,D*27
$GPHDT,,T*1B
$GPTHS,,V*0E
$GPROT,,V*08
$PSSN,HRP,103007.00,010125,,,,,,,00,0,,*64
$PTNL,AVR,103007.00,,Yaw,,Tilt,,,,0,,00*32
$GPGSA,A,3,10,12,13,14,15,17,19,23,24,,,,0.9,0.4,0.8*3F
$GPGSA,A,3,65,66,67,75,76,77,85,86,,,,,0.9,0.4,0.8*35
$GPGSA,A,3,02,03,07,08,25,30,,,,,,,0.9,0.4,0.8*3D
$GPGSA,A,3,05,07,10,14,21,24,26,33,35,40,42,45,0.9,0.4,0.8*35
$GPGSA,A,3,60,,,,,,,,,,,,0.9,0.4,0.8*31
$GPGST,103007.00,2.287,0.424,0.301,8.495,0.422,0.304,0.989*56
$GPGBS,103007.00,2.588,1.702,5.984,77,0.0001,-7.470,6.089*76
$GPGRS,103007.00,1,-1.2,0.4,-0.1,0.4,-0.3,-0.0,-0.1,0.3,0.2,,,*49
$GPGRS,103007.00,1,1.6,-1.2,7.2,-2.3,-1.6,-7.5,3.0,1.1,,,,*4D
$GPGRS,103007.00,1,0.2,-0.9,0.7,0.2,-0.0,-0.7,,,,,,*6F
$GPGRS,103007.00,1,0.8,1.2,0.5,2.3,0.1,0.0,-0.4,-0.1,-2.9,-0.9,-0.1,-0.1*42
$GPGRS,103007.00,1,-0.6,,,,,,,,,,,*4E
$GPGSV,6,1,22,15,59,216,49,10,12,326,41,23,23,285,43,12,23,228,43*7B
$GPGSV,6,2,22,19,38,125,46,14,29,057,43,13,45,156,48,17,40,082,47*77
$GPGSV,6,3,22,22,50,058,,24,53,293,47,02,04,032,37,21,01,013,*7C
$GPGSV,6,4,22,30,03,100,34,36,35,170,45,58,13,245,36,40,23,133,37*70
$GPGSV,6,5,22,34,31,208,42,49,34,195,45,57,07,111,37,41,07,108,35*78
$GPGSV,6,6,22,61,03,257,38*46
$GLGSV,3,1,10,76,71,359,51,85,22,062,44,67,42,315,51,75,20,058,45*6B
$GLGSV,3,2,10,84,11,011,31,65,16,180,42,77,43,266,45,66,58,220,52*6E
$GLGSV,3,3,10,68,01,339,42,86,07,114,41*6C
$GAGSV,3,1,09,02,82,190,49,07,32,310,43,16,16,052,,30,28,227,42*62
$GAGSV,3,2,09,03,35,156,44,25,40,055,44,08,74,237,49,12,04,029,32*69
$GAGSV,3,3,09,10,03,051,35*51
$GBGSV,5,1,18,26,82,333,51,07,26,053,41,35,16,130,43,40,25,041,43*6A
$GBGSV,5,2,18,05,20,130,38,21,17,186,42,45,33,072,46,24,34,263,46*65
$GBGSV,5,3,18,50,33,205,,33,31,307,46,25,33,253,,10,37,064,43*61
$GBGSV,5,4,18,56,37,072,,14,45,277,46,42,46,236,48,02,04,109,30*67
$GBGSV,5,5,18,29,06,027,,60,07,111,41*6F
$GPGGA,103007.00,,,,,0,00,,,M,,M,,*4D
$PTNL,GGK,103007.00,010125,4742.1600830,N,01618.0999260,E,1,36,0.9,EHT751.5369,M*43
$GPGGQ,103007.00,010125,4742.1600830,N,01618.0999260,E,1,36,1.117,708.3304,M*33
$GPGFA,103007.00,4.034,8.107,0.424,0.301,8.495,0.989,,VVV*03
$GPLLK,103007.00,010125,,M,,M,1,36,1.0,,M*0A
$GNGMP,103007.00,,,,,DAAA,36,0.4,,,,*52
$GPGMP,103007.00,,,,,,09,,,,2.6,136*71
$GLGMP,103007.00,,,,,,08,,,,,*72
$GAGMP,103007.00,,,,,,06,,,,,*71
$GBGMP,103007.00,,,,,,13,,,,,*76
$PSSN,SNC,[0,297025000,2347]*4F
$GPZDA,103012.00,01,01,2025,,*62
$GPDTM,W84,,00.0000000,N,00.0000000,E,00.0000000,W84*5F
$PSSN,TFM,103012.00,,,,*6E
$GPRMC,103012.00,A,4742.1600816,N,01618.0999290,E,0.0,,010125,5.1,E,D*1D
$GPGLL,4742.1600816,N,01618.0999290,E,103012.00,A,D*6C
$GPGGA,103012.00,4742.1600816,N,01618.0999290,E,2,36,0.4,708.3299,M,43.2066,M,3.6,0136*4A
$GNGNS,103012.00,4742.1600816,N,01618.0999290,E,DAAA,36,0.4,708.3299,43.2066,,*57
$GPGNS,103012.00,,,,,,09,,,,3.6,136*74
$GLGNS,103012.00,,,,,,08,,,,,*76
$GAGNS,103012.00,,,,,,06,,,,,*75
$GBGNS,103012.00,,,,,,13,,,,,*72
$GPLLQ,103012.00,010125,,M,,M,1,36,1.136,,M*10
$GPVTG,,T,,M,0.00,N,0.01,K,D*27
$GPHDT,,T*1B
$GPTHS,,V*0E
$GPROT,,V*08
$PSSN,HRP,103012.00,010125,,,,,,,00,0,,*60
$PTNL,AVR,103012.00,,Yaw,,Tilt,,,,0,,00*36
$GPGSA,A,3,10,12,13,14,15,17,19,23,24,,,,0.9,0.4,0.8*3F
$GPGSA,A,3,65,66,67,75,76,77,85,86,,,,,0.9,0.4,0.8*35
$GPGSA,A,3,02,03,07,08,25,30,,,,,,,0.9,0.4,0.8*3D
$GPGSA,A,3,05,07,10,14,21,24,26,33,35,40,42,45,0.9,0.4,0.8*35
$GPGSA,A,3,60,,,,,,,,,,,,0.9,0.4,0.8*31
$GPGST,103012.00,2.581,0.431,0.306,8.143,0.429,0.309,1.006*57
$GPGBS,103012.00,2.628,1.718,6.122,77,0.0001,-8.036,6.089*7E
$GPGRS,103012.00,1,-0.7,0.0,-0.2,0.3,0.1,0.2,-0.5,0.4,0.1,,,*49
$GPGRS,103012.00,1,0.7,-4.2,7.8,-2.7,-2.3,-8.0,3.9,1.4,,,,*42
$GPGRS,103012.00,1,0.1,-0.8,1.1,0.1,0.1,0.0,,,,,,*6B
$GPGRS,103012.00,1,1.3,1.2,0.5,2.1,0.4,0.1,-0.4,0.2,-2.8,-0.8,-0.2,0.4*4F
$GPGRS,103012.00,1,-0.4,,,,,,,,,,,*48
$GPGSV,6,1,22,15,59,216,49,10,12,326,41,23,23,285,42,12,23,228,43*7A
$GPGSV,6,2,22,19,38,125,46,14,29,057,43,13,45,156,48,17,40,082,47*77
$GPGSV,6,3,22,22,50,058,,24,53,293,47,02,04,031,38,21,01,013,*70
$GPGSV,6,4,22,30,03,100,35,36,35,170,45,58,13,245,36,40,23,133,36*70
$GPGSV,6,5,22,34,31,208,42,49,34,195,45,57,07,111,38,41,07,108,35*77
$GPGSV,6,6,22,61,03,257,38*46
$GLGSV,3,1,10,76,71,359,51,85,22,062,45,67,42,315,51,75,20,058,45*6A
$GLGSV,3,2,10,84,11,011,30,65,16,180,40,77,43,266,44,66,58,220,52*6C
$GLGSV,3,3,10,68,01,339,42,86,07,114,41*6C
$GAGSV,3,1,09,02,82,190,49,07,32,310,43,16,16,052,,30,28,227,43*63
$GAGSV,3,2,09,03,35,156,44,25,40,055,44,08,74,237,49,12,04,029,31*6A
$GAGSV,3,3,09,10,03,051,36*52
$GBGSV,5,1,18,26,82,333,51,07,26,053,41,35,16,130,43,40,25,041,43*6A
$GBGSV,5,2,18,05,20,130,38,21,17,186,43,45,33,072,46,24,34,263,47*65
$GBGSV,5,3,18,50,33,205,,33,31,307,46,25,33,253,,10,37,064,43*61
$GBGSV,5,4,18,56,37,072,,14,45,277,46,42,46,236,48,02,04,109,30*67
$GBGSV,5,5,18,29,06,027,,60,07,111,41*6F
$GPGGA,103012.00,,,,,0,00,,,M,,M,,*49
$PTNL,GGK,103012.00,010125,4742.1600816,N,01618.0999290,E,1,36,0.9,EHT751.5365,M*40
$GPGGQ,103012.00,010125,4742.1600816,N,01618.0999290,E,1,36,1.136,708.3299,M*3A
$GPGFA,103012.00,4.095,8.249,0.431,0.306,8.143,1.006,,VVV*07
$GPLLK,103012.00,010125,,M,,M,1,36,1.0,,M*0E
$GNGMP,103012.00,,,,,DAAA,36,0.4,,,,*56
$GPGMP,103012.00,,,,,,09,,,,3.6,136*74
$GLGMP,103012.00,,,,,,08,,,,,*76
$GAGMP,103012.00,,,,,,06,,,,,*75
$GBGMP,103012.00,,,,,,13,,,,,*72
$PSSN,SNC,[0,297030000,2347]*4B
$GPZDA,103017.00,01,01,2025,,*67
$GPDTM,W84,,00.0000000,N,00.0000000,E,00.0000000,W84*5F
$PSSN,TFM,103017.00,,,,*6B
$GPRMC,103017.00,A,4742.1600815,N,01618.0999297,E,0.0,,010125,5.1,E,D*1C
$GPGLL,4742.1600815,N,01618.0999297,E,103017.00,A,D*6D
$GPGGA,103017.00,4742.1600815,N,01618.0999297,E,2,36,0.4,708.3249,M,43.2066,M,2.3,0136*42
$GNGNS,103017.00,4742.1600815,N,01618.0999297,E,DAAA,36,0.4,708.3249,43.2066,,*5B
$GPGNS,103017.00,,,,,,09,,,,2.3,136*75
$GLGNS,103017.00,,,,,,08,,,,,*73
$GAGNS,103017.00,,,,,,06,,,,,*70
$GBGNS,103017.00,,,,,,13,,,,,*77
$GPLLQ,103017.00,010125,,M,,M,1,36,1.135,,M*16
$GPVTG,,T,,M,0.00,N,0.01,K,D*27
$GPHDT,,T*1B
$GPTHS,,V*0E
$GPROT,,V*08
$PSSN,HRP,103017.00,010125,,,,,,,00,0,,*65
$PTNL,AVR,103017.00,,Yaw,,Tilt,,,,0,,00*33
$GPGSA,A,3,10,12,13,14,15,17,19,23,24,,,,0.9,0.4,0.8*3F
$GPGSA,A,3,65,66,67,75,76,77,85,86,,,,,0.9,0.4,0.8*35
$GPGSA,A,3,02,03,07,08,25,30,,,,,,,0.9,0.4,0.8*3D
$GPGSA,A,3,05,07,10,14,21,24,26,33,35,40,42,45,0.9,0.4,0.8*35
$GPGSA,A,3,60,,,,,,,,,,,,0.9,0.4,0.8*31
$GPGST,103017.00,2.498,0.433,0.305,8.504,0.431,0.308,1.004*57
$GPGBS,103017.00,2.580,1.738,5.853,77,0.0001,-8.518,6.090*75
$GPGRS,103017.00,1,-1.4,0.2,-0.2,0.2,0.1,0.2,-0.3,0.5,0.3,,,*48
$GPGRS,103017.00,1,-1.0,-3.9,6.7,-1.8,-2.4,-8.5,3.5,1.5,,,,*6D
$GPGRS,103017.00,1,-0.1,-0.8,0.9,0.0,0.1,-0.2,,,,,,*64
$GPGRS,103017.00,1,0.9,1.1,0.7,1.4,0.4,-0.1,-0.6,0.2,-3.5,-0.9,-0.2,0.2*62
$GPGRS,103017.00,1,-0.4,,,,,,,,,,,*4D
$GPGSV,6,1,22,15,59,216,49,10,12,326,41,23,23,285,43,12,23,228,43*7B
$GPGSV,6,2,22,19,38,125,45,14,29,057,44,13,45,156,48,17,40,082,47*73
$GPGSV,6,3,22,22,50,058,,24,53,293,48,02,04,031,37,21,01,013,*70
$GPGSV,6,4,22,30,03,100,35,36,35,170,45,58,13,245,36,40,23,133,37*71
$GPGSV,6,5,22,34,31,208,42,49,34,195,44,57,07,111,37,41,07,108,35*79
$GPGSV,6,6,22,61,03,257,38*46
$GLGSV,3,1,10,76,71,359,51,85,22,062,45,67,42,315,51,75,20,058,45*6A
$GLGSV,3,2,10,84,11,011,30,65,16,180,40,77,43,266,44,66,58,220,52*6C
$GLGSV,3,3,10,68,01,339,43,86,07,114,41*6D
$GAGSV,3,1,09,02,82,190,49,07,32,310,43,16,16,052,,30,28,227,43*63
$GAGSV,3,2,09,03,35,156,44,25,40,055,45,08,74,237,49,12,04,029,32*68
$GAGSV,3,3,09,10,03,051,37*53
$GBGSV,5,1,18,26,82,333,51,07,26,053,41,35,16,130,42,40,25,041,43*6B
$GBGSV,5,2,18,05,20,130,38,21,17,186,43,45,33,072,46,24,34,263,47*65
$GBGSV,5,3,18,50,33,205,,33,31,307,46,25,33,253,,10,37,064,43*61
$GBGSV,5,4,18,56,37,072,,14,45,277,46,42,46,236,48,02,04,109,30*67
$GBGSV,5,5,18,29,06,027,,60,07,111,41*6F
$GPGGA,103017.00,,,,,0,00,,,M,,M,,*4C
$PTNL,GGK,103017.00,010125,4742.1600815,N,01618.0999297,E,1,36,0.9,EHT751.5314,M*47
$GPGGQ,103017.00,010125,4742.1600815,N,01618.0999297,E,1,36,1.135,708.3249,M*35
$GPGFA,103017.00,4.119,8.230,0.433,0.305,8.504,1.004,,VVV*0D
$GPLLK,103017.00,010125,,M,,M,1,36,1.0,,M*0B
$GNGMP,103017.00,,,,,DAAA,36,0.4,,,,*53
$GPGMP,103017.00,,,,,,09,,,,2.3,136*75
$GLGMP,103017.00,,,,,,08,,,,,*73
$GAGMP,103017.00,,,,,,06,,,,,*70
$GBGMP,103017.00,,,,,,13,,,,,*77
$PSSN,SNC,[0,297035000,2347]*4E
$GPZDA,103022.00,01,01,2025,,*61
$GPDTM,W84,,00.0000000,N,00.0000000,E,00.0000000,W84*5F
$PSSN,TFM,103022.00,,,,*6D
$GPRMC,103022.00,A,4742.1600817,N,01618.0999313,E,0.0,,010125,5.1,E,D*15
$GPGLL,4742.1600817,N,01618.0999313,E,103022.00,A,D*64
$GPGGA,103022.00,4742.1600817,N,01618.0999313,E,2,36,0.4,708.3203,M,43.2066,M,1.6,0136*43
$GNGNS,103022.00,4742.1600817,N,01618.0999313,E,DAAA,36,0.4,708.3203,43.2066,,*5C
$GPGNS,103022.00,,,,,,09,,,,1.6,136*75
$GLGNS,103022.00,,,,,,08,,,,,*75
$GAGNS,103022.00,,,,,,06,,,,,*76
$GBGNS,103022.00,,,,,,13,,,,,*71
$GPLLQ,103022.00,010125,,M,,M,1,36,1.111,,M*16
$GPVTG,,T,,M,0.00,N,0.01,K,D*27
$GPHDT,,T*1B
$GPTHS,,V*0E
$GPROT,,V*08
$PSSN,HRP,103022.00,010125,,,,,,,00,0,,*63
$PTNL,AVR,103022.00,,Yaw,,Tilt,,,,0,,00*35
$GPGSA,A,3,10,12,13,14,15,17,19,23,24,,,,0.9,0.4,0.8*3F
$GPGSA,A,3,65,66,67,75,76,77,85,86,,,,,0.9,0.4,0.8*35
$GPGSA,A,3,02,03,07,08,25,30,,,,,,,0.9,0.4,0.8*3D
$GPGSA,A,3,05,07,10,14,21,24,26,33,35,40,42,45,0.9,0.4,0.8*35
$GPGSA,A,3,60,,,,,,,,,,,,0.9,0.4,0.8*31
$GPGST,103022.00,2.509,0.426,0.298,8.817,0.423,0.302,0.982*59
$GPGBS,103022.00,2.540,1.687,5.916,77,0.0001,-8.831,6.090*7C
$GPGRS,103022.00,1,-1.3,0.1,-0.1,0.3,-0.1,0.1,-0.1,0.3,0.3,,,*62
$GPGRS,103022.00,1,-0.2,-4.1,6.6,-1.9,-2.3,-8.8,3.2,1.6,,,,*69
$GPGRS,103022.00,1,-0.1,-0.7,1.0,0.1,0.0,-0.1,,,,,,*66
$GPGRS,103022.00,1,0.9,0.9,0.9,1.9,0.7,-0.2,-0.5,0.3,-3.3,-0.7,0.1,0.2*4A
$GPGRS,103022.00,1,-0.6,,,,,,,,,,,*49
$GPGSV,6,1,22,15,59,216,49,10,12,326,41,23,23,285,43,12,23,228,44*7C
$GPGSV,6,2,22,19,38,125,46,14,28,057,44,13,45,156,49,17,40,082,47*70
$GPGSV,6,3,22,22,50,058,,24,53,293,48,02,04,031,36,21,01,013,*71
$GPGSV,6,4,22,30,03,100,35,36,35,170,45,58,13,245,36,40,23,133,36*70
$GPGSV,6,5,22,34,31,208,42,49,34,195,45,57,07,111,37,41,07,108,35*78
$GPGSV,6,6,22,61,03,257,38*46
$GLGSV,3,1,10,76,71,359,51,85,22,062,45,67,42,315,51,75,20,058,45*6A
$GLGSV,3,2,10,84,11,011,30,65,16,180,41,77,43,266,44,66,58,220,52*6D
$GLGSV,3,3,10,68,01,339,43,86,07,114,42*6E
$GAGSV,3,1,09,02,82,190,49,07,32,310,43,16,16,052,,30,28,227,43*63
$GAGSV,3,2,09,03,35,156,44,25,40,055,45,08,74,237,49,12,04,029,31*6B
$GAGSV,3,3,09,10,03,051,36*52
$GBGSV,5,1,18,26,82,334,51,07,26,053,41,35,16,130,42,40,25,041,42*6D
$GBGSV,5,2,18,05,20,130,38,21,17,186,43,45,33,072,46,24,34,263,47*65
$GBGSV,5,3,18,50,33,205,,33,31,307,46,25,33,253,,10,36,064,42*61
$GBGSV,5,4,18,56,37,072,,14,45,276,46,42,46,236,49,02,04,109,30*67
$GBGSV,5,5,18,29,06,027,,60,07,111,41*6F
$GPGGA,103022.00,,,,,0,00,,,M,,M,,*4A
$PTNL,GGK,103022.00,010125,4742.1600817,N,01618.0999313,E,1,36,0.9,EHT751.5269,M*45
$GPGGQ,103022.00,010125,4742.1600817,N,01618.0999313,E,1,36,1.111,708.3203,M*34
$GPGFA,103022.00,4.051,8.054,0.426,0.298,8.817,0.982,,VVV*0E
$GPLLK,103022.00,010125,,M,,M,1,36,1.0,,M*0D
$GNGMP,103022.00,,,,,DAAA,36,0.4,,,,*55
$GPGMP,103022.00,,,,,,09,,,,1.6,136*75
$GLGMP,103022.00,,,,,,08,,,,,*75
$GAGMP,103022.00,,,,,,06,,,,,*76
$GBGMP,103022.00,,,,,,13,,,,,*71
$PSSN,SNC,[0,297040000,2347]*4C
$GPZDA,103027.00,01,01,2025,,*64
$GPDTM,W84,,00.0000000,N,00.0000000,E,00.0000000,W84*5F
$PSSN,TFM,103027.00,,,,*68
$GPRMC,103027.00,A,4742.1600833,N,01618.0999297,E,0.0,,010125,5.1,E,D*1B
$GPGLL,4742.1600833,N,01618.0999297,E,103027.00,A,D*6A
$GPGGA,103027.00,4742.1600833,N,01618.0999297,E,2,36,0.4,708.3184,M,43.2066,M,2.6,0136*42
$GNGNS,103027.00,4742.1600833,N,01618.0999297,E,DAAA,36,0.4,708.3184,43.2066,,*5E
$GPGNS,103027.00,,,,,,09,,,,2.6,136*73
$GLGNS,103027.00,,,,,,08,,,,,*70
$GAGNS,103027.00,,,,,,06,,,,,*73
$GBGNS,103027.00,,,,,,13,,,,,*74
$GPLLQ,103027.00,010125,,M,,M,1,36,1.118,,M*1A
$GPVTG,,T,,M,0.00,N,0.01,K,D*27
$GPHDT,,T*1B
$GPTHS,,V*0E
$GPROT,,V*08
$PSSN,HRP,103027.00,010125,,,,,,,00,0,,*66
$PTNL,AVR,103027.00,,Yaw,,Tilt,,,,0,,00*30
$GPGSA,A,3,10,12,13,14,15,17,19,23,24,,,,0.9,0.4,0.8*3F
$GPGSA,A,3,65,66,67,75,76,77,85,86,,,,,0.9,0.4,0.8*35
$GPGSA,A,3,02,03,07,08,25,30,,,,,,,0.9,0.4,0.8*3D
$GPGSA,A,3,05,07,10,14,21,24,26,33,35,40,42,45,0.9,0.4,0.8*35
$GPGSA,A,3,60,,,,,,,,,,,,0.9,0.4,0.8*31
$GPGST,103027.00,2.576,0.424,0.301,8.378,0.422,0.304,0.989*59
$GPGBS,103027.00,2.574,1.700,6.038,77,0.0001,-8.567,6.089*70
$GPGRS,103027.00,1,-1.1,0.0,0.1,-0.1,-0.1,0.1,0.2,0.5,0.0,,,*4D
$GPGRS,103027.00,1,1.7,-4.0,7.4,-2.5,-2.4,-8.6,3.2,1.3,,,,*44
$GPGRS,103027.00,1,0.1,-0.8,1.0,0.0,-0.2,-0.0,,,,,,*6E
$GPGRS,103027.00,1,1.1,1.2,0.8,1.8,1.0,-0.3,-0.4,0.3,-3.1,-0.7,0.1,-0.3*64
$GPGRS,103027.00,1,-0.6,,,,,,,,,,,*4C
$GPGSV,6,1,22,15,59,216,49,10,12,326,40,23,23,284,43,12,23,228,43*7B
$GPGSV,6,2,22,19,38,125,46,14,28,057,44,13,45,156,49,17,40,082,47*70
$GPGSV,6,3,22,22,50,058,,24,53,293,47,02,04,031,37,21,01,013,*7F
$GPGSV,6,4,22,30,03,100,35,36,35,170,45,58,13,245,36,40,23,133,37*71
$GPGSV,6,5,22,34,31,208,42,49,34,195,45,57,07,111,37,41,07,108,35*78
$GPGSV,6,6,22,61,03,257,39*47
$GLGSV,3,1,10,76,71,359,52,85,22,062,45,67,42,315,51,75,20,058,45*69
$GLGSV,3,2,10,84,11,011,31,65,16,180,42,77,43,266,44,66,58,220,53*6E
$GLGSV,3,3,10,68,01,339,43,86,07,114,42*6E
$GAGSV,3,1,09,02,82,189,49,07,32,310,43,16,16,052,,30,28,227,43*6B
$GAGSV,3,2,09,03,35,156,44,25,40,055,45,08,74,237,49,12,04,029,30*6A
$GAGSV,3,3,09,10,03,051,36*52
$GBGSV,5,1,18,26,83,334,51,07,26,053,41,35,16,130,42,40,25,041,42*6C
$GBGSV,5,2,18,05,20,130,38,21,17,186,43,45,32,072,46,24,34,263,47*64
$GBGSV,5,3,18,50,33,205,,33,32,307,46,25,33,253,,10,36,064,42*62
$GBGSV,5,4,18,56,37,072,,14,45,276,46,42,46,236,49,02,04,109,30*67
$GBGSV,5,5,18,29,06,027,,60,07,111,41*6F
$GPGGA,103027.00,,,,,0,00,,,M,,M,,*4F
$PTNL,GGK,103027.00,010125,4742.1600833,N,01618.0999297,E,1,36,0.9,EHT751.5249,M*49
$GPGGQ,103027.00,010125,4742.1600833,N,01618.0999297,E,1,36,1.118,708.3184,M*3F
$GPGFA,103027.00,4.030,8.114,0.424,0.301,8.378,0.989,,VVV*03
$GPLLK,103027.00,010125,,M,,M,1,36,1.0,,M*08
$GNGMP,103027.00,,,,,DAAA,36,0.4,,,,*50
$GPGMP,103027.00,,,,,,09,,,,2.6,136*73
$GLGMP,103027.00,,,,,,08,,,,,*70
$GAGMP,103027.00,,,,,,06,,,,,*73
$GBGMP,103027.00,,,,,,13,,,,,*74
$PSSN,SNC,[0,297045000,2347]*49
$GPZDA,103032.00,01,01,2025,,*60
$GPDTM,W84,,00.0000000,N,00.0000000,E,00.0000000,W84*5F
$PSSN,TFM,103032.00,,,,*6C
$GPRMC,103032.00,A,4742.1600839,N,01618.0999287,E,0.0,,010125,5.1,E,D*14
$GPGLL,4742.1600839,N,01618.0999287,E,103032.00,A,D*65
$GPGGA,103032.00,4742.1600839,N,01618.0999287,E,2,36,0.4,708.3193,M,43.2066,M,3.6,0136*4A
$GNGNS,103032.00,4742.1600839,N,01618.0999287,E,DAAA,36,0.4,708.3193,43.2066,,*57
$GPGNS,103032.00,,,,,,09,,,,3.6,136*76
$GLGNS,103032.00,,,,,,08,,,,,*74
$GAGNS,103032.00,,,,,,06,,,,,*77
$GBGNS,103032.00,,,,,,13,,,,,*70
$GPLLQ,103032.00,010125,,M,,M,1,36,1.137,,M*13
$GPVTG,,T,,M,0.01,N,0.01,K,D*26
$GPHDT,,T*1B
$GPTHS,,V*0E
$GPROT,,V*08
$PSSN,HRP,103032.00,010125,,,,,,,00,0,,*62
$PTNL,AVR,103032.00,,Yaw,,Tilt,,,,0,,00*34
$GPGSA,A,3,10,12,13,14,15,17,19,23,24,,,,0.9,0.4,0.8*3F
$GPGSA,A,3,65,66,67,75,76,77,85,86,,,,,0.9,0.4,0.8*35
$GPGSA,A,3,02,03,07,08,25,30,,,,,,,0.9,0.4,0.8*3D
$GPGSA,A,3,05,07,10,14,21,24,26,33,35,40,42,45,0.9,0.4,0.8*35
$GPGSA,A,3,60,,,,,,,,,,,,0.9,0.4,0.8*31
$GPGST,103032.00,2.356,0.430,0.306,8.016,0.428,0.309,1.007*59
$GPGBS,103032.00,2.615,1.717,6.180,77,0.0001,-7.663,6.089*7C
$GPGRS,103032.00,1,-0.8,0.0,-0.1,-0.0,-0.1,0.3,-0.2,0.3,0.1,,,*45
$GPGRS,103032.00,1,2.1,-3.8,7.0,-2.1,-2.1,-7.7,2.9,1.1,,,,*49
$GPGRS,103032.00,1,0.4,-0.5,1.1,0.1,0.0,-0.1,,,,,,*4C
$GPGRS,103032.00,1,1.1,0.9,0.9,1.3,1.3,-0.2,-0.4,0.2,-2.5,-0.9,0.1,-0.1*6A
$GPGRS,103032.00,1,-0.5,,,,,,,,,,,*4B
$GPGSV,6,1,22,15,59,216,49,10,12,326,40,23,23,284,43,12,23,228,44*7C
$GPGSV,6,2,22,19,38,125,46,14,28,057,44,13,45,156,49,17,40,082,46*71
$GPGSV,6,3,22,22,50,058,,24,53,293,47,02,04,031,37,21,01,013,*7F
$GPGSV,6,4,22,30,03,100,34,36,35,170,45,58,13,245,36,40,23,133,37*70
$GPGSV,6,5,22,34,31,208,43,49,34,195,45,57,07,111,37,41,07,108,35*79
$GPGSV,6,6,22,61,03,257,38*46
$GLGSV,3,1,10,76,71,000,52,85,22,062,45,67,42,315,51,75,20,058,45*66
$GLGSV,3,2,10,84,11,011,31,65,16,180,41,77,43,266,45,66,58,220,53*6C
$GLGSV,3,3,10,68,01,339,41,86,07,114,42*6C
$GAGSV,3,1,09,02,82,189,49,07,32,310,43,16,16,052,,30,28,227,43*6B
$GAGSV,3,2,09,03,35,156,44,25,40,055,45,08,74,237,49,12,04,029,31*6B
$GAGSV,3,3,09,10,03,051,35*51
$GBGSV,5,1,18,26,83,334,51,07,26,053,41,35,16,130,42,40,25,041,42*6C
$GBGSV,5,2,18,05,20,130,38,21,17,186,43,45,32,072,46,24,34,263,47*64
$GBGSV,5,3,18,50,33,205,,33,32,307,46,25,33,253,,10,36,063,42*65
$GBGSV,5,4,18,56,37,072,,14,45,276,46,42,46,236,48,02,04,109,31*67
$GBGSV,5,5,18,29,06,027,,60,07,111,41*6F
$GPGGA,103032.00,,,,,0,00,,,M,,M,,*4B
$PTNL,GGK,103032.00,010125,4742.1600839,N,01618.0999287,E,1,36,0.9,EHT751.5259,M*47
$GPGGQ,103032.00,010125,4742.1600839,N,01618.0999287,E,1,36,1.137,708.3193,M*3B
$GPGFA,103032.00,4.091,8.257,0.430,0.306,8.016,1.007,,VVV*0F
$GPLLK,103032.00,010125,,M,,M,1,36,1.0,,M*0C
$GNGMP,103032.00,,,,,DAAA,36,0.4,,,,*54
$GPGMP,103032.00,,,,,,09,,,,3.6,136*76
$GLGMP,103032.00,,,,,,08,,,,,*74
$GAGMP,103032.00,,,,,,06,,,,,*77
$GBGMP,103032.00,,,,,,13,,,,,*70
$PSSN,SNC,[0,297050000,2347]*4D
$GPZDA,103037.00,01,01,2025,,*65
$GPDTM,W84,,00.0000000,N,00.0000000,E,00.0000000,W84*5F
$PSSN,TFM,103037.00,,,,*69
$GPRMC,103037.00,A,4742.1600838,N,01618.0999274,E,0.0,,010125,5.1,E,D*1C
$GPGLL,4742.1600838,N,01618.0999274,E,103037.00,A,D*6D
$GPGGA,103037.00,4742.1600838,N,01618.0999274,E,2,36,0.4,708.3200,M,43.2066,M,2.3,0136*4F
$GNGNS,103037.00,4742.1600838,N,01618.0999274,E,DAAA,36,0.4,708.3200,43.2066,,*56
$GPGNS,103037.00,,,,,,09,,,,2.3,136*77
$GLGNS,103037.00,,,,,,08,,,,,*71
$GAGNS,103037.00,,,,,,06,,,,,*72
$GBGNS,103037.00,,,,,,13,,,,,*75
$GPLLQ,103037.00,010125,,M,,M,1,36,1.135,,M*14
$GPVTG,,T,,M,0.00,N,0.00,K,D*26
$GPHDT,,T*1B
$GPTHS,,V*0E
$GPROT,,V*08
$PSSN,HRP,103037.00,010125,,,,,,,00,0,,*67
$PTNL,AVR,103037.00,,Yaw,,Tilt,,,,0,,00*31
$GPGSA,A,3,10,12,13,14,15,17,19,23,24,,,,0.9,0.4,0.8*3F
$GPGSA,A,3,65,66,67,75,76,77,85,86,,,,,0.9,0.4,0.8*35
$GPGSA,A,3,02,03,07,08,25,30,,,,,,,0.9,0.4,0.8*3D
$GPGSA,A,3,05,07,10,14,21,24,26,33,35,40,42,45,0.9,0.4,0.8*35
$GPGSA,A,3,60,,,,,,,,,,,,0.9,0.4,0.8*31
$GPGST,103037.00,2.396,0.433,0.305,8.382,0.431,0.308,1.004*54
$GPGBS,103037.00,2.566,1.737,5.908,77,0.0001,-7.723,6.089*72
$GPGRS,103037.00,1,-0.9,0.6,-0.1,0.2,-0.1,0.1,-0.0,0.0,0.3,,,*69
$GPGRS,103037.00,1,0.7,-3.9,7.3,-2.2,-2.0,-7.7,3.1,1.4,,,,*44
$GPGRS,103037.00,1,0.5,-0.7,1.1,0.3,0.2,-0.2,,,,,,*49
$GPGRS,103037.00,1,1.1,0.8,1.0,1.5,1.1,-0.1,-0.4,0.2,-2.5,-0.6,0.1,-0.0*6F
$GPGRS,103037.00,1,-0.4,,,,,,,,,,,*4F
$GPGSV,6,1,22,15,59,216,49,10,12,326,40,23,23,284,43,12,23,228,44*7C
$GPGSV,6,2,22,19,38,125,46,14,28,057,44,13,45,156,49,17,40,081,46*72
$GPGSV,6,3,22,22,50,058,,24,53,293,47,02,04,031,36,21,01,013,*7E
$GPGSV,6,4,22,30,03,100,35,36,35,170,45,58,13,245,36,40,23,133,37*71
$GPGSV,6,5,22,34,31,208,43,49,34,195,45,57,07,111,38,41,07,108,35*76
$GPGSV,6,6,22,61,03,257,38*46
$GLGSV,3,1,10,76,71,000,52,85,22,062,45,67,42,315,51,75,20,058,45*66
$GLGSV,3,2,10,84,11,011,31,65,16,180,41,77,43,266,45,66,58,220,52*6D
$GLGSV,3,3,10,68,01,339,41,86,07,114,42*6C
$GAGSV,3,1,09,02,82,189,49,07,32,310,43,16,16,052,,30,28,227,43*6B
$GAGSV,3,2,09,03,35,156,45,25,40,055,45,08,74,237,49,12,04,029,30*6B
$GAGSV,3,3,09,10,03,051,36*52
$GBGSV,5,1,18,26,83,334,50,07,26,053,41,35,16,130,43,40,25,041,42*6C
$GBGSV,5,2,18,05,20,130,38,21,16,186,42,45,32,072,47,24,34,263,47*65
$GBGSV,5,3,18,50,33,205,,33,32,307,46,25,33,253,,10,36,063,42*65
$GBGSV,5,4,18,56,37,072,,14,45,276,46,42,46,235,48,02,04,109,30*65
$GBGSV,5,5,18,29,06,027,,60,07,111,41*6F
$GPGGA,103037.00,,,,,0,00,,,M,,M,,*4E
$PTNL,GGK,103037.00,010125,4742.1600838,N,01618.0999274,E,1,36,0.9,EHT751.5266,M*43
$GPGGQ,103037.00,010125,4742.1600838,N,01618.0999274,E,1,36,1.135,708.3200,M*38
$GPGFA,103037.00,4.115,8.237,0.433,0.305,8.382,1.004,,VVV*0C
$GPLLK,103037.00,010125,,M,,M,1,36,1.0,,M*09
$GNGMP,103037.00,,,,,DAAA,36,0.4,,,,*51
$GPGMP,103037.00,,,,,,09,,,,2.3,136*77
$GLGMP,103037.00,,,,,,08,,,,,*71
$GAGMP,103037.00,,,,,,06,,,,,*72
$GBGMP,103037.00,,,,,,13,,,,,*75
$PSSN,SNC,[0,297055000,2347]*48
$GPZDA,103042.00,01,01,2025,,*67
$GPDTM,W84,,00.0000000,N,00.0000000,E,00.0000000,W84*5F
$PSSN,TFM,103042.00,,,,*6B
$GPRMC,103042.00,A,4742.1600837,N,01618.0999316,E,0.0,,010125,5.1,E,D*14
$GPGLL,4742.1600837,N,01618.0999316,E,103042.00,A,D*65
$GPGGA,103042.00,4742.1600837,N,01618.0999316,E,2,36,0.4,708.3173,M,43.2066,M,1.6,0136*46
$GNGNS,103042.00,4742.1600837,N,01618.0999316,E,DAAA,36,0.4,708.3173,43.2066,,*59
$GPGNS,103042.00,,,,,,09,,,,1.6,136*73
$GLGNS,103042.00,,,,,,08,,,,,*73
$GAGNS,103042.00,,,,,,06,,,,,*70
$GBGNS,103042.00,,,,,,13,,,,,*77
$GPLLQ,103042.00,010125,,M,,M,1,36,1.112,,M*13
$GPVTG,,T,,M,0.00,N,0.01,K,D*27
$GPHDT,,T*1B
$GPTHS,,V*0E
$GPROT,,V*08
$PSSN,HRP,103042.00,010125,,,,,,,00,0,,*65
$PTNL,AVR,103042.00,,Yaw,,Tilt,,,,0,,00*33
$GPGSA,A,3,10,12,13,14,15,17,19,23,24,,,,0.9,0.4,0.8*3F
$GPGSA,A,3,65,66,67,75,76,77,85,86,,,,,0.9,0.4,0.8*35
$GPGSA,A,3,02,03,07,08,25,30,,,,,,,0.9,0.4,0.8*3D
$GPGSA,A,3,05,07,10,14,21,24,26,33,35,40,42,45,0.9,0.4,0.8*35
$GPGSA,A,3,60,,,,,,,,,,,,0.9,0.4,0.8*31
$GPGST,103042.00,2.333,0.426,0.299,8.717,0.423,0.302,0.983*5F
$GPGBS,103042.00,2.527,1.686,5.971,77,0.0001,-7.166,6.089*77
$GPGRS,103042.00,1,-0.6,0.2,-0.1,-0.3,0.0,0.1,-0.4,0.2,0.5,,,*60
$GPGRS,103042.00,1,0.4,-4.3,6.9,-2.2,-2.3,-7.2,2.6,1.3,,,,*44
$GPGRS,103042.00,1,0.2,-0.9,1.0,0.1,0.1,-0.3,,,,,,*43
$GPGRS,103042.00,1,0.9,1.0,0.6,2.0,1.1,-0.1,-0.5,0.5,-3.0,-0.9,0.0,0.3*4E
$GPGRS,103042.00,1,-0.7,,,,,,,,,,,*4E
$GPGSV,6,1,22,15,59,215,49,10,12,325,41,23,23,284,43,12,23,228,43*7A
$GPGSV,6,2,22,19,38,125,46,14,28,057,44,13,45,156,49,17,40,081,47*73
$GPGSV,6,3,22,22,50,058,,24,53,293,47,02,04,031,37,21,01,013,*7F
$GPGSV,6,4,22,30,03,100,35,36,35,170,45,58,13,245,37,40,23,133,37*70
$GPGSV,6,5,22,34,31,208,43,49,34,195,45,57,07,111,37,41,07,108,36*7A
$GPGSV,6,6,22,61,03,257,38*46
$GLGSV,3,1,10,76,71,000,52,85,22,062,45,67,42,315,50,75,20,058,45*67
$GLGSV,3,2,10,84,11,011,31,65,16,180,41,77,43,266,45,66,58,220,52*6D
$GLGSV,3,3,10,68,01,339,40,86,07,114,43*6C
$GAGSV,3,1,09,02,82,189,49,07,32,310,43,16,16,052,,30,28,227,43*6B
$GAGSV,3,2,09,03,35,156,44,25,40,055,46,08,74,237,49,12,04,029,31*68
$GAGSV,3,3,09,10,03,051,36*52
$GBGSV,5,1,18,26,83,335,51,07,26,053,41,35,16,130,43,40,25,041,42*6C
$GBGSV,5,2,18,05,20,130,38,21,16,186,42,45,32,072,47,24,34,263,47*65
$GBGSV,5,3,18,50,33,205,,33,32,307,46,25,33,253,,10,36,063,43*64
$GBGSV,5,4,18,56,37,072,,14,45,276,46,42,46,235,48,02,04,109,30*65
$GBGSV,5,5,18,29,06,027,,60,07,111,41*6F
$GPGGA,103042.00,,,,,0,00,,,M,,M,,*4C
$PTNL,GGK,103042.00,010125,4742.1600837,N,01618.0999316,E,1,36,0.9,EHT751.5239,M*41
$GPGGQ,103042.00,010125,4742.1600837,N,01618.0999316,E,1,36,1.112,708.3173,M*32
$GPGFA,103042.00,4.048,8.063,0.426,0.299,8.717,0.983,,VVV*0B
$GPLLK,103042.00,010125,,M,,M,1,36,1.0,,M*0B
$GNGMP,103042.00,,,,,DAAA,36,0.4,,,,*53
$GPGMP,103042.00,,,,,,09,,,,1.6,136*73
$GLGMP,103042.00,,,,,,08,,,,,*73
$GAGMP,103042.00,,,,,,06,,,,,*70
$GBGMP,103042.00,,,,,,13,,,,,*77
$PSSN,SNC,[0,297060000,2347]*4E
$GPZDA,103047.00,01,01,2025,,*62
$GPDTM,W84,,00.0000000,N,00.0000000,E,00.0000000,W84*5F
$PSSN,TFM,103047.00,,,,*6E
$GPRMC,103047.00,A,4742.1600852,N,01618.0999338,E,0.0,,010125,5.1,E,D*1E
$GPGLL,4742.1600852,N,01618.0999338,E,103047.00,A,D*6F
$GPGGA,103047.00,4742.1600852,N,01618.0999338,E,2,36,0.4,708.3147,M,43.2066,M,2.6,0136*48
$GNGNS,103047.00,4742.1600852,N,01618.0999338,E,DAAA,36,0.4,708.3147,43.2066,,*54
$GPGNS,103047.00,,,,,,09,,,,2.6,136*75
$GLGNS,103047.00,,,,,,08,,,,,*76
$GAGNS,103047.00,,,,,,06,,,,,*75
$GBGNS,103047.00,,,,,,13,,,,,*72
$GPLLQ,103047.00,010125,,M,,M,1,36,1.118,,M*1C
$GPVTG,,T,,M,0.00,N,0.00,K,D*26
$GPHDT,,T*1B
$GPTHS,,V*0E
$GPROT,,V*08
$PSSN,HRP,103047.00,010125,,,,,,,00,0,,*60
$PTNL,AVR,103047.00,,Yaw,,Tilt,,,,0,,00*36
$GPGSA,A,3,10,12,13,14,15,17,19,23,24,,,,0.9,0.4,0.8*3F
$GPGSA,A,3,65,66,67,75,76,77,85,86,,,,,0.9,0.4,0.8*35
$GPGSA,A,3,02,03,07,08,25,30,,,,,,,0.9,0.4,0.8*3D
$GPGSA,A,3,05,07,10,14,21,24,26,33,35,40,42,45,0.9,0.4,0.8*35
$GPGSA,A,3,60,,,,,,,,,,,,0.9,0.4,0.8*31
$GPGST,103047.00,2.538,0.423,0.301,8.269,0.421,0.304,0.990*58
$GPGBS,103047.00,2.561,1.699,6.095,77,0.0001,-8.576,6.089*74
$GPGRS,103047.00,1,-0.7,0.1,-0.1,-0.2,0.1,0.0,-0.1,0.6,-0.0,,,*4F
$GPGRS,103047.00,1,0.5,-3.9,7.1,-1.8,-2.5,-8.6,2.7,1.4,,,,*46
$GPGRS,103047.00,1,0.0,-0.9,0.9,0.1,-0.3,-0.2,,,,,,*62
$GPGRS,103047.00,1,0.7,0.5,0.6,2.4,1.2,-0.2,-0.4,0.4,-3.9,-1.1,0.0,0.4*42
$GPGRS,103047.00,1,-0.3,,,,,,,,,,,*4F
$GPGSV,6,1,22,15,59,215,49,10,13,325,41,23,23,284,43,12,23,228,44*7C
$GPGSV,6,2,22,19,38,125,46,14,28,057,44,13,45,156,48,17,40,081,46*73
$GPGSV,6,3,22,22,50,058,,24,53,293,47,02,04,031,36,21,01,013,*7E
$GPGSV,6,4,22,30,03,100,35,36,35,170,45,58,13,245,36,40,23,133,37*71
$GPGSV,6,5,22,34,31,208,43,49,34,195,45,57,07,111,37,41,07,108,35*79
$GPGSV,6,6,22,61,03,257,38*46
$GLGSV,3,1,10,76,71,000,51,85,22,062,46,67,43,315,51,75,20,058,45*67
$GLGSV,3,2,10,84,11,011,31,65,16,180,41,77,43,266,44,66,58,220,52*6C
$GLGSV,3,3,10,68,01,339,42,86,07,114,43*6E
$GAGSV,3,1,09,02,82,189,49,07,32,310,43,16,16,052,,30,29,227,43*6A
$GAGSV,3,2,09,03,35,156,44,25,40,055,46,08,74,237,49,12,04,029,31*68
$GAGSV,3,3,09,10,03,051,36*52
$GBGSV,5,1,18,26,83,335,51,07,26,053,41,35,16,130,42,40,25,041,43*6C
$GBGSV,5,2,18,05,20,130,38,21,16,186,42,45,32,072,47,24,34,263,47*65
$GBGSV,5,3,18,50,32,205,,33,32,307,46,25,33,253,,10,36,063,43*65
$GBGSV,5,4,18,56,37,072,,14,45,276,47,42,46,235,49,02,04,109,31*64
$GBGSV,5,5,18,29,06,027,,60,07,111,41*6F
$GPGGA,103047.00,,,,,0,00,,,M,,M,,*49
$PTNL,GGK,103047.00,010125,4742.1600852,N,01618.0999338,E,1,36,0.9,EHT751.5213,M*43
$GPGGQ,103047.00,010125,4742.1600852,N,01618.0999338,E,1,36,1.118,708.3147,M*35
$GPGFA,103047.00,4.026,8.120,0.423,0.301,8.269,0.990,,VVV*0B
$GPLLK,103047.00,010125,,M,,M,1,36,1.0,,M*0E
$GNGMP,103047.00,,,,,DAAA,36,0.4,,,,*56
$GPGMP,103047.00,,,,,,09,,,,2.6,136*75
$GLGMP,103047.00,,,,,,08,,,,,*76
$GAGMP,103047.00,,,,,,06,,,,,*75
$GBGMP,103047.00,,,,,,13,,,,,*72
$PSSN,SNC,[0,297065000,2347]*4B
$GPZDA,103052.00,01,01,2025,,*66
$GPDTM,W84,,00.0000000,N,00.0000000,E,00.0000000,W84*5F
$PSSN,TFM,103052.00,,,,*6A
$GPRMC,103052.00,A,4742.1600836,N,01618.0999354,E,0.0,,010125,5.1,E,D*12
$GPGLL,4742.1600836,N,01618.0999354,E,103052.00,A,D*63
$GPGGA,103052.00,4742.1600836,N,01618.0999354,E,2,36,0.4,708.3162,M,43.2066,M,3.6,0136*42
$GNGNS,103052.00,4742.1600836,N,01618.0999354,E,DAAA,36,0.4,708.3162,43.2066,,*5F
$GPGNS,103052.00,,,,,,09,,,,3.6,136*70
$GLGNS,103052.00,,,,,,08,,,,,*72
$GAGNS,103052.00,,,,,,06,,,,,*71
$GBGNS,103052.00,,,,,,13,,,,,*76
$GPLLQ,103052.00,010125,,M,,M,1,36,1.137,,M*15
$GPVTG,,T,,M,0.00,N,0.00,K,D*26
$GPHDT,,T*1B
$GPTHS,,V*0E
$GPROT,,V*08
$PSSN,HRP,103052.00,010125,,,,,,,00,0,,*64
$PTNL,AVR,103052.00,,Yaw,,Tilt,,,,0,,00*32
$GPGSA,A,3,10,12,13,14,15,17,19,23,24,,,,0.9,0.4,0.8*3F
$GPGSA,A,3,65,66,67,75,76,77,85,86,,,,,0.9,0.4,0.8*35
$GPGSA,A,3,02,03,07,08,25,30,,,,,,,0.9,0.4,0.8*3D
$GPGSA,A,3,05,07,10,14,21,24,26,33,35,40,42,45,0.9,0.4,0.8*35
$GPGSA,A,3,60,,,,,,,,,,,,0.9,0.4,0.8*31
$GPGST,103052.00,2.603,0.430,0.306,7.899,0.428,0.309,1.008*55
$GPGBS,103052.00,2.601,1.716,6.235,77,0.0001,-8.162,6.089*7A
$GPGRS,103052.00,1,-0.5,-0.0,-0.2,0.1,-0.1,0.0,0.1,0.5,0.1,,,*67
$GPGRS,103052.00,1,1.5,-3.5,7.6,-1.5,-2.3,-8.2,4.0,2.1,,,,*40
$GPGRS,103052.00,1,0.2,-0.7,1.1,0.4,-0.1,-0.0,,,,,,*66
$GPGRS,103052.00,1,0.7,1.1,0.7,2.8,0.9,0.0,-0.2,0.1,-3.9,-0.9,0.2,0.5*62
$GPGRS,103052.00,1,-0.5,,,,,,,,,,,*4D
$GPGSV,6,1,22,15,59,215,49,10,13,325,41,23,23,284,43,12,23,228,44*7C
$GPGSV,6,2,22,19,38,125,46,14,28,057,44,13,45,156,48,17,40,081,47*72
$GPGSV,6,3,22,22,50,058,,24,53,293,47,02,04,031,37,21,01,013,*7F
$GPGSV,6,4,22,30,03,100,36,36,35,170,45,58,13,245,36,40,23,133,36*73
$GPGSV,6,5,22,34,31,208,42,49,34,195,45,57,07,111,37,41,07,108,35*78
$GPGSV,6,6,22,61,03,257,38*46
$GLGSV,3,1,10,76,71,000,51,85,22,062,45,67,43,315,51,75,20,058,45*64
$GLGSV,3,2,10,84,11,011,30,65,16,180,41,77,43,266,45,66,58,220,53*6D
$GLGSV,3,3,10,68,01,339,43,86,07,114,43*6F
$GAGSV,3,1,09,02,82,189,49,07,32,310,43,16,16,052,,30,29,227,43*6A
$GAGSV,3,2,09,03,35,156,44,25,40,055,45,08,74,236,49,12,04,029,31*6A
$GAGSV,3,3,09,10,03,050,36*53
$GBGSV,5,1,18,26,83,335,51,07,26,053,41,35,16,130,41,40,25,041,43*6F
$GBGSV,5,2,18,05,20,130,38,21,16,186,42,45,32,072,46,24,34,263,47*64
$GBGSV,5,3,18,50,32,205,,33,32,307,46,25,33,253,,10,36,063,43*65
$GBGSV,5,4,18,56,37,072,,14,45,276,47,42,45,235,48,02,04,109,30*67
$GBGSV,5,5,18,29,06,027,,60,07,111,41*6F
$GPGGA,103052.00,,,,,0,00,,,M,,M,,*4D
$PTNL,GGK,103052.00,010125,4742.1600836,N,01618.0999354,E,1,36,0.9,EHT751.5228,M*47
$GPGGQ,103052.00,010125,4742.1600836,N,01618.0999354,E,1,36,1.137,708.3162,M*33
$GPGFA,103052.00,4.087,8.263,0.430,0.306,7.899,1.008,,VVV*06
$GPLLK,103052.00,010125,,M,,M,1,36,1.0,,M*0A
$GNGMP,103052.00,,,,,DAAA,36,0.4,,,,*52
$GPGMP,103052.00,,,,,,09,,,,3.6,136*70
$GLGMP,103052.00,,,,,,08,,,,,*72
$GAGMP,103052.00,,,,,,06,,,,,*71
$GBGMP,103052.00,,,,,,13,,,,,*76
$PSSN,SNC,[0,297070000,2347]*4F
$GPZDA,103057.00,01,01,2025,,*63
$GPDTM,W84,,00.0000000,N,00.0000000,E,00.0000000,W84*5F
$PSSN,TFM,103057.00,,,,*6F
$GPRMC,103057.00,A,4742.1600822,N,01618.0999346,E,0.0,,010125,5.1,E,D*11
$GPGLL,4742.1600822,N,01618.0999346,E,103057.00,A,D*60
$GPGGA,103057.00,4742.1600822,N,01618.0999346,E,2,36,0.4,708.3163,M,43.2066,M,2.3,0136*44
$GNGNS,103057.00,4742.1600822,N,01618.0999346,E,DAAA,36,0.4,708.3163,43.2066,,*5D
$GPGNS,103057.00,,,,,,09,,,,2.3,136*71
$GLGNS,103057.00,,,,,,08,,,,,*77
$GAGNS,103057.00,,,,,,06,,,,,*74
$GBGNS,103057.00,,,,,,13,,,,,*73
$GPLLQ,103057.00,010125,,M,,M,1,36,1.136,,M*11
$GPVTG,,T,,M,0.00,N,0.01,K,D*27
$GPHDT,,T*1B
$GPTHS,,V*0E
$GPROT,,V*08
$PSSN,HRP,103057.00,010125,,,,,,,00,0,,*61
$PTNL,AVR,103057.00,,Yaw,,Tilt,,,,0,,00*37
$GPGSA,A,3,10,12,13,14,15,17,19,23,24,,,,0.9,0.4,0.8*3F
$GPGSA,A,3,65,66,67,75,76,77,85,86,,,,,0.9,0.4,0.8*35
$GPGSA,A,3,02,03,07,08,25,30,,,,,,,0.9,0.4,0.8*3D
$GPGSA,A,3,05,07,10,14,21,24,26,33,35,40,42,45,0.9,0.4,0.8*35
$GPGSA,A,3,60,,,,,,,,,,,,0.9,0.4,0.8*31
$GPGST,103057.00,2.427,0.432,0.305,8.285,0.430,0.308,1.005*58
$GPGBS,103057.00,2.552,1.735,5.962,77,0.0001,-7.828,6.089*79
$GPGRS,103057.00,1,-1.4,-0.3,-0.0,-0.2,0.1,0.2,0.2,0.3,0.2,,,*64
$GPGRS,103057.00,1,1.8,-3.5,7.3,-1.6,-2.3,-7.8,2.9,1.5,,,,*43
$GPGRS,103057.00,1,0.1,-0.6,0.7,0.1,-0.2,-0.2,,,,,,*62
$GPGRS,103057.00,1,0.9,0.9,1.1,1.7,0.8,-0.1,-0.3,0.3,-3.5,-0.9,-0.1,0.0*62
$GPGRS,103057.00,1,-0.6,,,,,,,,,,,*4B
$GPGSV,6,1,22,15,59,215,49,10,13,325,40,23,23,284,42,12,23,228,44*7C
$GPGSV,6,2,22,19,38,124,46,14,28,057,43,13,45,156,48,17,40,081,46*75
$GPGSV,6,3,22,22,50,058,,24,53,293,47,02,04,031,37,21,01,013,*7F
$GPGSV,6,4,22,30,03,100,35,36,35,170,45,58,13,245,36,40,23,133,37*71
$GPGSV,6,5,22,34,31,208,42,49,34,195,45,57,07,111,37,41,07,108,35*78
$GPGSV,6,6,22,61,03,257,38*46
$GLGSV,3,1,10,76,71,000,51,85,22,062,45,67,43,315,51,75,20,058,44*65
$GLGSV,3,2,10,84,11,011,30,65,16,180,40,77,43,266,44,66,58,220,53*6D
$GLGSV,3,3,10,68,01,339,42,86,07,114,42*6F
$GAGSV,3,1,09,02,82,189,49,07,32,310,43,16,16,052,,30,29,227,43*6A
$GAGSV,3,2,09,03,35,156,44,25,40,055,45,08,74,236,49,12,04,029,32*69
$GAGSV,3,3,09,10,03,050,35*50
$GBGSV,5,1,18,26,83,335,51,07,26,053,40,35,16,130,41,40,25,041,43*6E
$GBGSV,5,2,18,05,20,130,38,21,16,186,42,45,32,072,46,24,34,263,47*64
$GBGSV,5,3,18,50,32,205,,33,32,307,46,25,33,253,,10,36,063,43*65
$GBGSV,5,4,18,56,37,072,,14,45,276,46,42,45,235,48,02,04,109,30*66
$GBGSV,5,5,18,29,06,027,,60,07,111,41*6F
$GPGGA,103057.00,,,,,0,00,,,M,,M,,*48
$PTNL,GGK,103057.00,010125,4742.1600822,N,01618.0999346,E,1,36,0.9,EHT751.5229,M*45
$GPGGQ,103057.00,010125,4742.1600822,N,01618.0999346,E,1,36,1.136,708.3163,M*30
$GPGFA,103057.00,4.112,8.243,0.432,0.305,8.285,1.005,,VVV*08
$GPLLK,103057.00,010125,,M,,M,1,36,1.0,,M*0F
$GNGMP,103057.00,,,,,DAAA,36,0.4,,,,*57
$GPGMP,103057.00,,,,,,09,,,,2.3,136*71
$GLGMP,103057.00,,,,,,08,,,,,*77
$GAGMP,103057.00,,,,,,06,,,,,*74
$GBGMP,103057.00,,,,,,13,,,,,*73
$PSSN,SNC,[0,297075000,2347]*4A
$GPZDA,103102.00,01,01,2025,,*62
$GPDTM,W84,,00.0000000,N,00.0000000,E,00.0000000,W84*5F
$PSSN,TFM,103102.00,,,,*6E
$GPRMC,103102.00,A,4742.1600839,N,01618.0999348,E,0.0,,010125,5.1,E,D*14
$GPGLL,4742.1600839,N,01618.0999348,E,103102.00,A,D*65
$GPGGA,103102.00,4742.1600839,N,01618.0999348,E,2,36,0.4,708.3076,M,43.2066,M,1.6,0136*42
$GNGNS,103102.00,4742.1600839,N,01618.0999348,E,DAAA,36,0.4,708.3076,43.2066,,*5D
$GPGNS,103102.00,,,,,,09,,,,1.6,136*76
$GLGNS,103102.00,,,,,,08,,,,,*76
$GAGNS,103102.00,,,,,,06,,,,,*75
$GBGNS,103102.00,,,,,,13,,,,,*72
$GPLLQ,103102.00,010125,,M,,M,1,36,1.113,,M*17
$GPVTG,,T,,M,0.00,N,0.01,K,D*27
$GPHDT,,T*1B
$GPTHS,,V*0E
$GPROT,,V*08
$PSSN,HRP,103102.00,010125,,,,,,,00,0,,*60
$PTNL,AVR,103102.00,,Yaw,,Tilt,,,,0,,00*36
$GPGSA,A,3,10,12,13,14,15,17,19,23,24,,,,0.9,0.4,0.8*3F
$GPGSA,A,3,65,66,67,75,76,77,85,86,,,,,0.9,0.4,0.8*35
$GPGSA,A,3,02,03,07,08,25,30,,,,,,,0.9,0.4,0.8*3D
$GPGSA,A,3,05,07,10,14,21,24,26,33,35,40,42,45,0.9,0.4,0.8*35
$GPGSA,A,3,60,,,,,,,,,,,,0.9,0.4,0.8*31
$GPGST,103102.00,2.470,0.425,0.299,8.620,0.423,0.302,0.984*5B
$GPGBS,103102.00,2.514,1.685,6.027,77,0.0001,-8.040,6.089*72
$GPGRS,103102.00,1,-1.0,-0.4,0.1,-0.1,0.1,-0.0,0.1,0.4,0.3,,,*63
$GPGRS,103102.00,1,1.6,-3.7,7.5,-2.0,-1.8,-8.0,3.5,1.4,,,,*4E
$GPGRS,103102.00,1,0.2,-0.7,1.0,0.1,-0.0,0.1,,,,,,*4B
$GPGRS,103102.00,1,1.3,0.8,1.2,1.7,0.8,0.1,-0.3,0.4,-2.6,-1.1,0.2,0.1*64
$GPGRS,103102.00,1,-0.4,,,,,,,,,,,*48
$GPGSV,6,1,22,15,59,215,49,10,13,325,41,23,23,284,43,12,23,228,43*7B
$GPGSV,6,2,22,19,38,124,46,14,28,057,43,13,45,156,48,17,40,081,46*75
$GPGSV,6,3,22,22,50,058,,24,53,293,47,02,04,031,37,21,01,013,*7F
$GPGSV,6,4,22,30,03,100,35,36,35,170,45,58,13,245,36,40,23,133,36*70
$GPGSV,6,5,22,34,31,208,42,49,34,195,44,57,07,111,37,41,07,108,35*79
$GPGSV,6,6,22,61,03,257,38*46
$GLGSV,3,1,10,76,71,000,52,85,22,062,46,67,43,315,51,75,20,058,45*64
$GLGSV,3,2,10,84,11,011,30,65,16,180,41,77,43,266,44,66,57,220,52*62
$GLGSV,3,3,10,68,01,339,43,86,07,114,42*6E
$GAGSV,3,1,09,02,82,189,49,07,32,310,43,16,16,053,,30,29,227,43*6B
$GAGSV,3,2,09,03,35,156,44,25,40,055,45,08,74,236,49,12,04,029,31*6A
$GAGSV,3,3,09,10,03,050,35*50
$GBGSV,5,1,18,26,83,336,51,07,26,053,40,35,16,130,42,40,25,041,43*6E
$GBGSV,5,2,18,05,20,130,38,21,16,186,42,45,32,072,46,24,34,263,47*64
$GBGSV,5,3,18,50,32,205,,33,32,307,46,25,33,253,,10,36,063,43*65
$GBGSV,5,4,18,56,37,072,,14,45,276,46,42,45,235,48,02,04,109,31*67
$GBGSV,5,5,18,29,06,027,,60,07,111,41*6F
$GPGGA,103102.00,,,,,0,00,,,M,,M,,*49
$PTNL,GGK,103102.00,010125,4742.1600839,N,01618.0999348,E,1,36,0.9,EHT751.5142,M*4E
$GPGGQ,103102.00,010125,4742.1600839,N,01618.0999348,E,1,36,1.113,708.3076,M*37
$GPGFA,103102.00,4.045,8.070,0.425,0.299,8.620,0.984,,VVV*00
$GPLLK,103102.00,010125,,M,,M,1,36,1.0,,M*0E
$GNGMP,103102.00,,,,,DAAA,36,0.4,,,,*56
$GPGMP,103102.00,,,,,,09,,,,1.6,136*76
$GLGMP,103102.00,,,,,,08,,,,,*76
$GAGMP,103102.00,,,,,,06,,,,,*75
$GBGMP,103102.00,,,,,,13,,,,,*72
$PSSN,SNC,[0,297080000,2347]*40
$GPZDA,103107.00,01,01,2025,,*67
$GPDTM,W84,,00.0000000,N,00.0000000,E,00.0000000,W84*5F
$PSSN,TFM,103107.00,,,,*6B
$GPRMC,103107.00,A,4742.1600837,N,01618.0999348,E,0.0,,010125,5.1,E,D*1F
$GPGLL,4742.1600837,N,01618.0999348,E,103107.00,A,D*6E
$GPGGA,103107.00,4742.1600837,N,01618.0999348,E,2,36,0.4,708.3034,M,43.2066,M,2.6,0136*4C
$GNGNS,103107.00,4742.1600837,N,01618.0999348,E,DAAA,36,0.4,708.3034,43.2066,,*50
$GPGNS,103107.00,,,,,,09,,,,2.6,136*70
$GLGNS,103107.00,,,,,,08,,,,,*73
$GAGNS,103107.00,,,,,,06,,,,,*70
$GBGNS,103107.00,,,,,,13,,,,,*77
$GPLLQ,103107.00,010125,,M,,M,1,36,1.119,,M*18
$GPVTG,,T,,M,0.00,N,0.01,K,D*27
$GPHDT,,T*1B
$GPTHS,,V*0E
$GPROT,,V*08
$PSSN,HRP,103107.00,010125,,,,,,,00,0,,*65
$PTNL,AVR,103107.00,,Yaw,,Tilt,,,,0,,00*33
$GPGSA,A,3,10,12,13,14,15,17,19,23,24,,,,0.9,0.4,0.8*3F
$GPGSA,A,3,65,66,67,75,76,77,85,86,,,,,0.9,0.4,0.8*35
$GPGSA,A,3,02,03,07,08,25,30,,,,,,,0.9,0.4,0.8*3D
$GPGSA,A,3,05,07,10,14,21,24,26,33,35,40,42,45,0.9,0.4,0.8*35
$GPGSA,A,3,60,,,,,,,,,,,,0.9,0.4,0.8*31
$GPGST,103107.00,2.445,0.423,0.301,8.175,0.421,0.304,0.991*59
$GPGBS,103107.00,2.548,1.698,6.150,77,0.0001,-7.977,6.089*71
$GPGRS,103107.00,1,-0.8,-0.6,0.1,-0.1,0.1,0.4,-0.2,0.5,0.1,,,*69
$GPGRS,103107.00,1,1.8,-4.1,7.2,-1.6,-1.8,-8.0,3.4,1.6,,,,*45
$GPGRS,103107.00,1,0.1,-0.6,1.1,0.2,0.0,-0.1,,,,,,*4E
$GPGRS,103107.00,1,0.8,0.7,0.7,2.0,1.0,0.2,-0.5,0.3,-2.7,-1.1,0.2,0.2*6D
$GPGRS,103107.00,1,-0.6,,,,,,,,,,,*4F
$GPGSV,6,1,22,15,59,215,49,10,13,325,41,23,23,284,43,12,24,228,43*7C
$GPGSV,6,2,22,19,38,124,46,14,28,057,43,13,44,156,48,17,40,081,46*74
$GPGSV,6,3,22,22,50,058,,24,53,293,47,02,04,031,37,21,01,013,*7F
$GPGSV,6,4,22,30,03,100,35,36,35,170,45,58,13,245,36,40,23,133,37*71
$GPGSV,6,5,22,34,31,208,43,49,34,195,44,57,07,111,37,41,07,108,35*78
$GPGSV,6,6,22,61,03,257,38*46
$GLGSV,3,1,10,76,71,001,52,85,22,062,46,67,43,315,51,75,19,058,45*6F
$GLGSV,3,2,10,84,11,011,29,65,16,180,41,77,43,266,44,66,57,220,52*6A
$GLGSV,3,3,10,68,01,339,43,86,07,114,42*6E
$GAGSV,3,1,09,02,82,189,49,07,32,310,43,16,16,053,,30,29,227,43*6B
$GAGSV,3,2,09,03,35,156,44,25,40,055,45,08,74,236,49,12,04,029,31*6A
$GAGSV,3,3,09,10,03,050,36*53
$GBGSV,5,1,18,26,83,336,51,07,26,053,40,35,16,130,42,40,25,041,43*6E
$GBGSV,5,2,18,05,20,130,38,21,16,186,43,45,32,072,46,24,34,263,47*65
$GBGSV,5,3,18,50,32,205,,33,32,307,46,25,33,253,,10,36,063,43*65
$GBGSV,5,4,18,56,37,072,,14,45,276,47,42,45,235,48,02,04,109,31*66
$GBGSV,5,5,18,29,06,027,,60,07,111,41*6F
$GPGGA,103107.00,,,,,0,00,,,M,,M,,*4C
$PTNL,GGK,103107.00,010125,4742.1600837,N,01618.0999348,E,1,36,0.9,EHT751.5099,M*42
$GPGGQ,103107.00,010125,4742.1600837,N,01618.0999348,E,1,36,1.119,708.3034,M*30
$GPGFA,103107.00,4.023,8.128,0.423,0.301,8.175,0.991,,VVV*0C
$GPLLK,103107.00,010125,,M,,M,1,36,1.0,,M*0B
$GNGMP,103107.00,,,,,DAAA,36,0.4,,,,*53
$GPGMP,103107.00,,,,,,09,,,,2.6,136*70
$GLGMP,103107.00,,,,,,08,,,,,*73
$GAGMP,103107.00,,,,,,06,,,,,*70
$GBGMP,103107.00,,,,,,13,,,,,*77
$PSSN,SNC,[0,297085000,2347]*45
$GPZDA,103112.00,01,01,2025,,*63
$GPDTM,W84,,00.0000000,N,00.0000000,E,00.0000000,W84*5F
$PSSN,TFM,103112.00,,,,*6F
$GPRMC,103112.00,A,4742.1600824,N,01618.0999314,E,0.0,,010125,5.1,E,D*10
$GPGLL,4742.1600824,N,01618.0999314,E,103112.00,A,D*61
$GPGGA,103112.00,4742.1600824,N,01618.0999314,E,2,36,0.4,708.2971,M,43.2066,M,3.6,0136*4B
$GNGNS,103112.00,4742.1600824,N,01618.0999314,E,DAAA,36,0.4,708.2971,43.2066,,*56
$GPGNS,103112.00,,,,,,09,,,,3.6,136*75
$GLGNS,103112.00,,,,,,08,,,,,*77
$GAGNS,103112.00,,,,,,06,,,,,*74
$GBGNS,103112.00,,,,,,13,,,,,*73
$GPLLQ,103112.00,010125,,M,,M,1,36,1.138,,M*1F
$GPVTG,,T,,M,0.00,N,0.01,K,D*27
$GPHDT,,T*1B
$GPTHS,,V*0E
$GPROT,,V*08
$PSSN,HRP,103112.00,010125,,,,,,,00,0,,*61
$PTNL,AVR,103112.00,,Yaw,,Tilt,,,,0,,00*37
$GPGSA,A,3,10,12,13,14,15,17,19,23,24,,,,0.9,0.4,0.8*3F
$GPGSA,A,3,65,66,67,75,76,77,85,86,,,,,0.9,0.4,0.8*35
$GPGSA,A,3,02,03,07,08,25,30,,,,,,,0.9,0.4,0.8*3D
$GPGSA,A,3,05,07,10,14,21,24,26,33,35,40,42,45,0.9,0.4,0.8*35
$GPGSA,A,3,60,,,,,,,,,,,,0.9,0.4,0.8*31
$GPGST,103112.00,2.385,0.430,0.306,7.808,0.428,0.309,1.009*52
$GPGBS,103112.00,2.588,1.715,6.291,77,0.0001,-7.680,6.089*74
$GPGRS,103112.00,1,-1.2,-0.5,0.1,0.1,-0.0,0.4,0.1,-0.1,0.3,,,*61
$GPGRS,103112.00,1,1.1,-4.0,7.2,-1.1,-2.2,-7.7,2.9,1.7,,,,*42
$GPGRS,103112.00,1,0.1,-0.4,1.0,0.2,0.0,0.1,,,,,,*64
$GPGRS,103112.00,1,0.4,0.4,0.7,2.5,1.3,0.0,-0.4,0.4,-2.3,-1.1,0.0,0.1*61
$GPGRS,103112.00,1,-0.6,,,,,,,,,,,*4B
$GPGSV,6,1,22,15,59,215,49,10,13,325,41,23,23,284,43,12,24,228,43*7C
$GPGSV,6,2,22,19,38,124,46,14,28,057,43,13,44,156,48,17,40,081,47*75
$GPGSV,6,3,22,22,50,058,,24,53,293,48,02,04,031,37,21,01,013,*70
$GPGSV,6,4,22,30,03,100,35,36,35,170,45,58,13,245,36,40,23,133,36*70
$GPGSV,6,5,22,34,31,208,42,49,34,195,44,57,07,111,37,41,07,108,35*79
$GPGSV,6,6,22,61,03,257,38*46
$GLGSV,3,1,10,76,71,001,52,85,22,062,45,67,43,314,51,75,19,058,45*6D
$GLGSV,3,2,10,84,11,011,30,65,16,180,41,77,43,266,44,66,57,220,52*62
$GLGSV,3,3,10,68,01,339,42,86,07,114,42*6F
$GAGSV,3,1,09,02,82,189,49,07,32,310,44,16,16,053,,30,29,227,44*6B
$GAGSV,3,2,09,03,35,156,44,25,40,055,45,08,74,236,49,12,04,029,32*69
$GAGSV,3,3,09,10,03,050,36*53
$GBGSV,5,1,18,26,83,336,51,07,26,053,40,35,16,130,42,40,25,041,43*6E
$GBGSV,5,2,18,05,20,130,38,21,16,186,43,45,32,072,46,24,34,263,47*65
$GBGSV,5,3,18,50,32,205,,33,32,307,46,25,33,253,,10,36,063,43*65
$GBGSV,5,4,18,56,37,072,,14,45,276,47,42,45,235,48,02,04,109,30*67
$GBGSV,5,5,18,29,06,027,,60,07,111,41*6F
$GPGGA,103112.00,,,,,0,00,,,M,,M,,*48
$PTNL,GGK,103112.00,010125,4742.1600824,N,01618.0999314,E,1,36,0.9,EHT751.5036,M*48
$GPGGQ,103112.00,010125,4742.1600824,N,01618.0999314,E,1,36,1.138,708.2971,M*35
$GPGFA,103112.00,4.085,8.270,0.430,0.306,7.808,1.009,,VVV*0A
$GPLLK,103112.00,010125,,M,,M,1,36,1.0,,M*0F
$GNGMP,103112.00,,,,,DAAA,36,0.4,,,,*57
$GPGMP,103112.00,,,,,,09,,,,3.6,136*75
$GLGMP,103112.00,,,,,,08,,,,,*77
$GAGMP,103112.00,,,,,,06,,,,,*74
$GBGMP,103112.00,,,,,,13,,,,,*73
$PSSN,SNC,[0,297090000,2347]*41
$GPZDA,103117.00,01,01,2025,,*66
$GPDTM,W84,,00.0000000,N,00.0000000,E,00.0000000,W84*5F
$PSSN,TFM,103117.00,,,,*6A
$GPRMC,103117.00,A,4742.1600830,N,01618.0999281,E,0.0,,010125,5.1,E,D*1D
$GPGLL,4742.1600830,N,01618.0999281,E,103117.00,A,D*6C
$GPGGA,103117.00,4742.1600830,N,01618.0999281,E,2,36,0.4,708.2922,M,43.2066,M,2.3,0136*44
$GNGNS,103117.00,4742.1600830,N,01618.0999281,E,DAAA,36,0.4,708.2922,43.2066,,*5D
$GPGNS,103117.00,,,,,,09,,,,2.3,136*74
$GLGNS,103117.00,,,,,,08,,,,,*72
$GAGNS,103117.00,,,,,,06,,,,,*71
$GBGNS,103117.00,,,,,,13,,,,,*76
$GPLLQ,103117.00,010125,,M,,M,1,36,1.137,,M*15
$GPVTG,,T,,M,0.00,N,0.01,K,D*27
$GPHDT,,T*1B
$GPTHS,,V*0E
$GPROT,,V*08
$PSSN,HRP,103117.00,010125,,,,,,,00,0,,*64
$PTNL,AVR,103117.00,,Yaw,,Tilt,,,,0,,00*32
$GPGSA,A,3,10,12,13,14,15,17,19,23,24,,,,0.9,0.4,0.8*3F
$GPGSA,A,3,65,66,67,75,76,77,85,86,,,,,0.9,0.4,0.8*35
$GPGSA,A,3,02,03,07,08,25,30,,,,,,,0.9,0.4,0.8*3D
$GPGSA,A,3,05,07,10,14,21,24,26,33,35,40,42,45,0.9,0.4,0.8*35
$GPGSA,A,3,60,,,,,,,,,,,,0.9,0.4,0.8*31
$GPGST,103117.00,2.320,0.432,0.305,8.177,0.430,0.308,1.006*50
$GPGBS,103117.00,2.539,1.734,6.017,67,0.0001,7.182,6.097*52
$GPGRS,103117.00,1,-0.9,-0.0,0.1,0.1,0.1,0.3,-0.2,0.1,0.0,,,*40
$GPGRS,103117.00,1,1.2,-3.8,7.2,-1.3,-2.3,-7.1,3.7,1.0,,,,*46
$GPGRS,103117.00,1,0.2,-0.5,0.5,-0.1,-0.2,-0.3,,,,,,*49
$GPGRS,103117.00,1,0.9,-0.2,0.6,2.1,1.2,0.1,-0.5,0.3,-2.5,-1.1,0.1,0.1*46
$GPGRS,103117.00,1,-0.4,,,,,,,,,,,*4C
$GPGSV,6,1,22,15,59,215,49,10,13,325,41,23,23,284,43,12,24,228,43*7C
$GPGSV,6,2,22,19,38,124,46,14,28,057,43,13,44,156,48,17,40,081,46*74
$GPGSV,6,3,22,22,50,058,,24,53,293,47,02,04,031,37,21,01,013,*7F
$GPGSV,6,4,22,30,03,100,35,36,35,170,45,58,13,245,36,40,23,133,36*70
$GPGSV,6,5,22,34,31,208,42,49,34,195,44,57,07,111,37,41,07,108,35*79
$GPGSV,6,6,22,61,03,257,38*46
$GLGSV,3,1,10,76,71,001,52,85,22,062,45,67,43,314,50,75,19,058,45*6C
$GLGSV,3,2,10,84,11,010,31,65,16,180,41,77,43,266,45,66,57,220,52*63
$GLGSV,3,3,10,68,01,339,42,86,07,114,41*6C
$GAGSV,3,1,09,02,82,189,49,07,32,310,43,16,16,053,,30,29,227,43*6B
$GAGSV,3,2,09,03,35,156,44,25,40,055,45,08,74,236,49,12,04,029,32*69
$GAGSV,3,3,09,10,03,050,36*53
$GBGSV,5,1,18,26,83,336,51,07,26,053,40,35,16,130,43,40,25,041,43*6F
$GBGSV,5,2,18,05,20,130,38,21,16,186,43,45,32,072,46,24,34,263,47*65
$GBGSV,5,3,18,50,32,205,,33,32,306,46,25,33,253,,10,36,063,43*64
$GBGSV,5,4,18,56,37,072,,14,45,276,47,42,45,235,48,02,04,109,31*66
$GBGSV,5,5,18,29,06,027,,60,07,111,41*6F
$GPGGA,103117.00,,,,,0,00,,,M,,M,,*4D
$PTNL,GGK,103117.00,010125,4742.1600830,N,01618.0999281,E,1,36,0.9,EHT751.4987,M*47
$GPGGQ,103117.00,010125,4742.1600830,N,01618.0999281,E,1,36,1.137,708.2922,M*31
$GPGFA,103117.00,4.109,8.250,0.432,0.305,8.177,1.006,,VVV*08
$GPLLK,103117.00,010125,,M,,M,1,36,1.0,,M*0A
$GNGMP,103117.00,,,,,DAAA,36,0.4,,,,*52
$GPGMP,103117.00,,,,,,09,,,,2.3,136*74
$GLGMP,103117.00,,,,,,08,,,,,*72
$GAGMP,103117.00,,,,,,06,,,,,*71
$GBGMP,103117.00,,,,,,13,,,,,*76
$PSSN,SNC,[0,297095000,2347]*44
$GPZDA,103122.00,01,01,2025,,*60
$GPDTM,W84,,00.0000000,N,00.0000000,E,00.0000000,W84*5F
$PSSN,TFM,103122.00,,,,*6C
$GPRMC,103122.00,A,4742.1600830,N,01618.0999265,E,0.0,,010125,5.1,E,D*11
$GPGLL,4742.1600830,N,01618.0999265,E,103122.00,A,D*60
