$GPZDA,154442.00,01,01,2025,,*61
$GPDTM,W84,,00.0000000,N,00.0000000,E,00.0000000,W84*5F
$PSSN,TFM,154442.00,,,,*6D
$GPRMC,154442.00,A,4742.1605242,N,01618.1010886,E,0.0,,010125,5.1,E,D*14
$GPGLL,4742.1605242,N,01618.1010886,E,154442.00,A,D*65
$GPGGA,154442.00,4742.1605242,N,01618.1010886,E,2,39,0.4,708.2347,M,43.2065,M,2.4,0136*4F
$GNGNS,154442.00,4742.1605242,N,01618.1010886,E,DAAA,39,0.4,708.2347,43.2065,,*51
$GPGNS,154442.00,,,,,,10,,,,2.4,136*7C
$GLGNS,154442.00,,,,,,07,,,,,*7A
$GAGNS,154442.00,,,,,,08,,,,,*78
$GBGNS,154442.00,,,,,,14,,,,,*76
$GPLLQ,154442.00,010125,,M,,M,1,39,1.243,,M*1D
$GPVTG,,T,,M,0.00,N,0.00,K,D*26
$GPHDT,,T*1B
$GPTHS,,V*0E
$GPROT,,V*08
$PSSN,HRP,154442.00,010125,,,,,,,00,0,,*63
$PTNL,AVR,154442.00,,Yaw,,Tilt,,,,0,,00*35
$GPGSA,A,3,05,11,12,18,20,25,26,28,29,31,,,0.7,0.4,0.6*3A
$GPGSA,A,3,71,78,79,80,81,82,88,,,,,,0.7,0.4,0.6*3B
$GPGSA,A,3,13,15,21,27,29,30,34,36,,,,,0.7,0.4,0.6*3D
$GPGSA,A,3,05,08,10,11,12,13,23,24,25,34,38,43,0.7,0.4,0.6*31
$GPGSA,A,3,44,60,,,,,,,,,,,0.7,0.4,0.6*31
$GPGST,154442.00,0.992,0.638,0.425,14.030,0.627,0.441,0.978*6B
$GPGBS,154442.00,4.815,2.111,6.264,11,0.0001,-1.536,1.529*72
$GPGRS,154442.00,1,0.1,-1.5,0.6,-0.4,1.3,-0.1,0.1,-0.6,0.2,0.2,,*4F
$GPGRS,154442.00,1,-1.0,-0.9,1.5,-1.7,2.0,0.9,-0.7,,,,,*64
$GPGRS,154442.00,1,-0.8,0.5,0.5,0.2,-0.6,0.4,0.4,-0.0,,,,*6D
$GPGRS,154442.00,1,0.6,0.6,1.6,1.7,1.3,1.0,-0.2,-0.0,-0.8,-0.4,-1.0,-0.3*42
$GPGRS,154442.00,1,-0.9,0.3,,,,,,,,,,*6B
$GPGSV,5,1,20,29,85,302,51,11,21,043,42,18,26,186,43,05,14,102,41*7D
$GPGSV,5,2,20,20,20,068,41,26,22,299,41,12,21,111,42,31,40,299,47*74
$GPGSV,5,3,20,28,53,262,48,25,61,114,49,04,03,342,37,36,35,170,45*70
$GPGSV,5,4,20,58,13,245,36,40,23,133,37,34,31,208,43,49,34,195,45*7D
$GPGSV,5,5,20,57,05,113,39,41,07,108,34,61,03,257,39*47
$GLGSV,2,1,08,79,75,328,52,82,16,210,46,80,19,319,47,88,54,042,51*6B
$GLGSV,2,2,08,78,47,134,51,81,65,201,52,71,09,355,43,70,04,311,31*64
$GAGSV,3,1,10,27,75,312,48,13,10,191,38,29,11,254,38,19,15,298,34*6A
$GAGSV,3,2,10,21,21,295,40,34,47,064,46,15,51,152,47,30,48,107,46*68
$GAGSV,3,3,10,04,01,350,36,36,05,031,36*68
$GBGSV,5,1,19,34,82,127,51,28,26,209,,56,14,064,,24,24,146,44*68
$GBGSV,5,2,19,38,26,062,42,05,20,130,38,44,31,054,45,13,27,087,42*6B
$GBGSV,5,3,19,43,40,221,47,23,42,304,47,08,28,078,40,31,40,076,*69
$GBGSV,5,4,19,11,63,206,49,12,56,058,47,25,72,196,51,10,08,079,36*6A
$GBGSV,5,5,19,19,02,335,,02,05,107,34,60,10,109,41*50
$GPGGA,154442.00,,,,,0,00,,,M,,M,,*4A
$PTNL,GGK,154442.00,010125,4742.1605242,N,01618.1010886,E,1,39,0.7,EHT751.4413,M*4F
$GPGGQ,154442.00,010125,4742.1605242,N,01618.1010886,E,1,39,1.243,708.2347,M*3E
$GPGFA,154442.00,6.063,8.020,0.638,0.425,14.030,0.978,,VVV*36
$GPLLK,154442.00,010125,,M,,M,1,39,0.8,,M*0B
$GNGMP,154442.00,,,,,DAAA,39,0.4,,,,*5A
$GPGMP,154442.00,,,,,,10,,,,2.4,136*7C
$GLGMP,154442.00,,,,,,07,,,,,*7A
$GAGMP,154442.00,,,,,,08,,,,,*78
$GBGMP,154442.00,,,,,,14,,,,,*76
$PSSN,SNC,[0,315900000,2347]*4A
$GPZDA,154447.00,01,01,2025,,*64
$GPDTM,W84,,00.0000000,N,00.0000000,E,00.0000000,W84*5F
$PSSN,TFM,154447.00,,,,*68
$GPRMC,154447.00,A,4742.1605265,N,01618.1010859,E,0.0,,010125,5.1,E,D*16
$GPGLL,4742.1605265,N,01618.1010859,E,154447.00,A,D*67
$GPGGA,154447.00,4742.1605265,N,01618.1010859,E,2,39,0.4,708.2340,M,43.2065,M,2.1,0136*4F
$GNGNS,154447.00,4742.1605265,N,01618.1010859,E,DAAA,39,0.4,708.2340,43.2065,,*54
$GPGNS,154447.00,,,,,,10,,,,2.1,136*7C
$GLGNS,154447.00,,,,,,07,,,,,*7F
$GAGNS,154447.00,,,,,,08,,,,,*7D
$GBGNS,154447.00,,,,,,14,,,,,*73
$GPLLQ,154447.00,010125,,M,,M,1,39,1.243,,M*18
$GPVTG,,T,,M,0.00,N,0.01,K,D*27
$GPHDT,,T*1B
$GPTHS,,V*0E
$GPROT,,V*08
$PSSN,HRP,154447.00,010125,,,,,,,00,0,,*66
$PTNL,AVR,154447.00,,Yaw,,Tilt,,,,0,,00*30
$GPGSA,A,3,05,11,12,18,20,25,26,28,29,31,,,0.7,0.4,0.6*3A
$GPGSA,A,3,71,78,79,80,81,82,88,,,,,,0.7,0.4,0.6*3B
$GPGSA,A,3,13,15,21,27,29,30,34,36,,,,,0.7,0.4,0.6*3D
$GPGSA,A,3,05,08,10,11,12,13,23,24,25,34,38,43,0.7,0.4,0.6*31
$GPGSA,A,3,44,60,,,,,,,,,,,0.7,0.4,0.6*31
$GPGST,154447.00,0.904,0.638,0.425,14.095,0.628,0.441,0.978*61
$GPGBS,154447.00,4.808,2.126,6.358,11,0.0001,-1.572,1.537*7E
$GPGRS,154447.00,1,0.6,-1.6,0.9,-0.2,1.1,-0.0,0.2,-0.5,0.1,0.1,,*44
$GPGRS,154447.00,1,-1.2,-0.9,1.3,-1.3,1.9,0.6,-0.8,,,,,*6B
$GPGRS,154447.00,1,-0.7,0.5,0.5,0.1,-0.9,0.2,0.2,-0.4,,,,*6F
$GPGRS,154447.00,1,1.1,-0.1,1.2,1.5,0.7,0.8,-0.4,-0.2,-0.8,-0.5,-0.7,-0.5*64
$GPGRS,154447.00,1,-0.9,0.0,,,,,,,,,,*6D
$GPGSV,5,1,20,29,85,302,52,11,21,043,42,18,26,186,43,05,14,102,40*7F
$GPGSV,5,2,20,20,20,068,40,26,22,299,42,12,21,111,42,31,40,299,47*76
$GPGSV,5,3,20,28,53,262,48,25,61,114,49,04,03,342,37,36,35,170,45*70
$GPGSV,5,4,20,58,13,245,37,40,23,133,37,34,31,208,43,49,34,195,45*7C
$GPGSV,5,5,20,57,05,113,39,41,07,108,35,61,03,257,39*46
$GLGSV,2,1,08,79,75,328,52,82,16,210,46,80,20,319,46,88,54,042,51*60
$GLGSV,2,2,08,78,47,134,51,81,65,201,53,71,09,355,41,70,04,311,31*67
$GAGSV,3,1,10,27,75,312,48,13,10,191,37,29,11,254,39,19,15,298,34*64
$GAGSV,3,2,10,21,21,295,40,34,47,063,46,15,51,152,47,30,48,107,46*6F
$GAGSV,3,3,10,04,01,350,36,36,05,031,36*68
$GBGSV,5,1,19,34,82,126,51,28,27,209,,56,14,064,,24,24,146,44*68
$GBGSV,5,2,19,38,26,062,42,05,20,130,38,44,31,054,45,13,27,087,42*6B
$GBGSV,5,3,19,43,40,221,47,23,42,304,48,08,28,078,40,31,40,076,*66
$GBGSV,5,4,19,11,63,206,49,12,56,058,47,25,72,196,52,10,08,079,36*69
$GBGSV,5,5,19,19,02,335,,02,05,107,34,60,10,109,41*50
$GPGGA,154447.00,,,,,0,00,,,M,,M,,*4F
$PTNL,GGK,154447.00,010125,4742.1605265,N,01618.1010859,E,1,39,0.7,EHT751.4406,M*49
$GPGGQ,154447.00,010125,4742.1605265,N,01618.1010859,E,1,39,1.243,708.2340,M*3B
$GPGFA,154447.00,6.068,8.021,0.638,0.425,14.095,0.978,,VVV*36
$GPLLK,154447.00,010125,,M,,M,1,39,0.8,,M*0E
$GNGMP,154447.00,,,,,DAAA,39,0.4,,,,*5F
$GPGMP,154447.00,,,,,,10,,,,2.1,136*7C
$GLGMP,154447.00,,,,,,07,,,,,*7F
$GAGMP,154447.00,,,,,,08,,,,,*7D
$GBGMP,154447.00,,,,,,14,,,,,*73
$PSSN,SNC,[0,315905000,2347]*4F
$GPZDA,154452.00,01,01,2025,,*60
$GPDTM,W84,,00.0000000,N,00.0000000,E,00.0000000,W84*5F
$PSSN,TFM,154452.00,,,,*6C
$GPRMC,154452.00,A,4742.1605276,N,01618.1010828,E,0.0,,010125,5.1,E,D*16
$GPGLL,4742.1605276,N,01618.1010828,E,154452.00,A,D*67
$GPGGA,154452.00,4742.1605276,N,01618.1010828,E,2,39,0.4,708.2371,M,43.2065,M,3.1,0136*4C
$GNGNS,154452.00,4742.1605276,N,01618.1010828,E,DAAA,39,0.4,708.2371,43.2065,,*56
$GPGNS,154452.00,,,,,,10,,,,3.1,136*79
$GLGNS,154452.00,,,,,,07,,,,,*7B
$GAGNS,154452.00,,,,,,08,,,,,*79
$GBGNS,154452.00,,,,,,14,,,,,*77
$GPLLQ,154452.00,010125,,M,,M,1,39,1.242,,M*1D
$GPVTG,,T,,M,0.01,N,0.01,K,D*26
$GPHDT,,T*1B
$GPTHS,,V*0E
$GPROT,,V*08
$PSSN,HRP,154452.00,010125,,,,,,,00,0,,*62
$PTNL,AVR,154452.00,,Yaw,,Tilt,,,,0,,00*34
$GPGSA,A,3,05,11,12,18,20,25,26,28,29,31,,,0.7,0.4,0.6*3A
$GPGSA,A,3,71,78,79,80,81,82,88,,,,,,0.7,0.4,0.6*3B
$GPGSA,A,3,13,15,21,27,29,30,34,36,,,,,0.7,0.4,0.6*3D
$GPGSA,A,3,05,08,10,11,12,13,23,24,25,34,38,43,0.7,0.4,0.6*31
$GPGSA,A,3,44,60,,,,,,,,,,,0.7,0.4,0.6*31
$GPGST,154452.00,0.935,0.640,0.425,14.010,0.629,0.441,0.976*6A
$GPGBS,154452.00,4.829,2.131,6.426,11,0.0001,-1.411,1.544*71
$GPGRS,154452.00,1,-0.1,-1.4,0.5,-0.4,1.0,-0.0,0.6,-0.5,-0.0,0.4,,*4E
$GPGRS,154452.00,1,-0.7,-0.6,1.4,-2.4,2.2,1.0,-0.7,,,,,*67
$GPGRS,154452.00,1,-0.9,0.5,0.4,0.1,-0.7,0.3,0.1,-0.4,,,,*68
$GPGRS,154452.00,1,0.5,0.5,0.9,1.0,0.9,0.8,-0.0,-0.0,-0.8,-0.5,-0.9,-0.2*42
$GPGRS,154452.00,1,-1.1,0.0,,,,,,,,,,*60
$GPGSV,5,1,20,29,85,303,52,11,21,043,42,18,26,186,43,05,14,102,40*7E
$GPGSV,5,2,20,20,20,068,41,26,22,299,41,12,21,111,43,31,40,299,47*75
$GPGSV,5,3,20,28,53,262,48,25,61,114,49,04,03,342,37,36,35,170,45*70
$GPGSV,5,4,20,58,13,245,36,40,23,133,37,34,31,208,43,49,34,195,45*7D
$GPGSV,5,5,20,57,05,113,39,41,07,108,35,61,03,257,39*46
$GLGSV,2,1,08,79,75,328,52,82,16,210,46,80,20,319,46,88,54,042,51*60
$GLGSV,2,2,08,78,47,134,52,81,65,201,53,71,09,355,42,70,04,311,31*67
$GAGSV,3,1,10,27,75,312,48,13,10,191,38,29,11,254,39,19,15,298,34*6B
$GAGSV,3,2,10,21,21,295,41,34,47,063,46,15,51,152,47,30,48,107,46*6E
$GAGSV,3,3,10,04,01,350,36,36,05,031,36*68
$GBGSV,5,1,19,34,82,126,51,28,27,209,,56,14,064,,24,24,146,44*68
$GBGSV,5,2,19,38,26,062,42,05,20,130,38,44,31,054,45,13,27,087,42*6B
$GBGSV,5,3,19,43,40,221,47,23,42,304,48,08,28,078,40,31,40,076,*66
$GBGSV,5,4,19,11,63,206,49,12,56,058,47,25,72,196,51,10,08,079,35*69
$GBGSV,5,5,19,19,02,335,,02,05,107,34,60,10,109,41*50
$GPGGA,154452.00,,,,,0,00,,,M,,M,,*4B
$PTNL,GGK,154452.00,010125,4742.1605276,N,01618.1010828,E,1,39,0.7,EHT751.4437,M*4B
$GPGGQ,154452.00,010125,4742.1605276,N,01618.1010828,E,1,39,1.242,708.2371,M*38
$GPGFA,154452.00,6.082,8.006,0.640,0.425,14.010,0.976,,VVV*3F
$GPLLK,154452.00,010125,,M,,M,1,39,0.8,,M*0A
$GNGMP,154452.00,,,,,DAAA,39,0.4,,,,*5B
$GPGMP,154452.00,,,,,,10,,,,3.1,136*79
$GLGMP,154452.00,,,,,,07,,,,,*7B
$GAGMP,154452.00,,,,,,08,,,,,*79
$GBGMP,154452.00,,,,,,14,,,,,*77
$PSSN,SNC,[0,315910000,2347]*4B
$GPZDA,154457.00,01,01,2025,,*65
$GPDTM,W84,,00.0000000,N,00.0000000,E,00.0000000,W84*5F
$PSSN,TFM,154457.00,,,,*69
$GPRMC,154457.00,A,4742.1605275,N,01618.1010806,E,0.0,,010125,5.1,E,D*1C
$GPGLL,4742.1605275,N,01618.1010806,E,154457.00,A,D*6D
$GPGGA,154457.00,4742.1605275,N,01618.1010806,E,2,39,0.4,708.2371,M,43.2065,M,2.3,0136*45
$GNGNS,154457.00,4742.1605275,N,01618.1010806,E,DAAA,39,0.4,708.2371,43.2065,,*5C
$GPGNS,154457.00,,,,,,10,,,,2.3,136*7F
$GLGNS,154457.00,,,,,,07,,,,,*7E
$GAGNS,154457.00,,,,,,08,,,,,*7C
$GBGNS,154457.00,,,,,,14,,,,,*72
$GPLLQ,154457.00,010125,,M,,M,1,39,1.246,,M*1C
$GPVTG,,T,,M,0.01,N,0.01,K,D*26
$GPHDT,,T*1B
$GPTHS,,V*0E
$GPROT,,V*08
$PSSN,HRP,154457.00,010125,,,,,,,00,0,,*67
$PTNL,AVR,154457.00,,Yaw,,Tilt,,,,0,,00*31
$GPGSA,A,3,05,11,12,18,20,25,26,28,29,31,,,0.7,0.4,0.6*3A
$GPGSA,A,3,71,78,79,80,81,82,88,,,,,,0.7,0.4,0.6*3B
$GPGSA,A,3,13,15,21,27,29,30,34,36,,,,,0.7,0.4,0.6*3D
$GPGSA,A,3,05,08,10,11,12,13,23,24,25,34,38,43,0.7,0.4,0.6*31
$GPGSA,A,3,44,60,,,,,,,,,,,0.7,0.4,0.6*31
$GPGST,154457.00,1.017,0.640,0.427,13.991,0.630,0.442,0.980*60
$GPGBS,154457.00,4.835,2.119,6.258,11,0.0001,-1.233,1.554*7B
$GPGRS,154457.00,1,0.3,-1.2,0.9,-0.4,1.2,-0.2,0.7,-0.7,0.0,0.3,,*47
$GPGRS,154457.00,1,-0.4,-0.2,1.7,-2.6,2.0,1.7,-0.6,,,,,*60
$GPGRS,154457.00,1,-0.7,0.5,0.9,0.1,-0.9,0.4,0.1,-0.2,,,,*61
$GPGRS,154457.00,1,0.7,0.9,1.0,1.3,1.2,0.6,-0.1,0.1,-0.7,-0.5,-0.9,-0.3*65
$GPGRS,154457.00,1,-1.0,0.0,,,,,,,,,,*64
$GPGSV,5,1,20,29,85,303,51,11,21,043,41,18,26,186,43,05,14,102,41*7F
$GPGSV,5,2,20,20,20,067,41,26,22,299,41,12,21,111,44,31,40,299,47*7D
$GPGSV,5,3,20,28,53,262,48,25,61,114,49,04,03,342,37,36,35,170,45*70
$GPGSV,5,4,20,58,13,245,36,40,23,133,36,34,31,208,43,49,34,195,45*7C
$GPGSV,5,5,20,57,05,113,39,41,07,108,35,61,03,257,39*46
$GLGSV,2,1,08,79,75,328,53,82,17,210,45,80,20,319,46,88,54,042,51*63
$GLGSV,2,2,08,78,47,134,52,81,65,201,53,71,09,355,43,70,04,311,34*63
$GAGSV,3,1,10,27,75,312,48,13,10,191,38,29,11,254,39,19,15,298,35*6A
$GAGSV,3,2,10,21,22,295,41,34,47,063,46,15,51,152,47,30,48,107,46*6D
$GAGSV,3,3,10,04,01,350,36,36,05,031,36*68
$GBGSV,5,1,19,34,82,126,51,28,27,209,,56,14,064,,24,24,146,43*6F
$GBGSV,5,2,19,38,26,062,42,05,20,130,38,44,31,054,45,13,27,087,42*6B
$GBGSV,5,3,19,43,40,221,47,23,42,304,47,08,28,078,40,31,40,076,*69
$GBGSV,5,4,19,11,63,206,49,12,56,058,47,25,72,196,51,10,08,079,35*69
$GBGSV,5,5,19,19,02,335,,02,05,107,34,60,10,109,41*50
$GPGGA,154457.00,,,,,0,00,,,M,,M,,*4E
$PTNL,GGK,154457.00,010125,4742.1605275,N,01618.1010806,E,1,39,0.7,EHT751.4436,M*40
$GPGGQ,154457.00,010125,4742.1605275,N,01618.1010806,E,1,39,1.246,708.2371,M*36
$GPGFA,154457.00,6.085,8.038,0.640,0.427,13.991,0.980,,VVV*3C
$GPLLK,154457.00,010125,,M,,M,1,39,0.8,,M*0F
$GNGMP,154457.00,,,,,DAAA,39,0.4,,,,*5E
$GPGMP,154457.00,,,,,,10,,,,2.3,136*7F
$GLGMP,154457.00,,,,,,07,,,,,*7E
$GAGMP,154457.00,,,,,,08,,,,,*7C
$GBGMP,154457.00,,,,,,14,,,,,*72
$PSSN,SNC,[0,315915000,2347]*4E
$GPZDA,154502.00,01,01,2025,,*64
$GPDTM,W84,,00.0000000,N,00.0000000,E,00.0000000,W84*5F
$PSSN,TFM,154502.00,,,,*68
$GPRMC,154502.00,A,4742.1605275,N,01618.1010768,E,0.0,,010125,5.1,E,D*1A
$GPGLL,4742.1605275,N,01618.1010768,E,154502.00,A,D*6B
$GPGGA,154502.00,4742.1605275,N,01618.1010768,E,2,39,0.4,708.2424,M,43.2065,M,2.4,0136*43
$GNGNS,154502.00,4742.1605275,N,01618.1010768,E,DAAA,39,0.4,708.2424,43.2065,,*5D
$GPGNS,154502.00,,,,,,10,,,,2.4,136*79
$GLGNS,154502.00,,,,,,07,,,,,*7F
$GAGNS,154502.00,,,,,,08,,,,,*7D
$GBGNS,154502.00,,,,,,14,,,,,*73
$GPLLQ,154502.00,010125,,M,,M,1,39,1.243,,M*18
$GPVTG,,T,,M,0.00,N,0.01,K,D*27
$GPHDT,,T*1B
$GPTHS,,V*0E
$GPROT,,V*08
$PSSN,HRP,154502.00,010125,,,,,,,00,0,,*66
$PTNL,AVR,154502.00,,Yaw,,Tilt,,,,0,,00*30
$GPGSA,A,3,05,11,12,18,20,25,26,28,29,31,,,0.7,0.4,0.6*3A
$GPGSA,A,3,71,78,79,80,81,82,88,,,,,,0.7,0.4,0.6*3B
$GPGSA,A,3,13,15,21,27,29,30,34,36,,,,,0.7,0.4,0.6*3D
$GPGSA,A,3,05,08,10,11,12,13,23,24,25,34,38,43,0.7,0.4,0.6*31
$GPGSA,A,3,44,60,,,,,,,,,,,0.7,0.4,0.6*31
$GPGST,154502.00,0.930,0.637,0.425,14.069,0.626,0.441,0.979*65
$GPGBS,154502.00,4.803,2.111,6.290,11,0.0001,-1.167,1.533*70
$GPGRS,154502.00,1,0.4,-1.2,0.6,-0.6,0.5,-0.1,0.6,-0.2,-0.0,0.3,,*60
$GPGRS,154502.00,1,-0.3,-0.8,1.3,-1.9,1.8,0.1,-0.9,,,,,*67
$GPGRS,154502.00,1,-0.7,0.3,1.0,0.2,-0.7,0.5,0.2,-0.1,,,,*62
$GPGRS,154502.00,1,1.5,0.9,1.3,1.7,1.4,0.9,-0.2,-0.2,-0.7,-0.3,-0.7,-0.0*4F
$GPGRS,154502.00,1,-0.9,0.1,,,,,,,,,,*6C
$GPGSV,5,1,20,29,85,304,51,11,21,043,42,18,26,186,43,05,14,102,40*7A
$GPGSV,5,2,20,20,20,067,41,26,22,299,41,12,21,111,43,31,40,299,47*7A
$GPGSV,5,3,20,28,53,262,48,25,61,114,49,04,03,342,37,36,35,170,45*70
$GPGSV,5,4,20,58,13,245,37,40,23,133,36,34,31,208,43,49,34,195,45*7D
$GPGSV,5,5,20,57,05,113,39,41,07,108,35,61,03,257,38*47
$GLGSV,2,1,08,79,75,328,52,82,17,210,44,80,20,319,46,88,54,042,51*63
$GLGSV,2,2,08,78,47,134,51,81,65,201,52,71,09,355,43,70,04,311,33*66
$GAGSV,3,1,10,27,75,312,48,13,10,191,38,29,11,254,39,19,15,298,35*6A
$GAGSV,3,2,10,21,22,295,41,34,46,063,46,15,51,152,47,30,48,107,47*6D
$GAGSV,3,3,10,04,01,350,36,36,05,031,36*68
$GBGSV,5,1,19,34,82,126,51,28,27,209,,56,14,064,,24,24,146,43*6F
$GBGSV,5,2,19,38,26,062,43,05,20,130,38,44,31,054,45,13,27,087,42*6A
$GBGSV,5,3,19,43,40,221,47,23,42,304,47,08,28,078,40,31,41,076,*68
$GBGSV,5,4,19,11,63,206,49,12,56,058,47,25,72,196,51,10,08,079,35*69
$GBGSV,5,5,19,19,02,335,,02,05,107,34,60,10,109,41*50
$GPGGA,154502.00,,,,,0,00,,,M,,M,,*4F
$PTNL,GGK,154502.00,010125,4742.1605275,N,01618.1010768,E,1,39,0.7,EHT751.4490,M*4A
$GPGGQ,154502.00,010125,4742.1605275,N,01618.1010768,E,1,39,1.243,708.2424,M*32
$GPGFA,154502.00,6.054,8.027,0.637,0.425,14.069,0.979,,VVV*32
$GPLLK,154502.00,010125,,M,,M,1,39,0.8,,M*0E
$GNGMP,154502.00,,,,,DAAA,39,0.4,,,,*5F
$GPGMP,154502.00,,,,,,10,,,,2.4,136*79
$GLGMP,154502.00,,,,,,07,,,,,*7F
$GAGMP,154502.00,,,,,,08,,,,,*7D
$GBGMP,154502.00,,,,,,14,,,,,*73
$PSSN,SNC,[0,315920000,2347]*48
$GPZDA,154507.00,01,01,2025,,*61
$GPDTM,W84,,00.0000000,N,00.0000000,E,00.0000000,W84*5F
$PSSN,TFM,154507.00,,,,*6D
$GPRMC,154507.00,A,4742.1605271,N,01618.1010776,E,0.0,,010125,5.1,E,D*14
$GPGLL,4742.1605271,N,01618.1010776,E,154507.00,A,D*65
$GPGGA,154507.00,4742.1605271,N,01618.1010776,E,2,39,0.4,708.2428,M,43.2065,M,2.1,0136*44
$GNGNS,154507.00,4742.1605271,N,01618.1010776,E,DAAA,39,0.4,708.2428,43.2065,,*5F
$GPGNS,154507.00,,,,,,10,,,,2.1,136*79
$GLGNS,154507.00,,,,,,07,,,,,*7A
$GAGNS,154507.00,,,,,,08,,,,,*78
$GBGNS,154507.00,,,,,,14,,,,,*76
$GPLLQ,154507.00,010125,,M,,M,1,39,1.243,,M*1D
$GPVTG,,T,,M,0.01,N,0.01,K,D*26
$GPHDT,,T*1B
$GPTHS,,V*0E
$GPROT,,V*08
$PSSN,HRP,154507.00,010125,,,,,,,00,0,,*63
$PTNL,AVR,154507.00,,Yaw,,Tilt,,,,0,,00*35
$GPGSA,A,3,05,11,12,18,20,25,26,28,29,31,,,0.7,0.4,0.6*3A
$GPGSA,A,3,71,78,79,80,81,82,88,,,,,,0.7,0.4,0.6*3B
$GPGSA,A,3,13,15,21,27,29,30,34,36,,,,,0.7,0.4,0.6*3D
$GPGSA,A,3,05,08,10,11,12,13,23,24,25,34,38,43,0.7,0.4,0.6*31
$GPGSA,A,3,44,60,,,,,,,,,,,0.7,0.4,0.6*31
$GPGST,154507.00,0.925,0.637,0.426,14.122,0.627,0.441,0.979*68
$GPGBS,154507.00,4.795,2.126,6.382,11,0.0001,-1.277,1.541*74
$GPGRS,154507.00,1,0.5,-1.3,0.4,-0.5,0.8,-0.0,0.7,-0.3,-0.1,0.2,,*68
$GPGRS,154507.00,1,-0.7,-0.9,1.1,-1.9,1.9,-0.3,-0.5,,,,,*47
$GPGRS,154507.00,1,-0.8,0.3,1.1,0.2,-1.3,0.3,0.1,-0.1,,,,*69
$GPGRS,154507.00,1,1.0,0.6,1.4,1.5,1.3,0.4,-0.3,-0.3,-0.6,-0.3,-1.1,-0.4*4D
$GPGRS,154507.00,1,-0.8,0.2,,,,,,,,,,*6B
$GPGSV,5,1,20,29,85,304,51,11,21,043,41,18,26,186,44,05,14,102,41*7F
$GPGSV,5,2,20,20,20,067,41,26,22,299,42,12,21,111,42,31,40,299,46*79
$GPGSV,5,3,20,28,53,262,47,25,61,114,49,04,03,342,37,36,35,170,45*7F
$GPGSV,5,4,20,58,13,245,36,40,23,133,37,34,31,208,43,49,34,195,45*7D
$GPGSV,5,5,20,57,05,113,39,41,07,108,35,61,03,257,38*47
$GLGSV,2,1,08,79,75,328,52,82,17,210,45,80,20,319,46,88,54,042,51*62
$GLGSV,2,2,08,78,47,134,52,81,65,201,52,71,09,355,43,70,04,311,32*64
$GAGSV,3,1,10,27,75,312,48,13,10,191,39,29,11,254,39,19,15,298,35*6B
$GAGSV,3,2,10,21,22,295,41,34,46,063,46,15,51,152,48,30,48,107,47*62
$GAGSV,3,3,10,04,01,350,35,36,05,031,36*6B
$GBGSV,5,1,19,34,82,125,51,28,27,209,,56,14,064,,24,23,146,43*6B
$GBGSV,5,2,19,38,26,062,42,05,20,130,38,44,31,054,45,13,27,087,43*6A
$GBGSV,5,3,19,43,40,221,47,23,42,303,47,08,28,078,40,31,41,076,*6F
$GBGSV,5,4,19,11,63,206,49,12,56,058,47,25,72,196,52,10,08,079,35*6A
$GBGSV,5,5,19,19,02,335,,02,05,107,34,60,10,109,41*50
$GPGGA,154507.00,,,,,0,00,,,M,,M,,*4A
$PTNL,GGK,154507.00,010125,4742.1605271,N,01618.1010776,E,1,39,0.7,EHT751.4493,M*47
$GPGGQ,154507.00,010125,4742.1605271,N,01618.1010776,E,1,39,1.243,708.2428,M*30
$GPGFA,154507.00,6.059,8.025,0.637,0.426,14.122,0.979,,VVV*35
$GPLLK,154507.00,010125,,M,,M,1,39,0.8,,M*0B
$GNGMP,154507.00,,,,,DAAA,39,0.4,,,,*5A
$GPGMP,154507.00,,,,,,10,,,,2.1,136*79
$GLGMP,154507.00,,,,,,07,,,,,*7A
$GAGMP,154507.00,,,,,,08,,,,,*78
$GBGMP,154507.00,,,,,,14,,,,,*76
$PSSN,SNC,[0,315925000,2347]*4D
$GPZDA,154512.00,01,01,2025,,*65
$GPDTM,W84,,00.0000000,N,00.0000000,E,00.0000000,W84*5F
$PSSN,TFM,154512.00,,,,*69
$GPRMC,154512.00,A,4742.1605260,N,01618.1010761,E,0.0,,010125,5.1,E,D*16
$GPGLL,4742.1605260,N,01618.1010761,E,154512.00,A,D*67
$GPGGA,154512.00,4742.1605260,N,01618.1010761,E,2,38,0.4,708.2437,M,43.2065,M,3.1,0136*48
$GNGNS,154512.00,4742.1605260,N,01618.1010761,E,DAAA,38,0.4,708.2437,43.2065,,*52
$GPGNS,154512.00,,,,,,10,,,,3.1,136*7C
$GLGNS,154512.00,,,,,,07,,,,,*7E
$GAGNS,154512.00,,,,,,08,,,,,*7C
$GBGNS,154512.00,,,,,,13,,,,,*75
$GPLLQ,154512.00,010125,,M,,M,1,38,1.244,,M*1F
$GPVTG,,T,,M,0.01,N,0.01,K,D*26
$GPHDT,,T*1B
$GPTHS,,V*0E
$GPROT,,V*08
$PSSN,HRP,154512.00,010125,,,,,,,00,0,,*67
$PTNL,AVR,154512.00,,Yaw,,Tilt,,,,0,,00*31
$GPGSA,A,3,05,11,12,18,20,25,26,28,29,31,,,0.7,0.4,0.6*3A
$GPGSA,A,3,71,78,79,80,81,82,88,,,,,,0.7,0.4,0.6*3B
$GPGSA,A,3,13,15,21,27,29,30,34,36,,,,,0.7,0.4,0.6*3D
$GPGSA,A,3,05,08,11,12,13,23,24,25,34,38,43,44,0.7,0.4,0.6*30
$GPGSA,A,3,60,,,,,,,,,,,,0.7,0.4,0.6*31
$GPGST,154512.00,0.960,0.639,0.426,14.086,0.628,0.441,0.979*63
$GPGBS,154512.00,4.817,2.136,6.472,28,0.0001,-0.557,0.951*7E
$GPGRS,154512.00,1,0.4,-0.8,0.4,-0.6,0.7,0.0,0.6,-0.6,0.0,0.3,,*6F
$GPGRS,154512.00,1,-2.0,-0.8,1.6,-1.5,1.7,0.7,-0.8,,,,,*66
$GPGRS,154512.00,1,-0.5,0.5,0.9,0.4,-1.3,0.2,0.1,-0.1,,,,*68
$GPGRS,154512.00,1,0.6,1.1,1.4,1.7,0.3,-0.6,-0.5,-0.6,-0.4,-0.7,-0.2,-0.8*6F
$GPGRS,154512.00,1,0.3,,,,,,,,,,,*65
$GPGSV,5,1,20,29,85,305,51,11,21,043,42,18,26,186,44,05,14,102,41*7D
$GPGSV,5,2,20,20,20,067,41,26,22,299,41,12,21,111,42,31,40,299,47*7B
$GPGSV,5,3,20,28,53,262,47,25,61,114,49,04,03,342,36,36,35,170,45*7E
$GPGSV,5,4,20,58,13,245,36,40,23,133,36,34,31,208,43,49,34,195,45*7C
$GPGSV,5,5,20,57,05,113,39,41,07,108,34,61,03,257,38*46
$GLGSV,2,1,08,79,75,328,52,82,17,210,45,80,20,319,47,88,54,042,51*63
$GLGSV,2,2,08,78,47,134,51,81,65,201,52,71,09,355,42,70,04,311,33*67
$GAGSV,3,1,10,27,75,312,48,13,10,191,39,29,11,254,39,19,15,298,35*6B
$GAGSV,3,2,10,21,22,295,41,34,46,063,46,15,51,152,48,30,48,107,47*62
$GAGSV,3,3,10,04,01,350,35,36,05,031,36*6B
$GBGSV,5,1,19,34,82,125,51,28,27,209,,56,14,064,,24,23,146,43*6B
$GBGSV,5,2,19,38,26,062,43,05,20,130,38,44,31,054,45,13,27,087,43*6B
$GBGSV,5,3,19,43,40,221,48,23,42,303,48,08,28,078,40,31,41,076,*6F
$GBGSV,5,4,19,11,63,206,49,12,56,058,47,25,72,195,52,10,08,079,35*69
$GBGSV,5,5,19,19,02,335,,02,05,107,34,60,10,109,41*50
$GPGGA,154512.00,,,,,0,00,,,M,,M,,*4E
$PTNL,GGK,154512.00,010125,4742.1605260,N,01618.1010761,E,1,38,0.7,EHT751.4502,M*4D
$GPGGQ,154512.00,010125,4742.1605260,N,01618.1010761,E,1,38,1.244,708.2437,M*3A
$GPGFA,154512.00,6.075,8.025,0.639,0.426,14.086,0.979,,VVV*3E
$GPLLK,154512.00,010125,,M,,M,1,38,0.8,,M*0E
$GNGMP,154512.00,,,,,DAAA,38,0.4,,,,*5F
$GPGMP,154512.00,,,,,,10,,,,3.1,136*7C
$GLGMP,154512.00,,,,,,07,,,,,*7E
$GAGMP,154512.00,,,,,,08,,,,,*7C
$GBGMP,154512.00,,,,,,13,,,,,*75
$PSSN,SNC,[0,315930000,2347]*49
$GPZDA,154517.00,01,01,2025,,*60
$GPDTM,W84,,00.0000000,N,00.0000000,E,00.0000000,W84*5F
$PSSN,TFM,154517.00,,,,*6C
$GPRMC,154517.00,A,4742.1605239,N,01618.1010743,E,0.0,,010125,5.1,E,D*1F
$GPGLL,4742.1605239,N,01618.1010743,E,154517.00,A,D*6E
$GPGGA,154517.00,4742.1605239,N,01618.1010743,E,2,38,0.4,708.2446,M,43.2066,M,2.3,0136*47
$GNGNS,154517.00,4742.1605239,N,01618.1010743,E,DAAA,38,0.4,708.2446,43.2066,,*5E
$GPGNS,154517.00,,,,,,10,,,,2.3,136*7A
$GLGNS,154517.00,,,,,,07,,,,,*7B
$GAGNS,154517.00,,,,,,08,,,,,*79
$GBGNS,154517.00,,,,,,13,,,,,*70
$GPLLQ,154517.00,010125,,M,,M,1,38,1.248,,M*16
$GPVTG,,T,,M,0.00,N,0.01,K,D*27
$GPHDT,,T*1B
$GPTHS,,V*0E
$GPROT,,V*08
$PSSN,HRP,154517.00,010125,,,,,,,00,0,,*62
$PTNL,AVR,154517.00,,Yaw,,Tilt,,,,0,,00*34
$GPGSA,A,3,05,11,12,18,20,25,26,28,29,31,,,0.7,0.4,0.6*3A
$GPGSA,A,3,71,78,79,80,81,82,88,,,,,,0.7,0.4,0.6*3B
$GPGSA,A,3,13,15,21,27,29,30,34,36,,,,,0.7,0.4,0.6*3D
$GPGSA,A,3,05,08,11,12,13,23,24,25,34,38,43,44,0.7,0.4,0.6*30
$GPGSA,A,3,60,,,,,,,,,,,,0.7,0.4,0.6*31
$GPGST,154517.00,0.861,0.639,0.427,14.036,0.629,0.443,0.983*6A
$GPGBS,154517.00,4.823,2.123,6.304,18,0.0001,-1.041,1.352*76
$GPGRS,154517.00,1,0.3,-1.2,0.7,-1.0,0.3,0.2,0.3,-0.3,0.1,0.3,,*65
$GPGRS,154517.00,1,-0.9,-0.8,1.6,-1.3,1.8,0.1,-0.8,,,,,*67
$GPGRS,154517.00,1,-0.5,0.5,0.9,0.3,-0.8,0.1,0.0,0.1,,,,*4F
$GPGRS,154517.00,1,0.5,1.2,1.3,1.3,0.0,-0.5,-0.4,-0.8,-0.4,-0.9,0.1,-1.0*4F
$GPGRS,154517.00,1,0.1,,,,,,,,,,,*62
$GPGSV,5,1,20,29,85,305,51,11,21,043,42,05,14,102,41,18,26,186,43*7A
$GPGSV,5,2,20,20,20,067,41,26,22,299,41,12,21,111,43,31,40,299,46*7B
$GPGSV,5,3,20,28,53,262,47,25,61,114,49,04,03,342,36,36,35,170,45*7E
$GPGSV,5,4,20,58,13,245,36,40,23,133,36,34,31,208,43,49,34,195,45*7C
$GPGSV,5,5,20,57,05,113,39,41,07,108,34,61,03,257,38*46
$GLGSV,2,1,08,79,75,328,52,82,17,210,45,80,20,319,47,88,54,042,51*63
$GLGSV,2,2,08,78,47,134,51,81,65,201,52,71,09,355,42,70,04,311,32*66
$GAGSV,3,1,10,27,75,312,48,13,10,191,39,29,11,254,39,19,15,298,35*6B
$GAGSV,3,2,10,21,22,295,41,34,46,063,46,15,51,152,48,30,48,107,47*62
$GAGSV,3,3,10,04,01,350,35,36,05,031,36*6B
$GBGSV,5,1,19,34,82,125,51,28,27,209,,56,13,064,,24,23,146,44*6B
$GBGSV,5,2,19,38,26,062,43,05,20,130,38,44,31,054,45,13,27,087,43*6B
$GBGSV,5,3,19,43,40,221,48,23,42,303,48,08,28,078,40,31,41,076,*6F
$GBGSV,5,4,19,11,63,206,49,12,56,058,47,25,72,195,52,10,08,080,35*6F
$GBGSV,5,5,19,19,02,335,,02,05,107,34,60,10,109,41*50
$GPGGA,154517.00,,,,,0,00,,,M,,M,,*4B
$PTNL,GGK,154517.00,010125,4742.1605239,N,01618.1010743,E,1,38,0.7,EHT751.4512,M*45
$GPGGQ,154517.00,010125,4742.1605239,N,01618.1010743,E,1,38,1.248,708.2446,M*39
$GPGFA,154517.00,6.079,8.061,0.639,0.427,14.036,0.983,,VVV*38
$GPLLK,154517.00,010125,,M,,M,1,38,0.8,,M*0B
$GNGMP,154517.00,,,,,DAAA,38,0.4,,,,*5A
$GPGMP,154517.00,,,,,,10,,,,2.3,136*7A
$GLGMP,154517.00,,,,,,07,,,,,*7B
$GAGMP,154517.00,,,,,,08,,,,,*79
$GBGMP,154517.00,,,,,,13,,,,,*70
$PSSN,SNC,[0,315935000,2347]*4C
$GPZDA,154522.00,01,01,2025,,*66
$GPDTM,W84,,00.0000000,N,00.0000000,E,00.0000000,W84*5F
$PSSN,TFM,154522.00,,,,*6A
$GPRMC,154522.00,A,4742.1605227,N,01618.1010736,E,0.0,,010125,5.1,E,D*14
$GPGLL,4742.1605227,N,01618.1010736,E,154522.00,A,D*65
$GPGGA,154522.00,4742.1605227,N,01618.1010736,E,2,38,0.4,708.2411,M,43.2066,M,2.4,0136*49
$GNGNS,154522.00,4742.1605227,N,01618.1010736,E,DAAA,38,0.4,708.2411,43.2066,,*57
$GPGNS,154522.00,,,,,,10,,,,2.4,136*7B
$GLGNS,154522.00,,,,,,07,,,,,*7D
$GAGNS,154522.00,,,,,,08,,,,,*7F
$GBGNS,154522.00,,,,,,13,,,,,*76
$GPLLQ,154522.00,010125,,M,,M,1,38,1.245,,M*1D
$GPVTG,,T,,M,0.01,N,0.01,K,D*26
$GPHDT,,T*1B
$GPTHS,,V*0E
$GPROT,,V*08
$PSSN,HRP,154522.00,010125,,,,,,,00,0,,*64
$PTNL,AVR,154522.00,,Yaw,,Tilt,,,,0,,00*32
$GPGSA,A,3,05,11,12,18,20,25,26,28,29,31,,,0.7,0.4,0.6*3A
$GPGSA,A,3,71,78,79,80,81,82,88,,,,,,0.7,0.4,0.6*3B
$GPGSA,A,3,13,15,21,27,29,30,34,36,,,,,0.7,0.4,0.6*3D
$GPGSA,A,3,05,08,11,12,13,23,24,25,34,38,43,44,0.7,0.4,0.6*30
$GPGSA,A,3,60,,,,,,,,,,,,0.7,0.4,0.6*31
$GPGST,154522.00,0.868,0.636,0.426,14.168,0.626,0.441,0.981*6E
$GPGBS,154522.00,4.792,2.115,6.336,12,0.0001,0.897,1.083*5B
$GPGRS,154522.00,1,0.0,-1.0,0.9,-1.0,1.2,-0.0,0.6,-0.4,-0.0,0.2,,*6C
$GPGRS,154522.00,1,-0.6,-0.3,1.2,-1.4,2.1,0.5,-0.7,,,,,*67
$GPGRS,154522.00,1,-0.5,0.4,0.7,0.0,-1.0,0.0,0.0,-0.2,,,,*63
$GPGRS,154522.00,1,1.1,0.7,1.6,1.0,-0.4,-0.6,-0.2,-0.7,-0.3,-0.8,-0.1,-1.0*46
$GPGRS,154522.00,1,-0.0,,,,,,,,,,,*48
$GPGSV,5,1,20,29,85,306,51,11,21,043,41,05,14,102,40,18,26,186,43*7B
$GPGSV,5,2,20,20,20,067,41,26,22,299,41,12,21,111,43,31,40,298,46*7A
$GPGSV,5,3,20,28,53,261,47,25,61,114,49,04,03,342,37,36,35,170,45*7C
$GPGSV,5,4,20,58,13,245,36,40,23,133,37,34,31,208,43,49,34,195,45*7D
$GPGSV,5,5,20,57,05,113,39,41,07,108,35,61,03,257,38*47
$GLGSV,2,1,08,79,75,328,52,82,17,210,46,80,20,319,46,88,53,042,51*66
$GLGSV,2,2,08,78,47,134,51,81,65,201,53,71,09,355,42,70,04,311,30*65
$GAGSV,3,1,10,27,75,312,49,13,11,191,39,29,11,254,39,19,15,298,35*6B
$GAGSV,3,2,10,21,22,295,41,34,46,063,46,15,51,152,48,30,48,107,47*62
$GAGSV,3,3,10,04,01,350,35,36,05,031,36*6B
$GBGSV,5,1,19,34,82,124,51,28,27,209,,56,13,064,,24,23,146,44*6A
$GBGSV,5,2,19,05,20,130,38,44,31,054,45,38,26,062,43,13,27,087,42*6A
$GBGSV,5,3,19,43,40,221,48,23,42,303,48,08,28,078,40,31,41,076,*6F
$GBGSV,5,4,19,11,63,206,49,12,56,058,47,25,72,195,52,10,08,080,35*6F
$GBGSV,5,5,19,02,05,107,35,19,02,335,,60,10,109,41*51
$GPGGA,154522.00,,,,,0,00,,,M,,M,,*4D
$PTNL,GGK,154522.00,010125,4742.1605227,N,01618.1010736,E,1,38,0.7,EHT751.4477,M*4C
$GPGGQ,154522.00,010125,4742.1605227,N,01618.1010736,E,1,38,1.245,708.2411,M*3D
$GPGFA,154522.00,6.049,8.047,0.636,0.426,14.168,0.981,,VVV*3F
$GPLLK,154522.00,010125,,M,,M,1,38,0.8,,M*0D
$GNGMP,154522.00,,,,,DAAA,38,0.4,,,,*5C
$GPGMP,154522.00,,,,,,10,,,,2.4,136*7B
$GLGMP,154522.00,,,,,,07,,,,,*7D
$GAGMP,154522.00,,,,,,08,,,,,*7F
$GBGMP,154522.00,,,,,,13,,,,,*76
$PSSN,SNC,[0,315940000,2347]*4E
$GPZDA,154527.00,01,01,2025,,*63
$GPDTM,W84,,00.0000000,N,00.0000000,E,00.0000000,W84*5F
$PSSN,TFM,154527.00,,,,*6F
$GPRMC,154527.00,A,4742.1605223,N,01618.1010712,E,0.0,,010125,5.1,E,D*13
$GPGLL,4742.1605223,N,01618.1010712,E,154527.00,A,D*62
$GPGGA,154527.00,4742.1605223,N,01618.1010712,E,2,39,0.4,708.2421,M,43.2065,M,2.1,0136*4A
$GNGNS,154527.00,4742.1605223,N,01618.1010712,E,DAAA,39,0.4,708.2421,43.2065,,*51
$GPGNS,154527.00,,,,,,10,,,,2.1,136*7B
$GLGNS,154527.00,,,,,,07,,,,,*78
$GAGNS,154527.00,,,,,,08,,,,,*7A
$GBGNS,154527.00,,,,,,14,,,,,*74
$GPLLQ,154527.00,010125,,M,,M,1,39,1.243,,M*1F
$GPVTG,,T,,M,0.00,N,0.01,K,D*27
$GPHDT,,T*1B
$GPTHS,,V*0E
$GPROT,,V*08
$PSSN,HRP,154527.00,010125,,,,,,,00,0,,*61
$PTNL,AVR,154527.00,,Yaw,,Tilt,,,,0,,00*37
$GPGSA,A,3,05,11,12,18,20,25,26,28,29,31,,,0.7,0.4,0.6*3A
$GPGSA,A,3,71,78,79,80,81,82,88,,,,,,0.7,0.4,0.6*3B
$GPGSA,A,3,13,15,21,27,29,30,34,36,,,,,0.7,0.4,0.6*3D
$GPGSA,A,3,05,08,10,11,12,13,23,24,25,34,38,43,0.7,0.4,0.6*31
$GPGSA,A,3,44,60,,,,,,,,,,,0.7,0.4,0.6*31
$GPGST,154527.00,0.929,0.636,0.426,14.168,0.626,0.441,0.980*6E
$GPGBS,154527.00,4.783,2.127,6.406,12,0.0001,0.839,1.092*5F
$GPGRS,154527.00,1,0.2,-1.1,0.8,-1.0,0.7,-0.2,0.5,-0.2,0.0,0.3,,*44
$GPGRS,154527.00,1,-1.3,-0.5,1.3,-1.7,2.0,1.3,-1.0,,,,,*62
$GPGRS,154527.00,1,-0.4,0.0,0.9,0.1,-0.9,0.4,0.0,-0.4,,,,*66
$GPGRS,154527.00,1,1.3,0.0,0.9,1.6,0.5,0.0,-0.5,-0.2,-0.9,-0.3,-1.0,-0.4*4F
$GPGRS,154527.00,1,-0.8,0.0,,,,,,,,,,*6B
$GPGSV,5,1,20,29,85,306,51,11,21,043,41,05,14,102,40,18,26,186,43*7B
$GPGSV,5,2,20,20,20,067,41,26,22,299,41,12,21,111,42,31,40,298,46*7B
$GPGSV,5,3,20,28,53,261,47,25,61,114,49,04,03,342,38,36,35,170,45*73
$GPGSV,5,4,20,58,13,245,37,40,23,133,37,34,31,208,43,49,34,195,45*7C
$GPGSV,5,5,20,57,05,113,39,41,07,108,35,61,03,257,38*47
$GLGSV,2,1,08,79,75,328,52,82,17,210,46,80,20,319,45,88,53,042,51*65
$GLGSV,2,2,08,78,47,134,52,81,65,201,53,71,09,355,41,70,04,311,33*66
$GAGSV,3,1,10,27,75,312,48,13,11,191,39,29,11,254,39,19,15,298,35*6A
$GAGSV,3,2,10,21,22,295,41,34,46,063,46,15,51,152,47,30,48,107,47*6D
$GAGSV,3,3,10,04,01,350,35,36,05,031,36*6B
$GBGSV,5,1,19,34,82,124,51,28,27,209,,56,13,064,,24,23,146,43*6D
$GBGSV,5,2,19,05,20,130,38,44,31,054,45,38,26,062,43,13,27,087,42*6A
$GBGSV,5,3,19,43,40,221,48,23,42,303,47,08,28,078,40,31,41,076,*60
$GBGSV,5,4,19,11,63,206,49,12,56,058,47,25,72,195,52,10,08,080,35*6F
$GBGSV,5,5,19,02,05,107,34,19,02,335,,60,10,109,41*50
$GPGGA,154527.00,,,,,0,00,,,M,,M,,*48
$PTNL,GGK,154527.00,010125,4742.1605223,N,01618.1010712,E,1,39,0.7,EHT751.4487,M*45
$GPGGQ,154527.00,010125,4742.1605223,N,01618.1010712,E,1,39,1.243,708.2421,M*3E
$GPGFA,154527.00,6.050,8.032,0.636,0.426,14.168,0.980,,VVV*31
$GPLLK,154527.00,010125,,M,,M,1,39,0.8,,M*09
$GNGMP,154527.00,,,,,DAAA,39,0.4,,,,*58
$GPGMP,154527.00,,,,,,10,,,,2.1,136*7B
$GLGMP,154527.00,,,,,,07,,,,,*78
$GAGMP,154527.00,,,,,,08,,,,,*7A
$GBGMP,154527.00,,,,,,14,,,,,*74
$PSSN,SNC,[0,315945000,2347]*4B
$GPZDA,154532.00,01,01,2025,,*67
$GPDTM,W84,,00.0000000,N,00.0000000,E,00.0000000,W84*5F
$PSSN,TFM,154532.00,,,,*6B
$GPRMC,154532.00,A,4742.1605212,N,01618.1010709,E,0.0,,010125,5.1,E,D*1F
$GPGLL,4742.1605212,N,01618.1010709,E,154532.00,A,D*6E
$GPGGA,154532.00,4742.1605212,N,01618.1010709,E,2,39,0.4,708.2466,M,43.2065,M,3.1,0136*44
$GNGNS,154532.00,4742.1605212,N,01618.1010709,E,DAAA,39,0.4,708.2466,43.2065,,*5E
$GPGNS,154532.00,,,,,,10,,,,3.1,136*7E
$GLGNS,154532.00,,,,,,07,,,,,*7C
$GAGNS,154532.00,,,,,,08,,,,,*7E
$GBGNS,154532.00,,,,,,14,,,,,*70
$GPLLQ,154532.00,010125,,M,,M,1,39,1.243,,M*1B
$GPVTG,,T,,M,0.01,N,0.01,K,D*26
$GPHDT,,T*1B
$GPTHS,,V*0E
$GPROT,,V*08
$PSSN,HRP,154532.00,010125,,,,,,,00,0,,*65
$PTNL,AVR,154532.00,,Yaw,,Tilt,,,,0,,00*33
$GPGSA,A,3,05,11,12,18,20,25,26,28,29,31,,,0.7,0.4,0.6*3A
$GPGSA,A,3,71,78,79,80,81,82,88,,,,,,0.7,0.4,0.6*3B
$GPGSA,A,3,13,15,21,27,29,30,34,36,,,,,0.7,0.4,0.6*3D
$GPGSA,A,3,05,08,10,11,12,13,23,24,25,34,38,43,0.7,0.4,0.6*31
$GPGSA,A,3,44,60,,,,,,,,,,,0.7,0.4,0.6*31
$GPGST,154532.00,0.972,0.638,0.426,14.072,0.627,0.441,0.978*66
$GPGBS,154532.00,4.805,2.133,6.476,11,0.0001,-1.446,1.553*7B
$GPGRS,154532.00,1,0.3,-1.4,0.2,-1.2,0.5,-0.3,0.6,0.2,0.1,0.5,,*66
$GPGRS,154532.00,1,-1.1,-0.6,1.4,-2.1,1.9,1.2,-0.7,,,,,*68
$GPGRS,154532.00,1,-0.4,0.4,1.0,0.4,-1.3,0.5,-0.0,-0.3,,,,*4B
$GPGRS,154532.00,1,0.9,0.4,1.6,1.4,0.8,0.0,0.0,-0.5,-0.7,-0.4,-0.6,-0.4*64
$GPGRS,154532.00,1,-0.9,0.2,,,,,,,,,,*6C
$GPGSV,5,1,20,29,85,306,51,11,21,043,41,05,14,102,40,18,26,186,44*7C
$GPGSV,5,2,20,20,20,067,41,26,22,299,41,12,21,111,41,31,40,298,46*78
$GPGSV,5,3,20,28,53,261,47,25,61,114,49,04,03,342,37,36,35,170,45*7C
$GPGSV,5,4,20,58,13,245,37,40,23,133,37,34,31,208,43,49,34,195,45*7C
$GPGSV,5,5,20,57,05,113,39,41,07,108,35,61,03,257,39*46
$GLGSV,2,1,08,79,75,328,52,82,17,210,46,80,20,319,46,88,53,042,51*66
$GLGSV,2,2,08,78,47,134,52,81,65,201,52,71,09,355,42,70,04,311,34*63
$GAGSV,3,1,10,27,75,312,48,13,11,191,38,29,11,254,39,19,15,298,34*6A
$GAGSV,3,2,10,21,22,295,41,34,46,063,46,15,52,152,47,30,48,107,46*6F
$GAGSV,3,3,10,04,01,350,35,36,05,031,36*6B
$GBGSV,5,1,19,34,82,124,51,28,27,209,,56,13,064,,24,23,146,44*6A
$GBGSV,5,2,19,05,20,130,38,44,31,054,45,38,26,062,43,13,27,087,42*6A
$GBGSV,5,3,19,43,40,221,48,23,42,303,48,08,28,078,41,31,41,076,*6E
$GBGSV,5,4,19,11,63,206,49,12,56,058,47,25,72,195,52,10,08,080,36*6C
$GBGSV,5,5,19,02,05,107,34,19,02,335,,60,10,109,41*50
$GPGGA,154532.00,,,,,0,00,,,M,,M,,*4C
$PTNL,GGK,154532.00,010125,4742.1605212,N,01618.1010709,E,1,39,0.7,EHT751.4532,M*46
$GPGGQ,154532.00,010125,4742.1605212,N,01618.1010709,E,1,39,1.243,708.2466,M*31
$GPGFA,154532.00,6.063,8.019,0.638,0.426,14.072,0.978,,VVV*3F
$GPLLK,154532.00,010125,,M,,M,1,39,0.8,,M*0D
$GNGMP,154532.00,,,,,DAAA,39,0.4,,,,*5C
$GPGMP,154532.00,,,,,,10,,,,3.1,136*7E
$GLGMP,154532.00,,,,,,07,,,,,*7C
$GAGMP,154532.00,,,,,,08,,,,,*7E
$GBGMP,154532.00,,,,,,14,,,,,*70
$PSSN,SNC,[0,315950000,2347]*4F
$GPZDA,154537.00,01,01,2025,,*62
$GPDTM,W84,,00.0000000,N,00.0000000,E,00.0000000,W84*5F
$PSSN,TFM,154537.00,,,,*6E
$GPRMC,154537.00,A,4742.1605164,N,01618.1010750,E,0.0,,010125,5.1,E,D*14
$GPGLL,4742.1605164,N,01618.1010750,E,154537.00,A,D*65
$GPGGA,154537.00,4742.1605164,N,01618.1010750,E,2,39,0.4,708.2420,M,43.2066,M,2.3,0136*4D
$GNGNS,154537.00,4742.1605164,N,01618.1010750,E,DAAA,39,0.4,708.2420,43.2066,,*54
$GPGNS,154537.00,,,,,,10,,,,2.3,136*78
$GLGNS,154537.00,,,,,,07,,,,,*79
$GAGNS,154537.00,,,,,,08,,,,,*7B
$GBGNS,154537.00,,,,,,14,,,,,*75
$GPLLQ,154537.00,010125,,M,,M,1,39,1.246,,M*1B
$GPVTG,,T,,M,0.00,N,0.00,K,D*26
$GPHDT,,T*1B
$GPTHS,,V*0E
$GPROT,,V*08
$PSSN,HRP,154537.00,010125,,,,,,,00,0,,*60
$PTNL,AVR,154537.00,,Yaw,,Tilt,,,,0,,00*36
$GPGSA,A,3,05,11,12,18,20,25,26,28,29,31,,,0.7,0.4,0.6*3A
$GPGSA,A,3,71,78,79,80,81,82,88,,,,,,0.7,0.4,0.6*3B
$GPGSA,A,3,13,15,21,27,29,30,34,36,,,,,0.7,0.4,0.6*3D
$GPGSA,A,3,05,08,10,11,12,13,23,24,25,34,38,43,0.7,0.4,0.6*31
$GPGSA,A,3,44,60,,,,,,,,,,,0.7,0.4,0.6*31
$GPGST,154537.00,0.903,0.638,0.427,14.054,0.627,0.442,0.982*66
$GPGBS,154537.00,4.807,2.119,6.308,18,0.0001,-1.043,1.348*7E
$GPGRS,154537.00,1,0.3,-1.1,0.3,-1.0,0.6,-0.1,0.9,-0.1,0.1,0.7,,*47
$GPGRS,154537.00,1,0.1,-1.0,1.3,-1.3,1.6,0.7,-0.6,,,,,*4A
$GPGRS,154537.00,1,-0.1,0.5,0.8,0.3,-1.3,0.3,0.1,-0.2,,,,*6F
$GPGRS,154537.00,1,1.0,0.8,1.4,1.5,1.3,-0.2,0.1,-0.8,-0.8,-0.4,-0.7,-0.6*43
$GPGRS,154537.00,1,-1.1,0.0,,,,,,,,,,*62
$GPGSV,5,1,20,29,85,307,51,11,21,043,42,05,14,102,40,18,26,186,43*79
$GPGSV,5,2,20,20,20,067,41,26,22,299,41,12,21,111,41,31,40,298,47*79
$GPGSV,5,3,20,28,53,261,47,25,61,114,49,04,03,342,36,36,35,170,45*7D
$GPGSV,5,4,20,58,13,245,37,40,23,133,36,34,31,208,43,49,34,195,45*7D
$GPGSV,5,5,20,57,05,113,39,41,07,108,34,61,03,257,38*46
$GLGSV,2,1,08,79,75,328,52,82,17,210,46,80,20,319,47,88,53,042,51*67
$GLGSV,2,2,08,78,47,134,51,81,66,201,53,71,09,355,43,70,04,311,33*64
$GAGSV,3,1,10,27,75,312,48,13,11,191,38,29,11,254,39,19,15,298,34*6A
$GAGSV,3,2,10,21,22,295,40,34,46,063,46,15,52,152,48,30,48,107,46*61
$GAGSV,3,3,10,04,01,350,35,36,05,031,36*6B
$GBGSV,5,1,19,34,82,124,51,28,27,209,,56,13,064,,24,23,146,44*6A
$GBGSV,5,2,19,05,20,130,38,44,31,054,45,38,26,062,43,13,27,087,42*6A
$GBGSV,5,3,19,43,40,221,48,23,42,303,48,08,28,078,41,31,41,076,*6E
$GBGSV,5,4,19,11,63,206,49,12,56,058,47,25,72,195,52,10,08,080,36*6C
$GBGSV,5,5,19,02,05,107,34,19,02,335,,60,10,109,41*50
$GPGGA,154537.00,,,,,0,00,,,M,,M,,*49
$PTNL,GGK,154537.00,010125,4742.1605164,N,01618.1010750,E,1,39,0.7,EHT751.4486,M*43
$GPGGQ,154537.00,010125,4742.1605164,N,01618.1010750,E,1,39,1.246,708.2420,M*3D
$GPGFA,154537.00,6.065,8.051,0.638,0.427,14.054,0.982,,VVV*30
$GPLLK,154537.00,010125,,M,,M,1,39,0.8,,M*08
$GNGMP,154537.00,,,,,DAAA,39,0.4,,,,*59
$GPGMP,154537.00,,,,,,10,,,,2.3,136*78
$GLGMP,154537.00,,,,,,07,,,,,*79
$GAGMP,154537.00,,,,,,08,,,,,*7B
$GBGMP,154537.00,,,,,,14,,,,,*75
$PSSN,SNC,[0,315955000,2347]*4A
$GPZDA,154542.00,01,01,2025,,*60
$GPDTM,W84,,00.0000000,N,00.0000000,E,00.0000000,W84*5F
$PSSN,TFM,154542.00,,,,*6C
$GPRMC,154542.00,A,4742.1605151,N,01618.1010754,E,0.0,,010125,5.1,E,D*14
$GPGLL,4742.1605151,N,01618.1010754,E,154542.00,A,D*65
$GPGGA,154542.00,4742.1605151,N,01618.1010754,E,2,39,0.4,708.2435,M,43.2065,M,2.4,0136*4D
$GNGNS,154542.00,4742.1605151,N,01618.1010754,E,DAAA,39,0.4,708.2435,43.2065,,*53
$GPGNS,154542.00,,,,,,10,,,,2.4,136*7D
$GLGNS,154542.00,,,,,,07,,,,,*7B
$GAGNS,154542.00,,,,,,08,,,,,*79
$GBGNS,154542.00,,,,,,14,,,,,*77
$GPLLQ,154542.00,010125,,M,,M,1,39,1.223,,M*1A
$GPVTG,,T,,M,0.00,N,0.00,K,D*26
$GPHDT,,T*1B
$GPTHS,,V*0E
$GPROT,,V*08
$PSSN,HRP,154542.00,010125,,,,,,,00,0,,*62
$PTNL,AVR,154542.00,,Yaw,,Tilt,,,,0,,00*34
$GPGSA,A,3,05,11,12,18,20,25,26,28,29,31,,,0.7,0.4,0.6*3A
$GPGSA,A,3,71,78,79,80,81,82,88,,,,,,0.7,0.4,0.6*3B
$GPGSA,A,3,13,15,21,27,29,30,34,36,,,,,0.7,0.4,0.6*3D
$GPGSA,A,3,05,08,10,11,12,13,23,24,25,34,38,43,0.7,0.4,0.6*31
$GPGSA,A,3,44,60,,,,,,,,,,,0.7,0.4,0.6*31
$GPGST,154542.00,0.914,0.611,0.426,13.922,0.602,0.439,0.971*60
$GPGBS,154542.00,4.710,2.066,6.269,18,0.0001,-1.111,1.241*74
$GPGRS,154542.00,1,-0.1,-1.0,0.7,-1.1,0.7,-0.1,0.6,-0.3,0.1,0.5,,*60
$GPGRS,154542.00,1,-0.4,-0.9,1.5,-1.3,2.1,0.1,-1.0,,,,,*6B
$GPGRS,154542.00,1,-0.4,0.4,1.0,0.2,-1.1,0.1,-0.0,-0.4,,,,*4B
$GPGRS,154542.00,1,0.9,1.2,0.7,1.8,0.7,-0.1,-0.4,-0.4,-0.8,-0.5,-0.8,-0.4*63
$GPGRS,154542.00,1,-1.0,-0.3,,,,,,,,,,*4F
$GPGSV,5,1,20,29,85,307,51,11,21,043,42,05,14,102,40,18,26,186,42*78
$GPGSV,5,2,20,20,20,067,41,26,22,299,41,12,21,111,42,31,40,298,47*7A
$GPGSV,5,3,20,28,53,261,48,25,61,114,49,04,03,342,36,36,35,170,45*72
$GPGSV,5,4,20,58,13,245,37,40,23,133,36,34,31,208,43,49,34,195,45*7D
$GPGSV,5,5,20,57,05,113,39,41,07,108,34,61,03,257,38*46
$GLGSV,2,1,08,79,75,328,52,82,17,210,45,80,20,319,46,88,53,042,51*65
$GLGSV,2,2,08,78,47,134,52,81,66,201,52,71,09,355,44,70,04,311,32*60
$GAGSV,3,1,10,27,75,312,48,13,11,191,38,29,11,254,38,19,15,298,34*6B
$GAGSV,3,2,10,21,22,295,41,34,46,063,46,15,52,152,48,30,48,107,46*60
$GAGSV,3,3,10,04,01,350,34,36,05,031,36*6A
$GBGSV,5,1,19,34,82,124,51,28,27,209,,56,13,064,,24,23,146,44*6A
$GBGSV,5,2,19,05,20,130,38,44,30,054,46,38,26,062,43,13,27,087,42*68
$GBGSV,5,3,19,43,40,221,47,23,42,303,48,08,28,078,41,31,41,076,*61
$GBGSV,5,4,19,11,63,206,49,12,56,058,47,25,72,195,52,10,08,080,35*6F
$GBGSV,5,5,19,02,05,107,34,19,02,335,,60,10,109,41*50
$GPGGA,154542.00,,,,,0,00,,,M,,M,,*4B
$PTNL,GGK,154542.00,010125,4742.1605151,N,01618.1010754,E,1,39,0.7,EHT751.4501,M*4D
$GPGGQ,154542.00,010125,4742.1605151,N,01618.1010754,E,1,39,1.223,708.2435,M*3A
$GPGFA,154542.00,5.808,7.959,0.611,0.426,13.922,0.971,,VVV*35
$GPLLK,154542.00,010125,,M,,M,1,39,0.8,,M*0A
$GNGMP,154542.00,,,,,DAAA,39,0.4,,,,*5B
$GPGMP,154542.00,,,,,,10,,,,2.4,136*7D
$GLGMP,154542.00,,,,,,07,,,,,*7B
$GAGMP,154542.00,,,,,,08,,,,,*79
$GBGMP,154542.00,,,,,,14,,,,,*77
$PSSN,SNC,[0,315960000,2347]*4C
$GPZDA,154547.00,01,01,2025,,*65
$GPDTM,W84,,00.0000000,N,00.0000000,E,00.0000000,W84*5F
$PSSN,TFM,154547.00,,,,*69
$GPRMC,154547.00,A,4742.1605129,N,01618.1010763,E,0.0,,010125,5.1,E,D*1A
$GPGLL,4742.1605129,N,01618.1010763,E,154547.00,A,D*6B
$GPGGA,154547.00,4742.1605129,N,01618.1010763,E,2,39,0.4,708.2423,M,43.2065,M,2.1,0136*41
$GNGNS,154547.00,4742.1605129,N,01618.1010763,E,DAAA,39,0.4,708.2423,43.2065,,*5A
$GPGNS,154547.00,,,,,,10,,,,2.1,136*7D
$GLGNS,154547.00,,,,,,07,,,,,*7E
$GAGNS,154547.00,,,,,,08,,,,,*7C
$GBGNS,154547.00,,,,,,14,,,,,*72
$GPLLQ,154547.00,010125,,M,,M,1,39,1.224,,M*18
$GPVTG,,T,,M,0.00,N,0.00,K,D*26
$GPHDT,,T*1B
$GPTHS,,V*0E
$GPROT,,V*08
$PSSN,HRP,154547.00,010125,,,,,,,00,0,,*67
$PTNL,AVR,154547.00,,Yaw,,Tilt,,,,0,,00*31
$GPGSA,A,3,05,11,12,18,20,25,26,28,29,31,,,0.7,0.4,0.6*3A
$GPGSA,A,3,71,78,79,80,81,82,88,,,,,,0.7,0.4,0.6*3B
$GPGSA,A,3,13,15,21,27,29,30,34,36,,,,,0.7,0.4,0.6*3D
$GPGSA,A,3,05,08,10,11,12,13,23,24,25,34,38,43,0.7,0.4,0.6*31
$GPGSA,A,3,44,60,,,,,,,,,,,0.7,0.4,0.6*31
$GPGST,154547.00,0.889,0.612,0.426,13.993,0.603,0.439,0.971*68
$GPGBS,154547.00,4.706,2.083,6.358,11,0.0001,-1.135,1.549*7E
$GPGRS,154547.00,1,-0.4,-1.1,0.7,-0.6,0.3,-0.3,0.7,-0.1,-0.0,0.6,,*4D
$GPGRS,154547.00,1,0.1,-0.3,1.4,-2.1,1.6,0.6,-1.1,,,,,*4E
$GPGRS,154547.00,1,-0.6,0.3,0.7,0.1,-0.7,0.2,-0.1,-1.1,,,,*4F
$GPGRS,154547.00,1,0.9,1.2,0.9,1.3,0.9,0.1,-0.5,-0.1,-0.9,-0.4,-0.8,-0.5*45
$GPGRS,154547.00,1,-0.9,-0.0,,,,,,,,,,*41
$GPGSV,5,1,20,29,85,308,51,11,21,043,41,05,14,102,39,18,26,186,43*7B
$GPGSV,5,2,20,20,20,067,40,26,22,299,41,12,21,111,43,31,40,298,47*7A
$GPGSV,5,3,20,28,53,261,48,25,61,114,49,04,03,342,38,36,35,170,45*7C
$GPGSV,5,4,20,58,13,245,36,40,23,133,36,34,31,208,43,49,34,195,44*7D
$GPGSV,5,5,20,57,05,113,39,41,07,108,34,61,03,257,38*46
$GLGSV,2,1,08,79,75,328,52,82,17,210,46,80,20,319,47,88,53,042,51*67
$GLGSV,2,2,08,78,47,134,52,81,66,201,52,71,09,355,43,70,04,311,32*67
$GAGSV,3,1,10,27,75,312,48,13,11,191,38,29,11,254,38,19,15,298,34*6B
$GAGSV,3,2,10,21,22,295,41,34,46,063,46,15,52,152,47,30,48,107,46*6F
$GAGSV,3,3,10,04,01,350,34,36,05,031,35*69
$GBGSV,5,1,19,34,82,123,51,28,27,209,,56,13,064,,24,23,146,44*6D
$GBGSV,5,2,19,05,20,130,38,44,30,054,46,38,26,062,43,13,27,087,42*68
$GBGSV,5,3,19,43,40,221,48,23,42,303,48,08,28,078,41,31,41,076,*6E
$GBGSV,5,4,19,11,63,206,49,12,56,058,47,25,72,195,52,10,08,080,36*6C
$GBGSV,5,5,19,02,05,107,34,19,02,335,,60,10,109,41*50
$GPGGA,154547.00,,,,,0,00,,,M,,M,,*4E
$PTNL,GGK,154547.00,010125,4742.1605129,N,01618.1010763,E,1,39,0.7,EHT751.4488,M*43
$GPGGQ,154547.00,010125,4742.1605129,N,01618.1010763,E,1,39,1.224,708.2423,M*34
$GPGFA,154547.00,5.818,7.961,0.612,0.426,13.993,0.971,,VVV*33
$GPLLK,154547.00,010125,,M,,M,1,39,0.8,,M*0F
$GNGMP,154547.00,,,,,DAAA,39,0.4,,,,*5E
$GPGMP,154547.00,,,,,,10,,,,2.1,136*7D
$GLGMP,154547.00,,,,,,07,,,,,*7E
$GAGMP,154547.00,,,,,,08,,,,,*7C
$GBGMP,154547.00,,,,,,14,,,,,*72
$PSSN,SNC,[0,315965000,2347]*49
$GPZDA,154552.00,01,01,2025,,*61
$GPDTM,W84,,00.0000000,N,00.0000000,E,00.0000000,W84*5F
$PSSN,TFM,154552.00,,,,*6D
$GPRMC,154552.00,A,4742.1605132,N,01618.1010764,E,0.0,,010125,5.1,E,D*13
$GPGLL,4742.1605132,N,01618.1010764,E,154552.00,A,D*62
$GPGGA,154552.00,4742.1605132,N,01618.1010764,E,2,38,0.4,708.2455,M,43.2066,M,3.1,0136*4A
$GNGNS,154552.00,4742.1605132,N,01618.1010764,E,DAAA,38,0.4,708.2455,43.2066,,*50
$GPGNS,154552.00,,,,,,10,,,,3.1,136*78
$GLGNS,154552.00,,,,,,07,,,,,*7A
$GAGNS,154552.00,,,,,,07,,,,,*77
$GBGNS,154552.00,,,,,,14,,,,,*76
$GPLLQ,154552.00,010125,,M,,M,1,38,1.229,,M*10
$GPVTG,,T,,M,0.00,N,0.01,K,D*27
$GPHDT,,T*1B
$GPTHS,,V*0E
$GPROT,,V*08
$PSSN,HRP,154552.00,010125,,,,,,,00,0,,*63
$PTNL,AVR,154552.00,,Yaw,,Tilt,,,,0,,00*35
$GPGSA,A,3,05,11,12,18,20,25,26,28,29,31,,,0.7,0.4,0.6*3A
$GPGSA,A,3,71,78,79,80,81,82,88,,,,,,0.7,0.4,0.6*3B
$GPGSA,A,3,13,15,21,27,29,30,34,,,,,,0.7,0.4,0.6*38
$GPGSA,A,3,05,08,10,11,12,13,23,24,25,34,38,43,0.7,0.4,0.6*31
$GPGSA,A,3,44,60,,,,,,,,,,,0.7,0.4,0.6*31
$GPGST,154552.00,0.832,0.619,0.426,13.904,0.609,0.439,0.973*61
$GPGBS,154552.00,4.781,2.097,6.461,11,0.0001,-1.571,1.557*76
$GPGRS,154552.00,1,-0.1,-1.6,0.5,-0.3,0.3,-0.0,0.7,-0.3,0.1,0.4,,*63
$GPGRS,154552.00,1,-0.9,-0.7,1.3,-1.2,1.5,0.3,-0.9,,,,,*63
$GPGRS,154552.00,1,-0.4,0.2,0.1,0.0,-1.1,0.2,-0.1,,,,,*4B
$GPGRS,154552.00,1,0.6,0.8,0.8,0.5,1.5,-0.2,-0.7,-0.4,-1.0,-0.5,-1.2,-0.6*66
$GPGRS,154552.00,1,-1.0,-0.3,,,,,,,,,,*4E
$GPGSV,5,1,20,29,85,308,51,11,21,043,41,05,14,102,39,18,27,186,44*7D
$GPGSV,5,2,20,20,20,067,41,26,22,299,41,12,21,111,42,31,40,298,47*7A
$GPGSV,5,3,20,28,53,261,47,25,61,114,49,04,03,342,36,36,35,170,45*7D
$GPGSV,5,4,20,58,13,245,36,40,23,133,36,34,31,208,43,49,34,195,44*7D
$GPGSV,5,5,20,57,05,113,39,41,07,108,34,61,03,257,38*46
$GLGSV,2,1,08,79,75,328,52,82,17,210,46,80,20,319,47,88,53,042,51*67
$GLGSV,2,2,08,78,47,134,52,81,66,201,52,71,09,355,42,70,04,311,33*67
$GAGSV,3,1,10,27,75,312,48,13,11,191,37,29,11,254,38,19,15,298,34*64
$GAGSV,3,2,10,21,22,295,41,34,46,063,46,15,52,152,47,30,48,107,46*6F
$GAGSV,3,3,10,04,01,350,35,36,05,031,35*68
$GBGSV,5,1,19,34,82,123,51,28,27,209,,56,13,064,,24,23,146,44*6D
$GBGSV,5,2,19,05,21,130,38,44,30,054,45,38,26,062,43,13,27,087,42*6A
$GBGSV,5,3,19,43,40,221,47,23,42,303,48,08,28,078,41,31,41,076,*61
$GBGSV,5,4,19,11,63,206,49,12,56,058,47,25,72,195,52,10,08,080,36*6C
$GBGSV,5,5,19,02,05,107,34,19,02,335,,60,10,109,41*50
$GPGGA,154552.00,,,,,0,00,,,M,,M,,*4A
$PTNL,GGK,154552.00,010125,4742.1605132,N,01618.1010764,E,1,38,0.7,EHT751.4520,M*48
$GPGGQ,154552.00,010125,4742.1605132,N,01618.1010764,E,1,38,1.229,708.2455,M*30
$GPGFA,154552.00,5.884,7.978,0.619,0.426,13.904,0.973,,VVV*3D
$GPLLK,154552.00,010125,,M,,M,1,38,0.8,,M*0A
$GNGMP,154552.00,,,,,DAAA,38,0.4,,,,*5B
$GPGMP,154552.00,,,,,,10,,,,3.1,136*78
$GLGMP,154552.00,,,,,,07,,,,,*7A
$GAGMP,154552.00,,,,,,07,,,,,*77
$GBGMP,154552.00,,,,,,14,,,,,*76
$PSSN,SNC,[0,315970000,2347]*4D
$GPZDA,154557.00,01,01,2025,,*64
$GPDTM,W84,,00.0000000,N,00.0000000,E,00.0000000,W84*5F
$PSSN,TFM,154557.00,,,,*68
$GPRMC,154557.00,A,4742.1605132,N,01618.1010788,E,0.0,,010125,5.1,E,D*14
$GPGLL,4742.1605132,N,01618.1010788,E,154557.00,A,D*65
$GPGGA,154557.00,4742.1605132,N,01618.1010788,E,2,38,0.4,708.2418,M,43.2066,M,2.3,0136*47
$GNGNS,154557.00,4742.1605132,N,01618.1010788,E,DAAA,38,0.4,708.2418,43.2066,,*5E
$GPGNS,154557.00,,,,,,10,,,,2.3,136*7E
$GLGNS,154557.00,,,,,,07,,,,,*7F
$GAGNS,154557.00,,,,,,07,,,,,*72
$GBGNS,154557.00,,,,,,14,,,,,*73
$GPLLQ,154557.00,010125,,M,,M,1,38,1.232,,M*1F
$GPVTG,,T,,M,0.01,N,0.01,K,D*26
$GPHDT,,T*1B
$GPTHS,,V*0E
$GPROT,,V*08
$PSSN,HRP,154557.00,010125,,,,,,,00,0,,*66
$PTNL,AVR,154557.00,,Yaw,,Tilt,,,,0,,00*30
$GPGSA,A,3,05,11,12,18,20,25,26,28,29,31,,,0.7,0.4,0.6*3A
$GPGSA,A,3,71,78,79,80,81,82,88,,,,,,0.7,0.4,0.6*3B
$GPGSA,A,3,13,15,21,27,29,30,34,,,,,,0.7,0.4,0.6*38
$GPGSA,A,3,05,08,10,11,12,13,23,24,25,34,38,43,0.7,0.4,0.6*31
$GPGSA,A,3,44,60,,,,,,,,,,,0.7,0.4,0.6*31
$GPGST,154557.00,0.972,0.618,0.427,13.885,0.609,0.441,0.976*63
$GPGBS,154557.00,4.774,2.083,6.292,11,0.0001,-1.248,1.566*79
$GPGRS,154557.00,1,0.4,-1.2,0.2,-0.4,1.1,-0.1,0.8,-0.4,0.1,0.4,,*40
$GPGRS,154557.00,1,-1.9,-0.9,1.4,-2.0,1.9,0.7,-0.6,,,,,*68
$GPGRS,154557.00,1,-0.3,0.5,0.9,0.3,-1.0,-0.1,0.3,,,,,*45
$GPGRS,154557.00,1,0.7,0.6,1.2,0.9,1.3,-0.2,-0.2,-0.3,-0.6,-0.2,-1.1,-0.2*68
$GPGRS,154557.00,1,-1.1,-0.1,,,,,,,,,,*48
$GPGSV,5,1,20,29,85,309,51,11,21,043,42,05,14,102,39,18,27,186,44*7F
$GPGSV,5,2,20,20,20,067,41,26,23,299,41,12,21,111,43,31,40,298,47*7A
$GPGSV,5,3,20,28,53,261,47,25,61,114,49,04,03,342,36,36,35,170,45*7D
$GPGSV,5,4,20,58,13,245,36,40,23,133,37,34,31,208,43,49,34,195,45*7D
$GPGSV,5,5,20,57,05,113,39,41,07,108,34,61,03,257,38*46
$GLGSV,2,1,08,79,75,328,52,82,17,210,46,80,20,319,46,88,53,042,51*66
$GLGSV,2,2,08,78,47,134,52,81,66,201,52,71,09,355,42,70,04,311,32*66
$GAGSV,3,1,10,27,75,312,48,13,11,191,37,29,11,254,38,19,15,298,35*65
$GAGSV,3,2,10,21,22,295,41,34,46,063,46,15,52,152,47,30,48,107,46*6F
$GAGSV,3,3,10,04,01,350,35,36,05,031,35*68
$GBGSV,5,1,19,34,82,123,51,28,27,209,,56,13,064,,24,23,146,44*6D
$GBGSV,5,2,19,05,21,130,38,44,30,054,45,38,26,062,43,13,27,087,42*6A
$GBGSV,5,3,19,43,40,221,47,23,42,303,48,08,28,078,41,31,41,076,*61
$GBGSV,5,4,19,11,63,206,49,12,56,058,47,25,72,195,52,10,08,080,37*6D
$GBGSV,5,5,19,02,05,107,34,19,02,335,,60,10,109,41*50
$GPGGA,154557.00,,,,,0,00,,,M,,M,,*4F
$PTNL,GGK,154557.00,010125,4742.1605132,N,01618.1010788,E,1,38,0.7,EHT751.4484,M*40
$GPGGQ,154557.00,010125,4742.1605132,N,01618.1010788,E,1,38,1.232,708.2418,M*34
$GPGFA,154557.00,5.879,8.003,0.618,0.427,13.885,0.976,,VVV*3D
$GPLLK,154557.00,010125,,M,,M,1,38,0.8,,M*0F
$GNGMP,154557.00,,,,,DAAA,38,0.4,,,,*5E
$GPGMP,154557.00,,,,,,10,,,,2.3,136*7E
$GLGMP,154557.00,,,,,,07,,,,,*7F
$GAGMP,154557.00,,,,,,07,,,,,*72
$GBGMP,154557.00,,,,,,14,,,,,*73
$PSSN,SNC,[0,315975000,2347]*48
$GPZDA,154602.00,01,01,2025,,*67
$GPDTM,W84,,00.0000000,N,00.0000000,E,00.0000000,W84*5F
$PSSN,TFM,154602.00,,,,*6B
$GPRMC,154602.00,A,4742.1605111,N,01618.1010785,E,0.0,,010125,5.1,E,D*1B
$GPGLL,4742.1605111,N,01618.1010785,E,154602.00,A,D*6A
$GPGGA,154602.00,4742.1605111,N,01618.1010785,E,2,38,0.4,708.2421,M,43.2065,M,2.4,0136*46
$GNGNS,154602.00,4742.1605111,N,01618.1010785,E,DAAA,38,0.4,708.2421,43.2065,,*58
$GPGNS,154602.00,,,,,,10,,,,2.4,136*7A
$GLGNS,154602.00,,,,,,07,,,,,*7C
$GAGNS,154602.00,,,,,,07,,,,,*71
$GBGNS,154602.00,,,,,,14,,,,,*70
$GPLLQ,154602.00,010125,,M,,M,1,38,1.228,,M*17
$GPVTG,,T,,M,0.00,N,0.00,K,D*26
$GPHDT,,T*1B
$GPTHS,,V*0E
$GPROT,,V*08
$PSSN,HRP,154602.00,010125,,,,,,,00,0,,*65
$PTNL,AVR,154602.00,,Yaw,,Tilt,,,,0,,00*33
$GPGSA,A,3,05,11,12,18,20,25,26,28,29,31,,,0.7,0.4,0.6*3A
$GPGSA,A,3,71,78,79,80,81,82,88,,,,,,0.7,0.4,0.6*3B
$GPGSA,A,3,13,15,21,27,29,30,34,,,,,,0.7,0.4,0.6*38
$GPGSA,A,3,05,08,10,11,12,13,23,24,25,34,38,43,0.7,0.4,0.6*31
$GPGSA,A,3,44,60,,,,,,,,,,,0.7,0.4,0.6*31
$GPGST,154602.00,0.947,0.615,0.426,13.961,0.605,0.439,0.974*60
$GPGBS,154602.00,4.749,2.075,6.326,18,0.0001,-0.971,1.238*76
$GPGRS,154602.00,1,0.0,-1.0,0.6,-1.0,0.8,-0.1,0.5,-0.3,0.2,0.4,,*45
$GPGRS,154602.00,1,-1.0,-0.9,1.2,-2.2,1.8,0.5,-1.0,,,,,*62
$GPGRS,154602.00,1,-0.3,0.5,0.6,0.2,-0.7,0.2,0.2,,,,,*61
$GPGRS,154602.00,1,0.7,0.8,1.7,1.4,0.8,-0.6,-0.2,-0.5,-0.6,-0.4,-1.3,0.1*4E
$GPGRS,154602.00,1,-0.9,0.1,,,,,,,,,,*6F
$GPGSV,5,1,20,29,85,309,51,11,21,043,43,05,14,102,39,18,27,186,44*7E
$GPGSV,5,2,20,20,20,067,41,26,23,299,42,12,21,111,43,31,40,298,47*79
$GPGSV,5,3,20,28,53,261,47,25,61,114,49,04,03,342,37,36,35,170,45*7C
$GPGSV,5,4,20,58,13,245,36,40,23,133,36,34,31,208,43,49,34,195,45*7C
$GPGSV,5,5,20,57,05,113,39,41,07,108,34,61,03,257,38*46
$GLGSV,2,1,08,79,75,328,52,82,17,210,45,80,20,319,46,88,53,042,50*64
$GLGSV,2,2,08,78,47,134,52,81,66,201,53,71,09,355,43,70,04,311,31*65
$GAGSV,3,1,10,27,75,312,48,13,11,191,37,29,11,254,39,19,15,298,34*65
$GAGSV,3,2,10,21,22,295,41,34,46,063,46,15,52,151,47,30,48,107,46*6C
$GAGSV,3,3,10,04,01,349,35,36,05,031,35*60
$GBGSV,5,1,19,34,82,122,51,28,27,209,,56,13,064,,24,23,146,43*6B
$GBGSV,5,2,19,05,21,130,38,44,30,054,45,38,26,062,43,13,27,087,42*6A
$GBGSV,5,3,19,43,41,221,48,23,42,303,48,08,28,078,41,31,41,076,*6F
$GBGSV,5,4,19,11,63,206,49,12,56,058,47,25,72,195,52,10,08,080,37*6D
$GBGSV,5,5,19,02,05,107,34,19,02,335,,60,10,109,41*50
$GPGGA,154602.00,,,,,0,00,,,M,,M,,*4C
$PTNL,GGK,154602.00,010125,4742.1605111,N,01618.1010785,E,1,38,0.7,EHT751.4486,M*4D
$GPGGQ,154602.00,010125,4742.1605111,N,01618.1010785,E,1,38,1.228,708.2421,M*3A
$GPGFA,154602.00,5.844,7.990,0.615,0.426,13.961,0.974,,VVV*39
$GPLLK,154602.00,010125,,M,,M,1,38,0.8,,M*0C
$GNGMP,154602.00,,,,,DAAA,38,0.4,,,,*5D
$GPGMP,154602.00,,,,,,10,,,,2.4,136*7A
$GLGMP,154602.00,,,,,,07,,,,,*7C
$GAGMP,154602.00,,,,,,07,,,,,*71
$GBGMP,154602.00,,,,,,14,,,,,*70
$PSSN,SNC,[0,315980000,2347]*42
$GPZDA,154607.00,01,01,2025,,*62
$GPDTM,W84,,00.0000000,N,00.0000000,E,00.0000000,W84*5F
$PSSN,TFM,154607.00,,,,*6E
$GPRMC,154607.00,A,4742.1605085,N,01618.1010771,E,0.0,,010125,5.1,E,D*19
$GPGLL,4742.1605085,N,01618.1010771,E,154607.00,A,D*68
$GPGGA,154607.00,4742.1605085,N,01618.1010771,E,2,38,0.4,708.2427,M,43.2065,M,2.1,0136*47
$GNGNS,154607.00,4742.1605085,N,01618.1010771,E,DAAA,38,0.4,708.2427,43.2065,,*5C
$GPGNS,154607.00,,,,,,10,,,,2.1,136*7A
$GLGNS,154607.00,,,,,,07,,,,,*79
$GAGNS,154607.00,,,,,,07,,,,,*74
$GBGNS,154607.00,,,,,,14,,,,,*75
$GPLLQ,154607.00,010125,,M,,M,1,38,1.229,,M*13
$GPVTG,,T,,M,0.01,N,0.01,K,D*26
$GPHDT,,T*1B
$GPTHS,,V*0E
$GPROT,,V*08
$PSSN,HRP,154607.00,010125,,,,,,,00,0,,*60
$PTNL,AVR,154607.00,,Yaw,,Tilt,,,,0,,00*36
$GPGSA,A,3,05,11,12,18,20,25,26,28,29,31,,,0.7,0.4,0.6*3A
$GPGSA,A,3,71,78,79,80,81,82,88,,,,,,0.7,0.4,0.6*3B
$GPGSA,A,3,13,15,21,27,29,30,34,,,,,,0.7,0.4,0.6*38
$GPGSA,A,3,05,08,10,11,12,13,23,24,25,34,38,43,0.7,0.4,0.6*31
$GPGSA,A,3,44,60,,,,,,,,,,,0.7,0.4,0.6*31
$GPGST,154607.00,0.970,0.616,0.426,14.012,0.606,0.439,0.975*6A
$GPGBS,154607.00,4.745,2.092,6.414,11,0.0001,-1.540,1.552*7D
$GPGRS,154607.00,1,0.1,-1.5,0.4,-0.9,0.4,-0.0,1.1,-0.3,0.2,0.1,,*43
$GPGRS,154607.00,1,0.8,-0.4,1.4,-1.0,2.1,-0.3,-0.9,,,,,*60
$GPGRS,154607.00,1,-0.2,0.4,0.6,0.3,-0.9,0.6,-0.1,,,,,*41
$GPGRS,154607.00,1,0.9,0.6,2.2,1.3,0.9,0.0,-0.4,-0.7,-0.7,-0.4,-1.5,0.1*63
$GPGRS,154607.00,1,-1.1,-0.1,,,,,,,,,,*4E
$GPGSV,5,1,20,29,85,310,51,11,21,043,42,05,14,102,40,18,27,186,45*78
$GPGSV,5,2,20,20,20,067,41,26,23,299,41,12,21,111,43,31,40,298,47*7A
$GPGSV,5,3,20,28,53,261,47,25,61,114,49,04,03,342,37,36,35,170,45*7C
$GPGSV,5,4,20,58,13,245,36,40,23,133,37,34,31,208,43,49,34,195,45*7D
$GPGSV,5,5,20,57,05,113,39,41,07,108,34,61,03,257,39*47
$GLGSV,3,1,09,79,75,328,52,82,17,210,44,80,20,319,47,88,53,042,51*65
$GLGSV,3,2,09,78,46,134,52,81,66,201,53,72,00,038,,71,09,355,43*68
$GLGSV,3,3,09,70,04,311,33*5C
$GAGSV,3,1,10,27,75,312,48,13,11,191,38,29,11,254,38,19,15,298,35*6A
$GAGSV,3,2,10,21,22,295,41,34,46,063,46,15,52,151,47,30,48,107,46*6C
$GAGSV,3,3,10,04,01,349,35,36,05,030,35*61
$GBGSV,5,1,19,34,82,122,51,28,27,209,,56,13,064,,24,23,146,43*6B
$GBGSV,5,2,19,05,21,130,38,44,30,054,45,38,26,062,43,13,27,087,42*6A
$GBGSV,5,3,19,43,41,221,48,23,42,303,47,08,28,078,40,31,41,076,*61
$GBGSV,5,4,19,11,63,207,49,12,56,058,47,25,72,195,52,10,08,080,37*6C
$GBGSV,5,5,19,02,05,107,34,19,02,335,,60,10,109,41*50
$GPGGA,154607.00,,,,,0,00,,,M,,M,,*49
$PTNL,GGK,154607.00,010125,4742.1605085,N,01618.1010771,E,1,38,0.7,EHT751.4492,M*4A
$GPGGQ,154607.00,010125,4742.1605085,N,01618.1010771,E,1,38,1.229,708.2427,M*3F
$GPGFA,154607.00,5.854,7.993,0.616,0.426,14.012,0.975,,VVV*36
$GPLLK,154607.00,010125,,M,,M,1,38,0.8,,M*09
$GNGMP,154607.00,,,,,DAAA,38,0.4,,,,*58
$GPGMP,154607.00,,,,,,10,,,,2.1,136*7A
$GLGMP,154607.00,,,,,,07,,,,,*79
$GAGMP,154607.00,,,,,,07,,,,,*74
$GBGMP,154607.00,,,,,,14,,,,,*75
$PSSN,SNC,[0,315985000,2347]*47
$GPZDA,154612.00,01,01,2025,,*66
$GPDTM,W84,,00.0000000,N,00.0000000,E,00.0000000,W84*5F
$PSSN,TFM,154612.00,,,,*6A
$GPRMC,154612.00,A,4742.1605065,N,01618.1010788,E,0.0,,010125,5.1,E,D*15
$GPGLL,4742.1605065,N,01618.1010788,E,154612.00,A,D*64
$GPGGA,154612.00,4742.1605065,N,01618.1010788,E,2,38,0.4,708.2367,M,43.2065,M,3.1,0136*49
$GNGNS,154612.00,4742.1605065,N,01618.1010788,E,DAAA,38,0.4,708.2367,43.2065,,*53
$GPGNS,154612.00,,,,,,10,,,,3.1,136*7F
$GLGNS,154612.00,,,,,,07,,,,,*7D
$GAGNS,154612.00,,,,,,07,,,,,*70
$GBGNS,154612.00,,,,,,14,,,,,*71
$GPLLQ,154612.00,010125,,M,,M,1,38,1.229,,M*17
$GPVTG,,T,,M,0.01,N,0.01,K,D*26
$GPHDT,,T*1B
$GPTHS,,V*0E
$GPROT,,V*08
$PSSN,HRP,154612.00,010125,,,,,,,00,0,,*64
$PTNL,AVR,154612.00,,Yaw,,Tilt,,,,0,,00*32
$GPGSA,A,3,05,11,12,18,20,25,26,28,29,31,,,0.7,0.4,0.6*3A
$GPGSA,A,3,71,78,79,80,81,82,88,,,,,,0.7,0.4,0.6*3B
$GPGSA,A,3,13,15,21,27,29,30,34,,,,,,0.7,0.4,0.6*38
$GPGSA,A,3,05,08,10,11,12,13,23,24,25,34,38,43,0.7,0.4,0.6*31
$GPGSA,A,3,44,60,,,,,,,,,,,0.7,0.4,0.6*31
$GPGST,154612.00,0.980,0.618,0.426,13.925,0.608,0.439,0.973*6D
$GPGBS,154612.00,4.769,2.098,6.486,11,0.0001,-1.870,1.560*79
$GPGRS,154612.00,1,0.2,-1.9,0.5,-0.8,0.3,0.0,1.0,-0.2,-0.1,0.4,,*49
$GPGRS,154612.00,1,0.2,-0.8,1.2,-1.2,2.0,-0.3,-0.8,,,,,*66
$GPGRS,154612.00,1,-0.3,0.5,1.1,0.2,-0.9,0.6,-0.1,,,,,*42
$GPGRS,154612.00,1,1.0,-0.3,2.2,1.2,1.0,0.3,-0.1,-0.6,-0.8,-0.3,-1.4,-0.4*68
$GPGRS,154612.00,1,-1.1,0.1,,,,,,,,,,*67
$GPGSV,5,1,20,29,85,310,51,11,21,043,42,05,14,102,40,18,27,186,45*78
$GPGSV,5,2,20,20,20,067,41,26,23,299,41,12,21,111,43,31,40,298,46*7B
$GPGSV,5,3,20,28,53,261,47,25,61,114,49,04,03,342,37,36,35,170,45*7C
$GPGSV,5,4,20,58,13,245,36,40,23,133,37,34,31,208,43,49,34,195,45*7D
$GPGSV,5,5,20,57,05,113,39,41,07,108,35,61,03,257,39*46
$GLGSV,3,1,09,79,75,328,52,82,17,210,45,80,20,319,47,88,53,042,51*64
$GLGSV,3,2,09,78,46,134,51,81,66,201,53,72,00,038,,71,09,355,43*6B
$GLGSV,3,3,09,70,04,311,34*5B
$GAGSV,3,1,10,27,75,312,48,13,11,191,38,29,11,254,38,19,15,298,34*6B
$GAGSV,3,2,10,21,22,295,41,34,46,063,46,15,52,151,48,30,48,107,46*63
$GAGSV,3,3,10,04,01,349,35,36,05,030,35*61
$GBGSV,5,1,19,34,82,122,51,28,27,209,,56,13,064,,24,23,146,43*6B
$GBGSV,5,2,19,05,21,130,38,44,30,054,45,38,26,062,43,13,27,087,42*6A
$GBGSV,5,3,19,43,41,221,48,23,42,303,47,08,28,078,40,31,41,076,*61
$GBGSV,5,4,19,11,63,207,49,12,56,058,47,25,72,195,52,10,08,080,37*6C
$GBGSV,5,5,19,02,05,107,34,19,02,335,,60,10,109,41*50
$GPGGA,154612.00,,,,,0,00,,,M,,M,,*4D
$PTNL,GGK,154612.00,010125,4742.1605065,N,01618.1010788,E,1,38,0.7,EHT751.4433,M*4D
$GPGGQ,154612.00,010125,4742.1605065,N,01618.1010788,E,1,38,1.229,708.2367,M*30
$GPGFA,154612.00,5.872,7.979,0.618,0.426,13.925,0.973,,VVV*30
$GPLLK,154612.00,010125,,M,,M,1,38,0.8,,M*0D
$GNGMP,154612.00,,,,,DAAA,38,0.4,,,,*5C
$GPGMP,154612.00,,,,,,10,,,,3.1,136*7F
$GLGMP,154612.00,,,,,,07,,,,,*7D
$GAGMP,154612.00,,,,,,07,,,,,*70
$GBGMP,154612.00,,,,,,14,,,,,*71
$PSSN,SNC,[0,315990000,2347]*43
$GPZDA,154617.00,01,01,2025,,*63
$GPDTM,W84,,00.0000000,N,00.0000000,E,00.0000000,W84*5F
$PSSN,TFM,154617.00,,,,*6F
$GPRMC,154617.00,A,4742.1605069,N,01618.1010786,E,0.0,,010125,5.1,E,D*12
$GPGLL,4742.1605069,N,01618.1010786,E,154617.00,A,D*63
$GPGGA,154617.00,4742.1605069,N,01618.1010786,E,2,38,0.4,708.2408,M,43.2065,M,2.3,0136*43
$GNGNS,154617.00,4742.1605069,N,01618.1010786,E,DAAA,38,0.4,708.2408,43.2065,,*5A
$GPGNS,154617.00,,,,,,10,,,,2.3,136*79
$GLGNS,154617.00,,,,,,07,,,,,*78
$GAGNS,154617.00,,,,,,07,,,,,*75
$GBGNS,154617.00,,,,,,14,,,,,*74
$GPLLQ,154617.00,010125,,M,,M,1,38,1.232,,M*18
$GPVTG,,T,,M,0.00,N,0.00,K,D*26
$GPHDT,,T*1B
$GPTHS,,V*0E
$GPROT,,V*08
$PSSN,HRP,154617.00,010125,,,,,,,00,0,,*61
$PTNL,AVR,154617.00,,Yaw,,Tilt,,,,0,,00*37
$GPGSA,A,3,05,11,12,18,20,25,26,28,29,31,,,0.7,0.4,0.6*3A
$GPGSA,A,3,71,78,79,80,81,82,88,,,,,,0.7,0.4,0.6*3B
$GPGSA,A,3,13,15,21,27,29,30,34,,,,,,0.7,0.4,0.6*38
$GPGSA,A,3,05,08,10,11,12,13,23,24,25,34,38,43,0.7,0.4,0.6*31
$GPGSA,A,3,44,60,,,,,,,,,,,0.7,0.4,0.6*31
$GPGST,154617.00,1.034,0.618,0.427,13.922,0.608,0.441,0.977*62
$GPGBS,154617.00,4.764,2.083,6.318,11,0.0001,-1.568,1.570*7E
$GPGRS,154617.00,1,0.3,-1.6,0.5,-1.1,0.8,0.2,1.0,-0.0,-0.1,0.5,,*40
$GPGRS,154617.00,1,-1.0,-1.1,1.4,-1.9,2.2,0.4,-0.8,,,,,*60
$GPGRS,154617.00,1,-0.2,0.4,1.0,0.1,-0.8,0.3,0.1,,,,,*6C
$GPGRS,154617.00,1,0.9,-0.4,1.3,1.7,0.8,0.3,-0.5,-1.1,-0.6,-0.5,-1.5,-0.4*67
$GPGRS,154617.00,1,-1.1,-0.0,,,,,,,,,,*4E
$GPGSV,5,1,20,29,85,311,51,11,21,043,41,05,14,102,40,18,27,186,44*7B
$GPGSV,5,2,20,20,20,067,41,26,23,299,42,12,21,111,42,31,40,298,47*78
$GPGSV,5,3,20,28,53,261,47,25,61,114,49,04,03,342,36,36,35,170,45*7D
$GPGSV,5,4,20,58,13,245,36,40,23,133,37,34,31,208,43,49,34,195,45*7D
$GPGSV,5,5,20,57,05,113,39,41,07,108,35,61,03,257,38*47
$GLGSV,3,1,09,79,75,328,52,82,17,210,46,80,20,319,47,88,53,042,51*67
$GLGSV,3,2,09,78,46,135,51,81,66,201,53,72,00,038,,71,09,355,43*6A
$GLGSV,3,3,09,70,04,311,31*5E
$GAGSV,3,1,10,27,76,312,48,13,11,191,38,29,11,254,39,19,15,298,34*69
$GAGSV,3,2,10,21,22,295,41,34,46,063,46,15,52,151,47,30,48,107,46*6C
$GAGSV,3,3,10,04,01,349,34,36,05,030,35*60
$GBGSV,5,1,19,34,82,122,51,28,27,209,,56,13,064,,24,23,146,43*6B
$GBGSV,5,2,19,05,21,130,38,44,30,054,45,38,26,062,43,13,27,087,42*6A
$GBGSV,5,3,19,43,41,221,47,23,42,303,47,08,28,078,40,31,41,076,*6E
$GBGSV,5,4,19,11,63,207,49,12,56,058,47,25,72,195,52,10,08,080,36*6D
$GBGSV,5,5,19,02,05,107,34,19,02,335,,60,10,109,41*50
$GPGGA,154617.00,,,,,0,00,,,M,,M,,*48
$PTNL,GGK,154617.00,010125,4742.1605069,N,01618.1010786,E,1,38,0.7,EHT751.4474,M*49
$GPGGQ,154617.00,010125,4742.1605069,N,01618.1010786,E,1,38,1.232,708.2408,M*33
$GPGFA,154617.00,5.874,8.011,0.618,0.427,13.922,0.977,,VVV*39
$GPLLK,154617.00,010125,,M,,M,1,38,0.8,,M*08
$GNGMP,154617.00,,,,,DAAA,38,0.4,,,,*59
$GPGMP,154617.00,,,,,,10,,,,2.3,136*79
$GLGMP,154617.00,,,,,,07,,,,,*78
$GAGMP,154617.00,,,,,,07,,,,,*75
$GBGMP,154617.00,,,,,,14,,,,,*74
$PSSN,SNC,[0,315995000,2347]*46
$GPZDA,154622.00,01,01,2025,,*65
$GPDTM,W84,,00.0000000,N,00.0000000,E,00.0000000,W84*5F
$PSSN,TFM,154622.00,,,,*69
$GPRMC,154622.00,A,4742.1605044,N,01618.1010798,E,0.0,,010125,5.1,E,D*14
$GPGLL,4742.1605044,N,01618.1010798,E,154622.00,A,D*65
$GPGGA,154622.00,4742.1605044,N,01618.1010798,E,2,38,0.4,708.2364,M,43.2065,M,2.4,0136*4F
$GNGNS,154622.00,4742.1605044,N,01618.1010798,E,DAAA,38,0.4,708.2364,43.2065,,*51
$GPGNS,154622.00,,,,,,10,,,,2.4,136*78
$GLGNS,154622.00,,,,,,07,,,,,*7E
$GAGNS,154622.00,,,,,,07,,,,,*73
$GBGNS,154622.00,,,,,,14,,,,,*72
$GPLLQ,154622.00,010125,,M,,M,1,38,1.231,,M*1D
$GPVTG,,T,,M,0.01,N,0.01,K,D*26
$GPHDT,,T*1B
$GPTHS,,V*0E
$GPROT,,V*08
$PSSN,HRP,154622.00,010125,,,,,,,00,0,,*67
$PTNL,AVR,154622.00,,Yaw,,Tilt,,,,0,,00*31
$GPGSA,A,3,05,11,12,18,20,25,26,28,29,31,,,0.7,0.4,0.6*3A
$GPGSA,A,3,71,78,79,80,81,82,88,,,,,,0.7,0.4,0.6*3B
$GPGSA,A,3,13,15,21,27,29,30,34,,,,,,0.7,0.4,0.6*38
