$GPZDA,131442.00,01,01,2025,,*62
$GPDTM,W84,,00.0000000,N,00.0000000,E,00.0000000,W84*5F
$PSSN,TFM,131442.00,,,,*6E
$GPRMC,131442.00,A,4742.1602897,N,01618.1007789,E,0.0,,010125,5.1,E,D*14
$GPGLL,4742.1602897,N,01618.1007789,E,131442.00,A,D*65
$GPGGA,131442.00,4742.1602897,N,01618.1007789,E,2,41,0.4,708.0375,M,43.2065,M,2.3,0136*44
$GNGNS,131442.00,4742.1602897,N,01618.1007789,E,DAAA,41,0.4,708.0375,43.2065,,*5D
$GPGNS,131442.00,,,,,,09,,,,2.3,136*70
$GLGNS,131442.00,,,,,,10,,,,,*7F
$GAGNS,131442.00,,,,,,08,,,,,*7B
$GBGNS,131442.00,,,,,,14,,,,,*75
$GPLLQ,131442.00,010125,,M,,M,1,41,1.211,,M*16
$GPVTG,,T,,M,0.00,N,0.00,K,D*26
$GPHDT,,T*1B
$GPTHS,,V*0E
$GPROT,,V*08
$PSSN,HRP,131442.00,010125,,,,,,,00,0,,*60
$PTNL,AVR,131442.00,,Yaw,,Tilt,,,,0,,00*36
$GPGSA,A,3,06,11,12,19,24,25,28,29,32,,,,0.7,0.4,0.6*3B
$GPGSA,A,3,67,68,69,76,77,78,79,86,87,88,,,0.7,0.4,0.6*36
$GPGSA,A,3,02,07,08,27,29,30,34,36,,,,,0.7,0.4,0.6*35
$GPGSA,A,3,05,07,10,12,24,25,26,32,33,34,35,41,0.7,0.4,0.6*37
$GPGSA,A,3,44,60,,,,,,,,,,,0.7,0.4,0.6*31
$GPGST,131442.00,2.263,0.549,0.400,14.293,0.541,0.410,1.002*64
$GPGBS,131442.00,3.248,2.071,7.206,77,0.0001,-6.669,6.185*7D
$GPGRS,131442.00,1,-0.3,0.0,0.3,0.2,0.3,0.0,-0.3,-1.1,0.5,,,*4B
$GPGRS,131442.00,1,5.7,6.7,2.6,-2.1,-6.7,-1.6,-2.7,0.9,-2.1,-1.6,,*45
$GPGRS,131442.00,1,0.3,-0.1,-1.1,0.3,1.0,-0.0,-0.2,-0.3,,,,*63
$GPGRS,131442.00,1,0.7,1.3,1.3,-1.3,-0.7,0.1,0.6,-1.6,-1.4,0.8,-1.5,0.6*6F
$GPGRS,131442.00,1,0.8,-2.1,,,,,,,,,,*69
$GPGSV,5,1,18,12,79,025,51,11,27,112,44,29,19,210,42,32,32,293,46*71
$GPGSV,5,2,18,19,21,046,41,06,29,070,43,24,47,152,48,25,50,278,47*75
$GPGSV,5,3,18,28,09,311,40,36,35,170,45,58,13,245,36,40,23,133,36*7E
$GPGSV,5,4,18,34,31,208,43,49,34,195,45,57,08,110,37,41,07,108,35*7C
$GPGSV,5,5,18,61,03,257,38*4F
$GLGSV,3,1,10,87,53,085,48,88,27,161,48,86,24,032,45,76,10,098,44*68
$GLGSV,3,2,10,69,23,323,47,68,28,268,49,78,52,314,52,77,52,076,46*62
$GLGSV,3,3,10,67,07,223,44,79,05,290,41*64
$GAGSV,3,1,09,30,79,314,49,08,14,190,39,27,29,268,43,36,28,072,43*62
$GAGSV,3,2,09,34,21,128,42,07,41,240,46,29,29,307,43,02,40,073,46*6C
$GAGSV,3,3,09,11,10,025,34*50
$GBGSV,5,1,20,24,83,074,51,34,20,186,44,31,15,096,,05,20,130,39*6B
$GBGSV,5,2,20,07,10,057,37,41,16,288,42,12,40,162,45,10,23,059,39*6D
$GBGSV,5,3,20,56,31,052,,26,31,109,46,25,37,295,47,35,38,058,47*68
$GBGSV,5,4,20,23,36,288,,44,55,130,50,32,05,339,40,40,04,045,38*6A
$GBGSV,5,5,20,20,03,342,,02,04,108,32,33,08,241,41,60,08,110,40*63
$GPGGA,131442.00,,,,,0,00,,,M,,M,,*49
$PTNL,GGK,131442.00,010125,4742.1602897,N,01618.1007789,E,1,41,0.7,EHT751.2440,M*40
$GPGGQ,131442.00,010125,4742.1602897,N,01618.1007789,E,1,41,1.211,708.0375,M*35
$GPGFA,131442.00,5.216,8.220,0.549,0.400,14.293,1.002,,VVV*38
$GPLLK,131442.00,010125,,M,,M,1,41,0.8,,M*07
$GNGMP,131442.00,,,,,DAAA,41,0.4,,,,*56
$GPGMP,131442.00,,,,,,09,,,,2.3,136*70
$GLGMP,131442.00,,,,,,10,,,,,*7F
$GAGMP,131442.00,,,,,,08,,,,,*7B
$GBGMP,131442.00,,,,,,14,,,,,*75
$PSSN,SNC,[0,306900000,2347]*48
$GPZDA,131447.00,01,01,2025,,*67
$GPDTM,W84,,00.0000000,N,00.0000000,E,00.0000000,W84*5F
$PSSN,TFM,131447.00,,,,*6B
$GPRMC,131447.00,A,4742.1602877,N,01618.1007801,E,0.0,,010125,5.1,E,D*10
$GPGLL,4742.1602877,N,01618.1007801,E,131447.00,A,D*61
$GPGGA,131447.00,4742.1602877,N,01618.1007801,E,2,41,0.4,708.0377,M,43.2065,M,2.0,0136*41
$GNGNS,131447.00,4742.1602877,N,01618.1007801,E,DAAA,41,0.4,708.0377,43.2065,,*5B
$GPGNS,131447.00,,,,,,09,,,,2.0,136*76
$GLGNS,131447.00,,,,,,10,,,,,*7A
$GAGNS,131447.00,,,,,,08,,,,,*7E
$GBGNS,131447.00,,,,,,14,,,,,*70
$GPLLQ,131447.00,010125,,M,,M,1,41,1.205,,M*16
$GPVTG,,T,,M,0.00,N,0.01,K,D*27
$GPHDT,,T*1B
$GPTHS,,V*0E
$GPROT,,V*08
$PSSN,HRP,131447.00,010125,,,,,,,00,0,,*65
$PTNL,AVR,131447.00,,Yaw,,Tilt,,,,0,,00*33
$GPGSA,A,3,06,11,12,19,24,25,28,29,32,,,,0.7,0.4,0.6*3B
$GPGSA,A,3,67,68,69,76,77,78,79,86,87,88,,,0.7,0.4,0.6*36
$GPGSA,A,3,02,07,08,27,29,30,34,36,,,,,0.7,0.4,0.6*35
$GPGSA,A,3,05,07,10,12,24,25,26,32,33,34,35,41,0.7,0.4,0.6*37
$GPGSA,A,3,44,60,,,,,,,,,,,0.7,0.4,0.6*31
$GPGST,131447.00,2.233,0.546,0.398,14.595,0.538,0.409,0.998*61
$GPGBS,131447.00,3.276,2.064,7.190,77,0.0001,-6.548,6.185*7D
$GPGRS,131447.00,1,-0.4,-0.0,-0.1,1.5,0.1,-0.1,-0.3,-0.6,0.5,,,*65
$GPGRS,131447.00,1,5.2,6.8,2.3,-2.2,-6.5,-1.9,-2.3,1.5,-2.0,-1.5,,*4A
$GPGRS,131447.00,1,-0.1,0.1,-1.3,-0.0,1.1,-0.1,-0.3,0.1,,,,*66
$GPGRS,131447.00,1,1.0,1.4,1.1,-0.7,-0.7,0.5,0.4,-2.0,-1.6,0.5,-1.4,0.9*6E
$GPGRS,131447.00,1,0.8,-2.3,,,,,,,,,,*6E
$GPGSV,5,1,18,12,79,025,51,11,27,112,44,29,19,210,43,32,32,293,46*70
$GPGSV,5,2,18,19,21,046,41,06,29,070,43,24,47,152,48,25,50,278,48*7A
$GPGSV,5,3,18,28,09,311,39,36,35,170,45,58,13,245,36,40,23,133,36*70
$GPGSV,5,4,18,34,31,208,43,49,34,195,45,57,08,110,37,41,07,108,35*7C
$GPGSV,5,5,18,61,03,257,38*4F
$GLGSV,3,1,10,87,53,084,49,88,27,161,48,86,24,032,46,76,10,098,43*6C
$GLGSV,3,2,10,69,23,322,47,68,28,267,49,78,52,314,52,77,52,076,47*6D
$GLGSV,3,3,10,67,07,223,44,79,05,290,43*66
$GAGSV,3,1,09,30,79,314,49,08,14,190,39,36,29,072,43,27,29,268,43*63
$GAGSV,3,2,09,34,21,128,42,07,41,240,46,29,29,307,43,02,40,073,45*6F
$GAGSV,3,3,09,11,09,025,34*58
$GBGSV,5,1,20,24,83,075,51,34,20,186,44,31,15,096,,05,20,130,39*6A
$GBGSV,5,2,20,07,10,057,37,41,16,288,42,12,40,162,46,10,23,059,39*6E
$GBGSV,5,3,20,56,31,052,,26,31,109,46,25,37,295,47,35,38,058,48*67
$GBGSV,5,4,20,23,36,288,,44,55,130,50,32,05,339,39,40,04,045,38*64
$GBGSV,5,5,20,20,03,342,,02,04,108,32,33,08,241,40,60,08,110,40*62
$GPGGA,131447.00,,,,,0,00,,,M,,M,,*4C
$PTNL,GGK,131447.00,010125,4742.1602877,N,01618.1007801,E,1,41,0.7,EHT751.2443,M*47
$GPGGQ,131447.00,010125,4742.1602877,N,01618.1007801,E,1,41,1.205,708.0377,M*36
$GPGFA,131447.00,5.191,8.182,0.546,0.398,14.595,0.998,,VVV*39
$GPLLK,131447.00,010125,,M,,M,1,41,0.8,,M*02
$GNGMP,131447.00,,,,,DAAA,41,0.4,,,,*53
$GPGMP,131447.00,,,,,,09,,,,2.0,136*76
$GLGMP,131447.00,,,,,,10,,,,,*7A
$GAGMP,131447.00,,,,,,08,,,,,*7E
$GBGMP,131447.00,,,,,,14,,,,,*70
$PSSN,SNC,[0,306905000,2347]*4D
$GPZDA,131452.00,01,01,2025,,*63
$GPDTM,W84,,00.0000000,N,00.0000000,E,00.0000000,W84*5F
$PSSN,TFM,131452.00,,,,*6F
$GPRMC,131452.00,A,4742.1602870,N,01618.1007799,E,0.0,,010125,5.1,E,D*1D
$GPGLL,4742.1602870,N,01618.1007799,E,131452.00,A,D*6C
$GPGGA,131452.00,4742.1602870,N,01618.1007799,E,2,41,0.4,708.0353,M,43.2065,M,3.0,0136*4B
$GNGNS,131452.00,4742.1602870,N,01618.1007799,E,DAAA,41,0.4,708.0353,43.2065,,*50
$GPGNS,131452.00,,,,,,09,,,,3.0,136*73
$GLGNS,131452.00,,,,,,10,,,,,*7E
$GAGNS,131452.00,,,,,,08,,,,,*7A
$GBGNS,131452.00,,,,,,14,,,,,*74
$GPLLQ,131452.00,010125,,M,,M,1,41,1.200,,M*17
$GPVTG,,T,,M,0.00,N,0.01,K,D*27
$GPHDT,,T*1B
$GPTHS,,V*0E
$GPROT,,V*08
$PSSN,HRP,131452.00,010125,,,,,,,00,0,,*61
$PTNL,AVR,131452.00,,Yaw,,Tilt,,,,0,,00*37
$GPGSA,A,3,06,11,12,19,24,25,28,29,32,,,,0.7,0.4,0.6*3B
$GPGSA,A,3,67,68,69,76,77,78,79,86,87,88,,,0.7,0.4,0.6*36
$GPGSA,A,3,02,07,08,27,29,30,34,36,,,,,0.7,0.4,0.6*35
$GPGSA,A,3,05,07,10,12,24,25,26,32,33,34,35,41,0.7,0.4,0.6*37
$GPGSA,A,3,44,60,,,,,,,,,,,0.7,0.4,0.6*31
$GPGST,131452.00,2.245,0.547,0.398,14.067,0.540,0.409,0.991*6B
$GPGBS,131452.00,3.287,2.070,7.253,77,0.0001,-6.668,6.185*7F
$GPGRS,131452.00,1,-0.3,0.3,-0.1,1.1,0.1,0.1,-1.1,-0.6,0.2,,,*65
$GPGRS,131452.00,1,4.7,6.7,3.1,-2.7,-6.7,-1.9,-1.3,0.8,-1.1,-1.2,,*4B
$GPGRS,131452.00,1,-0.1,-0.1,-1.0,0.0,1.1,0.2,-0.4,-0.0,,,,*64
$GPGRS,131452.00,1,0.8,2.2,1.7,0.4,-0.5,0.7,0.9,-2.6,-1.7,0.2,-1.0,1.1*4E
$GPGRS,131452.00,1,0.9,-2.3,,,,,,,,,,*6B
$GPGSV,5,1,18,12,79,025,51,11,27,112,43,29,19,210,43,32,32,293,46*77
$GPGSV,5,2,18,19,21,046,42,06,29,070,43,24,47,152,48,25,50,278,47*76
$GPGSV,5,3,18,28,09,311,40,36,35,170,45,58,13,245,36,40,23,133,36*7E
$GPGSV,5,4,18,34,31,208,43,49,34,195,45,57,08,110,37,41,07,108,35*7C
$GPGSV,5,5,18,61,03,257,38*4F
$GLGSV,3,1,10,87,53,084,49,88,27,161,48,86,24,031,45,76,10,098,43*6C
$GLGSV,3,2,10,69,23,322,47,68,28,267,48,78,52,314,52,77,52,076,46*6D
$GLGSV,3,3,10,67,07,223,43,79,05,290,42*60
$GAGSV,3,1,09,30,79,314,49,08,14,190,39,27,29,268,43,36,29,072,43*63
$GAGSV,3,2,09,34,21,128,41,07,41,240,45,29,29,307,43,02,40,073,45*6F
$GAGSV,3,3,09,11,09,025,34*58
$GBGSV,5,1,20,24,83,075,51,34,20,186,44,31,15,096,,05,20,130,39*6A
$GBGSV,5,2,20,07,10,057,37,41,16,288,42,12,40,162,46,10,23,059,39*6E
$GBGSV,5,3,20,56,31,052,,26,31,109,46,25,38,295,47,35,38,058,47*67
$GBGSV,5,4,20,23,36,288,,44,55,130,50,32,06,339,39,40,04,045,37*68
$GBGSV,5,5,20,20,03,342,,02,04,108,32,33,08,241,40,60,08,110,40*62
$GPGGA,131452.00,,,,,0,00,,,M,,M,,*48
$PTNL,GGK,131452.00,010125,4742.1602870,N,01618.1007799,E,1,41,0.7,EHT751.2419,M*45
$GPGGQ,131452.00,010125,4742.1602870,N,01618.1007799,E,1,41,1.200,708.0353,M*38
$GPGFA,131452.00,5.203,8.127,0.547,0.398,14.067,0.991,,VVV*3A
$GPLLK,131452.00,010125,,M,,M,1,41,0.8,,M*06
$GNGMP,131452.00,,,,,DAAA,41,0.4,,,,*57
$GPGMP,131452.00,,,,,,09,,,,3.0,136*73
$GLGMP,131452.00,,,,,,10,,,,,*7E
$GAGMP,131452.00,,,,,,08,,,,,*7A
$GBGMP,131452.00,,,,,,14,,,,,*74
$PSSN,SNC,[0,306910000,2347]*49
$GPZDA,131457.00,01,01,2025,,*66
$GPDTM,W84,,00.0000000,N,00.0000000,E,00.0000000,W84*5F
$PSSN,TFM,131457.00,,,,*6A
$GPRMC,131457.00,A,4742.1602847,N,01618.1007810,E,0.0,,010125,5.1,E,D*12
$GPGLL,4742.1602847,N,01618.1007810,E,131457.00,A,D*63
$GPGGA,131457.00,4742.1602847,N,01618.1007810,E,2,41,0.4,708.0371,M,43.2065,M,2.7,0136*42
$GNGNS,131457.00,4742.1602847,N,01618.1007810,E,DAAA,41,0.4,708.0371,43.2065,,*5F
$GPGNS,131457.00,,,,,,09,,,,2.7,136*70
$GLGNS,131457.00,,,,,,10,,,,,*7B
$GAGNS,131457.00,,,,,,08,,,,,*7F
$GBGNS,131457.00,,,,,,14,,,,,*71
$GPLLQ,131457.00,010125,,M,,M,1,41,1.209,,M*1B
$GPVTG,,T,,M,0.00,N,0.00,K,D*26
$GPHDT,,T*1B
$GPTHS,,V*0E
$GPROT,,V*08
$PSSN,HRP,131457.00,010125,,,,,,,00,0,,*64
$PTNL,AVR,131457.00,,Yaw,,Tilt,,,,0,,00*32
$GPGSA,A,3,06,11,12,19,24,25,28,29,32,,,,0.7,0.4,0.6*3B
$GPGSA,A,3,67,68,69,76,77,78,79,86,87,88,,,0.7,0.4,0.6*36
$GPGSA,A,3,02,07,08,27,29,30,34,36,,,,,0.7,0.4,0.6*35
$GPGSA,A,3,05,07,10,12,24,25,26,32,33,34,35,41,0.7,0.4,0.6*37
$GPGSA,A,3,44,60,,,,,,,,,,,0.7,0.4,0.6*31
$GPGST,131457.00,2.209,0.550,0.401,13.829,0.543,0.411,0.999*60
$GPGBS,131457.00,3.241,2.029,7.275,77,0.0001,-7.046,6.185*73
$GPGRS,131457.00,1,-0.6,0.3,0.1,0.7,0.0,0.1,-0.3,-0.8,0.6,,,*47
$GPGRS,131457.00,1,4.0,6.6,3.1,-2.8,-7.0,-1.6,-2.1,0.5,-1.4,-1.6,,*43
$GPGRS,131457.00,1,-0.1,-0.2,-1.0,-0.0,0.8,-0.0,-0.4,0.3,,,,*46
$GPGRS,131457.00,1,1.1,2.5,0.9,0.1,-0.6,0.4,0.7,-2.2,-1.2,-0.1,-1.3,0.9*65
$GPGRS,131457.00,1,0.5,-2.4,,,,,,,,,,*65
$GPGSV,5,1,18,12,79,025,51,11,27,112,44,29,19,210,42,32,32,293,46*71
$GPGSV,5,2,18,19,21,046,41,06,29,070,43,24,47,152,48,25,50,278,47*75
$GPGSV,5,3,18,28,09,311,40,36,35,170,46,58,13,245,37,40,23,133,36*7C
$GPGSV,5,4,18,34,31,208,43,49,34,195,45,57,08,110,37,41,07,108,35*7C
$GPGSV,5,5,18,61,03,257,38*4F
$GLGSV,3,1,10,87,53,084,48,88,27,161,47,86,24,031,45,76,10,098,43*62
$GLGSV,3,2,10,69,23,322,46,68,28,267,48,78,52,314,52,77,52,076,46*6C
$GLGSV,3,3,10,67,07,223,42,79,06,291,41*60
$GAGSV,3,1,09,30,79,314,49,08,14,190,39,27,29,268,43,36,29,072,43*63
$GAGSV,3,2,09,34,21,128,41,07,41,240,45,29,29,306,43,02,40,073,45*6E
$GAGSV,3,3,09,11,09,025,33*5F
$GBGSV,5,1,20,24,83,075,51,34,20,186,44,31,15,096,,05,20,130,39*6A
$GBGSV,5,2,20,07,10,057,37,41,16,288,42,12,40,162,46,10,23,059,39*6E
$GBGSV,5,3,20,56,31,052,,26,31,109,46,25,38,295,47,35,38,058,47*67
$GBGSV,5,4,20,23,36,288,,44,55,130,50,32,06,339,40,40,04,045,37*66
$GBGSV,5,5,20,20,03,342,,02,04,108,32,33,08,241,41,60,08,110,40*63
$GPGGA,131457.00,,,,,0,00,,,M,,M,,*4D
$PTNL,GGK,131457.00,010125,4742.1602847,N,01618.1007810,E,1,41,0.7,EHT751.2436,M*47
$GPGGQ,131457.00,010125,4742.1602847,N,01618.1007810,E,1,41,1.209,708.0371,M*3E
$GPGFA,131457.00,5.228,8.191,0.550,0.401,13.829,0.999,,VVV*37
$GPLLK,131457.00,010125,,M,,M,1,41,0.8,,M*03
$GNGMP,131457.00,,,,,DAAA,41,0.4,,,,*52
$GPGMP,131457.00,,,,,,09,,,,2.7,136*70
$GLGMP,131457.00,,,,,,10,,,,,*7B
$GAGMP,131457.00,,,,,,08,,,,,*7F
$GBGMP,131457.00,,,,,,14,,,,,*71
$PSSN,SNC,[0,306915000,2347]*4C
$GPZDA,131502.00,01,01,2025,,*67
$GPDTM,W84,,00.0000000,N,00.0000000,E,00.0000000,W84*5F
$PSSN,TFM,131502.00,,,,*6B
$GPRMC,131502.00,A,4742.1602850,N,01618.1007807,E,0.0,,010125,5.1,E,D*13
$GPGLL,4742.1602850,N,01618.1007807,E,131502.00,A,D*62
$GPGGA,131502.00,4742.1602850,N,01618.1007807,E,2,41,0.4,708.0364,M,43.2065,M,2.3,0136*43
$GNGNS,131502.00,4742.1602850,N,01618.1007807,E,DAAA,41,0.4,708.0364,43.2065,,*5A
$GPGNS,131502.00,,,,,,09,,,,2.3,136*75
$GLGNS,131502.00,,,,,,10,,,,,*7A
$GAGNS,131502.00,,,,,,08,,,,,*7E
$GBGNS,131502.00,,,,,,14,,,,,*70
$GPLLQ,131502.00,010125,,M,,M,1,41,1.211,,M*13
$GPVTG,,T,,M,0.01,N,0.01,K,D*26
$GPHDT,,T*1B
$GPTHS,,V*0E
$GPROT,,V*08
$PSSN,HRP,131502.00,010125,,,,,,,00,0,,*65
$PTNL,AVR,131502.00,,Yaw,,Tilt,,,,0,,00*33
$GPGSA,A,3,06,11,12,19,24,25,28,29,32,,,,0.7,0.4,0.6*3B
$GPGSA,A,3,67,68,69,76,77,78,79,86,87,88,,,0.7,0.4,0.6*36
$GPGSA,A,3,02,07,08,27,29,30,34,36,,,,,0.7,0.4,0.6*35
$GPGSA,A,3,05,07,10,12,24,25,26,32,33,34,35,41,0.7,0.4,0.6*37
$GPGSA,A,3,44,60,,,,,,,,,,,0.7,0.4,0.6*31
$GPGST,131502.00,2.248,0.548,0.400,14.226,0.540,0.410,1.004*60
$GPGBS,131502.00,3.248,2.065,7.217,77,0.0001,-6.867,6.185*7D
$GPGRS,131502.00,1,-0.3,0.4,0.3,0.4,0.2,-0.1,-1.1,-0.9,0.3,,,*6D
$GPGRS,131502.00,1,4.3,7.0,2.9,-2.6,-6.9,-1.6,-2.4,0.9,-2.2,-2.2,,*42
$GPGRS,131502.00,1,0.1,-0.1,-1.3,-0.2,1.2,0.0,-0.3,-0.3,,,,*64
$GPGRS,131502.00,1,1.1,1.8,0.2,-0.3,-0.5,0.2,0.8,-1.4,-1.5,-0.6,-1.3,0.5*4D
$GPGRS,131502.00,1,0.5,-2.1,,,,,,,,,,*61
$GPGSV,5,1,18,12,79,025,51,11,27,112,44,29,19,210,43,32,32,293,47*71
$GPGSV,5,2,18,19,21,046,41,06,29,070,43,24,47,152,48,25,50,278,47*75
$GPGSV,5,3,18,28,09,311,39,36,35,170,45,58,13,245,36,40,23,133,37*71
$GPGSV,5,4,18,34,31,208,43,49,34,195,45,57,08,110,37,41,07,108,35*7C
$GPGSV,5,5,18,61,03,257,38*4F
$GLGSV,3,1,10,87,53,084,48,88,27,161,47,86,24,031,45,76,10,098,42*63
$GLGSV,3,2,10,69,23,322,48,68,28,267,48,78,52,314,52,77,52,076,47*63
$GLGSV,3,3,10,67,07,223,43,79,06,291,42*62
$GAGSV,3,1,09,30,79,314,49,08,14,190,38,36,29,072,43,27,29,268,43*62
$GAGSV,3,2,09,34,21,128,41,07,41,240,46,29,29,306,43,02,40,073,46*6E
$GAGSV,3,3,09,11,09,025,34*58
$GBGSV,5,1,20,24,83,075,51,34,20,186,43,31,15,096,,05,20,130,39*6D
$GBGSV,5,2,20,07,10,057,37,41,16,288,42,12,40,162,46,10,23,059,39*6E
$GBGSV,5,3,20,56,31,052,,26,31,109,46,25,38,295,47,35,38,058,47*67
$GBGSV,5,4,20,23,36,288,,44,55,129,50,32,06,339,39,40,04,045,37*60
$GBGSV,5,5,20,20,03,342,,02,04,108,32,33,08,241,40,60,08,110,40*62
$GPGGA,131502.00,,,,,0,00,,,M,,M,,*4C
$PTNL,GGK,131502.00,010125,4742.1602850,N,01618.1007807,E,1,41,0.7,EHT751.2429,M*48
$GPGGQ,131502.00,010125,4742.1602850,N,01618.1007807,E,1,41,1.211,708.0364,M*32
$GPGFA,131502.00,5.207,8.231,0.548,0.400,14.226,1.004,,VVV*34
$GPLLK,131502.00,010125,,M,,M,1,41,0.8,,M*02
$GNGMP,131502.00,,,,,DAAA,41,0.4,,,,*53
$GPGMP,131502.00,,,,,,09,,,,2.3,136*75
$GLGMP,131502.00,,,,,,10,,,,,*7A
$GAGMP,131502.00,,,,,,08,,,,,*7E
$GBGMP,131502.00,,,,,,14,,,,,*70
$PSSN,SNC,[0,306920000,2347]*4A
$GPZDA,131507.00,01,01,2025,,*62
$GPDTM,W84,,00.0000000,N,00.0000000,E,00.0000000,W84*5F
$PSSN,TFM,131507.00,,,,*6E
$GPRMC,131507.00,A,4742.1602829,N,01618.1007801,E,0.0,,010125,5.1,E,D*1E
$GPGLL,4742.1602829,N,01618.1007801,E,131507.00,A,D*6F
$GPGGA,131507.00,4742.1602829,N,01618.1007801,E,2,41,0.4,708.0328,M,43.2065,M,2.0,0136*45
$GNGNS,131507.00,4742.1602829,N,01618.1007801,E,DAAA,41,0.4,708.0328,43.2065,,*5F
$GPGNS,131507.00,,,,,,09,,,,2.0,136*73
$GLGNS,131507.00,,,,,,10,,,,,*7F
$GAGNS,131507.00,,,,,,08,,,,,*7B
$GBGNS,131507.00,,,,,,14,,,,,*75
$GPLLQ,131507.00,010125,,M,,M,1,41,1.206,,M*10
$GPVTG,,T,,M,0.01,N,0.01,K,D*26
$GPHDT,,T*1B
$GPTHS,,V*0E
$GPROT,,V*08
$PSSN,HRP,131507.00,010125,,,,,,,00,0,,*60
$PTNL,AVR,131507.00,,Yaw,,Tilt,,,,0,,00*36
$GPGSA,A,3,06,11,12,19,24,25,28,29,32,,,,0.7,0.4,0.6*3B
$GPGSA,A,3,67,68,69,76,77,78,79,86,87,88,,,0.7,0.4,0.6*36
$GPGSA,A,3,02,07,08,27,29,30,34,36,,,,,0.7,0.4,0.6*35
$GPGSA,A,3,05,07,10,12,24,25,26,32,33,34,35,41,0.7,0.4,0.6*37
$GPGSA,A,3,44,60,,,,,,,,,,,0.7,0.4,0.6*31
$GPGST,131507.00,2.279,0.545,0.398,14.536,0.537,0.408,0.999*6F
$GPGBS,131507.00,3.277,2.058,7.202,68,0.0001,7.411,6.408*51
$GPGRS,131507.00,1,-0.4,0.5,0.1,0.8,0.1,0.0,-1.0,-1.1,0.4,,,*40
$GPGRS,131507.00,1,3.8,7.4,3.5,-3.2,-6.7,-1.5,-2.5,1.2,-2.1,-2.1,,*41
$GPGRS,131507.00,1,0.2,-0.2,-1.2,-0.1,1.5,0.1,-0.1,-0.1,,,,*65
$GPGRS,131507.00,1,0.7,1.5,0.3,-0.2,-0.5,0.5,0.5,-1.8,-1.4,-0.4,-0.7,0.6*41
$GPGRS,131507.00,1,0.4,-2.1,,,,,,,,,,*65
$GPGSV,5,1,18,12,79,026,51,11,27,112,43,29,19,210,42,32,32,293,46*75
$GPGSV,5,2,18,19,21,046,41,06,29,070,43,24,47,152,47,25,50,279,47*7B
$GPGSV,5,3,18,28,09,311,39,36,35,170,46,58,13,245,36,40,23,133,36*73
$GPGSV,5,4,18,34,31,208,43,49,34,195,45,57,08,110,38,41,07,108,35*73
$GPGSV,5,5,18,61,03,257,38*4F
$GLGSV,3,1,10,87,53,084,49,88,27,161,48,86,24,031,46,69,23,322,47*67
$GLGSV,3,2,10,68,28,267,48,77,52,077,47,78,52,314,52,76,10,098,42*64
$GLGSV,3,3,10,67,07,223,41,79,06,291,42*60
$GAGSV,3,1,09,30,79,314,49,08,14,190,39,36,29,072,43,27,29,268,43*63
$GAGSV,3,2,09,34,21,128,42,07,41,240,46,29,29,306,43,02,40,074,46*6A
$GAGSV,3,3,09,11,09,025,34*58
$GBGSV,5,1,20,24,83,076,51,34,20,186,43,31,15,096,,05,20,130,39*6E
$GBGSV,5,2,20,07,10,057,37,41,16,288,42,12,40,162,46,10,23,059,39*6E
$GBGSV,5,3,20,56,31,052,,26,31,109,46,25,38,295,47,35,38,058,48*68
$GBGSV,5,4,20,23,36,288,,44,55,129,50,32,06,339,40,40,04,045,37*6E
$GBGSV,5,5,20,20,03,342,,02,04,108,32,33,08,241,40,60,08,110,40*62
$GPGGA,131507.00,,,,,0,00,,,M,,M,,*49
$PTNL,GGK,131507.00,010125,4742.1602829,N,01618.1007801,E,1,41,0.7,EHT751.2394,M*44
$GPGGQ,131507.00,010125,4742.1602829,N,01618.1007801,E,1,41,1.206,708.0328,M*31
$GPGFA,131507.00,5.182,8.194,0.545,0.398,14.536,0.999,,VVV*32
$GPLLK,131507.00,010125,,M,,M,1,41,0.8,,M*07
$GNGMP,131507.00,,,,,DAAA,41,0.4,,,,*56
$GPGMP,131507.00,,,,,,09,,,,2.0,136*73
$GLGMP,131507.00,,,,,,10,,,,,*7F
$GAGMP,131507.00,,,,,,08,,,,,*7B
$GBGMP,131507.00,,,,,,14,,,,,*75
$PSSN,SNC,[0,306925000,2347]*4F
$GPZDA,131512.00,01,01,2025,,*66
$GPDTM,W84,,00.0000000,N,00.0000000,E,00.0000000,W84*5F
$PSSN,TFM,131512.00,,,,*6A
$GPRMC,131512.00,A,4742.1602806,N,01618.1007802,E,0.0,,010125,5.1,E,D*14
$GPGLL,4742.1602806,N,01618.1007802,E,131512.00,A,D*65
$GPGGA,131512.00,4742.1602806,N,01618.1007802,E,2,41,0.4,708.0320,M,43.2065,M,3.0,0136*46
$GNGNS,131512.00,4742.1602806,N,01618.1007802,E,DAAA,41,0.4,708.0320,43.2065,,*5D
$GPGNS,131512.00,,,,,,09,,,,3.0,136*76
$GLGNS,131512.00,,,,,,10,,,,,*7B
$GAGNS,131512.00,,,,,,08,,,,,*7F
$GBGNS,131512.00,,,,,,14,,,,,*71
$GPLLQ,131512.00,010125,,M,,M,1,41,1.201,,M*13
$GPVTG,,T,,M,0.00,N,0.01,K,D*27
$GPHDT,,T*1B
$GPTHS,,V*0E
$GPROT,,V*08
$PSSN,HRP,131512.00,010125,,,,,,,00,0,,*64
$PTNL,AVR,131512.00,,Yaw,,Tilt,,,,0,,00*32
$GPGSA,A,3,06,11,12,19,24,25,28,29,32,,,,0.7,0.4,0.6*3B
$GPGSA,A,3,67,68,69,76,77,78,79,86,87,88,,,0.7,0.4,0.6*36
$GPGSA,A,3,02,07,08,27,29,30,34,36,,,,,0.7,0.4,0.6*35
$GPGSA,A,3,05,07,10,12,24,25,26,32,33,34,35,41,0.7,0.4,0.6*37
$GPGSA,A,3,44,60,,,,,,,,,,,0.7,0.4,0.6*31
$GPGST,131512.00,2.209,0.546,0.399,13.991,0.539,0.409,0.993*6D
$GPGBS,131512.00,3.289,2.064,7.268,68,0.0001,7.045,6.408*52
$GPGRS,131512.00,1,-0.4,0.4,0.1,0.8,0.0,-0.2,-0.8,-0.9,0.6,,,*69
$GPGRS,131512.00,1,5.3,7.0,3.0,-2.3,-6.7,-0.9,-2.2,1.3,-1.2,-1.0,,*40
$GPGRS,131512.00,1,0.2,0.0,-1.2,-0.0,1.3,0.2,-0.1,0.1,,,,*67
$GPGRS,131512.00,1,1.3,0.8,0.6,-0.1,-0.4,0.8,0.8,-1.2,-1.6,-0.3,-0.7,0.6*44
$GPGRS,131512.00,1,0.8,-2.1,,,,,,,,,,*6D
$GPGSV,5,1,18,12,79,026,51,11,27,112,44,29,19,210,42,32,32,293,46*72
$GPGSV,5,2,18,19,21,046,41,06,29,070,44,24,47,152,47,25,50,279,47*7C
$GPGSV,5,3,18,28,09,311,38,36,35,170,46,58,13,245,37,40,23,133,36*73
$GPGSV,5,4,18,34,31,208,43,49,34,195,45,57,08,110,37,41,07,108,36*7F
$GPGSV,5,5,18,61,03,257,38*4F
$GLGSV,3,1,10,87,53,084,49,88,27,161,48,86,24,031,46,69,23,322,46*66
$GLGSV,3,2,10,68,28,267,48,77,52,077,46,78,52,314,52,76,10,098,43*64
$GLGSV,3,3,10,67,07,223,42,79,06,291,42*63
$GAGSV,3,1,09,30,79,315,49,08,14,190,38,36,29,072,43,27,29,268,43*63
$GAGSV,3,2,09,34,21,128,41,07,41,240,46,29,29,306,43,02,40,074,45*6A
$GAGSV,3,3,09,11,09,025,34*58
$GBGSV,5,1,20,24,83,076,51,34,20,186,43,31,15,096,,05,20,130,39*6E
$GBGSV,5,2,20,07,10,057,37,41,16,288,41,12,40,162,46,10,23,059,39*6D
$GBGSV,5,3,20,56,31,052,,26,31,109,46,25,38,295,47,35,38,058,47*67
$GBGSV,5,4,20,23,36,288,,44,55,129,50,32,06,339,40,40,04,045,37*6E
$GBGSV,5,5,20,20,03,342,,02,04,108,32,33,08,241,40,60,08,110,40*62
$GPGGA,131512.00,,,,,0,00,,,M,,M,,*4D
$PTNL,GGK,131512.00,010125,4742.1602806,N,01618.1007802,E,1,41,0.7,EHT751.2386,M*4D
$GPGGQ,131512.00,010125,4742.1602806,N,01618.1007802,E,1,41,1.201,708.0320,M*34
$GPGFA,131512.00,5.195,8.141,0.546,0.399,13.991,0.993,,VVV*36
$GPLLK,131512.00,010125,,M,,M,1,41,0.8,,M*03
$GNGMP,131512.00,,,,,DAAA,41,0.4,,,,*52
$GPGMP,131512.00,,,,,,09,,,,3.0,136*76
$GLGMP,131512.00,,,,,,10,,,,,*7B
$GAGMP,131512.00,,,,,,08,,,,,*7F
$GBGMP,131512.00,,,,,,14,,,,,*71
$PSSN,SNC,[0,306930000,2347]*4B
$GPZDA,131517.00,01,01,2025,,*63
$GPDTM,W84,,00.0000000,N,00.0000000,E,00.0000000,W84*5F
$PSSN,TFM,131517.00,,,,*6F
$GPRMC,131517.00,A,4742.1602787,N,01618.1007802,E,0.0,,010125,5.1,E,D*17
$GPGLL,4742.1602787,N,01618.1007802,E,131517.00,A,D*66
$GPGGA,131517.00,4742.1602787,N,01618.1007802,E,2,41,0.4,708.0300,M,43.2065,M,2.7,0136*41
$GNGNS,131517.00,4742.1602787,N,01618.1007802,E,DAAA,41,0.4,708.0300,43.2065,,*5C
$GPGNS,131517.00,,,,,,09,,,,2.7,136*75
$GLGNS,131517.00,,,,,,10,,,,,*7E
$GAGNS,131517.00,,,,,,08,,,,,*7A
$GBGNS,131517.00,,,,,,14,,,,,*74
$GPLLQ,131517.00,010125,,M,,M,1,41,1.210,,M*16
$GPVTG,,T,,M,0.00,N,0.01,K,D*27
$GPHDT,,T*1B
$GPTHS,,V*0E
$GPROT,,V*08
$PSSN,HRP,131517.00,010125,,,,,,,00,0,,*61
$PTNL,AVR,131517.00,,Yaw,,Tilt,,,,0,,00*37
$GPGSA,A,3,06,11,12,19,24,25,28,29,32,,,,0.7,0.4,0.6*3B
$GPGSA,A,3,67,68,69,76,77,78,79,86,87,88,,,0.7,0.4,0.6*36
$GPGSA,A,3,02,07,08,27,29,30,34,36,,,,,0.7,0.4,0.6*35
$GPGSA,A,3,05,07,10,12,24,25,26,32,33,34,35,41,0.7,0.4,0.6*37
$GPGSA,A,3,44,60,,,,,,,,,,,0.7,0.4,0.6*31
$GPGST,131517.00,2.357,0.549,0.401,13.755,0.542,0.411,1.000*6A
$GPGBS,131517.00,3.242,2.023,7.288,77,0.0001,-6.824,6.185*70
$GPGRS,131517.00,1,-0.5,0.5,0.2,0.3,-0.2,0.4,-0.5,-0.8,-0.3,,,*44
$GPGRS,131517.00,1,7.0,6.8,2.7,-2.7,-6.8,-1.2,-1.9,1.7,-1.1,-1.1,,*44
$GPGRS,131517.00,1,0.3,0.1,-1.2,-0.1,1.2,0.1,-0.1,-0.1,,,,*4C
$GPGRS,131517.00,1,1.0,0.9,1.2,-0.4,-0.6,0.3,0.9,-1.6,-1.6,-0.2,-0.8,1.0*46
$GPGRS,131517.00,1,0.8,-2.1,,,,,,,,,,*68
$GPGSV,5,1,18,12,79,026,51,11,27,112,44,29,19,210,42,32,32,293,46*72
$GPGSV,5,2,18,19,21,046,41,06,29,070,44,24,47,152,47,25,51,279,48*72
$GPGSV,5,3,18,28,09,311,39,36,35,170,46,58,13,245,36,40,23,133,36*73
$GPGSV,5,4,18,34,31,208,43,49,34,195,45,57,08,110,38,41,07,108,36*70
$GPGSV,5,5,18,61,03,257,38*4F
$GLGSV,3,1,10,87,53,084,48,88,27,161,48,86,24,031,46,69,23,322,47*66
$GLGSV,3,2,10,68,28,267,48,77,52,077,47,78,52,314,52,76,10,098,42*64
$GLGSV,3,3,10,67,06,223,44,79,06,291,42*64
$GAGSV,3,1,09,30,79,315,49,08,14,190,39,36,29,072,43,27,29,268,43*62
$GAGSV,3,2,09,34,22,128,41,07,41,240,46,29,29,306,43,02,40,074,45*69
$GAGSV,3,3,09,11,09,025,34*58
$GBGSV,5,1,20,24,83,076,51,34,20,186,43,31,15,096,,05,20,130,39*6E
$GBGSV,5,2,20,07,10,057,37,41,16,288,42,12,40,162,46,10,23,059,39*6E
$GBGSV,5,3,20,56,31,052,,26,31,109,46,25,38,295,47,35,38,058,48*68
$GBGSV,5,4,20,23,36,288,,44,55,129,50,32,06,338,40,40,04,045,37*6F
$GBGSV,5,5,20,20,03,342,,02,04,108,33,33,08,241,41,60,08,110,40*62
$GPGGA,131517.00,,,,,0,00,,,M,,M,,*48
$PTNL,GGK,131517.00,010125,4742.1602787,N,01618.1007802,E,1,41,0.7,EHT751.2366,M*40
$GPGGQ,131517.00,010125,4742.1602787,N,01618.1007802,E,1,41,1.210,708.0300,M*35
$GPGFA,131517.00,5.221,8.204,0.549,0.401,13.755,1.000,,VVV*30
$GPLLK,131517.00,010125,,M,,M,1,41,0.8,,M*06
$GNGMP,131517.00,,,,,DAAA,41,0.4,,,,*57
$GPGMP,131517.00,,,,,,09,,,,2.7,136*75
$GLGMP,131517.00,,,,,,10,,,,,*7E
$GAGMP,131517.00,,,,,,08,,,,,*7A
$GBGMP,131517.00,,,,,,14,,,,,*74
$PSSN,SNC,[0,306935000,2347]*4E
$GPZDA,131522.00,01,01,2025,,*65
$GPDTM,W84,,00.0000000,N,00.0000000,E,00.0000000,W84*5F
$PSSN,TFM,131522.00,,,,*69
$GPRMC,131522.00,A,4742.1602784,N,01618.1007812,E,0.0,,010125,5.1,E,D*13
$GPGLL,4742.1602784,N,01618.1007812,E,131522.00,A,D*62
$GPGGA,131522.00,4742.1602784,N,01618.1007812,E,2,41,0.4,708.0299,M,43.2065,M,2.3,0136*40
$GNGNS,131522.00,4742.1602784,N,01618.1007812,E,DAAA,41,0.4,708.0299,43.2065,,*59
$GPGNS,131522.00,,,,,,09,,,,2.3,136*77
$GLGNS,131522.00,,,,,,10,,,,,*78
$GAGNS,131522.00,,,,,,08,,,,,*7C
$GBGNS,131522.00,,,,,,14,,,,,*72
$GPLLQ,131522.00,010125,,M,,M,1,41,1.212,,M*12
$GPVTG,,T,,M,0.00,N,0.01,K,D*27
$GPHDT,,T*1B
$GPTHS,,V*0E
$GPROT,,V*08
$PSSN,HRP,131522.00,010125,,,,,,,00,0,,*67
$PTNL,AVR,131522.00,,Yaw,,Tilt,,,,0,,00*31
$GPGSA,A,3,06,11,12,19,24,25,28,29,32,,,,0.7,0.4,0.6*3B
$GPGSA,A,3,67,68,69,76,77,78,79,86,87,88,,,0.7,0.4,0.6*36
$GPGSA,A,3,02,07,08,27,29,30,34,36,,,,,0.7,0.4,0.6*35
$GPGSA,A,3,05,07,10,12,24,25,26,32,33,34,35,41,0.7,0.4,0.6*37
$GPGSA,A,3,44,60,,,,,,,,,,,0.7,0.4,0.6*31
$GPGST,131522.00,2.497,0.547,0.400,14.192,0.539,0.410,1.005*6A
$GPGBS,131522.00,3.251,2.060,7.229,77,0.0001,-6.635,6.185*76
$GPGRS,131522.00,1,-0.9,0.3,0.2,0.7,0.2,-0.0,-0.6,-0.1,0.4,,,*68
$GPGRS,131522.00,1,7.3,6.8,3.7,-3.1,-6.6,-1.7,-2.9,1.3,-2.3,-1.7,,*4C
$GPGRS,131522.00,1,0.2,-0.2,-1.2,-0.1,1.3,-0.1,-0.5,-0.1,,,,*4D
$GPGRS,131522.00,1,1.1,0.6,0.9,-0.8,-0.6,0.1,0.5,-2.2,-1.1,-0.1,-1.1,1.0*4D
$GPGRS,131522.00,1,0.7,-2.4,,,,,,,,,,*64
$GPGSV,5,1,18,12,79,026,51,11,27,112,44,29,19,210,42,32,32,293,46*72
$GPGSV,5,2,18,19,21,046,42,06,29,069,44,24,47,152,47,25,51,279,48*79
$GPGSV,5,3,18,28,09,311,40,36,35,170,46,58,13,245,37,40,23,133,37*7D
$GPGSV,5,4,18,34,31,208,43,49,34,195,45,57,08,110,38,41,07,108,35*73
$GPGSV,5,5,18,61,03,257,38*4F
$GLGSV,3,1,10,87,53,084,48,88,27,161,48,86,24,031,46,69,23,322,47*66
$GLGSV,3,2,10,68,28,267,48,77,52,077,46,78,52,314,52,76,10,098,42*65
$GLGSV,3,3,10,67,06,223,45,79,06,291,42*65
$GAGSV,3,1,09,30,79,315,49,08,14,190,39,27,29,268,43,36,29,072,43*62
$GAGSV,3,2,09,34,22,128,40,07,41,240,46,29,29,306,43,02,40,074,45*68
$GAGSV,3,3,09,11,09,025,34*58
$GBGSV,5,1,20,24,83,076,51,34,20,186,43,31,15,096,,05,20,130,39*6E
$GBGSV,5,2,20,07,10,057,37,41,16,288,42,12,40,162,46,10,23,059,39*6E
$GBGSV,5,3,20,56,31,052,,26,31,109,46,25,38,295,47,35,38,058,48*68
$GBGSV,5,4,20,23,36,288,,44,55,129,50,32,06,338,39,40,04,046,37*62
$GBGSV,5,5,20,20,03,342,,02,04,108,32,33,08,241,41,60,08,110,40*63
$GPGGA,131522.00,,,,,0,00,,,M,,M,,*4E
$PTNL,GGK,131522.00,010125,4742.1602784,N,01618.1007812,E,1,41,0.7,EHT751.2365,M*47
$GPGGQ,131522.00,010125,4742.1602784,N,01618.1007812,E,1,41,1.212,708.0299,M*32
$GPGFA,131522.00,5.200,8.245,0.547,0.400,14.192,1.005,,VVV*30
$GPLLK,131522.00,010125,,M,,M,1,41,0.8,,M*00
$GNGMP,131522.00,,,,,DAAA,41,0.4,,,,*51
$GPGMP,131522.00,,,,,,09,,,,2.3,136*77
$GLGMP,131522.00,,,,,,10,,,,,*78
$GAGMP,131522.00,,,,,,08,,,,,*7C
$GBGMP,131522.00,,,,,,14,,,,,*72
$PSSN,SNC,[0,306940000,2347]*4C
$GPZDA,131527.00,01,01,2025,,*60
$GPDTM,W84,,00.0000000,N,00.0000000,E,00.0000000,W84*5F
$PSSN,TFM,131527.00,,,,*6C
$GPRMC,131527.00,A,4742.1602791,N,01618.1007831,E,0.0,,010125,5.1,E,D*13
$GPGLL,4742.1602791,N,01618.1007831,E,131527.00,A,D*62
$GPGGA,131527.00,4742.1602791,N,01618.1007831,E,2,41,0.4,708.0282,M,43.2065,M,2.0,0136*49
$GNGNS,131527.00,4742.1602791,N,01618.1007831,E,DAAA,41,0.4,708.0282,43.2065,,*53
$GPGNS,131527.00,,,,,,09,,,,2.0,136*71
$GLGNS,131527.00,,,,,,10,,,,,*7D
$GAGNS,131527.00,,,,,,08,,,,,*79
$GBGNS,131527.00,,,,,,14,,,,,*77
$GPLLQ,131527.00,010125,,M,,M,1,41,1.207,,M*13
$GPVTG,,T,,M,0.00,N,0.01,K,D*27
$GPHDT,,T*1B
$GPTHS,,V*0E
$GPROT,,V*08
$PSSN,HRP,131527.00,010125,,,,,,,00,0,,*62
$PTNL,AVR,131527.00,,Yaw,,Tilt,,,,0,,00*34
$GPGSA,A,3,06,11,12,19,24,25,28,29,32,,,,0.7,0.4,0.6*3B
$GPGSA,A,3,67,68,69,76,77,78,79,86,87,88,,,0.7,0.4,0.6*36
$GPGSA,A,3,02,07,08,27,29,30,34,36,,,,,0.7,0.4,0.6*35
$GPGSA,A,3,05,07,10,12,24,25,26,32,33,34,35,41,0.7,0.4,0.6*37
$GPGSA,A,3,44,60,,,,,,,,,,,0.7,0.4,0.6*31
$GPGST,131527.00,2.465,0.544,0.398,14.502,0.536,0.408,1.001*68
$GPGBS,131527.00,3.280,2.054,7.216,68,0.0001,7.457,6.409*51
$GPGRS,131527.00,1,-0.7,-0.1,0.1,0.8,0.3,-0.1,-0.6,-0.6,0.2,,,*41
$GPGRS,131527.00,1,6.2,7.5,3.2,-2.8,-6.9,-1.6,-2.7,0.8,-2.1,-1.9,,*4E
$GPGRS,131527.00,1,0.1,-0.3,-1.1,-0.2,1.3,-0.0,-0.3,-0.1,,,,*4D
$GPGRS,131527.00,1,0.7,0.9,1.3,-0.9,-0.5,-0.0,1.0,-2.7,-1.3,0.3,-1.2,1.3*49
$GPGRS,131527.00,1,0.8,-2.3,,,,,,,,,,*69
$GPGSV,5,1,18,12,79,026,51,11,27,112,44,29,19,210,41,32,32,293,46*71
$GPGSV,5,2,18,19,21,046,42,06,29,069,43,24,47,152,47,25,51,279,48*7E
$GPGSV,5,3,18,28,09,311,39,36,35,170,45,58,13,245,36,40,23,133,37*71
$GPGSV,5,4,18,34,31,208,43,49,34,195,45,57,08,110,37,41,07,108,35*7C
$GPGSV,5,5,18,61,03,257,38*4F
$GLGSV,3,1,10,87,53,084,48,88,27,161,48,86,24,031,46,69,23,322,47*66
$GLGSV,3,2,10,68,28,267,49,77,52,077,46,78,52,314,52,76,10,098,43*65
$GLGSV,3,3,10,67,06,223,45,79,06,291,43*64
$GAGSV,3,1,09,30,79,315,49,08,14,190,39,27,29,268,43,36,29,071,43*61
$GAGSV,3,2,09,34,22,128,40,07,41,240,45,29,29,306,43,02,40,074,46*68
$GAGSV,3,3,09,11,09,025,33*5F
$GBGSV,5,1,20,24,83,076,51,34,20,186,43,31,16,096,,05,20,130,39*6D
$GBGSV,5,2,20,07,10,057,37,41,16,288,41,12,40,162,45,10,23,059,39*6E
$GBGSV,5,3,20,56,31,052,,26,31,109,46,25,38,295,47,35,38,058,47*67
$GBGSV,5,4,20,23,36,288,,44,55,129,50,32,06,338,40,40,04,046,37*6C
$GBGSV,5,5,20,20,04,342,,02,04,108,32,33,08,241,40,60,08,110,40*65
$GPGGA,131527.00,,,,,0,00,,,M,,M,,*4B
$PTNL,GGK,131527.00,010125,4742.1602791,N,01618.1007831,E,1,41,0.7,EHT751.2347,M*47
$GPGGQ,131527.00,010125,4742.1602791,N,01618.1007831,E,1,41,1.207,708.0282,M*3C
$GPGFA,131527.00,5.176,8.208,0.544,0.398,14.502,1.001,,VVV*32
$GPLLK,131527.00,010125,,M,,M,1,41,0.8,,M*05
$GNGMP,131527.00,,,,,DAAA,41,0.4,,,,*54
$GPGMP,131527.00,,,,,,09,,,,2.0,136*71
$GLGMP,131527.00,,,,,,10,,,,,*7D
$GAGMP,131527.00,,,,,,08,,,,,*79
$GBGMP,131527.00,,,,,,14,,,,,*77
$PSSN,SNC,[0,306945000,2347]*49
$GPZDA,131532.00,01,01,2025,,*64
$GPDTM,W84,,00.0000000,N,00.0000000,E,00.0000000,W84*5F
$PSSN,TFM,131532.00,,,,*68
$GPRMC,131532.00,A,4742.1602784,N,01618.1007857,E,0.0,,010125,5.1,E,D*13
$GPGLL,4742.1602784,N,01618.1007857,E,131532.00,A,D*62
$GPGGA,131532.00,4742.1602784,N,01618.1007857,E,2,41,0.4,708.0255,M,43.2066,M,3.0,0136*41
$GNGNS,131532.00,4742.1602784,N,01618.1007857,E,DAAA,41,0.4,708.0255,43.2066,,*5A
$GPGNS,131532.00,,,,,,09,,,,3.0,136*74
$GLGNS,131532.00,,,,,,10,,,,,*79
$GAGNS,131532.00,,,,,,08,,,,,*7D
$GBGNS,131532.00,,,,,,14,,,,,*73
$GPLLQ,131532.00,010125,,M,,M,1,41,1.202,,M*12
$GPVTG,,T,,M,0.00,N,0.01,K,D*27
$GPHDT,,T*1B
$GPTHS,,V*0E
$GPROT,,V*08
$PSSN,HRP,131532.00,010125,,,,,,,00,0,,*66
$PTNL,AVR,131532.00,,Yaw,,Tilt,,,,0,,00*30
$GPGSA,A,3,06,11,12,19,24,25,28,29,32,,,,0.7,0.4,0.6*3B
$GPGSA,A,3,67,68,69,76,77,78,79,86,87,88,,,0.7,0.4,0.6*36
$GPGSA,A,3,02,07,08,27,29,30,34,36,,,,,0.7,0.4,0.6*35
$GPGSA,A,3,05,07,10,12,24,25,26,32,33,34,35,41,0.7,0.4,0.6*37
$GPGSA,A,3,44,60,,,,,,,,,,,0.7,0.4,0.6*31
$GPGST,131532.00,2.365,0.546,0.399,13.958,0.538,0.409,0.994*67
$GPGBS,131532.00,3.291,2.059,7.280,68,0.0001,7.490,6.410*54
$GPGRS,131532.00,1,-0.9,-0.1,-0.0,0.6,0.3,-0.1,-0.5,-0.6,0.7,,,*6F
$GPGRS,131532.00,1,5.8,7.5,3.3,-2.3,-6.8,-1.4,-1.9,1.3,-1.5,-1.5,,*46
$GPGRS,131532.00,1,0.2,-0.1,-0.7,0.1,0.9,0.2,0.1,0.0,,,,*46
$GPGRS,131532.00,1,1.1,0.8,1.3,-0.6,-0.5,0.5,1.0,-1.9,-2.1,0.6,-1.0,1.3*67
$GPGRS,131532.00,1,0.7,-2.2,,,,,,,,,,*63
$GPGSV,5,1,18,12,79,026,51,11,27,112,44,29,19,210,42,32,32,293,46*72
$GPGSV,5,2,18,19,21,046,42,06,29,069,43,24,47,152,47,25,51,279,47*71
$GPGSV,5,3,18,28,09,311,39,36,35,170,45,58,13,245,36,40,23,133,36*70
$GPGSV,5,4,18,34,31,208,43,49,34,195,45,57,08,110,37,41,07,108,35*7C
$GPGSV,5,5,18,61,03,257,38*4F
$GLGSV,3,1,10,87,53,084,48,88,28,161,47,86,23,031,46,69,23,322,48*6E
$GLGSV,3,2,10,68,28,267,48,77,52,077,46,78,52,314,52,76,10,098,43*64
$GLGSV,3,3,10,67,06,223,45,79,06,291,42*65
$GAGSV,3,1,09,30,79,315,49,08,14,190,40,36,29,071,43,27,29,268,43*6F
$GAGSV,3,2,09,34,22,128,40,07,41,240,46,29,29,306,43,02,40,074,45*68
$GAGSV,3,3,09,11,09,025,33*5F
$GBGSV,5,1,20,24,83,077,51,34,20,186,43,31,16,096,,05,20,130,39*6C
$GBGSV,5,2,20,07,10,057,37,41,16,288,42,12,40,162,45,10,23,059,39*6D
$GBGSV,5,3,20,56,31,052,,26,31,109,45,25,38,295,47,35,38,058,47*64
$GBGSV,5,4,20,23,36,288,,44,55,129,50,32,06,338,40,40,04,046,37*6C
$GBGSV,5,5,20,20,04,342,,02,04,108,33,33,08,241,40,60,08,110,40*64
$GPGGA,131532.00,,,,,0,00,,,M,,M,,*4F
$PTNL,GGK,131532.00,010125,4742.1602784,N,01618.1007857,E,1,41,0.7,EHT751.2320,M*46
$GPGGQ,131532.00,010125,4742.1602784,N,01618.1007857,E,1,41,1.202,708.0255,M*33
$GPGFA,131532.00,5.188,8.154,0.546,0.399,13.958,0.994,,VVV*3E
$GPLLK,131532.00,010125,,M,,M,1,41,0.8,,M*01
$GNGMP,131532.00,,,,,DAAA,41,0.4,,,,*50
$GPGMP,131532.00,,,,,,09,,,,3.0,136*74
$GLGMP,131532.00,,,,,,10,,,,,*79
$GAGMP,131532.00,,,,,,08,,,,,*7D
$GBGMP,131532.00,,,,,,14,,,,,*73
$PSSN,SNC,[0,306950000,2347]*4D
$GPZDA,131537.00,01,01,2025,,*61
$GPDTM,W84,,00.0000000,N,00.0000000,E,00.0000000,W84*5F
$PSSN,TFM,131537.00,,,,*6D
$GPRMC,131537.00,A,4742.1602785,N,01618.1007893,E,0.0,,010125,5.1,E,D*1F
$GPGLL,4742.1602785,N,01618.1007893,E,131537.00,A,D*6E
$GPGGA,131537.00,4742.1602785,N,01618.1007893,E,2,41,0.4,708.0229,M,43.2066,M,2.7,0136*40
$GNGNS,131537.00,4742.1602785,N,01618.1007893,E,DAAA,41,0.4,708.0229,43.2066,,*5D
$GPGNS,131537.00,,,,,,09,,,,2.7,136*77
$GLGNS,131537.00,,,,,,10,,,,,*7C
$GAGNS,131537.00,,,,,,08,,,,,*78
$GBGNS,131537.00,,,,,,14,,,,,*76
$GPLLQ,131537.00,010125,,M,,M,1,41,1.211,,M*15
$GPVTG,,T,,M,0.01,N,0.01,K,D*26
$GPHDT,,T*1B
$GPTHS,,V*0E
$GPROT,,V*08
$PSSN,HRP,131537.00,010125,,,,,,,00,0,,*63
$PTNL,AVR,131537.00,,Yaw,,Tilt,,,,0,,00*35
$GPGSA,A,3,06,11,12,19,24,25,28,29,32,,,,0.7,0.4,0.6*3B
$GPGSA,A,3,67,68,69,76,77,78,79,86,87,88,,,0.7,0.4,0.6*36
$GPGSA,A,3,02,07,08,27,29,30,34,36,,,,,0.7,0.4,0.6*35
$GPGSA,A,3,05,07,10,12,24,25,26,32,33,34,35,41,0.7,0.4,0.6*37
$GPGSA,A,3,44,60,,,,,,,,,,,0.7,0.4,0.6*31
$GPGST,131537.00,2.261,0.548,0.401,13.711,0.541,0.411,1.002*6C
$GPGBS,131537.00,3.244,2.018,7.301,77,0.0001,-7.228,6.186*78
$GPGRS,131537.00,1,-0.6,0.1,0.2,0.3,0.1,-0.1,-0.8,-0.5,0.5,,,*6C
$GPGRS,131537.00,1,4.8,6.6,2.7,-1.8,-7.2,-1.7,-2.7,0.8,-1.6,-2.1,,*46
$GPGRS,131537.00,1,0.2,-0.1,-1.1,0.1,0.9,0.2,0.2,0.0,,,,*47
$GPGRS,131537.00,1,1.4,1.3,1.4,-0.5,-0.3,0.3,0.8,-2.2,-2.1,0.6,-0.6,1.3*6F
$GPGRS,131537.00,1,0.6,-2.2,,,,,,,,,,*67
$GPGSV,5,1,18,12,79,027,51,11,27,112,44,29,19,210,43,32,32,293,46*72
$GPGSV,5,2,18,19,21,046,42,06,29,069,44,24,47,152,48,25,51,279,47*79
$GPGSV,5,3,18,28,09,311,38,36,35,170,45,58,13,245,36,40,23,133,36*71
$GPGSV,5,4,18,34,31,208,43,49,34,195,45,57,08,110,37,41,07,108,35*7C
$GPGSV,5,5,18,61,03,257,38*4F
$GLGSV,3,1,10,87,53,084,48,88,28,161,47,86,23,031,45,69,23,322,48*6D
$GLGSV,3,2,10,68,28,267,48,77,52,077,46,78,52,314,52,76,10,098,44*63
$GLGSV,3,3,10,67,06,223,44,79,06,291,43*65
$GAGSV,3,1,09,30,79,315,49,08,14,190,40,36,29,071,43,27,29,268,43*6F
$GAGSV,3,2,09,34,22,128,41,07,41,240,46,29,29,306,43,02,40,074,45*69
$GAGSV,3,3,09,11,09,025,34*58
$GBGSV,5,1,20,24,83,077,51,34,20,186,44,31,16,096,,05,20,130,39*6B
$GBGSV,5,2,20,07,10,057,37,41,16,288,42,12,40,162,46,10,23,059,39*6E
$GBGSV,5,3,20,56,31,052,,26,31,109,45,25,38,295,47,35,38,058,47*64
$GBGSV,5,4,20,23,36,288,,44,55,129,50,32,06,338,40,40,04,046,37*6C
$GBGSV,5,5,20,20,04,342,,02,04,108,32,33,08,241,41,60,08,110,40*64
$GPGGA,131537.00,,,,,0,00,,,M,,M,,*4A
$PTNL,GGK,131537.00,010125,4742.1602785,N,01618.1007893,E,1,41,0.7,EHT751.2294,M*44
$GPGGQ,131537.00,010125,4742.1602785,N,01618.1007893,E,1,41,1.211,708.0229,M*36
$GPGFA,131537.00,5.213,8.217,0.548,0.401,13.711,1.002,,VVV*32
$GPLLK,131537.00,010125,,M,,M,1,41,0.8,,M*04
$GNGMP,131537.00,,,,,DAAA,41,0.4,,,,*55
$GPGMP,131537.00,,,,,,09,,,,2.7,136*77
$GLGMP,131537.00,,,,,,10,,,,,*7C
$GAGMP,131537.00,,,,,,08,,,,,*78
$GBGMP,131537.00,,,,,,14,,,,,*76
$PSSN,SNC,[0,306955000,2347]*48
$GPZDA,131542.00,01,01,2025,,*63
$GPDTM,W84,,00.0000000,N,00.0000000,E,00.0000000,W84*5F
$PSSN,TFM,131542.00,,,,*6F
$GPRMC,131542.00,A,4742.1602786,N,01618.1007882,E,0.0,,010125,5.1,E,D*1E
$GPGLL,4742.1602786,N,01618.1007882,E,131542.00,A,D*6F
$GPGGA,131542.00,4742.1602786,N,01618.1007882,E,2,41,0.4,708.0229,M,43.2066,M,2.3,0136*45
$GNGNS,131542.00,4742.1602786,N,01618.1007882,E,DAAA,41,0.4,708.0229,43.2066,,*5C
$GPGNS,131542.00,,,,,,09,,,,2.3,136*71
$GLGNS,131542.00,,,,,,10,,,,,*7E
$GAGNS,131542.00,,,,,,08,,,,,*7A
$GBGNS,131542.00,,,,,,14,,,,,*74
$GPLLQ,131542.00,010125,,M,,M,1,41,1.209,,M*1E
$GPVTG,,T,,M,0.00,N,0.01,K,D*27
$GPHDT,,T*1B
$GPTHS,,V*0E
$GPROT,,V*08
$PSSN,HRP,131542.00,010125,,,,,,,00,0,,*61
$PTNL,AVR,131542.00,,Yaw,,Tilt,,,,0,,00*37
$GPGSA,A,3,06,11,12,19,24,25,28,29,32,,,,0.7,0.4,0.6*3B
$GPGSA,A,3,67,68,69,76,77,78,79,86,87,88,,,0.7,0.4,0.6*36
$GPGSA,A,3,02,07,08,27,29,30,34,36,,,,,0.7,0.4,0.6*35
$GPGSA,A,3,05,07,10,12,24,25,26,32,33,34,35,41,0.7,0.4,0.6*37
$GPGSA,A,3,44,60,,,,,,,,,,,0.7,0.4,0.6*31
$GPGST,131542.00,2.199,0.546,0.395,14.288,0.538,0.406,1.004*62
$GPGBS,131542.00,3.234,2.028,7.236,77,0.0001,-6.253,6.186*76
$GPGRS,131542.00,1,-0.7,-0.0,0.2,0.4,0.2,-0.3,-0.4,-0.4,0.5,,,*48
$GPGRS,131542.00,1,5.5,6.3,3.5,-1.8,-6.3,-1.6,-2.1,1.0,-1.8,-1.8,,*44
$GPGRS,131542.00,1,0.3,0.2,-0.8,-0.0,1.2,0.1,0.4,0.0,,,,*41
$GPGRS,131542.00,1,1.1,1.8,0.9,0.7,-0.4,0.1,0.7,-2.2,-1.7,-0.0,-0.5,1.1*65
$GPGRS,131542.00,1,0.7,-2.3,,,,,,,,,,*65
$GPGSV,5,1,18,12,79,027,51,11,27,112,44,29,19,210,43,32,32,293,46*72
$GPGSV,5,2,18,19,21,046,42,06,29,069,43,24,47,152,48,25,51,279,47*7E
$GPGSV,5,3,18,28,09,311,39,36,35,170,45,58,13,245,36,40,23,133,36*70
$GPGSV,5,4,18,34,31,208,43,49,34,195,45,57,08,110,38,41,07,108,35*73
$GPGSV,5,5,18,61,03,257,38*4F
$GLGSV,3,1,10,87,53,084,48,88,28,161,47,86,23,031,46,69,23,322,48*6E
$GLGSV,3,2,10,68,28,267,48,77,52,077,47,78,53,314,52,76,10,098,44*63
$GLGSV,3,3,10,67,06,223,44,79,06,291,43*65
$GAGSV,3,1,09,30,79,315,49,08,14,190,40,36,29,071,43,27,29,268,43*6F
$GAGSV,3,2,09,34,22,128,41,07,41,240,45,29,29,306,43,02,40,074,45*6A
$GAGSV,3,3,09,11,09,025,34*58
$GBGSV,5,1,20,24,83,077,51,34,20,186,44,31,16,096,,05,20,130,39*6B
$GBGSV,5,2,20,07,10,057,37,41,16,288,42,12,41,162,46,10,23,059,39*6F
$GBGSV,5,3,20,56,31,052,,26,31,109,45,25,38,295,47,35,38,058,47*64
$GBGSV,5,4,20,23,36,288,,44,55,129,50,32,06,338,40,40,04,046,37*6C
$GBGSV,5,5,20,20,04,342,,02,04,108,32,33,08,241,41,60,08,110,40*64
$GPGGA,131542.00,,,,,0,00,,,M,,M,,*48
$PTNL,GGK,131542.00,010125,4742.1602786,N,01618.1007882,E,1,41,0.7,EHT751.2294,M*45
$GPGGQ,131542.00,010125,4742.1602786,N,01618.1007882,E,1,41,1.209,708.0229,M*3E
$GPGFA,131542.00,5.193,8.230,0.546,0.395,14.288,1.004,,VVV*3E
$GPLLK,131542.00,010125,,M,,M,1,41,0.8,,M*06
$GNGMP,131542.00,,,,,DAAA,41,0.4,,,,*57
$GPGMP,131542.00,,,,,,09,,,,2.3,136*71
$GLGMP,131542.00,,,,,,10,,,,,*7E
$GAGMP,131542.00,,,,,,08,,,,,*7A
$GBGMP,131542.00,,,,,,14,,,,,*74
$PSSN,SNC,[0,306960000,2347]*4E
$GPZDA,131547.00,01,01,2025,,*66
$GPDTM,W84,,00.0000000,N,00.0000000,E,00.0000000,W84*5F
$PSSN,TFM,131547.00,,,,*6A
$GPRMC,131547.00,A,4742.1602762,N,01618.1007915,E,0.0,,010125,5.1,E,D*1E
$GPGLL,4742.1602762,N,01618.1007915,E,131547.00,A,D*6F
$GPGGA,131547.00,4742.1602762,N,01618.1007915,E,2,41,0.4,708.0226,M,43.2066,M,2.0,0136*49
$GNGNS,131547.00,4742.1602762,N,01618.1007915,E,DAAA,41,0.4,708.0226,43.2066,,*53
$GPGNS,131547.00,,,,,,09,,,,2.0,136*77
$GLGNS,131547.00,,,,,,10,,,,,*7B
$GAGNS,131547.00,,,,,,08,,,,,*7F
$GBGNS,131547.00,,,,,,14,,,,,*71
$GPLLQ,131547.00,010125,,M,,M,1,41,1.204,,M*16
$GPVTG,,T,,M,0.00,N,0.00,K,D*26
$GPHDT,,T*1B
$GPTHS,,V*0E
$GPROT,,V*08
$PSSN,HRP,131547.00,010125,,,,,,,00,0,,*64
$PTNL,AVR,131547.00,,Yaw,,Tilt,,,,0,,00*32
$GPGSA,A,3,06,11,12,19,24,25,28,29,32,,,,0.7,0.4,0.6*3B
$GPGSA,A,3,67,68,69,76,77,78,79,86,87,88,,,0.7,0.4,0.6*36
$GPGSA,A,3,02,07,08,27,29,30,34,36,,,,,0.7,0.4,0.6*35
$GPGSA,A,3,05,07,10,12,24,25,26,32,33,34,35,41,0.7,0.4,0.6*37
$GPGSA,A,3,44,60,,,,,,,,,,,0.7,0.4,0.6*31
$GPGST,131547.00,2.238,0.544,0.393,14.561,0.535,0.405,0.999*69
$GPGBS,131547.00,3.262,2.023,7.221,68,0.0001,7.143,6.411*56
$GPGRS,131547.00,1,-1.0,-0.2,0.3,0.8,0.1,-0.1,-0.0,-1.0,0.7,,,*46
$GPGRS,131547.00,1,5.0,7.1,2.9,-2.6,-6.7,-1.6,-1.9,0.7,-1.4,-1.3,,*49
$GPGRS,131547.00,1,0.5,0.4,-1.0,0.0,1.2,0.2,0.4,0.3,,,,*60
$GPGRS,131547.00,1,0.8,1.0,1.0,0.5,-0.4,0.7,0.7,-2.1,-1.6,0.2,-0.4,0.6*46
$GPGRS,131547.00,1,0.9,-2.0,,,,,,,,,,*6D
$GPGSV,5,1,18,12,79,027,51,11,27,112,43,29,19,210,43,32,32,293,46*75
$GPGSV,5,2,18,19,21,046,42,06,29,069,43,24,47,152,47,25,51,279,47*71
$GPGSV,5,3,18,28,09,311,39,36,35,170,45,58,13,245,36,40,23,133,36*70
$GPGSV,5,4,18,34,31,208,43,49,34,195,45,57,08,110,37,41,07,108,35*7C
$GPGSV,5,5,18,61,03,257,38*4F
$GLGSV,3,1,10,87,53,083,48,88,28,161,48,86,23,031,45,69,23,322,47*6A
$GLGSV,3,2,10,68,27,267,48,77,52,077,46,78,53,314,52,76,10,098,43*6A
$GLGSV,3,3,10,67,06,223,43,79,06,291,42*63
$GAGSV,3,1,09,30,79,316,49,08,14,190,40,36,29,071,42,27,29,268,43*6D
$GAGSV,3,2,09,34,22,128,41,07,41,240,45,29,29,306,43,02,39,074,45*64
$GAGSV,3,3,09,11,09,025,34*58
$GBGSV,5,1,20,24,83,077,51,34,20,186,44,31,16,096,,05,20,130,39*6B
$GBGSV,5,2,20,07,10,057,37,41,16,288,42,12,41,162,46,10,23,059,39*6F
$GBGSV,5,3,20,56,31,052,,26,31,109,46,25,38,295,47,35,38,058,48*68
$GBGSV,5,4,20,23,36,288,,44,55,129,50,32,06,338,40,40,04,046,37*6C
$GBGSV,5,5,20,20,04,342,,02,04,108,32,33,08,241,41,60,08,110,40*64
$GPGGA,131547.00,,,,,0,00,,,M,,M,,*4D
$PTNL,GGK,131547.00,010125,4742.1602762,N,01618.1007915,E,1,41,0.7,EHT751.2292,M*43
$GPGGQ,131547.00,010125,4742.1602762,N,01618.1007915,E,1,41,1.204,708.0226,M*3C
$GPGFA,131547.00,5.169,8.193,0.544,0.393,14.561,0.999,,VVV*3C
$GPLLK,131547.00,010125,,M,,M,1,41,0.8,,M*03
$GNGMP,131547.00,,,,,DAAA,41,0.4,,,,*52
$GPGMP,131547.00,,,,,,09,,,,2.0,136*77
$GLGMP,131547.00,,,,,,10,,,,,*7B
$GAGMP,131547.00,,,,,,08,,,,,*7F
$GBGMP,131547.00,,,,,,14,,,,,*71
$PSSN,SNC,[0,306965000,2347]*4B
$GPZDA,131552.00,01,01,2025,,*62
$GPDTM,W84,,00.0000000,N,00.0000000,E,00.0000000,W84*5F
$PSSN,TFM,131552.00,,,,*6E
$GPRMC,131552.00,A,4742.1602737,N,01618.1007947,E,0.0,,010125,5.1,E,D*1D
$GPGLL,4742.1602737,N,01618.1007947,E,131552.00,A,D*6C
$GPGGA,131552.00,4742.1602737,N,01618.1007947,E,2,41,0.4,708.0185,M,43.2066,M,3.0,0136*41
$GNGNS,131552.00,4742.1602737,N,01618.1007947,E,DAAA,41,0.4,708.0185,43.2066,,*5A
$GPGNS,131552.00,,,,,,09,,,,3.0,136*72
$GLGNS,131552.00,,,,,,10,,,,,*7F
$GAGNS,131552.00,,,,,,08,,,,,*7B
$GBGNS,131552.00,,,,,,14,,,,,*75
$GPLLQ,131552.00,010125,,M,,M,1,41,1.199,,M*15
$GPVTG,,T,,M,0.00,N,0.00,K,D*26
$GPHDT,,T*1B
$GPTHS,,V*0E
$GPROT,,V*08
$PSSN,HRP,131552.00,010125,,,,,,,00,0,,*60
$PTNL,AVR,131552.00,,Yaw,,Tilt,,,,0,,00*36
$GPGSA,A,3,06,11,12,19,24,25,28,29,32,,,,0.7,0.4,0.6*3B
$GPGSA,A,3,67,68,69,76,77,78,79,86,87,88,,,0.7,0.4,0.6*36
$GPGSA,A,3,02,07,08,27,29,30,34,36,,,,,0.7,0.4,0.6*35
$GPGSA,A,3,05,07,10,12,24,25,26,32,33,34,35,41,0.7,0.4,0.6*37
$GPGSA,A,3,44,60,,,,,,,,,,,0.7,0.4,0.6*31
$GPGST,131552.00,2.334,0.545,0.394,14.059,0.537,0.405,0.992*61
$GPGBS,131552.00,3.272,2.028,7.285,68,0.0001,7.587,6.411*5A
$GPGRS,131552.00,1,-0.6,-0.0,0.3,1.0,-0.1,0.1,-0.1,-0.6,0.1,,,*4E
$GPGRS,131552.00,1,4.5,7.6,2.1,-3.0,-7.3,-1.9,-2.7,0.7,-1.6,-1.5,,*42
$GPGRS,131552.00,1,0.5,0.1,-0.9,0.2,1.3,0.3,0.1,0.1,,,,*6C
$GPGRS,131552.00,1,1.0,1.8,0.7,-0.3,-0.2,0.4,1.1,-2.0,-1.3,0.5,-0.5,0.9*61
$GPGRS,131552.00,1,0.8,-2.4,,,,,,,,,,*6C
$GPGSV,5,1,18,12,79,027,51,11,27,112,43,29,19,210,43,32,32,293,46*75
$GPGSV,5,2,18,19,21,046,42,06,29,069,44,24,47,152,48,25,51,279,47*79
$GPGSV,5,3,18,28,09,311,40,36,35,170,45,58,13,245,37,40,23,133,36*7F
$GPGSV,5,4,18,34,31,208,43,49,34,195,45,57,08,110,37,41,07,108,35*7C
$GPGSV,5,5,18,61,03,257,38*4F
$GLGSV,3,1,10,87,53,083,48,88,28,161,48,86,23,031,45,69,23,322,46*6B
$GLGSV,3,2,10,68,27,267,49,77,52,077,46,78,53,315,52,76,10,098,42*6B
$GLGSV,3,3,10,67,06,223,43,79,06,291,42*63
$GAGSV,3,1,09,30,79,316,49,08,14,190,40,36,29,071,42,27,29,268,43*6D
$GAGSV,3,2,09,34,22,128,41,07,41,240,45,29,29,306,43,02,39,074,45*64
$GAGSV,3,3,09,11,09,025,34*58
$GBGSV,5,1,20,24,83,077,51,34,20,186,44,31,16,096,,05,20,130,39*6B
$GBGSV,5,2,20,07,10,057,38,41,16,288,42,12,41,162,46,10,23,059,39*60
$GBGSV,5,3,20,56,31,052,,26,31,109,46,25,38,295,47,35,38,058,47*67
$GBGSV,5,4,20,23,36,288,,44,55,129,50,32,06,338,40,40,04,046,37*6C
$GBGSV,5,5,20,20,04,342,,02,04,108,32,33,08,241,41,60,08,110,40*64
$GPGGA,131552.00,,,,,0,00,,,M,,M,,*49
$PTNL,GGK,131552.00,010125,4742.1602737,N,01618.1007947,E,1,41,0.7,EHT751.2251,M*4F
$GPGGQ,131552.00,010125,4742.1602737,N,01618.1007947,E,1,41,1.199,708.0185,M*32
$GPGFA,131552.00,5.180,8.138,0.545,0.394,14.059,0.992,,VVV*3D
$GPLLK,131552.00,010125,,M,,M,1,41,0.8,,M*07
$GNGMP,131552.00,,,,,DAAA,41,0.4,,,,*56
$GPGMP,131552.00,,,,,,09,,,,3.0,136*72
$GLGMP,131552.00,,,,,,10,,,,,*7F
$GAGMP,131552.00,,,,,,08,,,,,*7B
$GBGMP,131552.00,,,,,,14,,,,,*75
$PSSN,SNC,[0,306970000,2347]*4F
$GPZDA,131557.00,01,01,2025,,*67
$GPDTM,W84,,00.0000000,N,00.0000000,E,00.0000000,W84*5F
$PSSN,TFM,131557.00,,,,*6B
$GPRMC,131557.00,A,4742.1602724,N,01618.1007966,E,0.0,,010125,5.1,E,D*19
$GPGLL,4742.1602724,N,01618.1007966,E,131557.00,A,D*68
$GPGGA,131557.00,4742.1602724,N,01618.1007966,E,2,41,0.4,708.0182,M,43.2065,M,2.7,0136*47
$GNGNS,131557.00,4742.1602724,N,01618.1007966,E,DAAA,41,0.4,708.0182,43.2065,,*5A
$GPGNS,131557.00,,,,,,09,,,,2.7,136*71
$GLGNS,131557.00,,,,,,10,,,,,*7A
$GAGNS,131557.00,,,,,,08,,,,,*7E
$GBGNS,131557.00,,,,,,14,,,,,*70
$GPLLQ,131557.00,010125,,M,,M,1,41,1.207,,M*14
$GPVTG,,T,,M,0.00,N,0.01,K,D*27
$GPHDT,,T*1B
$GPTHS,,V*0E
$GPROT,,V*08
$PSSN,HRP,131557.00,010125,,,,,,,00,0,,*65
$PTNL,AVR,131557.00,,Yaw,,Tilt,,,,0,,00*33
$GPGSA,A,3,06,11,12,19,24,25,28,29,32,,,,0.7,0.4,0.6*3B
$GPGSA,A,3,67,68,69,76,77,78,79,86,87,88,,,0.7,0.4,0.6*36
$GPGSA,A,3,02,07,08,27,29,30,34,36,,,,,0.7,0.4,0.6*35
$GPGSA,A,3,05,07,10,12,24,25,26,32,33,34,35,41,0.7,0.4,0.6*37
$GPGSA,A,3,44,60,,,,,,,,,,,0.7,0.4,0.6*31
$GPGST,131557.00,2.295,0.548,0.397,13.825,0.540,0.407,1.000*65
$GPGBS,131557.00,3.224,2.043,7.307,68,0.0001,7.185,6.411*5C
$GPGRS,131557.00,1,-0.6,0.1,0.1,0.6,0.1,-0.1,-0.1,-0.6,0.5,,,*66
$GPGRS,131557.00,1,4.5,7.2,2.3,-2.8,-6.8,-1.8,-3.1,1.6,-1.5,-1.1,,*43
$GPGRS,131557.00,1,0.4,0.2,-1.4,0.2,1.0,0.2,-0.2,-0.0,,,,*67
$GPGRS,131557.00,1,1.3,2.4,1.1,-1.0,-0.3,0.2,1.2,-1.8,-1.7,-0.3,-0.6,1.3*45
$GPGRS,131557.00,1,0.8,-2.2,,,,,,,,,,*6F
$GPGSV,5,1,18,12,79,027,51,11,27,112,44,29,19,210,43,32,32,293,45*71
$GPGSV,5,2,18,19,20,046,42,06,29,069,44,24,47,152,47,25,51,279,47*77
$GPGSV,5,3,18,28,09,311,39,36,35,170,46,58,13,245,36,40,23,133,36*73
$GPGSV,5,4,18,34,31,208,43,49,34,195,45,57,08,110,37,41,07,108,35*7C
$GPGSV,5,5,18,61,03,257,38*4F
$GLGSV,3,1,10,87,53,083,48,88,28,161,48,86,23,031,45,69,23,322,47*6A
$GLGSV,3,2,10,68,27,267,48,77,52,077,46,78,53,315,51,76,10,098,42*69
$GLGSV,3,3,10,67,06,223,44,79,06,291,42*64
$GAGSV,3,1,09,30,79,316,49,08,14,190,39,36,29,071,43,27,29,268,43*62
$GAGSV,3,2,09,34,22,128,41,07,41,240,45,29,29,306,43,02,39,074,45*64
$GAGSV,3,3,09,11,09,025,34*58
$GBGSV,5,1,20,24,83,078,52,34,20,186,44,31,16,096,,05,20,130,39*67
$GBGSV,5,2,20,07,10,057,38,41,16,288,42,12,41,162,46,10,23,059,39*60
$GBGSV,5,3,20,56,31,052,,26,31,109,46,25,38,295,47,35,38,058,48*68
$GBGSV,5,4,20,23,36,288,,44,55,129,50,32,06,338,40,40,04,046,37*6C
$GBGSV,5,5,20,20,04,342,,02,04,108,32,33,08,241,41,60,08,110,40*64
$GPGGA,131557.00,,,,,0,00,,,M,,M,,*4C
$PTNL,GGK,131557.00,010125,4742.1602724,N,01618.1007966,E,1,41,0.7,EHT751.2247,M*4C
$GPGGQ,131557.00,010125,4742.1602724,N,01618.1007966,E,1,41,1.207,708.0182,M*35
$GPGFA,131557.00,5.206,8.202,0.548,0.397,13.825,1.000,,VVV*36
$GPLLK,131557.00,010125,,M,,M,1,41,0.8,,M*02
$GNGMP,131557.00,,,,,DAAA,41,0.4,,,,*53
$GPGMP,131557.00,,,,,,09,,,,2.7,136*71
$GLGMP,131557.00,,,,,,10,,,,,*7A
$GAGMP,131557.00,,,,,,08,,,,,*7E
$GBGMP,131557.00,,,,,,14,,,,,*70
$PSSN,SNC,[0,306975000,2347]*4A
$GPZDA,131602.00,01,01,2025,,*64
$GPDTM,W84,,00.0000000,N,00.0000000,E,00.0000000,W84*5F
$PSSN,TFM,131602.00,,,,*68
$GPRMC,131602.00,A,4742.1602713,N,01618.1007975,E,0.0,,010125,5.1,E,D*1C
$GPGLL,4742.1602713,N,01618.1007975,E,131602.00,A,D*6D
$GPGGA,131602.00,4742.1602713,N,01618.1007975,E,2,41,0.4,708.0156,M,43.2065,M,2.3,0136*4F
$GNGNS,131602.00,4742.1602713,N,01618.1007975,E,DAAA,41,0.4,708.0156,43.2065,,*56
$GPGNS,131602.00,,,,,,09,,,,2.3,136*76
$GLGNS,131602.00,,,,,,10,,,,,*79
$GAGNS,131602.00,,,,,,08,,,,,*7D
$GBGNS,131602.00,,,,,,14,,,,,*73
$GPLLQ,131602.00,010125,,M,,M,1,41,1.210,,M*11
$GPVTG,,T,,M,0.00,N,0.00,K,D*26
$GPHDT,,T*1B
$GPTHS,,V*0E
$GPROT,,V*08
$PSSN,HRP,131602.00,010125,,,,,,,00,0,,*66
$PTNL,AVR,131602.00,,Yaw,,Tilt,,,,0,,00*30
$GPGSA,A,3,06,11,12,19,24,25,28,29,32,,,,0.7,0.4,0.6*3B
$GPGSA,A,3,67,68,69,76,77,78,79,86,87,88,,,0.7,0.4,0.6*36
$GPGSA,A,3,02,07,08,27,29,30,34,36,,,,,0.7,0.4,0.6*35
$GPGSA,A,3,05,07,10,12,24,25,26,32,33,34,35,41,0.7,0.4,0.6*37
$GPGSA,A,3,44,60,,,,,,,,,,,0.7,0.4,0.6*31
$GPGST,131602.00,2.294,0.546,0.395,14.232,0.538,0.406,1.005*6B
$GPGBS,131602.00,3.237,2.022,7.249,77,0.0001,-6.844,6.186*7C
$GPGRS,131602.00,1,-0.8,0.2,0.3,1.0,0.0,-0.2,-0.5,-0.8,0.4,,,*64
$GPGRS,131602.00,1,5.4,5.9,3.2,-2.7,-6.8,-1.4,-2.0,1.4,-1.7,-1.6,,*4D
$GPGRS,131602.00,1,0.2,-0.1,-1.3,0.2,1.3,-0.1,-0.2,0.2,,,,*49
$GPGRS,131602.00,1,1.1,2.3,1.3,-0.7,-0.4,0.5,1.0,-2.2,-2.2,-0.8,-0.7,1.0*43
$GPGRS,131602.00,1,1.0,-2.7,,,,,,,,,,*60
$GPGSV,5,1,18,12,79,027,51,11,27,112,44,29,19,210,42,32,32,293,46*73
$GPGSV,5,2,18,19,20,046,42,06,29,069,44,24,47,152,47,25,51,279,47*77
$GPGSV,5,3,18,28,09,311,40,36,35,170,46,58,13,245,37,40,23,133,37*7D
$GPGSV,5,4,18,34,31,208,43,49,34,195,45,57,08,110,38,41,07,108,35*73
$GPGSV,5,5,18,61,03,257,38*4F
$GLGSV,3,1,10,87,53,083,48,88,28,161,47,86,23,031,46,69,23,322,47*66
$GLGSV,3,2,10,68,27,267,48,77,52,077,46,78,53,315,52,76,10,098,42*6A
$GLGSV,3,3,10,67,06,223,42,79,06,291,42*62
$GAGSV,3,1,09,30,79,316,49,08,13,190,39,36,29,071,43,27,29,268,43*65
$GAGSV,3,2,09,34,22,128,41,07,41,240,45,29,29,306,43,02,39,074,46*67
$GAGSV,3,3,09,11,09,025,34*58
$GBGSV,5,1,20,24,83,078,52,34,20,186,43,31,16,096,,05,20,130,39*60
$GBGSV,5,2,20,07,10,057,38,41,16,288,42,12,41,162,46,10,23,059,39*60
$GBGSV,5,3,20,56,31,052,,26,31,110,46,25,38,295,47,35,37,058,48*6F
$GBGSV,5,4,20,23,36,288,,44,55,129,50,32,06,338,39,40,04,046,37*62
$GBGSV,5,5,20,20,04,342,,02,04,108,32,33,08,241,42,60,08,110,40*67
$GPGGA,131602.00,,,,,0,00,,,M,,M,,*4F
$PTNL,GGK,131602.00,010125,4742.1602713,N,01618.1007975,E,1,41,0.7,EHT751.2221,M*49
$GPGGQ,131602.00,010125,4742.1602713,N,01618.1007975,E,1,41,1.210,708.0156,M*3F
$GPGFA,131602.00,5.187,8.244,0.546,0.395,14.232,1.005,,VVV*3F
$GPLLK,131602.00,010125,,M,,M,1,41,0.8,,M*01
$GNGMP,131602.00,,,,,DAAA,41,0.4,,,,*50
$GPGMP,131602.00,,,,,,09,,,,2.3,136*76
$GLGMP,131602.00,,,,,,10,,,,,*79
$GAGMP,131602.00,,,,,,08,,,,,*7D
$GBGMP,131602.00,,,,,,14,,,,,*73
$PSSN,SNC,[0,306980000,2347]*40
$GPZDA,131607.00,01,01,2025,,*61
$GPDTM,W84,,00.0000000,N,00.0000000,E,00.0000000,W84*5F
$PSSN,TFM,131607.00,,,,*6D
$GPRMC,131607.00,A,4742.1602676,N,01618.1007975,E,0.0,,010125,5.1,E,D*1B
$GPGLL,4742.1602676,N,01618.1007975,E,131607.00,A,D*6A
$GPGGA,131607.00,4742.1602676,N,01618.1007975,E,2,41,0.4,708.0150,M,43.2065,M,2.0,0136*4D
$GNGNS,131607.00,4742.1602676,N,01618.1007975,E,DAAA,41,0.4,708.0150,43.2065,,*57
$GPGNS,131607.00,,,,,,09,,,,2.0,136*70
$GLGNS,131607.00,,,,,,10,,,,,*7C
$GAGNS,131607.00,,,,,,08,,,,,*78
$GBGNS,131607.00,,,,,,14,,,,,*76
$GPLLQ,131607.00,010125,,M,,M,1,41,1.212,,M*16
$GPVTG,,T,,M,0.00,N,0.01,K,D*27
$GPHDT,,T*1B
$GPTHS,,V*0E
$GPROT,,V*08
$PSSN,HRP,131607.00,010125,,,,,,,00,0,,*63
$PTNL,AVR,131607.00,,Yaw,,Tilt,,,,0,,00*35
$GPGSA,A,3,06,11,12,19,24,25,28,29,32,,,,0.7,0.4,0.6*3B
$GPGSA,A,3,67,68,69,76,77,78,79,86,87,88,,,0.7,0.4,0.6*36
$GPGSA,A,3,02,07,08,27,29,30,34,36,,,,,0.7,0.4,0.6*35
$GPGSA,A,3,05,07,10,12,24,25,26,32,33,34,35,41,0.7,0.4,0.6*37
$GPGSA,A,3,44,60,,,,,,,,,,,0.7,0.4,0.6*31
$GPGST,131607.00,2.201,0.544,0.400,14.499,0.536,0.411,1.006*67
$GPGBS,131607.00,3.297,2.060,7.240,29,0.0001,-1.484,1.298*7B
$GPGRS,131607.00,1,-0.8,0.2,0.1,1.1,0.3,0.1,-0.8,-1.5,0.8,,,*42
$GPGRS,131607.00,1,5.2,6.2,3.4,-2.2,-6.3,-1.6,-2.6,1.2,-1.7,-1.8,,*42
$GPGRS,131607.00,1,0.1,-0.1,-1.3,0.4,1.4,-0.2,-0.1,-0.2,,,,*63
$GPGRS,131607.00,1,1.0,1.8,1.5,-0.8,-0.5,0.3,1.1,-1.5,-1.1,-0.3,-0.4,0.7*4A
$GPGRS,131607.00,1,0.9,-1.9,,,,,,,,,,*60
$GPGSV,5,1,18,12,79,028,51,11,27,112,44,29,19,210,42,32,32,293,46*7C
$GPGSV,5,2,18,19,20,046,42,06,29,069,43,24,47,152,47,25,51,279,48*7F
$GPGSV,5,3,18,28,09,311,40,36,35,170,45,58,13,245,37,40,23,133,36*7F
$GPGSV,5,4,18,34,31,208,43,49,34,195,45,57,08,110,37,41,07,108,35*7C
$GPGSV,5,5,18,61,03,257,38*4F
$GLGSV,3,1,10,78,53,315,52,86,23,031,45,68,27,267,47,88,28,161,48*68
$GLGSV,3,2,10,69,23,322,47,77,52,077,47,87,53,083,48,67,06,222,42*62
$GLGSV,3,3,10,79,06,291,43,76,10,098,42*66
$GAGSV,3,1,09,30,79,316,49,08,13,190,39,36,29,071,42,27,29,268,43*64
$GAGSV,3,2,09,34,22,128,41,07,41,240,45,29,29,306,43,02,39,074,45*64
$GAGSV,3,3,09,11,09,025,33*5F
$GBGSV,5,1,20,24,83,078,51,34,21,186,43,31,16,096,,05,20,130,39*62
$GBGSV,5,2,20,07,10,057,38,41,16,288,42,12,41,162,45,10,23,059,39*63
$GBGSV,5,3,20,56,31,052,,26,30,110,45,25,38,295,47,35,37,058,48*6D
$GBGSV,5,4,20,23,36,288,,44,55,129,50,32,06,338,39,40,04,046,38*6D
$GBGSV,5,5,20,20,04,342,,02,04,108,33,33,08,241,41,60,08,110,40*65
$GPGGA,131607.00,,,,,0,00,,,M,,M,,*4A
$PTNL,GGK,131607.00,010125,4742.1602676,N,01618.1007975,E,1,41,0.7,EHT751.2215,M*49
$GPGGQ,131607.00,010125,4742.1602676,N,01618.1007975,E,1,41,1.212,708.0150,M*3C
$GPGFA,131607.00,5.169,8.250,0.544,0.400,14.499,1.006,,VVV*32
$GPLLK,131607.00,010125,,M,,M,1,41,0.8,,M*04
$GNGMP,131607.00,,,,,DAAA,41,0.4,,,,*55
$GPGMP,131607.00,,,,,,09,,,,2.0,136*70
$GLGMP,131607.00,,,,,,10,,,,,*7C
$GAGMP,131607.00,,,,,,08,,,,,*78
$GBGMP,131607.00,,,,,,14,,,,,*76
$PSSN,SNC,[0,306985000,2347]*45
$GPZDA,131612.00,01,01,2025,,*65
$GPDTM,W84,,00.0000000,N,00.0000000,E,00.0000000,W84*5F
$PSSN,TFM,131612.00,,,,*69
$GPRMC,131612.00,A,4742.1602651,N,01618.1007981,E,0.0,,010125,5.1,E,D*11
$GPGLL,4742.1602651,N,01618.1007981,E,131612.00,A,D*60
$GPGGA,131612.00,4742.1602651,N,01618.1007981,E,2,41,0.4,708.0087,M,43.2065,M,3.0,0136*4D
$GNGNS,131612.00,4742.1602651,N,01618.1007981,E,DAAA,41,0.4,708.0087,43.2065,,*56
$GPGNS,131612.00,,,,,,09,,,,3.0,136*75
$GLGNS,131612.00,,,,,,10,,,,,*78
$GAGNS,131612.00,,,,,,08,,,,,*7C
$GBGNS,131612.00,,,,,,14,,,,,*72
$GPLLQ,131612.00,010125,,M,,M,1,41,1.207,,M*16
$GPVTG,,T,,M,0.00,N,0.01,K,D*27
$GPHDT,,T*1B
$GPTHS,,V*0E
$GPROT,,V*08
$PSSN,HRP,131612.00,010125,,,,,,,00,0,,*67
$PTNL,AVR,131612.00,,Yaw,,Tilt,,,,0,,00*31
$GPGSA,A,3,06,11,12,19,24,25,28,29,32,,,,0.7,0.4,0.6*3B
$GPGSA,A,3,67,68,69,76,77,78,79,86,87,88,,,0.7,0.4,0.6*36
$GPGSA,A,3,02,07,08,27,29,30,34,36,,,,,0.7,0.4,0.6*35
$GPGSA,A,3,05,07,10,12,24,25,26,32,33,34,35,41,0.7,0.4,0.6*37
$GPGSA,A,3,44,60,,,,,,,,,,,0.7,0.4,0.6*31
$GPGST,131612.00,2.147,0.545,0.401,14.008,0.538,0.411,1.000*66
$GPGBS,131612.00,3.308,2.065,7.304,68,0.0001,6.948,6.412*5D
$GPGRS,131612.00,1,-0.5,0.5,0.0,0.6,0.1,-0.1,-0.5,-0.8,0.6,,,*6B
$GPGRS,131612.00,1,4.4,6.9,2.6,-2.1,-6.5,-1.6,-1.0,0.8,-1.9,-2.0,,*47
$GPGRS,131612.00,1,-0.1,0.2,-1.5,-0.2,1.0,-0.2,0.2,-0.1,,,,*60
$GPGRS,131612.00,1,1.1,2.0,1.0,-0.9,-0.6,0.5,0.7,-1.4,-1.3,0.2,-1.1,0.8*66
$GPGRS,131612.00,1,0.9,-2.1,,,,,,,,,,*6F
$GPGSV,5,1,18,12,79,028,51,11,27,112,44,29,19,210,42,32,32,293,46*7C
$GPGSV,5,2,18,19,20,046,41,24,47,152,47,06,29,069,43,25,51,279,47*73
$GPGSV,5,3,18,28,09,311,40,36,35,170,46,58,13,245,37,40,23,133,36*7C
$GPGSV,5,4,18,34,31,208,43,49,34,195,45,57,08,110,37,41,07,108,35*7C
$GPGSV,5,5,18,61,03,257,38*4F
$GLGSV,3,1,10,78,53,315,52,86,23,031,46,68,27,267,48,88,28,161,48*64
$GLGSV,3,2,10,69,23,322,46,77,52,077,46,87,53,083,48,67,06,222,44*64
$GLGSV,3,3,10,79,06,291,41,76,10,098,43*65
$GAGSV,3,1,09,30,79,316,49,08,13,190,39,36,29,071,43,27,29,268,43*65
$GAGSV,3,2,09,34,22,128,42,07,41,240,45,29,29,306,43,02,39,074,45*67
$GAGSV,3,3,09,11,09,025,33*5F
$GBGSV,5,1,20,24,83,078,51,34,21,186,44,31,16,096,,05,20,130,39*65
$GBGSV,5,2,20,07,10,057,38,41,16,288,42,12,41,162,46,10,23,059,39*60
$GBGSV,5,3,20,56,31,052,,26,30,110,45,25,38,295,47,35,37,058,48*6D
$GBGSV,5,4,20,23,36,288,,44,55,129,50,32,06,338,40,40,04,046,38*63
$GBGSV,5,5,20,20,04,342,,02,04,108,33,33,08,241,41,60,08,110,40*65
$GPGGA,131612.00,,,,,0,00,,,M,,M,,*4E
$PTNL,GGK,131612.00,010125,4742.1602651,N,01618.1007981,E,1,41,0.7,EHT751.2152,M*43
$GPGGQ,131612.00,010125,4742.1602651,N,01618.1007981,E,1,41,1.207,708.0087,M*39
$GPGFA,131612.00,5.182,8.198,0.545,0.401,14.008,1.000,,VVV*3E
$GPLLK,131612.00,010125,,M,,M,1,41,0.8,,M*00
$GNGMP,131612.00,,,,,DAAA,41,0.4,,,,*51
$GPGMP,131612.00,,,,,,09,,,,3.0,136*75
$GLGMP,131612.00,,,,,,10,,,,,*78
$GAGMP,131612.00,,,,,,08,,,,,*7C
$GBGMP,131612.00,,,,,,14,,,,,*72
$PSSN,SNC,[0,306990000,2347]*41
$GPZDA,131617.00,01,01,2025,,*60
$GPDTM,W84,,00.0000000,N,00.0000000,E,00.0000000,W84*5F
$PSSN,TFM,131617.00,,,,*6C
$GPRMC,131617.00,A,4742.1602657,N,01618.1007983,E,0.0,,010125,5.1,E,D*10
$GPGLL,4742.1602657,N,01618.1007983,E,131617.00,A,D*61
$GPGGA,131617.00,4742.1602657,N,01618.1007983,E,2,41,0.4,708.0074,M,43.2065,M,2.7,0136*46
$GNGNS,131617.00,4742.1602657,N,01618.1007983,E,DAAA,41,0.4,708.0074,43.2065,,*5B
$GPGNS,131617.00,,,,,,09,,,,2.7,136*76
$GLGNS,131617.00,,,,,,10,,,,,*7D
$GAGNS,131617.00,,,,,,08,,,,,*79
$GBGNS,131617.00,,,,,,14,,,,,*77
$GPLLQ,131617.00,010125,,M,,M,1,41,1.216,,M*13
$GPVTG,,T,,M,0.00,N,0.01,K,D*27
$GPHDT,,T*1B
$GPTHS,,V*0E
$GPROT,,V*08
$PSSN,HRP,131617.00,010125,,,,,,,00,0,,*62
$PTNL,AVR,131617.00,,Yaw,,Tilt,,,,0,,00*34
$GPGSA,A,3,06,11,12,19,24,25,28,29,32,,,,0.7,0.4,0.6*3B
$GPGSA,A,3,67,68,69,76,77,78,79,86,87,88,,,0.7,0.4,0.6*36
$GPGSA,A,3,02,07,08,27,29,30,34,36,,,,,0.7,0.4,0.6*35
$GPGSA,A,3,05,07,10,12,24,25,26,32,33,34,35,41,0.7,0.4,0.6*37
$GPGSA,A,3,44,60,,,,,,,,,,,0.7,0.4,0.6*31
$GPGST,131617.00,2.270,0.548,0.403,13.740,0.541,0.413,1.007*6C
$GPGBS,131617.00,3.259,2.022,7.323,68,0.0001,7.566,6.413*5B
$GPGRS,131617.00,1,-0.6,0.2,0.1,0.7,0.3,-0.2,-0.6,-0.9,0.5,,,*6A
$GPGRS,131617.00,1,4.5,7.6,2.6,-2.3,-6.6,-1.2,-2.8,1.6,-1.4,-1.7,,*45
$GPGRS,131617.00,1,-0.1,0.0,-1.5,0.1,1.1,0.0,0.2,0.1,,,,*4A
$GPGRS,131617.00,1,0.9,2.0,1.0,-0.4,-0.7,0.2,0.6,-1.4,-1.4,0.2,-1.1,0.9*66
$GPGRS,131617.00,1,1.0,-2.3,,,,,,,,,,*60
$GPGSV,5,1,18,12,79,028,51,11,27,112,44,29,19,210,42,32,32,292,45*7E
$GPGSV,5,2,18,19,20,046,41,24,47,152,47,06,29,069,43,25,51,279,47*73
$GPGSV,5,3,18,28,09,311,40,36,35,170,46,58,13,245,36,40,23,133,36*7D
$GPGSV,5,4,18,34,31,208,43,49,34,195,45,57,08,110,37,41,07,108,35*7C
$GPGSV,5,5,18,61,03,257,38*4F
$GLGSV,3,1,10,78,53,315,52,86,23,031,46,68,27,267,49,88,28,161,49*64
$GLGSV,3,2,10,69,23,322,47,77,52,077,46,87,53,083,49,67,06,222,44*64
$GLGSV,3,3,10,79,06,291,42,76,10,098,43*66
$GAGSV,3,1,09,30,79,316,49,08,13,190,38,36,29,071,43,27,29,268,44*63
$GAGSV,3,2,09,34,22,128,42,07,41,240,45,29,29,306,43,02,39,074,45*67
$GAGSV,3,3,09,11,09,025,33*5F
$GBGSV,5,1,20,24,82,078,51,34,21,186,43,31,16,096,,05,20,130,39*63
$GBGSV,5,2,20,07,10,057,38,41,16,288,42,12,41,162,45,10,23,059,39*63
$GBGSV,5,3,20,56,30,052,,26,30,110,45,25,38,295,47,35,37,058,47*63
$GBGSV,5,4,20,23,37,288,,44,55,129,50,32,06,338,40,40,04,046,38*62
$GBGSV,5,5,20,20,04,342,,02,04,108,32,33,08,241,41,60,08,110,40*64
$GPGGA,131617.00,,,,,0,00,,,M,,M,,*4B
$PTNL,GGK,131617.00,010125,4742.1602657,N,01618.1007983,E,1,41,0.7,EHT751.2139,M*4F
$GPGGQ,131617.00,010125,4742.1602657,N,01618.1007983,E,1,41,1.216,708.0074,M*34
$GPGFA,131617.00,5.207,8.260,0.548,0.403,13.740,1.007,,VVV*35
$GPLLK,131617.00,010125,,M,,M,1,41,0.8,,M*05
$GNGMP,131617.00,,,,,DAAA,41,0.4,,,,*54
$GPGMP,131617.00,,,,,,09,,,,2.7,136*76
$GLGMP,131617.00,,,,,,10,,,,,*7D
$GAGMP,131617.00,,,,,,08,,,,,*79
$GBGMP,131617.00,,,,,,14,,,,,*77
$PSSN,SNC,[0,306995000,2347]*44
$GPZDA,131622.00,01,01,2025,,*66
$GPDTM,W84,,00.0000000,N,00.0000000,E,00.0000000,W84*5F
$PSSN,TFM,131622.00,,,,*6A
$GPRMC,131622.00,A,4742.1602648,N,01618.1007985,E,0.0,,010125,5.1,E,D*1E
$GPGLL,4742.1602648,N,01618.1007985,E,131622.00,A,D*6F
$GPGGA,131622.00,4742.1602648,N,01618.1007985,E,2,41,0.4,708.0084,M,43.2065,M,2.3,0136*43
$GNGNS,131622.00,4742.1602648,N,01618.1007985,E,DAAA,41,0.4,708.0084,43.2065,,*5A
