$GPZDA,074442.00,01,01,2025,,*62
$GPDTM,W84,,00.0000000,N,00.0000000,E,00.0000000,W84*5F
$PSSN,TFM,074442.00,,,,*6E
$GPRMC,074442.00,A,4742.1604373,N,01618.1002457,E,0.0,,010125,5.1,E,D*16
$GPGLL,4742.1604373,N,01618.1002457,E,074442.00,A,D*67
$GPGGA,074442.00,4742.1604373,N,01618.1002457,E,2,36,0.4,707.7561,M,43.2066,M,1.7,0136*49
$GNGNS,074442.00,4742.1604373,N,01618.1002457,E,DAAA,36,0.4,707.7561,43.2066,,*57
$GPGNS,074442.00,,,,,,09,,,,1.7,136*77
$GLGNS,074442.00,,,,,,07,,,,,*79
$GAGNS,074442.00,,,,,,08,,,,,*7B
$GBGNS,074442.00,,,,,,12,,,,,*73
$GPLLQ,074442.00,010125,,M,,M,1,36,1.017,,M*12
$GPVTG,,T,,M,0.00,N,0.01,K,D*27
$GPHDT,,T*1B
$GPTHS,,V*0E
$GPROT,,V*08
$PSSN,HRP,074442.00,010125,,,,,,,00,0,,*60
$PTNL,AVR,074442.00,,Yaw,,Tilt,,,,0,,00*36
$GPGSA,A,3,05,07,08,13,14,15,18,20,30,,,,0.7,0.4,0.6*36
$GPGSA,A,3,65,66,72,74,75,76,82,,,,,,0.7,0.4,0.6*3B
$GPGSA,A,3,02,03,05,08,13,15,24,25,,,,,0.7,0.4,0.6*3C
$GPGSA,A,3,05,07,09,10,21,22,26,36,40,42,45,60,0.7,0.4,0.6*3A
$GPGST,074442.00,1.922,0.430,0.345,353.075,0.429,0.346,0.855*5A
$GPGBS,074442.00,3.301,2.037,4.687,72,0.0001,6.263,6.084*5B
$GPGRS,074442.00,1,-0.2,-0.9,0.6,0.5,0.1,-0.7,0.3,0.3,-0.2,,,*6D
$GPGRS,074442.00,1,-2.2,-3.3,6.3,3.9,-2.3,-3.7,-2.2,,,,,*46
$GPGRS,074442.00,1,-1.7,-0.1,0.7,-0.0,0.1,1.3,-0.4,0.2,,,,*4A
$GPGRS,074442.00,1,-0.7,0.3,-0.1,-0.7,0.5,-0.1,0.3,-0.6,-1.8,-0.6,-0.2,0.3*42
$GPGSV,5,1,19,30,67,061,49,15,20,301,43,08,11,048,39,14,53,149,48*73
$GPGSV,5,2,19,20,38,210,45,07,30,065,45,13,54,300,48,05,54,258,48*70
$GPGSV,5,3,19,27,02,018,31,18,09,319,39,36,35,170,44,58,13,245,36*76
$GPGSV,5,4,19,40,24,133,36,34,31,208,43,49,34,195,44,57,07,112,37*7A
$GPGSV,5,5,19,41,07,108,35,61,03,257,38*73
$GLGSV,3,1,11,75,74,193,52,66,15,318,44,76,14,211,45,72,50,131,50*65
$GLGSV,3,2,11,74,46,041,46,65,66,324,49,73,04,037,39,71,02,135,*64
$GLGSV,3,3,11,81,05,306,43,82,10,350,43,83,02,028,*52
$GAGSV,3,1,10,03,82,328,48,24,40,060,45,02,16,188,39,13,17,297,39*6E
$GAGSV,3,2,10,08,29,296,43,05,41,108,45,25,53,142,48,16,56,095,*6B
$GAGSV,3,3,10,15,10,247,38,26,04,345,35*62
$GBGSV,5,1,18,45,77,178,51,56,11,093,,09,12,067,37,05,21,130,37*6B
$GBGSV,5,2,18,24,19,211,,42,25,312,43,26,23,223,44,10,25,087,39*6A
$GBGSV,5,3,18,40,22,065,42,22,44,151,50,07,22,073,39,36,44,057,48*67
$GBGSV,5,4,18,50,51,301,,21,74,274,52,02,05,108,34,14,01,316,*6F
$GBGSV,5,5,18,27,00,350,,60,07,112,41*67
$GPGGA,074442.00,,,,,0,00,,,M,,M,,*49
$PTNL,GGK,074442.00,010125,4742.1604373,N,01618.1002457,E,1,36,0.7,EHT750.9626,M*4A
$GPGGQ,074442.00,010125,4742.1604373,N,01618.1002457,E,1,36,1.017,707.7561,M*38
$GPGFA,074442.00,4.090,7.007,0.430,0.345,353.075,0.855,,VVV*05
$GPLLK,074442.00,010125,,M,,M,1,36,0.8,,M*07
$GNGMP,074442.00,,,,,DAAA,36,0.4,,,,*56
$GPGMP,074442.00,,,,,,09,,,,1.7,136*77
$GLGMP,074442.00,,,,,,07,,,,,*79
$GAGMP,074442.00,,,,,,08,,,,,*7B
$GBGMP,074442.00,,,,,,12,,,,,*73
$PSSN,SNC,[0,287100000,2347]*48
$GPALM,1,1,20,2347,00,1F53,7B,093D,FD29,A10CF0,9F5AA2,D75F47,E04B01,181,000*0C
$GPZDA,074447.00,01,01,2025,,*67
$GPDTM,W84,,00.0000000,N,00.0000000,E,00.0000000,W84*5F
$PSSN,TFM,074447.00,,,,*6B
$GPRMC,074447.00,A,4742.1604386,N,01618.1002443,E,0.0,,010125,5.1,E,D*1C
$GPGLL,4742.1604386,N,01618.1002443,E,074447.00,A,D*6D
$GPGGA,074447.00,4742.1604386,N,01618.1002443,E,2,36,0.4,707.7564,M,43.2066,M,2.2,0136*40
$GNGNS,074447.00,4742.1604386,N,01618.1002443,E,DAAA,36,0.4,707.7564,43.2066,,*58
$GPGNS,074447.00,,,,,,09,,,,2.2,136*74
$GLGNS,074447.00,,,,,,07,,,,,*7C
$GAGNS,074447.00,,,,,,08,,,,,*7E
$GBGNS,074447.00,,,,,,12,,,,,*76
$GPLLQ,074447.00,010125,,M,,M,1,36,1.008,,M*19
$GPVTG,,T,,M,0.00,N,0.01,K,D*27
$GPHDT,,T*1B
$GPTHS,,V*0E
$GPROT,,V*08
$PSSN,HRP,074447.00,010125,,,,,,,00,0,,*65
$PTNL,AVR,074447.00,,Yaw,,Tilt,,,,0,,00*33
$GPGSA,A,3,05,07,08,13,14,15,18,20,30,,,,0.7,0.4,0.6*36
$GPGSA,A,3,65,66,72,74,75,76,82,,,,,,0.7,0.4,0.6*3B
$GPGSA,A,3,02,03,05,08,13,15,24,25,,,,,0.7,0.4,0.6*3C
$GPGSA,A,3,05,07,09,10,21,22,26,36,40,42,45,60,0.7,0.4,0.6*3A
$GPGST,074447.00,1.892,0.428,0.340,354.443,0.428,0.341,0.847*5A
$GPGBS,074447.00,3.301,2.017,4.756,72,0.0001,5.742,6.084*54
$GPGRS,074447.00,1,-0.3,-0.4,1.1,-0.1,0.2,-0.1,0.5,-0.0,0.0,,,*49
$GPGRS,074447.00,1,-2.4,-3.4,5.7,4.4,-2.1,-3.5,-2.1,,,,,*4C
$GPGRS,074447.00,1,-1.9,-0.0,0.7,-0.1,0.6,1.2,-0.3,0.1,,,,*43
$GPGRS,074447.00,1,-0.2,0.9,-0.2,-1.2,0.4,-0.2,0.3,-0.5,-1.6,-0.3,-0.2,0.4*42
$GPGSV,5,1,19,30,67,061,49,15,20,301,43,08,11,048,39,14,53,149,48*73
$GPGSV,5,2,19,20,38,210,46,07,30,065,44,13,54,300,48,05,54,257,48*7D
$GPGSV,5,3,19,27,02,018,32,18,09,319,39,36,35,170,44,58,13,245,36*75
$GPGSV,5,4,19,40,24,133,36,34,31,208,43,49,34,195,44,57,07,112,37*7A
$GPGSV,5,5,19,41,07,108,35,61,03,257,38*73
$GLGSV,3,1,11,75,74,193,52,66,15,318,45,76,14,211,46,72,50,131,50*67
$GLGSV,3,2,11,74,46,041,46,65,66,324,49,73,04,037,39,71,02,135,*64
$GLGSV,3,3,11,81,05,306,45,82,10,350,43,83,02,028,*54
$GAGSV,3,1,10,03,82,328,48,24,40,060,45,02,16,188,39,13,17,297,40*60
$GAGSV,3,2,10,08,29,296,43,05,41,108,45,25,53,142,48,16,56,095,*6B
$GAGSV,3,3,10,15,09,247,38,26,04,345,36*69
$GBGSV,5,1,18,45,77,178,51,56,11,093,,09,12,067,37,05,21,130,37*6B
$GBGSV,5,2,18,24,19,211,,42,26,312,44,26,23,223,44,10,25,087,39*6E
$GBGSV,5,3,18,40,22,065,42,22,44,151,50,07,22,073,40,36,44,057,48*69
$GBGSV,5,4,18,50,51,301,,21,74,273,52,02,05,108,34,14,01,316,*68
$GBGSV,5,5,18,27,00,350,,60,07,112,41*67
$GPGGA,074447.00,,,,,0,00,,,M,,M,,*4C
$PTNL,GGK,074447.00,010125,4742.1604386,N,01618.1002443,E,1,36,0.7,EHT750.9629,M*4F
$GPGGQ,074447.00,010125,4742.1604386,N,01618.1002443,E,1,36,1.008,707.7564,M*39
$GPGFA,074447.00,4.073,6.947,0.428,0.340,354.443,0.847,,VVV*08
$GPLLK,074447.00,010125,,M,,M,1,36,0.8,,M*02
$GNGMP,074447.00,,,,,DAAA,36,0.4,,,,*53
$GPGMP,074447.00,,,,,,09,,,,2.2,136*74
$GLGMP,074447.00,,,,,,07,,,,,*7C
$GAGMP,074447.00,,,,,,08,,,,,*7E
$GBGMP,074447.00,,,,,,12,,,,,*76
$PSSN,SNC,[0,287105000,2347]*4D
$GPZDA,074452.00,01,01,2025,,*63
$GPDTM,W84,,00.0000000,N,00.0000000,E,00.0000000,W84*5F
$PSSN,TFM,074452.00,,,,*6F
$GPRMC,074452.00,A,4742.1604388,N,01618.1002407,E,0.0,,010125,5.1,E,D*16
$GPGLL,4742.1604388,N,01618.1002407,E,074452.00,A,D*67
$GPGGA,074452.00,4742.1604388,N,01618.1002407,E,2,36,0.4,707.7650,M,43.2066,M,3.2,0136*4F
$GNGNS,074452.00,4742.1604388,N,01618.1002407,E,DAAA,36,0.4,707.7650,43.2066,,*56
$GPGNS,074452.00,,,,,,09,,,,3.2,136*71
$GLGNS,074452.00,,,,,,07,,,,,*78
$GAGNS,074452.00,,,,,,08,,,,,*7A
$GBGNS,074452.00,,,,,,12,,,,,*72
$GPLLQ,074452.00,010125,,M,,M,1,36,1.014,,M*10
$GPVTG,,T,,M,0.00,N,0.01,K,D*27
$GPHDT,,T*1B
$GPTHS,,V*0E
$GPROT,,V*08
$PSSN,HRP,074452.00,010125,,,,,,,00,0,,*61
$PTNL,AVR,074452.00,,Yaw,,Tilt,,,,0,,00*37
$GPGSA,A,3,05,07,08,13,14,15,18,20,30,,,,0.7,0.4,0.6*36
$GPGSA,A,3,65,66,72,74,75,76,82,,,,,,0.7,0.4,0.6*3B
$GPGSA,A,3,02,03,05,08,13,15,24,25,,,,,0.7,0.4,0.6*3C
$GPGSA,A,3,05,07,09,10,21,22,26,36,40,42,45,60,0.7,0.4,0.6*3A
$GPGST,074452.00,1.896,0.434,0.343,353.292,0.433,0.344,0.850*50
$GPGBS,074452.00,3.363,2.046,4.834,72,0.0001,6.400,6.084*5D
$GPGRS,074452.00,1,-0.3,-0.5,0.9,-0.2,0.0,-0.1,0.4,0.4,0.2,,,*6E
$GPGRS,074452.00,1,-2.6,-3.2,6.4,4.2,-2.1,-2.7,-1.3,,,,,*48
$GPGRS,074452.00,1,-1.9,0.1,0.4,-0.0,0.1,1.0,0.1,0.0,,,,*42
$GPGRS,074452.00,1,-0.3,2.0,0.5,-1.1,0.6,-0.1,0.3,-0.5,-1.3,-0.5,-0.1,0.4*64
$GPGSV,5,1,19,30,67,061,50,15,20,301,43,08,11,048,39,14,53,149,48*7B
$GPGSV,5,2,19,20,37,210,45,07,30,065,44,13,54,300,48,05,54,257,48*71
$GPGSV,5,3,19,27,02,018,31,18,09,319,38,36,35,170,44,58,13,245,36*77
$GPGSV,5,4,19,40,24,133,36,34,31,208,43,49,34,195,44,57,07,112,37*7A
$GPGSV,5,5,19,41,07,108,35,61,03,257,38*73
$GLGSV,3,1,11,75,74,193,52,66,16,318,43,76,14,211,46,72,50,131,50*62
$GLGSV,3,2,11,74,46,041,46,65,66,324,49,73,04,037,39,71,02,135,*64
$GLGSV,3,3,11,81,05,306,45,82,10,350,42,83,02,028,*55
$GAGSV,3,1,10,03,82,328,48,24,40,060,45,02,16,188,39,13,17,297,40*60
$GAGSV,3,2,10,08,29,296,43,05,41,108,45,25,53,142,47,16,56,095,*64
$GAGSV,3,3,10,15,09,247,38,26,04,345,35*6A
$GBGSV,5,1,18,45,77,178,51,56,11,093,,09,12,067,38,05,21,130,37*64
$GBGSV,5,2,18,24,19,211,,42,26,312,44,26,23,223,44,10,25,087,39*6E
$GBGSV,5,3,18,40,22,065,42,22,44,151,50,07,22,073,40,36,44,057,48*69
$GBGSV,5,4,18,50,51,301,,21,74,273,52,02,05,108,34,14,01,316,*68
$GBGSV,5,5,18,27,00,350,,60,07,112,41*67
$GPGGA,074452.00,,,,,0,00,,,M,,M,,*48
$PTNL,GGK,074452.00,010125,4742.1604388,N,01618.1002407,E,1,36,0.7,EHT750.9716,M*48
$GPGGQ,074452.00,010125,4742.1604388,N,01618.1002407,E,1,36,1.014,707.7650,M*3A
$GPGFA,074452.00,4.127,6.969,0.434,0.343,353.292,0.850,,VVV*05
$GPLLK,074452.00,010125,,M,,M,1,36,0.8,,M*06
$GNGMP,074452.00,,,,,DAAA,36,0.4,,,,*57
$GPGMP,074452.00,,,,,,09,,,,3.2,136*71
$GLGMP,074452.00,,,,,,07,,,,,*78
$GAGMP,074452.00,,,,,,08,,,,,*7A
$GBGMP,074452.00,,,,,,12,,,,,*72
$PSSN,SNC,[0,287110000,2347]*49
$GPZDA,074457.00,01,01,2025,,*66
$GPDTM,W84,,00.0000000,N,00.0000000,E,00.0000000,W84*5F
$PSSN,TFM,074457.00,,,,*6A
$GPRMC,074457.00,A,4742.1604408,N,01618.1002388,E,0.0,,010125,5.1,E,D*1C
$GPGLL,4742.1604408,N,01618.1002388,E,074457.00,A,D*6D
$GPGGA,074457.00,4742.1604408,N,01618.1002388,E,2,36,0.4,707.7645,M,43.2066,M,2.9,0136*4B
$GNGNS,074457.00,4742.1604408,N,01618.1002388,E,DAAA,36,0.4,707.7645,43.2066,,*58
$GPGNS,074457.00,,,,,,09,,,,2.9,136*7E
$GLGNS,074457.00,,,,,,07,,,,,*7D
$GAGNS,074457.00,,,,,,08,,,,,*7F
$GBGNS,074457.00,,,,,,12,,,,,*77
$GPLLQ,074457.00,010125,,M,,M,1,36,1.024,,M*16
$GPVTG,,T,,M,0.00,N,0.01,K,D*27
$GPHDT,,T*1B
$GPTHS,,V*0E
$GPROT,,V*08
$PSSN,HRP,074457.00,010125,,,,,,,00,0,,*64
$PTNL,AVR,074457.00,,Yaw,,Tilt,,,,0,,00*32
$GPGSA,A,3,05,07,08,13,14,15,18,20,30,,,,0.7,0.4,0.6*36
$GPGSA,A,3,65,66,72,74,75,76,82,,,,,,0.7,0.4,0.6*3B
$GPGSA,A,3,02,03,05,08,13,15,24,25,,,,,0.7,0.4,0.6*3C
$GPGSA,A,3,05,07,09,10,21,22,26,36,40,42,45,60,0.7,0.4,0.6*3A
$GPGST,074457.00,1.955,0.437,0.348,352.049,0.436,0.349,0.858*56
$GPGBS,074457.00,3.435,2.097,4.780,72,0.0001,6.481,6.084*59
$GPGRS,074457.00,1,0.2,-0.4,0.7,-0.2,-0.0,-0.3,-0.0,0.3,-0.0,,,*66
$GPGRS,074457.00,1,-2.6,-3.5,6.5,3.6,-2.5,-4.0,-1.3,,,,,*4D
$GPGRS,074457.00,1,-1.7,0.1,0.2,0.1,0.3,0.9,-0.2,-0.1,,,,*6B
$GPGRS,074457.00,1,-0.8,1.7,0.6,-1.1,0.8,0.0,0.7,-0.7,-1.1,-0.8,0.1,0.5*6A
$GPGSV,5,1,19,30,67,061,50,15,20,301,43,08,11,048,38,14,53,149,48*7A
$GPGSV,5,2,19,20,37,210,46,07,30,065,44,13,54,300,48,05,54,257,47*7D
$GPGSV,5,3,19,27,02,018,31,18,09,319,38,36,35,170,44,58,13,245,36*77
$GPGSV,5,4,19,40,24,133,35,34,31,208,43,49,34,195,44,57,07,112,37*79
$GPGSV,5,5,19,41,07,108,35,61,03,257,38*73
$GLGSV,3,1,11,75,74,193,52,66,16,318,45,76,14,211,45,72,50,131,50*67
$GLGSV,3,2,11,74,46,041,45,65,66,324,49,73,04,037,40,71,02,135,*69
$GLGSV,3,3,11,81,05,306,44,82,10,350,43,83,02,028,*55
$GAGSV,3,1,10,03,82,328,48,24,40,060,45,02,16,188,39,13,17,297,39*6E
$GAGSV,3,2,10,08,29,296,42,05,41,108,44,25,53,141,47,16,56,095,*67
$GAGSV,3,3,10,15,09,247,38,26,04,345,36*69
$GBGSV,5,1,18,45,77,178,51,56,11,093,,09,12,067,37,05,21,130,37*6B
$GBGSV,5,2,18,24,19,211,,42,26,312,44,26,24,223,45,10,25,087,39*68
$GBGSV,5,3,18,40,22,065,42,22,44,151,50,07,22,073,40,36,44,057,48*69
$GBGSV,5,4,18,50,51,301,,21,74,273,52,02,05,108,34,14,01,316,*68
$GBGSV,5,5,18,27,00,350,,60,07,112,41*67
$GPGGA,074457.00,,,,,0,00,,,M,,M,,*4D
$PTNL,GGK,074457.00,010125,4742.1604408,N,01618.1002388,E,1,36,0.7,EHT750.9711,M*45
$GPGGQ,074457.00,010125,4742.1604408,N,01618.1002388,E,1,36,1.024,707.7645,M*37
$GPGFA,074457.00,4.158,7.037,0.437,0.348,352.049,0.858,,VVV*0E
$GPLLK,074457.00,010125,,M,,M,1,36,0.8,,M*03
$GNGMP,074457.00,,,,,DAAA,36,0.4,,,,*52
$GPGMP,074457.00,,,,,,09,,,,2.9,136*7E
$GLGMP,074457.00,,,,,,07,,,,,*7D
$GAGMP,074457.00,,,,,,08,,,,,*7F
$GBGMP,074457.00,,,,,,12,,,,,*77
$PSSN,SNC,[0,287115000,2347]*4C
$GPZDA,074502.00,01,01,2025,,*67
$GPDTM,W84,,00.0000000,N,00.0000000,E,00.0000000,W84*5F
$PSSN,TFM,074502.00,,,,*6B
$GPRMC,074502.00,A,4742.1604436,N,01618.1002392,E,0.0,,010125,5.1,E,D*1B
$GPGLL,4742.1604436,N,01618.1002392,E,074502.00,A,D*6A
$GPGGA,074502.00,4742.1604436,N,01618.1002392,E,2,36,0.4,707.7692,M,43.2066,M,1.7,0136*4B
$GNGNS,074502.00,4742.1604436,N,01618.1002392,E,DAAA,36,0.4,707.7692,43.2066,,*55
$GPGNS,074502.00,,,,,,09,,,,1.7,136*72
$GLGNS,074502.00,,,,,,07,,,,,*7C
$GAGNS,074502.00,,,,,,08,,,,,*7E
$GBGNS,074502.00,,,,,,12,,,,,*76
$GPLLQ,074502.00,010125,,M,,M,1,36,1.032,,M*10
$GPVTG,,T,,M,0.00,N,0.00,K,D*26
$GPHDT,,T*1B
$GPTHS,,V*0E
$GPROT,,V*08
$PSSN,HRP,074502.00,010125,,,,,,,00,0,,*65
$PTNL,AVR,074502.00,,Yaw,,Tilt,,,,0,,00*33
$GPGSA,A,3,05,07,08,13,14,15,18,20,30,,,,0.7,0.4,0.6*36
$GPGSA,A,3,65,66,72,74,75,76,82,,,,,,0.7,0.4,0.6*3B
$GPGSA,A,3,02,03,05,08,13,15,24,25,,,,,0.7,0.4,0.6*3C
$GPGSA,A,3,05,07,09,10,21,22,26,36,40,42,45,60,0.7,0.4,0.6*3A
$GPGST,074502.00,1.971,0.443,0.348,354.307,0.442,0.349,0.864*51
$GPGBS,074502.00,3.367,2.061,4.777,72,0.0001,6.292,6.087*5E
$GPGRS,074502.00,1,0.1,-0.2,0.8,-0.1,0.0,-0.2,0.1,0.4,-0.3,,,*6A
$GPGRS,074502.00,1,-2.5,-2.3,6.3,4.4,-2.3,-4.5,-2.4,,,,,*4C
$GPGRS,074502.00,1,-1.2,-0.0,0.4,-0.4,0.3,0.9,-0.2,0.1,,,,*40
$GPGRS,074502.00,1,-0.0,1.7,0.6,-0.4,0.6,0.0,0.5,-0.4,-1.1,-1.0,0.1,0.5*61
$GPGSV,5,1,19,30,67,061,49,15,20,301,42,08,11,048,38,14,53,149,48*73
$GPGSV,5,2,19,20,37,210,46,07,30,065,44,13,54,300,48,05,54,257,48*72
$GPGSV,5,3,19,27,02,018,30,18,09,319,38,36,35,170,44,58,13,245,36*76
$GPGSV,5,4,19,40,24,133,35,34,31,208,43,49,34,195,44,57,07,112,37*79
$GPGSV,5,5,19,41,07,108,35,61,03,257,38*73
$GLGSV,3,1,11,75,74,193,52,66,16,318,46,76,14,211,45,72,50,131,50*64
$GLGSV,3,2,11,74,46,041,46,65,67,324,49,73,04,037,40,71,02,135,*6B
$GLGSV,3,3,11,81,05,306,44,82,10,350,42,83,02,028,*54
$GAGSV,3,1,10,03,82,328,48,24,40,060,45,02,16,188,39,13,16,297,39*6F
$GAGSV,3,2,10,08,29,296,42,05,41,108,45,25,53,141,47,16,56,095,*66
$GAGSV,3,3,10,15,09,247,38,26,04,345,36*69
$GBGSV,5,1,18,45,77,178,51,56,12,093,,09,12,067,37,05,21,130,37*68
$GBGSV,5,2,18,24,19,211,,42,26,312,44,26,24,223,44,10,25,087,39*69
$GBGSV,5,3,18,40,22,065,42,22,44,151,50,07,22,073,40,36,44,057,48*69
$GBGSV,5,4,18,50,51,301,,21,74,273,52,02,05,108,34,14,01,316,*68
$GBGSV,5,5,18,27,00,350,,60,07,112,41*67
$GPGGA,074502.00,,,,,0,00,,,M,,M,,*4C
$PTNL,GGK,074502.00,010125,4742.1604436,N,01618.1002392,E,1,36,0.7,EHT750.9758,M*4F
$GPGGQ,074502.00,010125,4742.1604436,N,01618.1002392,E,1,36,1.032,707.7692,M*3D
$GPGFA,074502.00,4.213,7.085,0.443,0.348,354.307,0.864,,VVV*09
$GPLLK,074502.00,010125,,M,,M,1,36,0.8,,M*02
$GNGMP,074502.00,,,,,DAAA,36,0.4,,,,*53
$GPGMP,074502.00,,,,,,09,,,,1.7,136*72
$GLGMP,074502.00,,,,,,07,,,,,*7C
$GAGMP,074502.00,,,,,,08,,,,,*7E
$GBGMP,074502.00,,,,,,12,,,,,*76
$PSSN,SNC,[0,287120000,2347]*4A
$GPZDA,074507.00,01,01,2025,,*62
$GPDTM,W84,,00.0000000,N,00.0000000,E,00.0000000,W84*5F
$PSSN,TFM,074507.00,,,,*6E
$GPRMC,074507.00,A,4742.1604434,N,01618.1002390,E,0.0,,010125,5.1,E,D*1E
$GPGLL,4742.1604434,N,01618.1002390,E,074507.00,A,D*6F
$GPGGA,074507.00,4742.1604434,N,01618.1002390,E,2,36,0.4,707.7732,M,43.2066,M,2.2,0136*43
$GNGNS,074507.00,4742.1604434,N,01618.1002390,E,DAAA,36,0.4,707.7732,43.2066,,*5B
$GPGNS,074507.00,,,,,,09,,,,2.2,136*71
$GLGNS,074507.00,,,,,,07,,,,,*79
$GAGNS,074507.00,,,,,,08,,,,,*7B
$GBGNS,074507.00,,,,,,12,,,,,*73
$GPLLQ,074507.00,010125,,M,,M,1,36,1.023,,M*15
$GPVTG,,T,,M,0.00,N,0.00,K,D*26
$GPHDT,,T*1B
$GPTHS,,V*0E
$GPROT,,V*08
$PSSN,HRP,074507.00,010125,,,,,,,00,0,,*60
$PTNL,AVR,074507.00,,Yaw,,Tilt,,,,0,,00*36
$GPGSA,A,3,05,07,08,13,14,15,18,20,30,,,,0.7,0.4,0.6*36
$GPGSA,A,3,65,66,72,74,75,76,82,,,,,,0.7,0.4,0.6*3B
$GPGSA,A,3,02,03,05,08,13,15,24,25,,,,,0.7,0.4,0.6*3C
$GPGSA,A,3,05,07,09,10,21,22,26,36,40,42,45,60,0.7,0.4,0.6*3A
$GPGST,074507.00,1.849,0.441,0.343,355.382,0.440,0.344,0.857*54
$GPGBS,074507.00,3.365,2.040,4.841,72,0.0001,6.341,6.088*50
$GPGRS,074507.00,1,0.2,-0.2,0.6,-0.2,-0.2,-0.2,0.8,0.2,-0.1,,,*43
$GPGRS,074507.00,1,-2.4,-2.0,6.3,4.0,-2.3,-3.7,-2.5,,,,,*4B
$GPGRS,074507.00,1,-0.9,0.0,0.5,-0.1,-0.1,1.2,0.1,0.0,,,,*6C
$GPGRS,074507.00,1,-0.4,1.5,0.2,0.1,0.6,0.1,0.2,-0.4,-1.0,-0.4,0.1,0.8*41
$GPGSV,5,1,19,30,67,061,49,15,21,301,42,08,11,048,37,20,37,210,46*79
$GPGSV,5,2,19,14,53,149,47,07,30,065,44,13,54,300,48,05,54,257,48*79
$GPGSV,5,3,19,27,02,018,30,18,09,319,39,36,35,170,44,58,13,245,36*77
$GPGSV,5,4,19,40,24,133,35,34,31,208,43,49,34,195,44,57,07,112,37*79
$GPGSV,5,5,19,41,07,108,35,61,03,257,38*73
$GLGSV,3,1,11,75,74,193,52,66,16,318,45,76,14,211,46,72,50,131,50*64
$GLGSV,3,2,11,74,46,041,45,65,67,324,49,73,04,037,40,71,02,135,*68
$GLGSV,3,3,11,81,05,306,42,82,10,350,43,83,02,028,*53
$GAGSV,3,1,10,03,82,329,48,24,40,060,45,02,16,188,40,13,16,297,39*60
$GAGSV,3,2,10,08,29,296,42,05,41,108,44,25,53,141,48,16,56,095,*68
$GAGSV,3,3,10,15,09,247,38,26,04,345,36*69
$GBGSV,5,1,18,45,77,178,51,56,12,093,,09,12,067,37,05,21,130,37*68
$GBGSV,5,2,18,24,19,211,,42,26,312,44,26,24,223,44,10,25,087,39*69
$GBGSV,5,3,18,40,22,065,42,22,44,151,50,07,22,073,40,36,44,057,48*69
$GBGSV,5,4,18,50,51,301,,21,74,273,52,02,05,108,34,14,01,316,*68
$GBGSV,5,5,18,27,00,350,,60,07,112,41*67
$GPGGA,074507.00,,,,,0,00,,,M,,M,,*49
$PTNL,GGK,074507.00,010125,4742.1604434,N,01618.1002390,E,1,36,0.7,EHT750.9797,M*49
$GPGGQ,074507.00,010125,4742.1604434,N,01618.1002390,E,1,36,1.023,707.7732,M*33
$GPGFA,074507.00,4.193,7.024,0.441,0.343,355.382,0.857,,VVV*09
$GPLLK,074507.00,010125,,M,,M,1,36,0.8,,M*07
$GNGMP,074507.00,,,,,DAAA,36,0.4,,,,*56
$GPGMP,074507.00,,,,,,09,,,,2.2,136*71
$GLGMP,074507.00,,,,,,07,,,,,*79
$GAGMP,074507.00,,,,,,08,,,,,*7B
$GBGMP,074507.00,,,,,,12,,,,,*73
$PSSN,SNC,[0,287125000,2347]*4F
$GPZDA,074512.00,01,01,2025,,*66
$GPDTM,W84,,00.0000000,N,00.0000000,E,00.0000000,W84*5F
$PSSN,TFM,074512.00,,,,*6A
$GPRMC,074512.00,A,4742.1604436,N,01618.1002384,E,0.0,,010125,5.1,E,D*1D
$GPGLL,4742.1604436,N,01618.1002384,E,074512.00,A,D*6C
$GPGGA,074512.00,4742.1604436,N,01618.1002384,E,2,36,0.4,707.7794,M,43.2066,M,3.2,0136*4D
$GNGNS,074512.00,4742.1604436,N,01618.1002384,E,DAAA,36,0.4,707.7794,43.2066,,*54
$GPGNS,074512.00,,,,,,09,,,,3.2,136*74
$GLGNS,074512.00,,,,,,07,,,,,*7D
$GAGNS,074512.00,,,,,,08,,,,,*7F
$GBGNS,074512.00,,,,,,12,,,,,*77
$GPLLQ,074512.00,010125,,M,,M,1,36,1.028,,M*1A
$GPVTG,,T,,M,0.00,N,0.00,K,D*26
$GPHDT,,T*1B
$GPTHS,,V*0E
$GPROT,,V*08
$PSSN,HRP,074512.00,010125,,,,,,,00,0,,*64
$PTNL,AVR,074512.00,,Yaw,,Tilt,,,,0,,00*32
$GPGSA,A,3,05,07,08,13,14,15,18,20,30,,,,0.7,0.4,0.6*36
$GPGSA,A,3,65,66,72,74,75,76,82,,,,,,0.7,0.4,0.6*3B
$GPGSA,A,3,02,03,05,08,13,15,24,25,,,,,0.7,0.4,0.6*3C
$GPGSA,A,3,05,07,09,10,21,22,26,36,40,42,45,60,0.7,0.4,0.6*3A
$GPGST,074512.00,1.771,0.446,0.346,354.281,0.445,0.347,0.859*5D
$GPGBS,074512.00,3.427,2.070,4.915,72,0.0001,6.455,6.088*54
$GPGRS,074512.00,1,0.1,-0.3,1.1,-0.3,0.0,0.0,0.8,-0.1,-0.2,,,*6F
$GPGRS,074512.00,1,-2.5,-2.6,6.5,3.5,-2.1,-2.7,-1.2,,,,,*4B
$GPGRS,074512.00,1,-0.9,0.2,0.5,-0.1,0.3,1.3,0.3,0.0,,,,*46
$GPGRS,074512.00,1,-0.3,1.7,0.1,0.2,0.8,0.3,0.3,-0.3,-1.3,-0.2,0.0,0.8*4E
$GPGSV,5,1,19,30,67,061,49,15,21,301,42,08,11,048,38,20,37,210,45*75
$GPGSV,5,2,19,14,53,149,47,07,30,065,44,13,54,300,48,05,54,257,48*79
$GPGSV,5,3,19,27,02,018,30,18,09,319,39,36,35,170,44,58,13,245,36*77
$GPGSV,5,4,19,40,24,133,36,34,31,208,43,49,34,195,44,57,07,112,37*7A
$GPGSV,5,5,19,41,07,108,35,61,03,257,38*73
$GLGSV,3,1,11,75,74,193,52,66,16,318,45,76,15,211,45,72,50,131,50*66
$GLGSV,3,2,11,74,46,041,46,65,67,324,49,73,04,037,40,71,02,135,*6B
$GLGSV,3,3,11,81,05,306,42,82,10,350,44,83,02,028,*54
$GAGSV,3,1,10,03,82,329,48,24,40,060,45,02,16,188,40,13,16,297,39*60
$GAGSV,3,2,10,08,29,296,43,05,41,108,45,16,56,095,,25,53,141,47*67
$GAGSV,3,3,10,15,09,247,38,26,04,345,36*69
$GBGSV,5,1,18,45,77,178,51,56,12,093,,09,12,067,36,05,21,130,37*69
$GBGSV,5,2,18,24,19,211,,42,26,312,44,26,24,223,44,10,25,087,40*67
$GBGSV,5,3,18,40,22,065,42,22,44,151,50,07,22,073,40,36,43,057,48*6E
$GBGSV,5,4,18,50,51,301,,21,74,273,52,02,05,108,34,14,01,316,*68
$GBGSV,5,5,18,27,00,350,,60,07,112,41*67
$GPGGA,074512.00,,,,,0,00,,,M,,M,,*4D
$PTNL,GGK,074512.00,010125,4742.1604436,N,01618.1002384,E,1,36,0.7,EHT750.9860,M*4D
$GPGGQ,074512.00,010125,4742.1604436,N,01618.1002384,E,1,36,1.028,707.7794,M*37
$GPGFA,074512.00,4.243,7.044,0.446,0.346,354.281,0.859,,VVV*0A
$GPLLK,074512.00,010125,,M,,M,1,36,0.8,,M*03
$GNGMP,074512.00,,,,,DAAA,36,0.4,,,,*52
$GPGMP,074512.00,,,,,,09,,,,3.2,136*74
$GLGMP,074512.00,,,,,,07,,,,,*7D
$GAGMP,074512.00,,,,,,08,,,,,*7F
$GBGMP,074512.00,,,,,,12,,,,,*77
$PSSN,SNC,[0,287130000,2347]*4B
$GPZDA,074517.00,01,01,2025,,*63
$GPDTM,W84,,00.0000000,N,00.0000000,E,00.0000000,W84*5F
$PSSN,TFM,074517.00,,,,*6F
$GPRMC,074517.00,A,4742.1604429,N,01618.1002368,E,0.0,,010125,5.1,E,D*14
$GPGLL,4742.1604429,N,01618.1002368,E,074517.00,A,D*65
$GPGGA,074517.00,4742.1604429,N,01618.1002368,E,2,36,0.4,707.7815,M,43.2066,M,2.9,0136*48
$GNGNS,074517.00,4742.1604429,N,01618.1002368,E,DAAA,36,0.4,707.7815,43.2066,,*5B
$GPGNS,074517.00,,,,,,09,,,,2.9,136*7B
$GLGNS,074517.00,,,,,,07,,,,,*78
$GAGNS,074517.00,,,,,,08,,,,,*7A
$GBGNS,074517.00,,,,,,12,,,,,*72
$GPLLQ,074517.00,010125,,M,,M,1,36,1.037,,M*11
$GPVTG,,T,,M,0.00,N,0.01,K,D*27
$GPHDT,,T*1B
$GPTHS,,V*0E
$GPROT,,V*08
$PSSN,HRP,074517.00,010125,,,,,,,00,0,,*61
$PTNL,AVR,074517.00,,Yaw,,Tilt,,,,0,,00*37
$GPGSA,A,3,05,07,08,13,14,15,18,20,30,,,,0.7,0.4,0.6*36
$GPGSA,A,3,65,66,72,74,75,76,82,,,,,,0.7,0.4,0.6*3B
$GPGSA,A,3,02,03,05,08,13,15,24,25,,,,,0.7,0.4,0.6*3C
$GPGSA,A,3,05,07,09,10,21,22,26,36,40,42,45,60,0.7,0.4,0.6*3A
$GPGST,074517.00,1.871,0.449,0.351,353.387,0.448,0.352,0.867*5A
$GPGBS,074517.00,3.480,2.107,4.868,72,0.0001,6.388,6.088*51
$GPGRS,074517.00,1,-0.0,-0.3,1.2,-0.4,0.3,0.1,0.1,-0.1,-0.1,,,*4A
$GPGRS,074517.00,1,-2.5,-2.8,6.4,4.2,-1.9,-3.7,-0.8,,,,,*40
$GPGRS,074517.00,1,-0.9,-0.0,0.8,-0.4,0.2,1.2,0.1,0.2,,,,*64
$GPGRS,074517.00,1,-0.3,1.7,0.2,0.5,0.7,0.0,0.4,-0.3,-1.1,-0.8,0.2,0.6*40
$GPGSV,5,1,19,30,67,061,49,15,21,301,42,08,11,048,38,20,37,210,46*76
$GPGSV,5,2,19,14,53,149,47,07,30,065,44,13,54,300,48,05,54,257,48*79
$GPGSV,5,3,19,27,02,018,29,18,09,319,38,36,35,170,44,58,13,245,36*7E
$GPGSV,5,4,19,40,24,133,36,34,31,208,43,49,34,195,44,57,07,112,37*7A
$GPGSV,5,5,19,41,07,108,35,61,03,257,38*73
$GLGSV,3,1,11,75,74,193,53,66,16,318,45,76,15,211,44,72,50,131,50*66
$GLGSV,3,2,11,74,46,041,45,65,67,324,49,73,03,037,40,71,02,135,*6F
$GLGSV,3,3,11,81,05,306,43,82,10,350,44,83,02,028,*55
$GAGSV,3,1,10,03,82,329,48,24,40,060,45,02,16,188,40,13,16,297,39*60
$GAGSV,3,2,10,08,29,296,43,05,41,108,44,16,56,095,,25,53,141,47*66
$GAGSV,3,3,10,15,09,247,37,26,04,345,36*66
$GBGSV,5,1,18,45,77,178,51,56,12,093,,09,12,067,37,05,21,130,37*68
$GBGSV,5,2,18,24,19,211,,42,26,312,44,26,24,223,44,10,25,087,40*67
$GBGSV,5,3,18,40,22,065,42,22,43,151,50,07,22,073,40,36,43,057,48*69
$GBGSV,5,4,18,50,51,301,,21,74,273,52,02,05,108,34,14,01,316,*68
$GBGSV,5,5,18,27,00,349,,60,07,112,41*6F
$GPGGA,074517.00,,,,,0,00,,,M,,M,,*48
$PTNL,GGK,074517.00,010125,4742.1604429,N,01618.1002368,E,1,36,0.7,EHT750.9880,M*4A
$GPGGQ,074517.00,010125,4742.1604429,N,01618.1002368,E,1,36,1.037,707.7815,M*36
$GPGFA,074517.00,4.271,7.108,0.449,0.351,353.387,0.867,,VVV*03
$GPLLK,074517.00,010125,,M,,M,1,36,0.8,,M*06
$GNGMP,074517.00,,,,,DAAA,36,0.4,,,,*57
$GPGMP,074517.00,,,,,,09,,,,2.9,136*7B
$GLGMP,074517.00,,,,,,07,,,,,*78
$GAGMP,074517.00,,,,,,08,,,,,*7A
$GBGMP,074517.00,,,,,,12,,,,,*72
$PSSN,SNC,[0,287135000,2347]*4E
$GPZDA,074522.00,01,01,2025,,*65
$GPDTM,W84,,00.0000000,N,00.0000000,E,00.0000000,W84*5F
$PSSN,TFM,074522.00,,,,*69
$GPRMC,074522.00,A,4742.1604431,N,01618.1002332,E,0.0,,010125,5.1,E,D*14
$GPGLL,4742.1604431,N,01618.1002332,E,074522.00,A,D*65
$GPGGA,074522.00,4742.1604431,N,01618.1002332,E,2,36,0.4,707.7853,M,43.2066,M,1.7,0136*47
$GNGNS,074522.00,4742.1604431,N,01618.1002332,E,DAAA,36,0.4,707.7853,43.2066,,*59
$GPGNS,074522.00,,,,,,09,,,,1.7,136*70
$GLGNS,074522.00,,,,,,07,,,,,*7E
$GAGNS,074522.00,,,,,,08,,,,,*7C
$GBGNS,074522.00,,,,,,12,,,,,*74
$GPLLQ,074522.00,010125,,M,,M,1,36,1.034,,M*14
$GPVTG,,T,,M,0.00,N,0.01,K,D*27
$GPHDT,,T*1B
$GPTHS,,V*0E
$GPROT,,V*08
$PSSN,HRP,074522.00,010125,,,,,,,00,0,,*67
$PTNL,AVR,074522.00,,Yaw,,Tilt,,,,0,,00*31
$GPGSA,A,3,05,07,08,13,14,15,18,20,30,,,,0.7,0.4,0.6*36
$GPGSA,A,3,65,66,72,74,75,76,82,,,,,,0.7,0.4,0.6*3B
$GPGSA,A,3,02,03,05,08,13,15,24,25,,,,,0.7,0.4,0.6*3C
$GPGSA,A,3,05,07,09,10,21,22,26,36,40,42,45,60,0.7,0.4,0.6*3A
$GPGST,074522.00,1.866,0.444,0.349,353.623,0.443,0.351,0.866*5C
$GPGBS,074522.00,3.368,2.054,4.768,72,0.0001,6.004,6.088*59
$GPGRS,074522.00,1,-0.2,-0.2,0.7,0.0,0.1,-0.1,-0.2,0.2,0.0,,,*61
$GPGRS,074522.00,1,-2.6,-2.6,6.0,4.1,-2.1,-4.3,-1.7,,,,,*4A
$GPGRS,074522.00,1,-1.2,0.1,0.9,-0.7,0.6,0.8,-0.1,0.2,,,,*64
$GPGRS,074522.00,1,0.1,1.0,0.6,0.7,0.6,-0.0,0.4,-0.3,-1.2,-0.7,0.2,0.5*4B
$GPGSV,5,1,19,30,67,061,49,15,21,301,42,08,11,048,38,20,37,210,46*76
$GPGSV,5,2,19,14,53,149,47,07,30,065,44,13,55,300,48,05,54,257,48*78
$GPGSV,5,3,19,27,02,018,29,18,09,319,38,36,35,170,44,58,13,245,36*7E
$GPGSV,5,4,19,40,24,133,36,34,31,208,43,49,34,195,44,57,07,112,37*7A
$GPGSV,5,5,19,41,07,108,35,61,03,257,38*73
$GLGSV,3,1,11,75,74,193,52,66,16,318,45,76,15,211,45,72,50,131,50*66
$GLGSV,3,2,11,74,46,041,46,65,67,324,49,73,03,037,40,71,02,135,*6C
$GLGSV,3,3,11,81,05,306,44,82,10,349,43,83,02,028,*5D
$GAGSV,3,1,10,03,82,329,48,24,40,060,45,02,16,188,40,13,16,297,39*60
$GAGSV,3,2,10,08,29,296,43,05,41,108,45,16,56,095,,25,53,141,47*67
$GAGSV,3,3,10,15,09,247,37,26,05,345,36*67
$GBGSV,5,1,18,45,77,178,51,56,12,093,,09,12,067,37,05,21,130,37*68
$GBGSV,5,2,18,24,19,211,,42,26,312,43,26,24,223,44,10,25,087,40*60
$GBGSV,5,3,18,40,22,065,42,22,43,151,50,07,22,073,40,36,43,057,48*69
$GBGSV,5,4,18,50,51,301,,21,74,273,52,02,05,108,34,14,01,316,*68
$GBGSV,5,5,18,27,00,349,,60,07,112,41*6F
$GPGGA,074522.00,,,,,0,00,,,M,,M,,*4E
$PTNL,GGK,074522.00,010125,4742.1604431,N,01618.1002332,E,1,36,0.7,EHT750.9919,M*4B
$GPGGQ,074522.00,010125,4742.1604431,N,01618.1002332,E,1,36,1.034,707.7853,M*37
$GPGFA,074522.00,4.217,7.100,0.444,0.349,353.623,0.866,,VVV*03
$GPLLK,074522.00,010125,,M,,M,1,36,0.8,,M*00
$GNGMP,074522.00,,,,,DAAA,36,0.4,,,,*51
$GPGMP,074522.00,,,,,,09,,,,1.7,136*70
$GLGMP,074522.00,,,,,,07,,,,,*7E
$GAGMP,074522.00,,,,,,08,,,,,*7C
$GBGMP,074522.00,,,,,,12,,,,,*74
$PSSN,SNC,[0,287140000,2347]*4C
$GPZDA,074527.00,01,01,2025,,*60
$GPDTM,W84,,00.0000000,N,00.0000000,E,00.0000000,W84*5F
$PSSN,TFM,074527.00,,,,*6C
$GPRMC,074527.00,A,4742.1604430,N,01618.1002296,E,0.0,,010125,5.1,E,D*1F
$GPGLL,4742.1604430,N,01618.1002296,E,074527.00,A,D*6E
$GPGGA,074527.00,4742.1604430,N,01618.1002296,E,2,36,0.4,707.7885,M,43.2066,M,2.2,0136*41
$GNGNS,074527.00,4742.1604430,N,01618.1002296,E,DAAA,36,0.4,707.7885,43.2066,,*59
$GPGNS,074527.00,,,,,,09,,,,2.2,136*73
$GLGNS,074527.00,,,,,,07,,,,,*7B
$GAGNS,074527.00,,,,,,08,,,,,*79
$GBGNS,074527.00,,,,,,12,,,,,*71
$GPLLQ,074527.00,010125,,M,,M,1,36,1.025,,M*11
$GPVTG,,T,,M,0.01,N,0.01,K,D*26
$GPHDT,,T*1B
$GPTHS,,V*0E
$GPROT,,V*08
$PSSN,HRP,074527.00,010125,,,,,,,00,0,,*62
$PTNL,AVR,074527.00,,Yaw,,Tilt,,,,0,,00*34
$GPGSA,A,3,05,07,08,13,14,15,18,20,30,,,,0.7,0.4,0.6*36
$GPGSA,A,3,65,66,72,74,75,76,82,,,,,,0.7,0.4,0.6*3B
$GPGSA,A,3,02,03,05,08,13,15,24,25,,,,,0.7,0.4,0.6*3C
$GPGSA,A,3,05,07,09,10,21,22,26,36,40,42,45,60,0.7,0.4,0.6*3A
$GPGST,074527.00,1.965,0.441,0.344,354.756,0.441,0.345,0.858*5D
$GPGBS,074527.00,3.366,2.033,4.831,72,0.0001,6.249,6.088*5B
$GPGRS,074527.00,1,0.1,-0.7,1.2,-0.1,0.2,-0.1,0.2,0.0,-0.0,,,*66
$GPGRS,074527.00,1,-2.7,-2.6,6.2,4.5,-2.5,-3.7,-3.0,,,,,*4A
$GPGRS,074527.00,1,-1.4,-0.0,0.7,-0.6,0.5,0.5,-0.0,0.3,,,,*4A
$GPGRS,074527.00,1,0.0,0.3,1.0,0.5,0.4,0.0,0.6,-0.4,-1.2,-0.7,-0.0,0.9*41
$GPGSV,5,1,19,30,66,061,49,15,21,301,42,08,11,048,38,20,37,210,46*77
$GPGSV,5,2,19,14,53,149,48,07,30,065,44,13,55,300,48,05,54,257,48*77
$GPGSV,5,3,19,27,02,018,29,18,09,319,39,36,35,170,44,58,13,245,36*7F
$GPGSV,5,4,19,40,24,133,36,34,31,208,43,49,34,195,44,57,07,112,37*7A
$GPGSV,5,5,19,41,07,108,34,61,03,257,38*72
$GLGSV,3,1,11,75,74,193,52,66,16,318,46,76,15,211,45,72,50,131,50*65
$GLGSV,3,2,11,74,46,041,46,65,67,324,48,73,03,037,40,71,02,135,*6D
$GLGSV,3,3,11,81,05,306,45,82,10,349,42,83,02,028,*5D
$GAGSV,3,1,10,03,82,329,49,24,40,060,45,02,16,188,40,13,16,297,39*61
$GAGSV,3,2,10,08,29,296,43,05,41,108,45,16,56,095,,25,53,141,48*68
$GAGSV,3,3,10,15,09,247,38,26,05,345,37*69
$GBGSV,5,1,18,45,77,178,51,56,12,093,,09,12,067,37,05,21,130,37*68
$GBGSV,5,2,18,24,19,211,,42,26,312,44,26,24,223,44,10,25,087,40*67
$GBGSV,5,3,18,40,22,065,42,22,43,151,50,07,22,073,40,36,43,057,48*69
$GBGSV,5,4,18,50,51,301,,21,74,273,52,02,05,108,34,14,01,316,*68
$GBGSV,5,5,18,27,00,349,,60,07,112,41*6F
$GPGGA,074527.00,,,,,0,00,,,M,,M,,*4B
$PTNL,GGK,074527.00,010125,4742.1604430,N,01618.1002296,E,1,36,0.7,EHT750.9950,M*4D
$GPGGQ,074527.00,010125,4742.1604430,N,01618.1002296,E,1,36,1.025,707.7885,M*37
$GPGFA,074527.00,4.196,7.037,0.441,0.344,354.756,0.858,,VVV*08
$GPLLK,074527.00,010125,,M,,M,1,36,0.8,,M*05
$GNGMP,074527.00,,,,,DAAA,36,0.4,,,,*54
$GPGMP,074527.00,,,,,,09,,,,2.2,136*73
$GLGMP,074527.00,,,,,,07,,,,,*7B
$GAGMP,074527.00,,,,,,08,,,,,*79
$GBGMP,074527.00,,,,,,12,,,,,*71
$PSSN,SNC,[0,287145000,2347]*49
$GPZDA,074532.00,01,01,2025,,*64
$GPDTM,W84,,00.0000000,N,00.0000000,E,00.0000000,W84*5F
$PSSN,TFM,074532.00,,,,*68
$GPRMC,074532.00,A,4742.1604439,N,01618.1002322,E,0.0,,010125,5.1,E,D*1C
$GPGLL,4742.1604439,N,01618.1002322,E,074532.00,A,D*6D
$GPGGA,074532.00,4742.1604439,N,01618.1002322,E,2,36,0.4,707.7889,M,43.2066,M,3.2,0136*4F
$GNGNS,074532.00,4742.1604439,N,01618.1002322,E,DAAA,36,0.4,707.7889,43.2066,,*56
$GPGNS,074532.00,,,,,,09,,,,3.2,136*76
$GLGNS,074532.00,,,,,,07,,,,,*7F
$GAGNS,074532.00,,,,,,08,,,,,*7D
$GBGNS,074532.00,,,,,,12,,,,,*75
$GPLLQ,074532.00,010125,,M,,M,1,36,1.030,,M*11
$GPVTG,,T,,M,0.01,N,0.01,K,D*26
$GPHDT,,T*1B
$GPTHS,,V*0E
$GPROT,,V*08
$PSSN,HRP,074532.00,010125,,,,,,,00,0,,*66
$PTNL,AVR,074532.00,,Yaw,,Tilt,,,,0,,00*30
$GPGSA,A,3,05,07,08,13,14,15,18,20,30,,,,0.7,0.4,0.6*36
$GPGSA,A,3,65,66,72,74,75,76,82,,,,,,0.7,0.4,0.6*3B
$GPGSA,A,3,02,03,05,08,13,15,24,25,,,,,0.7,0.4,0.6*3C
$GPGSA,A,3,05,07,09,10,21,22,26,36,40,42,45,60,0.7,0.4,0.6*3A
$GPGST,074532.00,1.819,0.447,0.347,353.668,0.446,0.349,0.861*5C
$GPGBS,074532.00,3.427,2.062,4.906,72,0.0001,6.047,6.088*50
$GPGRS,074532.00,1,0.1,-0.8,0.9,-0.1,0.1,-0.1,0.7,-0.0,-0.1,,,*4D
$GPGRS,074532.00,1,-2.8,-2.4,6.0,4.1,-2.4,-3.4,-2.0,,,,,*46
$GPGRS,074532.00,1,-1.2,-0.0,0.6,-0.5,0.2,0.9,-0.0,0.3,,,,*41
$GPGRS,074532.00,1,-0.4,0.2,0.3,0.2,0.4,0.1,0.7,-0.2,-1.1,-0.4,0.1,0.5*4E
$GPGSV,5,1,19,30,66,061,49,15,21,301,42,08,11,048,38,20,37,210,46*77
$GPGSV,5,2,19,14,53,149,48,07,30,065,45,13,55,300,48,05,54,257,48*76
$GPGSV,5,3,19,27,02,018,30,18,09,319,38,36,35,170,44,58,13,245,36*76
$GPGSV,5,4,19,40,24,133,36,34,31,208,43,49,34,195,44,57,07,112,37*7A
$GPGSV,5,5,19,41,07,108,34,61,03,257,38*72
$GLGSV,3,1,11,75,74,193,52,66,16,318,46,76,15,211,45,72,50,131,50*65
$GLGSV,3,2,11,74,46,041,46,65,67,324,48,73,03,037,40,71,02,135,*6D
$GLGSV,3,3,11,81,05,306,43,82,10,349,42,83,02,028,*5B
$GAGSV,3,1,10,03,82,329,48,24,40,059,45,02,16,188,40,13,16,297,39*6A
$GAGSV,3,2,10,08,30,296,43,05,41,108,45,16,56,095,,25,53,141,47*6F
$GAGSV,3,3,10,15,09,247,37,26,05,345,37*66
$GBGSV,5,1,18,45,77,178,51,56,12,093,,09,12,067,37,05,21,130,37*68
$GBGSV,5,2,18,24,19,211,,42,26,312,43,26,24,223,45,10,25,087,40*61
$GBGSV,5,3,18,40,22,065,42,22,43,151,50,07,22,073,40,36,43,057,48*69
$GBGSV,5,4,18,50,51,301,,21,74,272,52,02,05,108,34,14,01,316,*69
$GBGSV,5,5,18,27,00,349,,60,07,112,41*6F
$GPGGA,074532.00,,,,,0,00,,,M,,M,,*4F
$PTNL,GGK,074532.00,010125,4742.1604439,N,01618.1002322,E,1,36,0.7,EHT750.9955,M*4B
$GPGGQ,074532.00,010125,4742.1604439,N,01618.1002322,E,1,36,1.030,707.7889,M*3C
$GPGFA,074532.00,4.247,7.057,0.447,0.347,353.668,0.861,,VVV*01
$GPLLK,074532.00,010125,,M,,M,1,36,0.8,,M*01
$GNGMP,074532.00,,,,,DAAA,36,0.4,,,,*50
$GPGMP,074532.00,,,,,,09,,,,3.2,136*76
$GLGMP,074532.00,,,,,,07,,,,,*7F
$GAGMP,074532.00,,,,,,08,,,,,*7D
$GBGMP,074532.00,,,,,,12,,,,,*75
$PSSN,SNC,[0,287150000,2347]*4D
$GPZDA,074537.00,01,01,2025,,*61
$GPDTM,W84,,00.0000000,N,00.0000000,E,00.0000000,W84*5F
$PSSN,TFM,074537.00,,,,*6D
$GPRMC,074537.00,A,4742.1604437,N,01618.1002296,E,0.0,,010125,5.1,E,D*19
$GPGLL,4742.1604437,N,01618.1002296,E,074537.00,A,D*68
$GPGGA,074537.00,4742.1604437,N,01618.1002296,E,2,36,0.4,707.7943,M,43.2066,M,2.9,0136*47
$GNGNS,074537.00,4742.1604437,N,01618.1002296,E,DAAA,36,0.4,707.7943,43.2066,,*54
$GPGNS,074537.00,,,,,,09,,,,2.9,136*79
$GLGNS,074537.00,,,,,,07,,,,,*7A
$GAGNS,074537.00,,,,,,08,,,,,*78
$GBGNS,074537.00,,,,,,12,,,,,*70
$GPLLQ,074537.00,010125,,M,,M,1,36,1.039,,M*1D
$GPVTG,,T,,M,0.00,N,0.00,K,D*26
$GPHDT,,T*1B
$GPTHS,,V*0E
$GPROT,,V*08
$PSSN,HRP,074537.00,010125,,,,,,,00,0,,*63
$PTNL,AVR,074537.00,,Yaw,,Tilt,,,,0,,00*35
$GPGSA,A,3,05,07,08,13,14,15,18,20,30,,,,0.7,0.4,0.6*36
$GPGSA,A,3,65,66,72,74,75,76,82,,,,,,0.7,0.4,0.6*3B
$GPGSA,A,3,02,03,05,08,13,15,24,25,,,,,0.7,0.4,0.6*3C
$GPGSA,A,3,05,07,09,10,21,22,26,36,40,42,45,60,0.7,0.4,0.6*3A
$GPGST,074537.00,1.870,0.450,0.352,352.752,0.448,0.353,0.868*51
$GPGBS,074537.00,3.479,2.100,4.857,72,0.0001,6.208,6.088*57
$GPGRS,074537.00,1,-0.2,-0.3,1.1,-0.0,0.1,0.1,0.1,0.1,-0.1,,,*62
$GPGRS,074537.00,1,-2.6,-2.6,6.2,3.8,-2.1,-4.3,-2.5,,,,,*43
$GPGRS,074537.00,1,-0.8,-0.0,0.5,-0.5,0.1,0.8,-0.1,0.3,,,,*4F
$GPGRS,074537.00,1,0.0,0.8,-0.7,-0.3,0.1,0.1,0.6,-0.2,-0.8,-0.0,0.1,0.0*60
$GPGSV,5,1,19,30,66,061,49,15,21,301,43,08,11,048,38,20,37,210,46*76
$GPGSV,5,2,19,14,53,149,47,07,30,065,45,13,55,300,48,05,54,257,48*79
$GPGSV,5,3,19,27,02,018,30,18,09,319,40,36,35,170,44,58,13,245,36*79
$GPGSV,5,4,19,40,24,133,36,34,31,208,43,49,34,195,44,57,07,112,37*7A
$GPGSV,5,5,19,41,07,108,35,61,03,257,38*73
$GLGSV,3,1,11,75,74,193,52,66,16,318,45,76,15,211,44,72,50,131,50*67
$GLGSV,3,2,11,74,46,041,45,65,67,324,48,73,03,037,40,71,02,135,*6E
$GLGSV,3,3,11,81,05,306,44,82,10,349,43,83,02,028,*5D
$GAGSV,3,1,10,03,82,329,48,24,40,059,45,02,16,188,40,13,16,297,39*6A
$GAGSV,3,2,10,08,30,296,43,05,41,108,45,16,56,095,,25,54,141,48*67
$GAGSV,3,3,10,15,09,246,37,26,05,345,37*67
$GBGSV,5,1,18,45,77,177,51,56,12,093,,09,12,067,37,05,21,130,37*67
$GBGSV,5,2,18,24,19,211,,42,26,312,44,26,24,223,45,10,25,087,40*66
$GBGSV,5,3,18,40,22,065,42,22,43,151,50,07,22,073,40,36,43,057,48*69
$GBGSV,5,4,18,50,51,301,,21,74,272,52,02,05,108,34,14,01,316,*69
$GBGSV,5,5,18,27,00,349,,60,07,112,41*6F
$GPGGA,074537.00,,,,,0,00,,,M,,M,,*4A
$PTNL,GGK,074537.00,010125,4742.1604437,N,01618.1002296,E,1,36,0.7,EHT751.0008,M*47
$GPGGQ,074537.00,010125,4742.1604437,N,01618.1002296,E,1,36,1.039,707.7943,M*37
$GPGFA,074537.00,4.274,7.119,0.450,0.352,352.752,0.868,,VVV*0D
$GPLLK,074537.00,010125,,M,,M,1,36,0.8,,M*04
$GNGMP,074537.00,,,,,DAAA,36,0.4,,,,*55
$GPGMP,074537.00,,,,,,09,,,,2.9,136*79
$GLGMP,074537.00,,,,,,07,,,,,*7A
$GAGMP,074537.00,,,,,,08,,,,,*78
$GBGMP,074537.00,,,,,,12,,,,,*70
$PSSN,SNC,[0,287155000,2347]*48
$GPZDA,074542.00,01,01,2025,,*63
$GPDTM,W84,,00.0000000,N,00.0000000,E,00.0000000,W84*5F
$PSSN,TFM,074542.00,,,,*6F
$GPRMC,074542.00,A,4742.1604441,N,01618.1002295,E,0.0,,010125,5.1,E,D*19
$GPGLL,4742.1604441,N,01618.1002295,E,074542.00,A,D*68
$GPGGA,074542.00,4742.1604441,N,01618.1002295,E,2,36,0.4,707.7995,M,43.2066,M,1.7,0136*41
$GNGNS,074542.00,4742.1604441,N,01618.1002295,E,DAAA,36,0.4,707.7995,43.2066,,*5F
$GPGNS,074542.00,,,,,,09,,,,1.7,136*76
$GLGNS,074542.00,,,,,,07,,,,,*78
$GAGNS,074542.00,,,,,,08,,,,,*7A
$GBGNS,074542.00,,,,,,12,,,,,*72
$GPLLQ,074542.00,010125,,M,,M,1,36,1.033,,M*15
$GPVTG,,T,,M,0.00,N,0.01,K,D*27
$GPHDT,,T*1B
$GPTHS,,V*0E
$GPROT,,V*08
$PSSN,HRP,074542.00,010125,,,,,,,00,0,,*61
$PTNL,AVR,074542.00,,Yaw,,Tilt,,,,0,,00*37
$GPGSA,A,3,05,07,08,13,14,15,18,20,30,,,,0.8,0.4,0.6*39
$GPGSA,A,3,65,66,72,74,75,76,82,,,,,,0.8,0.4,0.6*34
$GPGSA,A,3,02,03,05,08,13,15,24,25,,,,,0.8,0.4,0.6*33
$GPGSA,A,3,05,07,09,10,21,22,26,36,40,42,45,60,0.8,0.4,0.6*35
$GPGST,074542.00,1.809,0.443,0.349,353.487,0.442,0.351,0.865*5A
$GPGBS,074542.00,3.373,2.049,4.734,72,0.0001,6.455,6.088*50
$GPGRS,074542.00,1,-0.1,-0.3,1.4,-0.2,-0.0,0.3,0.1,0.3,-0.2,,,*4B
$GPGRS,074542.00,1,-2.4,-2.5,6.5,2.9,-2.6,-4.3,-1.2,,,,,*44
$GPGRS,074542.00,1,-0.8,0.0,0.2,-0.3,0.1,0.7,-0.1,0.0,,,,*6D
$GPGRS,074542.00,1,-0.2,0.9,-0.5,-0.7,0.3,0.1,-0.1,-0.5,-0.8,0.1,0.0,0.6*4E
$GPGSV,5,1,19,30,66,061,49,15,21,301,43,08,11,048,38,20,37,210,46*76
$GPGSV,5,2,19,14,53,149,47,07,30,065,44,13,55,300,48,05,54,257,48*78
$GPGSV,5,3,19,27,02,018,29,18,09,319,39,36,35,170,44,58,13,245,36*7F
$GPGSV,5,4,19,40,24,133,36,34,31,208,43,49,34,195,44,57,07,112,37*7A
$GPGSV,5,5,19,41,07,108,34,61,03,257,38*72
$GLGSV,3,1,11,75,74,193,52,66,16,318,45,76,15,211,45,72,49,131,50*6E
$GLGSV,3,2,11,74,46,041,45,65,67,324,49,73,03,037,40,71,02,135,*6F
$GLGSV,3,3,11,81,05,306,43,82,10,349,44,83,02,028,*5D
$GAGSV,3,1,10,03,82,329,48,24,40,059,44,02,16,188,41,13,16,297,39*6A
$GAGSV,3,2,10,08,30,296,42,05,41,108,44,16,56,095,,25,54,141,48*67
$GAGSV,3,3,10,15,09,246,37,26,05,345,37*67
$GBGSV,5,1,18,45,77,177,51,56,12,093,,09,12,067,37,05,21,130,37*67
$GBGSV,5,2,18,24,19,211,,42,26,312,44,26,24,223,44,10,25,087,39*69
$GBGSV,5,3,18,40,22,065,42,22,43,151,49,07,22,073,40,36,43,057,48*61
$GBGSV,5,4,18,50,51,301,,21,74,272,52,02,05,108,34,14,01,316,*69
$GBGSV,5,5,18,27,00,349,,60,07,112,41*6F
$GPGGA,074542.00,,,,,0,00,,,M,,M,,*48
$PTNL,GGK,074542.00,010125,4742.1604441,N,01618.1002295,E,1,36,0.8,EHT751.0061,M*47
$GPGGQ,074542.00,010125,4742.1604441,N,01618.1002295,E,1,36,1.033,707.7995,M*36
$GPGFA,074542.00,4.216,7.092,0.443,0.349,353.487,0.865,,VVV*06
$GPLLK,074542.00,010125,,M,,M,1,36,0.8,,M*06
$GNGMP,074542.00,,,,,DAAA,36,0.4,,,,*57
$GPGMP,074542.00,,,,,,09,,,,1.7,136*76
$GLGMP,074542.00,,,,,,07,,,,,*78
$GAGMP,074542.00,,,,,,08,,,,,*7A
$GBGMP,074542.00,,,,,,12,,,,,*72
$PSSN,SNC,[0,287160000,2347]*4E
$GPZDA,074547.00,01,01,2025,,*66
$GPDTM,W84,,00.0000000,N,00.0000000,E,00.0000000,W84*5F
$PSSN,TFM,074547.00,,,,*6A
$GPRMC,074547.00,A,4742.1604430,N,01618.1002258,E,0.0,,010125,5.1,E,D*1B
$GPGLL,4742.1604430,N,01618.1002258,E,074547.00,A,D*6A
$GPGGA,074547.00,4742.1604430,N,01618.1002258,E,2,36,0.4,707.8031,M,43.2066,M,2.2,0136*4D
$GNGNS,074547.00,4742.1604430,N,01618.1002258,E,DAAA,36,0.4,707.8031,43.2066,,*55
$GPGNS,074547.00,,,,,,09,,,,2.2,136*75
$GLGNS,074547.00,,,,,,07,,,,,*7D
$GAGNS,074547.00,,,,,,08,,,,,*7F
$GBGNS,074547.00,,,,,,12,,,,,*77
$GPLLQ,074547.00,010125,,M,,M,1,36,1.024,,M*16
$GPVTG,,T,,M,0.00,N,0.01,K,D*27
$GPHDT,,T*1B
$GPTHS,,V*0E
$GPROT,,V*08
$PSSN,HRP,074547.00,010125,,,,,,,00,0,,*64
$PTNL,AVR,074547.00,,Yaw,,Tilt,,,,0,,00*32
$GPGSA,A,3,05,07,08,13,14,15,18,20,30,,,,0.8,0.4,0.6*39
$GPGSA,A,3,65,66,72,74,75,76,82,,,,,,0.8,0.4,0.6*34
$GPGSA,A,3,02,03,05,08,13,15,24,25,,,,,0.8,0.4,0.6*33
$GPGSA,A,3,05,07,09,10,21,22,26,36,40,42,45,60,0.8,0.4,0.6*35
$GPGST,074547.00,1.822,0.441,0.344,354.602,0.440,0.345,0.857*57
$GPGBS,074547.00,3.371,2.028,4.801,72,0.0001,6.498,6.088*58
$GPGRS,074547.00,1,0.1,-0.4,1.0,0.0,0.3,-0.1,-0.4,-0.1,-0.1,,,*4A
$GPGRS,074547.00,1,-2.3,-2.3,6.5,4.4,-2.2,-3.5,-1.0,,,,,*4C
$GPGRS,074547.00,1,-1.1,-0.1,0.5,-0.2,0.0,0.9,0.1,0.1,,,,*69
$GPGRS,074547.00,1,-0.3,0.5,0.4,-0.8,0.1,-0.1,-0.6,-0.4,-0.7,-0.1,0.1,0.4*6D
$GPGSV,5,1,19,30,66,061,49,15,21,301,43,08,11,047,38,20,37,210,46*79
$GPGSV,5,2,19,14,53,149,47,07,30,065,44,13,55,300,48,05,54,257,48*78
$GPGSV,5,3,19,27,02,017,29,18,09,319,39,36,35,170,44,58,13,245,36*70
$GPGSV,5,4,19,40,24,133,36,34,31,208,43,49,34,195,44,57,07,112,37*7A
$GPGSV,5,5,19,41,07,108,35,61,03,257,38*73
$GLGSV,3,1,11,75,74,193,52,66,16,318,45,76,15,211,46,72,49,131,50*6D
$GLGSV,3,2,11,74,46,041,46,65,67,324,49,73,03,037,40,71,02,136,*6F
$GLGSV,3,3,11,81,05,306,43,82,10,349,44,83,02,027,*52
$GAGSV,3,1,10,03,82,329,48,24,40,059,45,02,16,188,41,13,16,297,39*6B
$GAGSV,3,2,10,08,30,296,43,05,41,108,45,16,56,095,,25,54,141,48*67
$GAGSV,3,3,10,15,09,246,37,26,05,345,37*67
$GBGSV,5,1,18,45,77,177,51,56,12,093,,09,12,067,36,05,21,130,37*66
$GBGSV,5,2,18,24,19,211,,42,26,312,44,26,24,223,43,10,25,087,39*6E
$GBGSV,5,3,18,40,22,065,42,22,43,151,49,07,23,073,39,36,43,057,48*6E
$GBGSV,5,4,18,50,51,301,,21,74,272,52,02,05,108,34,14,01,316,*69
$GBGSV,5,5,18,27,00,349,,60,07,112,41*6F
$GPGGA,074547.00,,,,,0,00,,,M,,M,,*4D
$PTNL,GGK,074547.00,010125,4742.1604430,N,01618.1002258,E,1,36,0.8,EHT751.0097,M*4C
$GPGGQ,074547.00,010125,4742.1604430,N,01618.1002258,E,1,36,1.024,707.8031,M*3A
$GPGFA,074547.00,4.194,7.030,0.441,0.344,354.602,0.857,,VVV*04
$GPLLK,074547.00,010125,,M,,M,1,36,0.8,,M*03
$GNGMP,074547.00,,,,,DAAA,36,0.4,,,,*52
$GPGMP,074547.00,,,,,,09,,,,2.2,136*75
$GLGMP,074547.00,,,,,,07,,,,,*7D
$GAGMP,074547.00,,,,,,08,,,,,*7F
$GBGMP,074547.00,,,,,,12,,,,,*77
$PSSN,SNC,[0,287165000,2347]*4B
$GPZDA,074552.00,01,01,2025,,*62
$GPDTM,W84,,00.0000000,N,00.0000000,E,00.0000000,W84*5F
$PSSN,TFM,074552.00,,,,*6E
$GPRMC,074552.00,A,4742.1604451,N,01618.1002233,E,0.0,,010125,5.1,E,D*15
$GPGLL,4742.1604451,N,01618.1002233,E,074552.00,A,D*64
$GPGGA,074552.00,4742.1604451,N,01618.1002233,E,2,36,0.4,707.8002,M,43.2066,M,3.2,0136*42
$GNGNS,074552.00,4742.1604451,N,01618.1002233,E,DAAA,36,0.4,707.8002,43.2066,,*5B
$GPGNS,074552.00,,,,,,09,,,,3.2,136*70
$GLGNS,074552.00,,,,,,07,,,,,*79
$GAGNS,074552.00,,,,,,08,,,,,*7B
$GBGNS,074552.00,,,,,,12,,,,,*73
$GPLLQ,074552.00,010125,,M,,M,1,36,1.029,,M*1F
$GPVTG,,T,,M,0.00,N,0.01,K,D*27
$GPHDT,,T*1B
$GPTHS,,V*0E
$GPROT,,V*08
$PSSN,HRP,074552.00,010125,,,,,,,00,0,,*60
$PTNL,AVR,074552.00,,Yaw,,Tilt,,,,0,,00*36
$GPGSA,A,3,05,07,08,13,14,15,18,20,30,,,,0.8,0.4,0.6*39
$GPGSA,A,3,65,66,72,74,75,76,82,,,,,,0.8,0.4,0.6*34
$GPGSA,A,3,02,03,05,08,13,15,24,25,,,,,0.8,0.4,0.6*33
$GPGSA,A,3,05,07,09,10,21,22,26,36,40,42,45,60,0.8,0.4,0.6*35
$GPGST,074552.00,1.824,0.447,0.347,353.500,0.445,0.349,0.860*5B
$GPGBS,074552.00,3.433,2.056,4.874,72,0.0001,6.555,6.088*56
$GPGRS,074552.00,1,-0.2,-0.4,0.5,0.1,0.3,-0.4,0.3,0.0,-0.1,,,*66
$GPGRS,074552.00,1,-2.5,-2.2,6.6,4.4,-2.0,-2.9,-1.5,,,,,*46
$GPGRS,074552.00,1,-1.1,-0.1,0.7,-0.1,-0.6,0.9,0.4,0.1,,,,*42
$GPGRS,074552.00,1,0.1,1.2,-0.4,-0.5,0.4,0.1,0.2,-0.4,-0.9,-0.3,0.4,0.7*6B
$GPGSV,5,1,19,30,66,061,49,15,21,301,43,08,11,047,39,20,37,210,46*78
$GPGSV,5,2,19,14,53,149,48,07,30,065,43,13,55,300,48,05,54,257,48*70
$GPGSV,5,3,19,27,02,017,29,18,09,319,39,36,35,170,44,58,13,245,36*70
$GPGSV,5,4,19,40,24,133,36,34,31,208,43,49,34,195,44,57,07,112,37*7A
$GPGSV,5,5,19,41,07,108,35,61,03,257,38*73
$GLGSV,3,1,11,75,75,193,52,66,16,318,45,76,15,211,45,72,49,131,50*6F
$GLGSV,3,2,11,74,46,041,46,65,67,324,49,73,03,037,40,71,02,136,*6F
$GLGSV,3,3,11,81,05,305,43,82,10,349,44,83,02,027,*51
$GAGSV,3,1,10,03,82,329,48,24,40,059,45,02,16,188,40,13,16,297,40*64
$GAGSV,3,2,10,08,30,296,43,05,41,108,45,16,56,094,,25,54,141,48*66
$GAGSV,3,3,10,15,09,246,38,26,05,345,37*68
$GBGSV,5,1,18,45,77,177,51,56,12,093,,09,12,067,36,05,21,130,37*66
$GBGSV,5,2,18,24,19,211,,42,26,312,44,26,24,223,43,10,25,087,39*6E
$GBGSV,5,3,18,40,22,065,42,22,43,151,49,07,23,073,40,36,43,057,48*60
$GBGSV,5,4,18,50,51,301,,21,74,272,52,02,05,108,34,14,01,316,*69
$GBGSV,5,5,18,27,00,349,,60,07,112,41*6F
$GPGGA,074552.00,,,,,0,00,,,M,,M,,*49
$PTNL,GGK,074552.00,010125,4742.1604451,N,01618.1002233,E,1,36,0.8,EHT751.0068,M*42
$GPGGQ,074552.00,010125,4742.1604451,N,01618.1002233,E,1,36,1.029,707.8002,M*39
$GPGFA,074552.00,4.245,7.050,0.447,0.347,353.500,0.860,,VVV*0E
$GPLLK,074552.00,010125,,M,,M,1,36,0.8,,M*07
$GNGMP,074552.00,,,,,DAAA,36,0.4,,,,*56
$GPGMP,074552.00,,,,,,09,,,,3.2,136*70
$GLGMP,074552.00,,,,,,07,,,,,*79
$GAGMP,074552.00,,,,,,08,,,,,*7B
$GBGMP,074552.00,,,,,,12,,,,,*73
$PSSN,SNC,[0,287170000,2347]*4F
$GPZDA,074557.00,01,01,2025,,*67
$GPDTM,W84,,00.0000000,N,00.0000000,E,00.0000000,W84*5F
$PSSN,TFM,074557.00,,,,*6B
$GPRMC,074557.00,A,4742.1604476,N,01618.1002197,E,0.0,,010125,5.1,E,D*18
$GPGLL,4742.1604476,N,01618.1002197,E,074557.00,A,D*69
$GPGGA,074557.00,4742.1604476,N,01618.1002197,E,2,36,0.4,707.7989,M,43.2066,M,2.9,0136*40
$GNGNS,074557.00,4742.1604476,N,01618.1002197,E,DAAA,36,0.4,707.7989,43.2066,,*53
$GPGNS,074557.00,,,,,,09,,,,2.9,136*7F
$GLGNS,074557.00,,,,,,07,,,,,*7C
$GAGNS,074557.00,,,,,,08,,,,,*7E
$GBGNS,074557.00,,,,,,12,,,,,*76
$GPLLQ,074557.00,010125,,M,,M,1,36,1.038,,M*1A
$GPVTG,,T,,M,0.00,N,0.00,K,D*26
$GPHDT,,T*1B
$GPTHS,,V*0E
$GPROT,,V*08
$PSSN,HRP,074557.00,010125,,,,,,,00,0,,*65
$PTNL,AVR,074557.00,,Yaw,,Tilt,,,,0,,00*33
$GPGSA,A,3,05,07,08,13,14,15,18,20,30,,,,0.8,0.4,0.6*39
$GPGSA,A,3,65,66,72,74,75,76,82,,,,,,0.8,0.4,0.6*34
$GPGSA,A,3,02,03,05,08,13,15,24,25,,,,,0.8,0.4,0.6*33
$GPGSA,A,3,05,07,09,10,21,22,26,36,40,42,45,60,0.8,0.4,0.6*35
$GPGST,074557.00,1.904,0.449,0.351,352.609,0.448,0.353,0.867*5E
$GPGBS,074557.00,3.484,2.095,4.826,72,0.0001,6.906,6.088*5D
$GPGRS,074557.00,1,0.1,-0.6,1.3,-0.0,0.3,-0.6,-0.2,0.2,0.0,,,*64
$GPGRS,074557.00,1,-2.1,-2.3,6.9,4.1,-1.9,-3.7,-0.9,,,,,*44
$GPGRS,074557.00,1,-1.7,-0.1,0.6,-0.3,-0.1,1.0,0.1,-0.2,,,,*66
$GPGRS,074557.00,1,-0.2,1.4,-0.5,-0.5,0.4,0.1,1.2,-0.5,-1.1,-0.4,0.3,0.4*4D
$GPGSV,5,1,19,30,66,061,49,15,21,301,43,08,11,047,39,20,37,210,46*78
$GPGSV,5,2,19,14,53,149,48,07,30,065,43,13,55,300,48,05,54,257,48*70
$GPGSV,5,3,19,27,02,017,29,18,09,319,39,36,35,170,44,58,13,245,36*70
$GPGSV,5,4,19,40,24,133,36,34,31,208,43,49,34,195,44,57,07,112,37*7A
$GPGSV,5,5,19,41,07,108,35,61,03,257,38*73
$GLGSV,3,1,11,75,75,193,52,66,16,318,45,76,15,211,46,72,49,131,51*6D
$GLGSV,3,2,11,74,46,041,45,65,67,324,49,73,03,037,40,71,02,136,*6C
$GLGSV,3,3,11,81,05,305,43,82,10,349,44,83,02,027,*51
$GAGSV,3,1,10,03,82,329,48,24,40,059,45,13,16,297,39,02,16,188,40*6A
$GAGSV,3,2,10,08,30,296,42,05,41,108,45,16,56,094,,25,54,141,47*68
$GAGSV,3,3,10,15,09,246,38,26,05,345,36*69
$GBGSV,5,1,18,45,77,177,51,56,12,093,,09,12,067,36,05,21,130,37*66
$GBGSV,5,2,18,24,19,211,,42,26,312,44,26,24,223,44,10,25,087,39*69
$GBGSV,5,3,18,40,22,065,43,22,43,151,49,07,23,073,40,36,43,057,48*61
$GBGSV,5,4,18,50,51,301,,21,74,272,52,02,05,108,34,14,01,316,*69
$GBGSV,5,5,18,27,00,349,,60,07,112,41*6F
$GPGGA,074557.00,,,,,0,00,,,M,,M,,*4C
$PTNL,GGK,074557.00,010125,4742.1604476,N,01618.1002197,E,1,36,0.8,EHT751.0054,M*40
$GPGGQ,074557.00,010125,4742.1604476,N,01618.1002197,E,1,36,1.038,707.7989,M*31
$GPGFA,074557.00,4.273,7.113,0.449,0.351,352.609,0.867,,VVV*0D
$GPLLK,074557.00,010125,,M,,M,1,36,0.8,,M*02
$GNGMP,074557.00,,,,,DAAA,36,0.4,,,,*53
$GPGMP,074557.00,,,,,,09,,,,2.9,136*7F
$GLGMP,074557.00,,,,,,07,,,,,*7C
$GAGMP,074557.00,,,,,,08,,,,,*7E
$GBGMP,074557.00,,,,,,12,,,,,*76
$PSSN,SNC,[0,287175000,2347]*4A
$GPZDA,074602.00,01,01,2025,,*64
$GPDTM,W84,,00.0000000,N,00.0000000,E,00.0000000,W84*5F
$PSSN,TFM,074602.00,,,,*68
$GPRMC,074602.00,A,4742.1604485,N,01618.1002167,E,0.0,,010125,5.1,E,D*18
$GPGLL,4742.1604485,N,01618.1002167,E,074602.00,A,D*69
$GPGGA,074602.00,4742.1604485,N,01618.1002167,E,2,36,0.4,707.8047,M,43.2066,M,1.7,0136*49
$GNGNS,074602.00,4742.1604485,N,01618.1002167,E,DAAA,36,0.4,707.8047,43.2066,,*57
$GPGNS,074602.00,,,,,,09,,,,1.7,136*71
$GLGNS,074602.00,,,,,,07,,,,,*7F
$GAGNS,074602.00,,,,,,08,,,,,*7D
$GBGNS,074602.00,,,,,,12,,,,,*75
$GPLLQ,074602.00,010125,,M,,M,1,36,1.032,,M*13
$GPVTG,,T,,M,0.00,N,0.00,K,D*26
$GPHDT,,T*1B
$GPTHS,,V*0E
$GPROT,,V*08
$PSSN,HRP,074602.00,010125,,,,,,,00,0,,*66
$PTNL,AVR,074602.00,,Yaw,,Tilt,,,,0,,00*30
$GPGSA,A,3,05,07,08,13,14,15,18,20,30,,,,0.8,0.4,0.6*39
$GPGSA,A,3,65,66,72,74,75,76,82,,,,,,0.8,0.4,0.6*34
$GPGSA,A,3,02,03,05,08,13,15,24,25,,,,,0.8,0.4,0.6*33
$GPGSA,A,3,05,07,09,10,21,22,26,36,40,42,45,60,0.8,0.4,0.6*35
$GPGST,074602.00,1.881,0.443,0.349,353.323,0.442,0.351,0.864*55
$GPGBS,074602.00,3.378,2.043,4.704,72,0.0001,6.886,6.088*57
$GPGRS,074602.00,1,0.1,-0.2,1.1,-0.2,-0.1,-0.3,0.1,0.2,-0.1,,,*4B
$GPGRS,074602.00,1,-2.5,-2.7,6.9,3.6,-2.3,-3.2,-1.7,,,,,*44
$GPGRS,074602.00,1,-1.9,-0.1,0.6,-0.3,0.1,0.5,-0.2,0.1,,,,*42
$GPGRS,074602.00,1,-0.4,0.5,-0.5,-0.6,0.3,0.1,1.1,-0.6,-1.2,-0.7,0.2,0.4*4D
$GPGSV,5,1,19,30,66,061,50,15,21,301,42,08,11,047,39,20,37,210,46*71
$GPGSV,5,2,19,14,53,149,48,07,30,065,44,13,55,300,48,05,54,256,48*76
$GPGSV,5,3,19,27,02,017,29,18,09,319,39,36,35,170,45,58,13,245,36*71
$GPGSV,5,4,19,40,24,133,36,34,31,208,43,49,34,195,44,57,07,112,38*75
$GPGSV,5,5,19,41,07,108,35,61,03,257,38*73
$GLGSV,3,1,11,75,75,193,52,66,16,318,46,76,15,212,46,72,49,131,50*6C
$GLGSV,3,2,11,74,46,041,45,65,67,324,49,73,03,037,40,71,02,136,*6C
$GLGSV,3,3,11,81,05,305,43,82,10,349,43,83,02,027,*56
$GAGSV,3,1,10,03,82,330,48,24,40,059,45,13,16,297,39,02,16,188,39*6C
$GAGSV,3,2,10,08,30,296,42,05,41,108,45,16,56,094,,25,54,141,48*67
$GAGSV,3,3,10,15,09,246,38,26,05,345,36*69
$GBGSV,5,1,18,45,77,177,51,56,12,093,,09,12,067,36,05,21,130,37*66
$GBGSV,5,2,18,24,19,211,,42,26,312,44,26,24,223,44,10,25,087,39*69
$GBGSV,5,3,18,40,22,065,43,22,43,151,50,07,23,073,40,36,43,057,48*69
$GBGSV,5,4,18,50,51,301,,21,74,272,52,02,05,108,34,14,02,316,*6A
$GBGSV,5,5,18,27,00,349,,60,07,112,41*6F
$GPGGA,074602.00,,,,,0,00,,,M,,M,,*4F
$PTNL,GGK,074602.00,010125,4742.1604485,N,01618.1002167,E,1,36,0.8,EHT751.0113,M*42
$GPGGQ,074602.00,010125,4742.1604485,N,01618.1002167,E,1,36,1.032,707.8047,M*3F
$GPGFA,074602.00,4.215,7.086,0.443,0.349,353.323,0.864,,VVV*0F
$GPLLK,074602.00,010125,,M,,M,1,36,0.8,,M*01
$GNGMP,074602.00,,,,,DAAA,36,0.4,,,,*50
$GPGMP,074602.00,,,,,,09,,,,1.7,136*71
$GLGMP,074602.00,,,,,,07,,,,,*7F
$GAGMP,074602.00,,,,,,08,,,,,*7D
$GBGMP,074602.00,,,,,,12,,,,,*75
$PSSN,SNC,[0,287180000,2347]*40
$GPZDA,074607.00,01,01,2025,,*61
$GPDTM,W84,,00.0000000,N,00.0000000,E,00.0000000,W84*5F
$PSSN,TFM,074607.00,,,,*6D
$GPRMC,074607.00,A,4742.1604492,N,01618.1002121,E,0.0,,010125,5.1,E,D*19
$GPGLL,4742.1604492,N,01618.1002121,E,074607.00,A,D*68
$GPGGA,074607.00,4742.1604492,N,01618.1002121,E,2,36,0.4,707.8080,M,43.2066,M,2.2,0136*45
$GNGNS,074607.00,4742.1604492,N,01618.1002121,E,DAAA,36,0.4,707.8080,43.2066,,*5D
$GPGNS,074607.00,,,,,,09,,,,2.2,136*72
$GLGNS,074607.00,,,,,,07,,,,,*7A
$GAGNS,074607.00,,,,,,08,,,,,*78
$GBGNS,074607.00,,,,,,12,,,,,*70
$GPLLQ,074607.00,010125,,M,,M,1,36,1.023,,M*16
$GPVTG,,T,,M,0.00,N,0.00,K,D*26
$GPHDT,,T*1B
$GPTHS,,V*0E
$GPROT,,V*08
$PSSN,HRP,074607.00,010125,,,,,,,00,0,,*63
$PTNL,AVR,074607.00,,Yaw,,Tilt,,,,0,,00*35
$GPGSA,A,3,05,07,08,13,14,15,18,20,30,,,,0.8,0.4,0.6*39
$GPGSA,A,3,65,66,72,74,75,76,82,,,,,,0.8,0.4,0.6*34
$GPGSA,A,3,02,03,05,08,13,15,24,25,,,,,0.8,0.4,0.6*33
$GPGSA,A,3,05,07,09,10,21,22,26,36,40,42,45,60,0.8,0.4,0.6*35
$GPGST,074607.00,1.698,0.441,0.344,354.434,0.440,0.345,0.857*58
$GPGBS,074607.00,3.377,2.022,4.771,72,0.0001,5.665,6.089*59
$GPGRS,074607.00,1,-0.1,0.0,0.8,-0.4,0.0,-0.3,0.6,0.3,-0.0,,,*69
$GPGRS,074607.00,1,-2.4,-2.1,5.7,3.7,-2.2,-3.1,-1.9,,,,,*46
$GPGRS,074607.00,1,-1.6,0.2,0.7,0.1,0.2,0.3,0.1,0.1,,,,*63
$GPGRS,074607.00,1,-0.3,0.9,0.4,-0.3,0.5,0.2,0.9,-0.5,-1.5,-0.6,0.0,0.4*61
$GPGSV,5,1,19,30,66,061,50,15,21,301,42,08,11,047,39,20,37,210,45*72
$GPGSV,5,2,19,14,53,149,48,07,30,065,45,13,55,300,48,05,54,256,48*77
$GPGSV,5,3,19,27,02,017,29,18,09,319,39,36,35,170,45,58,13,245,36*71
$GPGSV,5,4,19,40,24,133,36,34,31,208,43,49,34,195,44,57,07,112,37*7A
$GPGSV,5,5,19,41,07,108,35,61,03,257,38*73
$GLGSV,3,1,11,75,75,193,52,66,16,318,45,76,15,212,45,72,49,131,50*6C
$GLGSV,3,2,11,74,45,041,45,65,67,324,49,73,03,037,40,71,02,136,*6F
$GLGSV,3,3,11,81,05,305,44,82,10,349,43,83,02,027,*51
$GAGSV,3,1,10,03,82,330,48,24,40,059,44,13,16,297,39,02,16,188,39*6D
$GAGSV,3,2,10,08,30,296,42,05,41,108,45,16,56,094,,25,54,141,47*68
$GAGSV,3,3,10,15,09,246,38,26,05,345,36*69
$GBGSV,5,1,18,45,78,177,51,56,12,093,,09,12,067,36,05,21,130,37*69
$GBGSV,5,2,18,24,19,211,,42,26,312,44,26,24,223,44,10,25,087,39*69
$GBGSV,5,3,18,40,22,065,43,22,43,151,50,07,23,073,40,36,43,057,48*69
$GBGSV,5,4,18,50,51,301,,21,74,272,52,02,05,108,34,14,02,316,*6A
$GBGSV,5,5,18,27,00,349,,60,07,112,41*6F
$GPGGA,074607.00,,,,,0,00,,,M,,M,,*4A
$PTNL,GGK,074607.00,010125,4742.1604492,N,01618.1002121,E,1,36,0.8,EHT751.0145,M*40
$GPGGQ,074607.00,010125,4742.1604492,N,01618.1002121,E,1,36,1.023,707.8080,M*35
$GPGFA,074607.00,4.193,7.023,0.441,0.344,354.434,0.857,,VVV*01
$GPLLK,074607.00,010125,,M,,M,1,36,0.8,,M*04
$GNGMP,074607.00,,,,,DAAA,36,0.4,,,,*55
$GPGMP,074607.00,,,,,,09,,,,2.2,136*72
$GLGMP,074607.00,,,,,,07,,,,,*7A
$GAGMP,074607.00,,,,,,08,,,,,*78
$GBGMP,074607.00,,,,,,12,,,,,*70
$PSSN,SNC,[0,287185000,2347]*45
$GPZDA,074612.00,01,01,2025,,*65
$GPDTM,W84,,00.0000000,N,00.0000000,E,00.0000000,W84*5F
$PSSN,TFM,074612.00,,,,*69
$GPRMC,074612.00,A,4742.1604493,N,01618.1002127,E,0.0,,010125,5.1,E,D*1A
$GPGLL,4742.1604493,N,01618.1002127,E,074612.00,A,D*6B
$GPGGA,074612.00,4742.1604493,N,01618.1002127,E,2,36,0.4,707.8140,M,43.2066,M,3.2,0136*4A
$GNGNS,074612.00,4742.1604493,N,01618.1002127,E,DAAA,36,0.4,707.8140,43.2066,,*53
$GPGNS,074612.00,,,,,,09,,,,3.2,136*77
$GLGNS,074612.00,,,,,,07,,,,,*7E
$GAGNS,074612.00,,,,,,08,,,,,*7C
$GBGNS,074612.00,,,,,,12,,,,,*74
$GPLLQ,074612.00,010125,,M,,M,1,36,1.028,,M*19
$GPVTG,,T,,M,0.00,N,0.00,K,D*26
$GPHDT,,T*1B
$GPTHS,,V*0E
$GPROT,,V*08
$PSSN,HRP,074612.00,010125,,,,,,,00,0,,*67
$PTNL,AVR,074612.00,,Yaw,,Tilt,,,,0,,00*31
$GPGSA,A,3,05,07,08,13,14,15,18,20,30,,,,0.8,0.4,0.6*39
$GPGSA,A,3,65,66,72,74,75,76,82,,,,,,0.8,0.4,0.6*34
$GPGSA,A,3,02,03,05,08,13,15,24,25,,,,,0.8,0.4,0.6*33
$GPGSA,A,3,05,07,09,10,21,22,26,36,40,42,45,60,0.8,0.4,0.6*35
$GPGST,074612.00,1.766,0.446,0.347,353.335,0.445,0.349,0.859*5E
$GPGBS,074612.00,3.438,2.052,4.843,72,0.0001,5.397,6.089*50
$GPGRS,074612.00,1,-0.2,-0.6,1.0,-0.2,0.1,0.4,0.3,0.4,-0.1,,,*62
$GPGRS,074612.00,1,-2.5,-2.8,5.4,3.7,-1.9,-3.9,-1.7,,,,,*47
$GPGRS,074612.00,1,-1.3,0.0,0.3,0.2,0.1,1.0,-0.1,-0.0,,,,*67
$GPGRS,074612.00,1,0.0,1.4,1.0,-0.4,0.3,-0.0,0.9,-0.5,-1.5,-0.2,-0.1,0.5*45
$GPGSV,5,1,19,30,66,061,50,15,21,301,42,08,11,047,38,20,37,210,46*70
$GPGSV,5,2,19,14,53,149,48,07,30,065,44,13,55,300,48,05,54,256,48*76
$GPGSV,5,3,19,27,02,017,28,18,09,319,39,36,35,170,45,58,13,245,36*70
$GPGSV,5,4,19,40,24,133,36,34,31,208,43,49,34,195,44,57,07,112,37*7A
$GPGSV,5,5,19,41,07,108,35,61,03,257,38*73
$GLGSV,3,1,11,75,75,193,52,66,16,318,45,76,15,212,45,72,49,131,50*6C
$GLGSV,3,2,11,74,45,041,45,65,67,324,49,73,03,037,40,71,02,136,*6F
$GLGSV,3,3,11,81,05,305,43,82,10,349,41,83,03,027,32*54
$GAGSV,3,1,10,03,82,330,48,24,40,059,45,13,16,297,39,02,16,188,40*62
$GAGSV,3,2,10,08,30,297,42,05,41,108,45,16,56,094,,25,54,141,48*66
$GAGSV,3,3,10,15,09,246,38,26,05,345,37*68
$GBGSV,5,1,18,45,78,177,51,56,12,093,,09,12,067,37,05,21,130,37*68
$GBGSV,5,2,18,24,19,211,,42,26,312,44,26,24,223,44,10,25,087,39*69
$GBGSV,5,3,18,40,22,065,42,22,43,151,49,07,23,073,40,36,43,057,48*60
$GBGSV,5,4,18,50,51,301,,21,74,271,52,02,05,108,34,14,02,316,*69
$GBGSV,5,5,18,27,00,349,,60,07,112,41*6F
$GPGGA,074612.00,,,,,0,00,,,M,,M,,*4E
$PTNL,GGK,074612.00,010125,4742.1604493,N,01618.1002127,E,1,36,0.8,EHT751.0205,M*44
$GPGGQ,074612.00,010125,4742.1604493,N,01618.1002127,E,1,36,1.028,707.8140,M*30
$GPGFA,074612.00,4.244,7.044,0.446,0.347,353.335,0.859,,VVV*06
$GPLLK,074612.00,010125,,M,,M,1,36,0.8,,M*00
$GNGMP,074612.00,,,,,DAAA,36,0.4,,,,*51
$GPGMP,074612.00,,,,,,09,,,,3.2,136*77
$GLGMP,074612.00,,,,,,07,,,,,*7E
$GAGMP,074612.00,,,,,,08,,,,,*7C
$GBGMP,074612.00,,,,,,12,,,,,*74
$PSSN,SNC,[0,287190000,2347]*41
$GPZDA,074617.00,01,01,2025,,*60
$GPDTM,W84,,00.0000000,N,00.0000000,E,00.0000000,W84*5F
$PSSN,TFM,074617.00,,,,*6C
$GPRMC,074617.00,A,4742.1604518,N,01618.1002149,E,0.0,,010125,5.1,E,D*15
$GPGLL,4742.1604518,N,01618.1002149,E,074617.00,A,D*64
$GPGGA,074617.00,4742.1604518,N,01618.1002149,E,2,36,0.4,707.8205,M,43.2066,M,2.9,0136*4D
$GNGNS,074617.00,4742.1604518,N,01618.1002149,E,DAAA,36,0.4,707.8205,43.2066,,*5E
$GPGNS,074617.00,,,,,,09,,,,2.9,136*78
$GLGNS,074617.00,,,,,,07,,,,,*7B
$GAGNS,074617.00,,,,,,08,,,,,*79
$GBGNS,074617.00,,,,,,12,,,,,*71
$GPLLQ,074617.00,010125,,M,,M,1,36,1.038,,M*1D
$GPVTG,,T,,M,0.00,N,0.00,K,D*26
$GPHDT,,T*1B
$GPTHS,,V*0E
$GPROT,,V*08
$PSSN,HRP,074617.00,010125,,,,,,,00,0,,*62
$PTNL,AVR,074617.00,,Yaw,,Tilt,,,,0,,00*34
$GPGSA,A,3,05,07,08,13,14,15,18,20,30,,,,0.8,0.4,0.6*39
$GPGSA,A,3,65,66,72,74,75,76,82,,,,,,0.8,0.4,0.6*34
$GPGSA,A,3,02,03,05,08,13,15,24,25,,,,,0.8,0.4,0.6*33
$GPGSA,A,3,05,07,09,10,21,22,26,36,40,42,45,60,0.8,0.4,0.6*35
$GPGST,074617.00,1.844,0.449,0.351,352.438,0.448,0.353,0.867*5C
$GPGBS,074617.00,3.489,2.091,4.796,72,0.0001,5.869,6.089*5D
$GPGRS,074617.00,1,0.2,-0.9,0.7,-0.1,-0.1,0.5,0.4,0.4,-0.2,,,*68
$GPGRS,074617.00,1,-2.6,-2.4,5.9,4.0,-2.2,-3.8,-1.7,,,,,*49
$GPGRS,074617.00,1,-1.2,-0.1,0.3,-0.1,-0.1,1.3,-0.2,0.1,,,,*60
$GPGRS,074617.00,1,0.1,1.2,1.4,-0.6,0.3,-0.3,0.5,-0.6,-1.9,-0.2,-0.1,0.0*44
$GPGSV,5,1,19,30,66,061,49,15,21,301,43,08,11,047,38,20,37,210,46*79
$GPGSV,5,2,19,14,54,149,47,07,30,065,44,13,55,300,48,05,54,256,48*7E
$GPGSV,5,3,19,27,02,017,28,18,09,319,38,36,35,170,44,58,13,245,36*70
$GPGSV,5,4,19,40,24,133,36,34,31,208,43,49,34,195,44,57,07,112,37*7A
$GPGSV,5,5,19,41,07,108,35,61,03,257,38*73
$GLGSV,3,1,11,75,75,193,52,66,16,318,45,76,15,212,45,72,49,131,50*6C
$GLGSV,3,2,11,74,45,041,45,65,67,324,49,73,03,037,40,71,02,136,*6F
$GLGSV,3,3,11,81,05,305,42,82,10,349,42,83,03,027,32*56
$GAGSV,3,1,10,03,82,330,48,24,40,059,44,13,16,296,39,02,16,188,40*62
$GAGSV,3,2,10,08,30,297,43,05,41,108,45,16,56,094,,25,54,141,48*67
$GAGSV,3,3,10,15,09,246,38,26,05,345,37*68
$GBGSV,5,1,18,45,78,177,51,56,12,093,,09,12,067,36,05,21,130,37*69
$GBGSV,5,2,18,24,19,211,,42,26,312,44,26,24,223,44,10,25,087,39*69
$GBGSV,5,3,18,40,22,065,42,22,43,151,49,07,23,073,40,36,43,057,48*60
$GBGSV,5,4,18,50,51,301,,21,74,271,52,02,05,108,34,14,02,316,*69
$GBGSV,5,5,18,27,00,349,,60,07,112,40*6E
$GPGGA,074617.00,,,,,0,00,,,M,,M,,*4B
$PTNL,GGK,074617.00,010125,4742.1604518,N,01618.1002149,E,1,36,0.8,EHT751.0271,M*48
$GPGGQ,074617.00,010125,4742.1604518,N,01618.1002149,E,1,36,1.038,707.8205,M*3C
$GPGFA,074617.00,4.272,7.108,0.449,0.351,352.438,0.867,,VVV*01
$GPLLK,074617.00,010125,,M,,M,1,36,0.8,,M*05
$GNGMP,074617.00,,,,,DAAA,36,0.4,,,,*54
$GPGMP,074617.00,,,,,,09,,,,2.9,136*78
$GLGMP,074617.00,,,,,,07,,,,,*7B
$GAGMP,074617.00,,,,,,08,,,,,*79
$GBGMP,074617.00,,,,,,12,,,,,*71
$PSSN,SNC,[0,287195000,2347]*44
$GPZDA,074622.00,01,01,2025,,*66
$GPDTM,W84,,00.0000000,N,00.0000000,E,00.0000000,W84*5F
$PSSN,TFM,074622.00,,,,*6A
$GPRMC,074622.00,A,4742.1604519,N,01618.1002180,E,0.0,,010125,5.1,E,D*17
$GPGLL,4742.1604519,N,01618.1002180,E,074622.00,A,D*66
$GPGGA,074622.00,4742.1604519,N,01618.1002180,E,2,36,0.4,707.8256,M,43.2066,M,1.7,0136*44
$GNGNS,074622.00,4742.1604519,N,01618.1002180,E,DAAA,36,0.4,707.8256,43.2066,,*5A
$GPGNS,074622.00,,,,,,09,,,,1.7,136*73
$GLGNS,074622.00,,,,,,07,,,,,*7D
$GAGNS,074622.00,,,,,,08,,,,,*7F
$GBGNS,074622.00,,,,,,12,,,,,*77
$GPLLQ,074622.00,010125,,M,,M,1,36,1.031,,M*12
$GPVTG,,T,,M,0.00,N,0.00,K,D*26
$GPHDT,,T*1B
$GPTHS,,V*0E
$GPROT,,V*08
$PSSN,HRP,074622.00,010125,,,,,,,00,0,,*64
$PTNL,AVR,074622.00,,Yaw,,Tilt,,,,0,,00*32
$GPGSA,A,3,05,07,08,13,14,15,18,20,30,,,,0.8,0.4,0.6*39
$GPGSA,A,3,65,66,72,74,75,76,82,,,,,,0.8,0.4,0.6*34
$GPGSA,A,3,02,03,05,08,13,15,24,25,,,,,0.8,0.4,0.6*33
$GPGSA,A,3,05,07,09,10,21,22,26,36,40,42,45,60,0.8,0.4,0.6*35
$GPGST,074622.00,1.924,0.443,0.349,353.150,0.442,0.351,0.863*58
$GPGBS,074622.00,3.383,2.039,4.671,72,0.0001,6.203,6.089*59
$GPGRS,074622.00,1,0.1,-0.6,1.0,-0.2,-0.1,0.3,0.5,0.1,-0.4,,,*63
$GPGRS,074622.00,1,-2.7,-3.1,6.2,4.3,-2.3,-3.4,-2.5,,,,,*4D
$GPGRS,074622.00,1,-1.3,-0.0,0.4,0.1,0.5,0.9,-0.1,-0.1,,,,*40
$GPGRS,074622.00,1,-0.3,0.8,0.7,-0.5,0.6,-0.1,0.7,-0.5,-1.7,0.1,-0.0,0.4*44
$GPGSV,5,1,19,30,66,061,50,15,21,301,43,08,11,047,38,20,37,210,46*71
$GPGSV,5,2,19,14,54,149,47,07,30,065,44,13,55,301,48,05,54,256,48*7F
$GPGSV,5,3,19,27,02,017,28,18,09,319,38,36,35,170,44,58,13,245,36*70
$GPGSV,5,4,19,40,24,133,36,34,31,208,43,49,34,195,44,57,07,112,37*7A
$GPGSV,5,5,19,41,07,108,35,61,03,257,38*73
$GLGSV,3,1,11,75,75,193,52,66,16,318,45,76,15,212,45,72,49,131,50*6C
$GLGSV,3,2,11,74,45,041,45,65,67,324,49,73,03,037,41,71,02,136,*6E
$GLGSV,3,3,11,81,05,305,43,82,10,349,42,83,03,027,33*56
$GAGSV,3,1,10,03,82,330,48,24,40,059,45,13,16,296,39,02,16,188,40*63
$GAGSV,3,2,10,08,30,297,43,05,41,108,45,16,56,094,,25,54,141,48*67
$GAGSV,3,3,10,15,09,246,37,26,05,345,37*67
$GBGSV,5,1,18,45,78,177,51,56,12,093,,09,12,067,36,05,21,130,37*69
$GBGSV,5,2,18,24,20,211,,42,26,312,44,26,24,223,44,10,25,087,39*63
