$GPZDA,075942.00,01,01,2025,,*6E
$GPDTM,W84,,00.0000000,N,00.0000000,E,00.0000000,W84*5F
$PSSN,TFM,075942.00,,,,*62
$GPRMC,075942.00,A,4742.1603461,N,01618.1000577,E,0.0,,010125,5.1,E,D*18
$GPGLL,4742.1603461,N,01618.1000577,E,075942.00,A,D*69
$GPGGA,075942.00,4742.1603461,N,01618.1000577,E,2,37,0.4,708.5933,M,43.2066,M,1.7,0136*40
$GNGNS,075942.00,4742.1603461,N,01618.1000577,E,DAAA,37,0.4,708.5933,43.2066,,*5E
$GPGNS,075942.00,,,,,,09,,,,1.7,136*7B
$GLGNS,075942.00,,,,,,07,,,,,*75
$GAGNS,075942.00,,,,,,08,,,,,*77
$GBGNS,075942.00,,,,,,13,,,,,*7E
$GPLLQ,075942.00,010125,,M,,M,1,37,0.997,,M*1F
$GPVTG,,T,,M,0.00,N,0.00,K,D*26
$GPHDT,,T*1B
$GPTHS,,V*0E
$GPROT,,V*08
$PSSN,HRP,075942.00,010125,,,,,,,00,0,,*6C
$PTNL,AVR,075942.00,,Yaw,,Tilt,,,,0,,00*3A
$GPGSA,A,3,05,07,08,13,14,15,18,20,30,,,,0.8,0.4,0.6*39
$GPGSA,A,3,65,66,72,74,75,76,82,,,,,,0.8,0.4,0.6*34
$GPGSA,A,3,02,03,05,08,13,24,25,26,,,,,0.8,0.4,0.6*33
$GPGSA,A,3,05,07,09,10,14,21,22,26,36,40,42,45,0.8,0.4,0.6*36
$GPGSA,A,3,60,,,,,,,,,,,,0.8,0.4,0.6*3E
$GPGST,075942.00,2.052,0.440,0.348,348.076,0.437,0.352,0.824*54
$GPGBS,075942.00,3.489,1.871,4.714,72,0.0001,6.568,6.108*5B
$GPGRS,075942.00,1,-0.2,-0.5,0.8,0.0,-0.1,-0.1,0.8,0.2,-0.2,,,*47
$GPGRS,075942.00,1,-2.4,-3.0,6.6,5.5,-2.1,-2.1,-1.5,,,,,*41
$GPGRS,075942.00,1,-1.2,0.3,-0.0,-0.1,0.1,-0.2,0.1,0.8,,,,*48
$GPGRS,075942.00,1,2.4,0.4,-0.8,-0.3,3.5,0.3,-0.6,0.5,-0.9,-1.4,-0.8,-0.1*64
$GPGRS,075942.00,1,-0.2,,,,,,,,,,,*42
$GPGSV,5,1,19,13,61,304,49,08,11,042,39,20,31,207,44,15,27,303,43*7D
$GPGSV,5,2,19,07,25,068,43,22,44,168,,05,51,246,47,14,59,141,48*73
$GPGSV,5,3,19,30,60,063,48,18,08,313,38,36,35,170,44,58,13,245,36*7C
$GPGSV,5,4,19,40,24,133,37,34,31,208,43,49,34,195,44,57,07,112,37*7B
$GPGSV,5,5,19,41,07,108,35,61,03,257,38*73
$GLGSV,3,1,09,75,83,192,52,66,22,320,46,76,21,215,46,72,42,137,49*64
$GLGSV,3,2,09,74,39,040,45,65,75,322,49,81,01,300,41,82,09,343,42*61
$GLGSV,3,3,09,83,05,022,32*53
$GAGSV,3,1,10,03,86,000,48,13,14,292,39,24,37,055,45,02,21,189,40*68
$GAGSV,3,2,10,08,34,299,43,05,37,113,44,16,56,085,,25,58,135,48*68
$GAGSV,3,3,10,15,05,243,37,26,06,341,37*69
$GBGSV,5,1,17,45,82,154,51,09,11,070,36,56,15,092,,24,25,213,*60
$GBGSV,5,2,17,05,21,130,39,40,24,063,43,22,37,153,48,26,29,226,45*63
$GBGSV,5,3,17,42,31,311,45,07,24,072,40,10,27,085,39,36,38,056,47*60
$GBGSV,5,4,17,50,56,296,,21,75,249,52,14,06,317,36,02,05,108,34*64
$GBGSV,5,5,17,60,07,112,40*5A
$GPGGA,075942.00,,,,,0,00,,,M,,M,,*45
$PTNL,GGK,075942.00,010125,4742.1603461,N,01618.1000577,E,1,37,0.8,EHT751.7998,M*4F
$GPGGQ,075942.00,010125,4742.1603461,N,01618.1000577,E,1,37,0.997,708.5933,M*31
$GPGFA,075942.00,4.186,6.759,0.440,0.348,348.076,0.824,,VVV*07
$GPLLK,075942.00,010125,,M,,M,1,37,0.9,,M*0B
$GNGMP,075942.00,,,,,DAAA,37,0.4,,,,*5B
$GPGMP,075942.00,,,,,,09,,,,1.7,136*7B
$GLGMP,075942.00,,,,,,07,,,,,*75
$GAGMP,075942.00,,,,,,08,,,,,*77
$GBGMP,075942.00,,,,,,13,,,,,*7E
$PSSN,SNC,[0,288000000,2347]*46
$GPZDA,075947.00,01,01,2025,,*6B
$GPDTM,W84,,00.0000000,N,00.0000000,E,00.0000000,W84*5F
$PSSN,TFM,075947.00,,,,*67
$GPRMC,075947.00,A,4742.1603465,N,01618.1000585,E,0.0,,010125,5.1,E,D*14
$GPGLL,4742.1603465,N,01618.1000585,E,075947.00,A,D*65
$GPGGA,075947.00,4742.1603465,N,01618.1000585,E,2,37,0.4,708.5988,M,43.2066,M,2.2,0136*4A
$GNGNS,075947.00,4742.1603465,N,01618.1000585,E,DAAA,37,0.4,708.5988,43.2066,,*52
$GPGNS,075947.00,,,,,,09,,,,2.2,136*78
$GLGNS,075947.00,,,,,,07,,,,,*70
$GAGNS,075947.00,,,,,,08,,,,,*72
$GBGNS,075947.00,,,,,,13,,,,,*7B
$GPLLQ,075947.00,010125,,M,,M,1,37,0.988,,M*14
$GPVTG,,T,,M,0.01,N,0.01,K,D*26
$GPHDT,,T*1B
$GPTHS,,V*0E
$GPROT,,V*08
$PSSN,HRP,075947.00,010125,,,,,,,00,0,,*69
$PTNL,AVR,075947.00,,Yaw,,Tilt,,,,0,,00*3F
$GPGSA,A,3,05,07,08,13,14,15,18,20,30,,,,0.8,0.4,0.6*39
$GPGSA,A,3,65,66,72,74,75,76,82,,,,,,0.8,0.4,0.6*34
$GPGSA,A,3,02,03,05,08,13,24,25,26,,,,,0.8,0.4,0.6*33
$GPGSA,A,3,05,07,09,10,14,21,22,26,36,40,42,45,0.8,0.4,0.6*36
$GPGSA,A,3,60,,,,,,,,,,,,0.8,0.4,0.6*3E
$GPGST,075947.00,1.807,0.438,0.344,348.693,0.435,0.348,0.816*5C
$GPGBS,075947.00,3.501,1.851,4.620,08,0.0001,1.376,1.287*5B
$GPGRS,075947.00,1,-0.0,-0.7,1.4,0.0,-0.2,-0.1,0.3,0.1,-0.2,,,*44
$GPGRS,075947.00,1,-2.3,-2.1,5.9,4.7,-1.7,-2.9,-0.9,,,,,*4C
$GPGRS,075947.00,1,-1.0,0.2,0.1,0.1,0.3,-0.4,0.1,0.6,,,,*45
$GPGRS,075947.00,1,2.0,0.6,-0.7,-0.2,2.2,0.1,-0.7,0.6,-1.0,-1.3,-0.7,0.0*43
$GPGRS,075947.00,1,-0.4,,,,,,,,,,,*41
$GPGSV,5,1,19,13,61,304,49,08,11,042,38,20,31,207,44,15,27,303,44*7B
$GPGSV,5,2,19,07,25,068,43,22,44,168,,05,51,246,47,14,59,141,48*73
$GPGSV,5,3,19,30,60,063,49,18,08,313,38,36,35,170,44,58,13,245,36*7D
$GPGSV,5,4,19,40,24,133,36,34,31,208,43,49,34,195,44,57,07,112,37*7A
$GPGSV,5,5,19,41,07,108,35,61,03,257,38*73
$GLGSV,3,1,09,75,83,192,52,66,22,320,46,76,21,215,46,72,42,137,48*65
$GLGSV,3,2,09,74,39,040,45,65,75,322,49,81,01,300,40,82,09,343,43*61
$GLGSV,3,3,09,83,05,022,33*52
$GAGSV,3,1,10,03,86,001,48,13,14,292,38,24,37,055,45,02,21,189,40*68
$GAGSV,3,2,10,08,34,299,43,05,37,113,44,16,56,085,,25,58,135,48*68
$GAGSV,3,3,10,15,05,243,37,26,06,341,37*69
$GBGSV,5,1,17,45,82,154,51,09,11,070,36,56,15,092,,24,25,213,*60
$GBGSV,5,2,17,05,21,130,39,40,24,063,43,22,37,153,48,26,29,226,45*63
$GBGSV,5,3,17,42,31,311,45,07,24,072,40,10,27,085,39,36,38,056,47*60
$GBGSV,5,4,17,50,56,296,,21,75,249,52,14,06,317,36,02,05,108,34*64
$GBGSV,5,5,17,60,07,112,41*5B
$GPGGA,075947.00,,,,,0,00,,,M,,M,,*40
$PTNL,GGK,075947.00,010125,4742.1603465,N,01618.1000585,E,1,37,0.8,EHT751.8054,M*45
$GPGGQ,075947.00,010125,4742.1603465,N,01618.1000585,E,1,37,0.988,708.5988,M*33
$GPGFA,075947.00,4.167,6.694,0.438,0.344,348.693,0.816,,VVV*02
$GPLLK,075947.00,010125,,M,,M,1,37,0.9,,M*0E
$GNGMP,075947.00,,,,,DAAA,37,0.4,,,,*5E
$GPGMP,075947.00,,,,,,09,,,,2.2,136*78
$GLGMP,075947.00,,,,,,07,,,,,*70
$GAGMP,075947.00,,,,,,08,,,,,*72
$GBGMP,075947.00,,,,,,13,,,,,*7B
$PSSN,SNC,[0,288005000,2347]*43
$GPZDA,075952.00,01,01,2025,,*6F
$GPDTM,W84,,00.0000000,N,00.0000000,E,00.0000000,W84*5F
$PSSN,TFM,075952.00,,,,*63
$GPRMC,075952.00,A,4742.1603444,N,01618.1000610,E,0.0,,010125,5.1,E,D*1C
$GPGLL,4742.1603444,N,01618.1000610,E,075952.00,A,D*6D
$GPGGA,075952.00,4742.1603444,N,01618.1000610,E,2,37,0.4,708.5983,M,43.2066,M,3.2,0136*48
$GNGNS,075952.00,4742.1603444,N,01618.1000610,E,DAAA,37,0.4,708.5983,43.2066,,*51
$GPGNS,075952.00,,,,,,09,,,,3.2,136*7D
$GLGNS,075952.00,,,,,,07,,,,,*74
$GAGNS,075952.00,,,,,,08,,,,,*76
$GBGNS,075952.00,,,,,,13,,,,,*7F
$GPLLQ,075952.00,010125,,M,,M,1,37,0.998,,M*11
$GPVTG,,T,,M,0.00,N,0.00,K,D*26
$GPHDT,,T*1B
$GPTHS,,V*0E
$GPROT,,V*08
$PSSN,HRP,075952.00,010125,,,,,,,00,0,,*6D
$PTNL,AVR,075952.00,,Yaw,,Tilt,,,,0,,00*3B
$GPGSA,A,3,05,07,08,13,14,15,18,20,30,,,,0.8,0.4,0.6*39
$GPGSA,A,3,65,66,72,74,75,76,82,,,,,,0.8,0.4,0.6*34
$GPGSA,A,3,02,03,05,08,13,24,25,26,,,,,0.8,0.4,0.6*33
$GPGSA,A,3,05,07,09,10,14,21,22,26,36,40,42,45,0.8,0.4,0.6*36
$GPGSA,A,3,60,,,,,,,,,,,,0.8,0.4,0.6*3E
$GPGST,075952.00,1.866,0.445,0.346,347.826,0.441,0.351,0.824*52
$GPGBS,075952.00,3.565,1.884,4.684,72,0.0001,5.994,6.108*57
$GPGRS,075952.00,1,0.2,-0.9,0.9,0.3,-0.2,-0.3,0.6,-0.0,-0.0,,,*47
$GPGRS,075952.00,1,-2.5,-2.4,6.0,4.8,-2.0,-3.7,-0.9,,,,,*45
$GPGRS,075952.00,1,-0.8,0.1,0.2,-0.1,0.1,-0.4,0.2,0.4,,,,*66
$GPGRS,075952.00,1,2.2,0.4,-0.9,0.0,1.0,0.2,-1.0,0.7,-1.1,-1.2,-0.6,0.0*62
$GPGRS,075952.00,1,-0.7,,,,,,,,,,,*46
$GPGSV,5,1,19,13,61,304,49,08,11,042,39,20,31,207,44,15,27,303,44*7A
$GPGSV,5,2,19,07,25,068,42,22,44,168,,05,51,246,47,14,59,141,48*72
$GPGSV,5,3,19,30,60,063,49,18,08,313,37,36,35,170,44,58,13,245,36*72
$GPGSV,5,4,19,40,24,133,36,34,31,208,43,49,34,195,44,57,07,112,37*7A
$GPGSV,5,5,19,41,07,108,35,61,03,257,38*73
$GLGSV,3,1,09,75,83,192,52,66,22,320,46,76,22,215,46,72,42,137,48*66
$GLGSV,3,2,09,74,38,040,45,65,75,322,49,81,01,300,41,82,09,343,44*66
$GLGSV,3,3,09,83,06,022,33*51
$GAGSV,3,1,10,03,86,001,48,13,14,292,39,24,37,055,45,02,21,189,40*69
$GAGSV,3,2,10,08,34,299,43,05,37,113,44,16,56,085,,25,58,135,48*68
$GAGSV,3,3,10,15,05,243,37,26,06,341,37*69
$GBGSV,5,1,17,45,82,154,51,09,11,070,36,40,24,063,43,05,21,130,39*63
$GBGSV,5,2,17,24,25,213,,56,15,092,,22,37,153,48,26,29,226,46*63
$GBGSV,5,3,17,42,31,311,45,07,24,072,40,10,27,085,39,36,38,056,47*60
$GBGSV,5,4,17,50,56,296,,21,75,249,52,02,05,108,34,14,06,317,37*65
$GBGSV,5,5,17,60,07,112,41*5B
$GPGGA,075952.00,,,,,0,00,,,M,,M,,*44
$PTNL,GGK,075952.00,010125,4742.1603444,N,01618.1000610,E,1,37,0.8,EHT751.8048,M*40
$GPGGQ,075952.00,010125,4742.1603444,N,01618.1000610,E,1,37,0.998,708.5983,M*31
$GPGFA,075952.00,4.229,6.753,0.445,0.346,347.826,0.824,,VVV*03
$GPLLK,075952.00,010125,,M,,M,1,37,0.9,,M*0A
$GNGMP,075952.00,,,,,DAAA,37,0.4,,,,*5A
$GPGMP,075952.00,,,,,,09,,,,3.2,136*7D
$GLGMP,075952.00,,,,,,07,,,,,*74
$GAGMP,075952.00,,,,,,08,,,,,*76
$GBGMP,075952.00,,,,,,13,,,,,*7F
$PSSN,SNC,[0,288010000,2347]*47
$GPZDA,075957.00,01,01,2025,,*6A
$GPDTM,W84,,00.0000000,N,00.0000000,E,00.0000000,W84*5F
$PSSN,TFM,075957.00,,,,*66
$GPRMC,075957.00,A,4742.1603423,N,01618.1000609,E,0.0,,010125,5.1,E,D*10
$GPGLL,4742.1603423,N,01618.1000609,E,075957.00,A,D*61
$GPGGA,075957.00,4742.1603423,N,01618.1000609,E,2,37,0.4,708.6020,M,43.2066,M,2.9,0136*4D
$GNGNS,075957.00,4742.1603423,N,01618.1000609,E,DAAA,37,0.4,708.6020,43.2066,,*5E
$GPGNS,075957.00,,,,,,09,,,,2.9,136*72
$GLGNS,075957.00,,,,,,07,,,,,*71
$GAGNS,075957.00,,,,,,08,,,,,*73
$GBGNS,075957.00,,,,,,13,,,,,*7A
$GPLLQ,075957.00,010125,,M,,M,1,37,1.006,,M*1B
$GPVTG,,T,,M,0.00,N,0.00,K,D*26
$GPHDT,,T*1B
$GPTHS,,V*0E
$GPROT,,V*08
$PSSN,HRP,075957.00,010125,,,,,,,00,0,,*68
$PTNL,AVR,075957.00,,Yaw,,Tilt,,,,0,,00*3E
$GPGSA,A,3,05,07,08,13,14,15,18,20,30,,,,0.8,0.4,0.6*39
$GPGSA,A,3,65,66,72,74,75,76,82,,,,,,0.8,0.4,0.6*34
$GPGSA,A,3,02,03,05,08,13,24,25,26,,,,,0.8,0.4,0.6*33
$GPGSA,A,3,05,07,09,10,14,21,22,26,36,40,42,45,0.8,0.4,0.6*36
$GPGSA,A,3,60,,,,,,,,,,,,0.8,0.4,0.6*3E
$GPGST,075957.00,1.926,0.447,0.350,347.211,0.442,0.355,0.830*5B
$GPGBS,075957.00,3.598,1.928,4.719,72,0.0001,6.540,6.108*54
$GPGRS,075957.00,1,0.2,-0.6,1.0,0.0,-0.1,-0.4,0.5,-0.2,-0.0,,,*43
$GPGRS,075957.00,1,-2.4,-3.2,6.5,4.9,-2.1,-2.8,-1.1,,,,,*44
$GPGRS,075957.00,1,-0.7,0.2,0.2,-0.0,0.2,-0.5,0.1,0.2,,,,*69
$GPGRS,075957.00,1,2.0,1.2,-0.7,-0.4,1.6,0.1,-0.9,0.5,-0.9,-1.3,-0.5,-0.3*6F
$GPGRS,075957.00,1,-0.7,,,,,,,,,,,*43
$GPGSV,5,1,19,13,61,304,49,08,11,042,39,20,31,206,44,15,27,303,44*7B
$GPGSV,5,2,19,07,25,068,42,22,44,168,,05,51,246,47,14,59,141,48*72
$GPGSV,5,3,19,30,60,063,48,18,08,313,37,36,35,170,44,58,13,245,36*73
$GPGSV,5,4,19,40,24,133,36,34,31,208,43,49,34,195,44,57,07,112,37*7A
$GPGSV,5,5,19,41,07,108,35,61,03,257,38*73
$GLGSV,3,1,09,75,83,192,52,66,22,320,46,76,22,215,48,72,42,137,49*69
$GLGSV,3,2,09,74,38,040,45,65,75,322,49,81,01,300,42,82,09,343,44*65
$GLGSV,3,3,09,83,06,022,33*51
$GAGSV,3,1,10,03,86,001,49,13,14,292,39,24,37,055,44,02,22,189,40*6A
$GAGSV,3,2,10,08,34,299,43,05,37,113,43,16,56,085,,25,58,135,48*6F
$GAGSV,3,3,10,15,05,243,37,26,06,341,37*69
$GBGSV,5,1,17,45,82,154,51,09,11,070,36,40,24,063,43,05,21,130,39*63
$GBGSV,5,2,17,24,25,213,,56,15,092,,22,37,153,49,26,29,226,46*62
$GBGSV,5,3,17,42,31,311,45,07,24,072,40,10,27,085,39,36,38,056,47*60
$GBGSV,5,4,17,50,56,296,,21,75,249,52,02,05,108,34,14,06,317,36*64
$GBGSV,5,5,17,60,07,112,41*5B
$GPGGA,075957.00,,,,,0,00,,,M,,M,,*41
$PTNL,GGK,075957.00,010125,4742.1603423,N,01618.1000609,E,1,37,0.8,EHT751.8085,M*4D
$GPGGQ,075957.00,010125,4742.1603423,N,01618.1000609,E,1,37,1.006,708.6020,M*31
$GPGFA,075957.00,4.247,6.808,0.447,0.350,347.211,0.830,,VVV*01
$GPLLK,075957.00,010125,,M,,M,1,37,0.9,,M*0F
$GNGMP,075957.00,,,,,DAAA,37,0.4,,,,*5F
$GPGMP,075957.00,,,,,,09,,,,2.9,136*72
$GLGMP,075957.00,,,,,,07,,,,,*71
$GAGMP,075957.00,,,,,,08,,,,,*73
$GBGMP,075957.00,,,,,,13,,,,,*7A
$PSSN,SNC,[0,288015000,2347]*42
$GPZDA,080002.00,01,01,2025,,*69
$GPDTM,W84,,00.0000000,N,00.0000000,E,00.0000000,W84*5F
$PSSN,TFM,080002.00,,,,*65
$GPRMC,080002.00,A,4742.1603414,N,01618.1000619,E,0.0,,010125,5.1,E,D*16
$GPGLL,4742.1603414,N,01618.1000619,E,080002.00,A,D*67
$GPGGA,080002.00,4742.1603414,N,01618.1000619,E,2,37,0.4,708.6027,M,43.2066,M,1.7,0136*41
$GNGNS,080002.00,4742.1603414,N,01618.1000619,E,DAAA,37,0.4,708.6027,43.2066,,*5F
$GPGNS,080002.00,,,,,,09,,,,1.7,136*7C
$GLGNS,080002.00,,,,,,07,,,,,*72
$GAGNS,080002.00,,,,,,08,,,,,*70
$GBGNS,080002.00,,,,,,13,,,,,*79
$GPLLQ,080002.00,010125,,M,,M,1,37,0.994,,M*1B
$GPVTG,,T,,M,0.00,N,0.00,K,D*26
$GPHDT,,T*1B
$GPTHS,,V*0E
$GPROT,,V*08
$PSSN,HRP,080002.00,010125,,,,,,,00,0,,*6B
$PTNL,AVR,080002.00,,Yaw,,Tilt,,,,0,,00*3D
$GPGSA,A,3,05,07,08,13,14,15,18,20,30,,,,0.8,0.4,0.6*39
$GPGSA,A,3,65,66,72,74,75,76,82,,,,,,0.8,0.4,0.6*34
$GPGSA,A,3,02,03,05,08,13,24,25,26,,,,,0.8,0.4,0.6*33
$GPGSA,A,3,05,07,09,10,14,21,22,26,36,40,42,45,0.8,0.4,0.6*36
$GPGSA,A,3,60,,,,,,,,,,,,0.8,0.4,0.6*3E
$GPGST,080002.00,1.799,0.440,0.347,347.753,0.436,0.352,0.821*54
$GPGBS,080002.00,3.489,1.829,4.692,72,0.0001,6.133,6.109*55
$GPGRS,080002.00,1,0.3,-0.5,0.6,-0.0,-0.2,-0.1,1.2,-0.2,-0.2,,,*6A
$GPGRS,080002.00,1,-2.1,-3.0,6.1,4.9,-1.9,-1.9,-1.1,,,,,*4D
$GPGRS,080002.00,1,-0.6,0.1,0.5,-0.2,-0.0,-0.6,0.3,0.4,,,,*45
$GPGRS,080002.00,1,1.7,1.2,0.7,-0.5,1.0,0.1,-0.8,0.4,-1.1,-1.2,-0.6,-0.2*48
$GPGRS,080002.00,1,-0.5,,,,,,,,,,,*42
$GPGSV,5,1,19,13,61,304,49,08,11,042,38,20,31,206,44,15,27,303,44*7A
$GPGSV,5,2,19,07,25,068,43,22,44,168,,05,51,246,48,14,59,141,48*7C
$GPGSV,5,3,19,30,60,063,49,18,08,313,38,36,35,170,44,58,13,245,36*7D
$GPGSV,5,4,19,40,24,133,36,34,31,208,42,49,34,195,44,57,07,112,37*7B
$GPGSV,5,5,19,41,07,108,35,61,03,257,38*73
$GLGSV,3,1,09,75,83,192,52,66,22,320,46,76,22,215,47,72,42,137,48*67
$GLGSV,3,2,09,74,38,040,45,65,75,322,49,81,00,300,42,82,09,343,42*62
$GLGSV,3,3,09,83,06,022,33*51
$GAGSV,3,1,10,03,86,002,49,13,14,292,39,24,37,055,45,02,22,189,41*69
$GAGSV,3,2,10,08,34,299,43,05,37,113,44,16,56,085,,25,58,135,48*68
$GAGSV,3,3,10,15,05,243,37,26,06,341,38*66
$GBGSV,5,1,17,45,82,153,51,09,11,070,36,40,24,063,43,05,21,130,39*64
$GBGSV,5,2,17,24,25,213,,56,15,092,,22,37,153,48,26,29,226,46*63
$GBGSV,5,3,17,42,31,311,45,07,24,072,40,10,27,085,39,36,38,056,46*61
$GBGSV,5,4,17,50,56,296,,21,75,249,52,02,05,108,34,14,06,317,36*64
$GBGSV,5,5,17,60,07,112,41*5B
$GPGGA,080002.00,,,,,0,00,,,M,,M,,*42
$PTNL,GGK,080002.00,010125,4742.1603414,N,01618.1000619,E,1,37,0.8,EHT751.8092,M*4D
$GPGGQ,080002.00,010125,4742.1603414,N,01618.1000619,E,1,37,0.994,708.6027,M*33
$GPGFA,080002.00,4.185,6.732,0.440,0.347,347.753,0.821,,VVV*0B
$GPLLK,080002.00,010125,,M,,M,1,37,0.9,,M*0C
$GNGMP,080002.00,,,,,DAAA,37,0.4,,,,*5C
$GPGMP,080002.00,,,,,,09,,,,1.7,136*7C
$GLGMP,080002.00,,,,,,07,,,,,*72
$GAGMP,080002.00,,,,,,08,,,,,*70
$GBGMP,080002.00,,,,,,13,,,,,*79
$PSSN,SNC,[0,288020000,2347]*44
$GPZDA,080007.00,01,01,2025,,*6C
$GPDTM,W84,,00.0000000,N,00.0000000,E,00.0000000,W84*5F
$PSSN,TFM,080007.00,,,,*60
$GPRMC,080007.00,A,4742.1603396,N,01618.1000667,E,0.0,,010125,5.1,E,D*17
$GPGLL,4742.1603396,N,01618.1000667,E,080007.00,A,D*66
$GPGGA,080007.00,4742.1603396,N,01618.1000667,E,2,37,0.4,708.6094,M,43.2066,M,2.2,0136*4E
$GNGNS,080007.00,4742.1603396,N,01618.1000667,E,DAAA,37,0.4,708.6094,43.2066,,*56
$GPGNS,080007.00,,,,,,09,,,,2.2,136*7F
$GLGNS,080007.00,,,,,,07,,,,,*77
$GAGNS,080007.00,,,,,,08,,,,,*75
$GBGNS,080007.00,,,,,,13,,,,,*7C
$GPLLQ,080007.00,010125,,M,,M,1,37,0.982,,M*19
$GPVTG,,T,,M,0.00,N,0.01,K,D*27
$GPHDT,,T*1B
$GPTHS,,V*0E
$GPROT,,V*08
$PSSN,HRP,080007.00,010125,,,,,,,00,0,,*6E
$PTNL,AVR,080007.00,,Yaw,,Tilt,,,,0,,00*38
$GPGSA,A,3,05,07,08,13,14,15,18,20,30,,,,0.8,0.4,0.6*39
$GPGSA,A,3,65,66,72,74,75,76,82,,,,,,0.8,0.4,0.6*34
$GPGSA,A,3,02,03,05,08,13,24,25,26,,,,,0.8,0.4,0.6*33
$GPGSA,A,3,05,07,09,10,14,21,22,26,36,40,42,45,0.8,0.4,0.6*36
$GPGSA,A,3,60,,,,,,,,,,,,0.8,0.4,0.6*3E
$GPGST,080007.00,1.882,0.438,0.342,348.192,0.435,0.346,0.810*5E
$GPGBS,080007.00,3.502,1.809,4.597,72,0.0001,6.370,6.109*53
$GPGRS,080007.00,1,0.3,-0.5,0.7,0.0,-0.1,0.1,0.9,-0.4,-0.3,,,*60
$GPGRS,080007.00,1,-2.4,-2.9,6.4,4.8,-1.9,-2.5,-2.0,,,,,*4C
$GPGRS,080007.00,1,-0.5,0.2,0.3,-0.0,0.3,-0.3,0.2,0.5,,,,*6F
$GPGRS,080007.00,1,2.0,0.7,0.9,0.6,0.9,0.1,-0.9,0.3,-1.2,-1.4,-0.8,-0.0*6A
$GPGRS,080007.00,1,-0.5,,,,,,,,,,,*47
$GPGSV,5,1,19,13,61,304,49,08,11,042,39,20,31,206,44,15,27,303,43*7C
$GPGSV,5,2,19,07,25,068,43,22,44,168,,05,51,246,48,14,59,141,48*7C
$GPGSV,5,3,19,30,60,063,49,18,08,313,38,36,35,170,44,58,13,245,36*7D
$GPGSV,5,4,19,40,24,133,36,34,31,208,42,49,34,195,44,57,07,112,37*7B
$GPGSV,5,5,19,41,07,108,35,61,03,257,38*73
$GLGSV,3,1,09,75,83,192,52,66,22,320,47,76,22,215,47,72,42,137,49*67
$GLGSV,3,2,09,74,38,040,45,65,75,321,49,81,00,300,42,82,09,343,43*60
$GLGSV,3,3,09,83,06,022,32*50
$GAGSV,3,1,10,03,86,002,48,13,14,292,39,24,37,055,45,02,22,189,41*68
$GAGSV,3,2,10,08,34,299,43,05,36,113,44,16,56,085,,25,58,135,48*69
$GAGSV,3,3,10,15,05,243,36,26,06,341,37*68
$GBGSV,5,1,17,45,82,153,51,09,11,070,36,40,24,063,43,05,21,130,39*64
$GBGSV,5,2,17,24,25,213,,56,15,092,,22,37,153,48,26,29,226,46*63
$GBGSV,5,3,17,42,31,311,46,07,24,072,40,10,27,085,40,36,38,056,47*6D
$GBGSV,5,4,17,50,56,296,,21,75,248,52,02,05,108,33,14,06,317,36*62
$GBGSV,5,5,17,60,07,112,40*5A
$GPGGA,080007.00,,,,,0,00,,,M,,M,,*47
$PTNL,GGK,080007.00,010125,4742.1603396,N,01618.1000667,E,1,37,0.8,EHT751.8159,M*4A
$GPGGQ,080007.00,010125,4742.1603396,N,01618.1000667,E,1,37,0.982,708.6094,M*3D
$GPGFA,080007.00,4.166,6.644,0.438,0.342,348.192,0.810,,VVV*0F
$GPLLK,080007.00,010125,,M,,M,1,37,0.9,,M*09
$GNGMP,080007.00,,,,,DAAA,37,0.4,,,,*59
$GPGMP,080007.00,,,,,,09,,,,2.2,136*7F
$GLGMP,080007.00,,,,,,07,,,,,*77
$GAGMP,080007.00,,,,,,08,,,,,*75
$GBGMP,080007.00,,,,,,13,,,,,*7C
$PSSN,SNC,[0,288025000,2347]*41
$GPZDA,080012.00,01,01,2025,,*68
$GPDTM,W84,,00.0000000,N,00.0000000,E,00.0000000,W84*5F
$PSSN,TFM,080012.00,,,,*64
$GPRMC,080012.00,A,4742.1603364,N,01618.1000679,E,0.0,,010125,5.1,E,D*11
$GPGLL,4742.1603364,N,01618.1000679,E,080012.00,A,D*60
$GPGGA,080012.00,4742.1603364,N,01618.1000679,E,2,37,0.4,708.6106,M,43.2066,M,3.2,0136*43
$GNGNS,080012.00,4742.1603364,N,01618.1000679,E,DAAA,37,0.4,708.6106,43.2066,,*5A
$GPGNS,080012.00,,,,,,09,,,,3.2,136*7A
$GLGNS,080012.00,,,,,,07,,,,,*73
$GAGNS,080012.00,,,,,,08,,,,,*71
$GBGNS,080012.00,,,,,,13,,,,,*78
$GPLLQ,080012.00,010125,,M,,M,1,37,0.992,,M*1C
$GPVTG,,T,,M,0.00,N,0.01,K,D*27
$GPHDT,,T*1B
$GPTHS,,V*0E
$GPROT,,V*08
$PSSN,HRP,080012.00,010125,,,,,,,00,0,,*6A
$PTNL,AVR,080012.00,,Yaw,,Tilt,,,,0,,00*3C
$GPGSA,A,3,05,07,08,13,14,15,18,20,30,,,,0.8,0.4,0.6*39
$GPGSA,A,3,65,66,72,74,75,76,82,,,,,,0.8,0.4,0.6*34
$GPGSA,A,3,02,03,05,08,13,24,25,26,,,,,0.8,0.4,0.6*33
$GPGSA,A,3,05,07,09,10,14,21,22,26,36,40,42,45,0.8,0.4,0.6*36
$GPGSA,A,3,60,,,,,,,,,,,,0.8,0.4,0.6*3E
$GPGST,080012.00,1.900,0.445,0.344,347.353,0.440,0.349,0.817*57
$GPGBS,080012.00,3.565,1.841,4.661,72,0.0001,6.491,6.109*58
$GPGRS,080012.00,1,0.3,-0.6,0.7,-0.0,-0.2,-0.3,0.6,-0.3,0.1,,,*41
$GPGRS,080012.00,1,-0.7,-1.9,6.5,5.6,-2.0,-3.0,-1.5,,,,,*4C
$GPGRS,080012.00,1,-0.5,0.4,0.2,-0.0,0.0,-0.3,0.1,0.4,,,,*6D
$GPGRS,080012.00,1,2.2,0.6,-0.3,1.0,1.9,0.3,-0.6,0.3,-1.1,-1.2,-1.0,0.1*61
$GPGRS,080012.00,1,-0.3,,,,,,,,,,,*45
$GPGSV,5,1,19,13,61,304,49,08,11,042,38,20,31,206,44,15,27,303,44*7A
$GPGSV,5,2,19,07,25,068,43,22,44,168,,05,51,246,48,14,59,141,48*7C
$GPGSV,5,3,19,30,60,063,49,18,08,313,38,36,35,170,44,58,13,245,36*7D
$GPGSV,5,4,19,40,24,133,36,34,31,208,43,49,34,195,44,57,07,112,37*7A
$GPGSV,5,5,19,41,07,108,34,61,03,257,38*72
$GLGSV,3,1,09,75,83,192,52,66,23,320,47,76,22,215,46,72,42,137,49*67
$GLGSV,3,2,09,74,38,040,45,65,75,321,49,81,00,300,41,82,09,343,43*63
$GLGSV,3,3,09,83,06,022,31*53
$GAGSV,3,1,10,03,86,002,48,13,14,292,38,24,37,055,44,02,22,189,41*68
$GAGSV,3,2,10,08,34,299,43,05,36,113,44,16,56,085,,25,58,135,48*69
$GAGSV,3,3,10,15,05,243,36,26,06,341,37*68
$GBGSV,5,1,17,45,82,153,51,09,11,070,36,40,24,063,43,05,21,130,39*64
$GBGSV,5,2,17,24,25,213,,56,15,092,,22,37,153,48,26,29,226,46*63
$GBGSV,5,3,17,42,31,311,45,07,24,072,40,10,27,085,40,36,38,056,47*6E
$GBGSV,5,4,17,50,56,296,,21,75,248,52,02,05,108,34,14,06,317,36*65
$GBGSV,5,5,17,60,07,112,40*5A
$GPGGA,080012.00,,,,,0,00,,,M,,M,,*43
$PTNL,GGK,080012.00,010125,4742.1603364,N,01618.1000679,E,1,37,0.8,EHT751.8171,M*46
$GPGGQ,080012.00,010125,4742.1603364,N,01618.1000679,E,1,37,0.992,708.6106,M*30
$GPGFA,080012.00,4.227,6.701,0.445,0.344,347.353,0.817,,VVV*06
$GPLLK,080012.00,010125,,M,,M,1,37,0.9,,M*0D
$GNGMP,080012.00,,,,,DAAA,37,0.4,,,,*5D
$GPGMP,080012.00,,,,,,09,,,,3.2,136*7A
$GLGMP,080012.00,,,,,,07,,,,,*73
$GAGMP,080012.00,,,,,,08,,,,,*71
$GBGMP,080012.00,,,,,,13,,,,,*78
$PSSN,SNC,[0,288030000,2347]*45
$GPZDA,080017.00,01,01,2025,,*6D
$GPDTM,W84,,00.0000000,N,00.0000000,E,00.0000000,W84*5F
$PSSN,TFM,080017.00,,,,*61
$GPRMC,080017.00,A,4742.1603358,N,01618.1000654,E,0.0,,010125,5.1,E,D*14
$GPGLL,4742.1603358,N,01618.1000654,E,080017.00,A,D*65
$GPGGA,080017.00,4742.1603358,N,01618.1000654,E,2,37,0.4,708.6124,M,43.2066,M,2.9,0136*4C
$GNGNS,080017.00,4742.1603358,N,01618.1000654,E,DAAA,37,0.4,708.6124,43.2066,,*5F
$GPGNS,080017.00,,,,,,09,,,,2.9,136*75
$GLGNS,080017.00,,,,,,07,,,,,*76
$GAGNS,080017.00,,,,,,08,,,,,*74
$GBGNS,080017.00,,,,,,13,,,,,*7D
$GPLLQ,080017.00,010125,,M,,M,1,37,0.999,,M*12
$GPVTG,,T,,M,0.00,N,0.00,K,D*26
$GPHDT,,T*1B
$GPTHS,,V*0E
$GPROT,,V*08
$PSSN,HRP,080017.00,010125,,,,,,,00,0,,*6F
$PTNL,AVR,080017.00,,Yaw,,Tilt,,,,0,,00*39
$GPGSA,A,3,05,07,08,13,14,15,18,20,30,,,,0.8,0.4,0.6*39
$GPGSA,A,3,65,66,72,74,75,76,82,,,,,,0.8,0.4,0.6*34
$GPGSA,A,3,02,03,05,08,13,24,25,26,,,,,0.8,0.4,0.6*33
$GPGSA,A,3,05,07,09,10,14,21,22,26,36,40,42,45,0.8,0.4,0.6*36
$GPGSA,A,3,60,,,,,,,,,,,,0.8,0.4,0.6*3E
$GPGST,080017.00,1.863,0.447,0.348,346.780,0.442,0.353,0.824*5A
$GPGBS,080017.00,3.598,1.883,4.694,74,0.0001,5.814,6.123*57
$GPGRS,080017.00,1,0.0,-0.7,0.8,0.0,-0.1,-0.3,0.3,-0.1,-0.1,,,*4D
$GPGRS,080017.00,1,-1.2,-1.9,5.6,5.8,-2.1,-2.6,-0.6,,,,,*47
$GPGRS,080017.00,1,-0.5,0.3,0.2,-0.1,0.1,-0.5,0.1,0.0,,,,*6D
$GPGRS,080017.00,1,2.4,0.2,-0.8,1.9,2.1,-0.3,-0.3,-0.1,-1.1,-1.4,-1.1,-1.0*42
$GPGRS,080017.00,1,-0.5,,,,,,,,,,,*46
$GPGSV,5,1,19,13,61,304,49,08,11,042,38,20,31,206,43,15,27,303,43*7A
$GPGSV,5,2,19,07,25,068,42,22,44,168,,05,51,246,48,14,59,141,48*7D
$GPGSV,5,3,19,30,60,063,49,18,08,313,38,36,35,170,44,58,13,245,36*7D
$GPGSV,5,4,19,40,24,133,36,34,31,208,43,49,34,195,44,57,07,112,37*7A
$GPGSV,5,5,19,41,07,108,35,61,03,257,38*73
$GLGSV,3,1,09,75,83,192,52,66,23,320,47,76,22,215,46,72,42,137,49*67
$GLGSV,3,2,09,74,38,040,45,65,75,321,49,81,00,300,38,82,09,343,44*6A
$GLGSV,3,3,09,83,06,022,32*50
$GAGSV,3,1,10,03,86,003,48,13,14,292,38,24,37,055,44,02,22,189,42*6A
$GAGSV,3,2,10,08,34,299,43,05,36,113,44,16,56,085,,25,58,135,48*69
$GAGSV,3,3,10,15,05,243,37,26,06,341,37*69
$GBGSV,5,1,17,45,82,153,51,09,11,070,36,40,24,063,43,05,21,130,39*64
$GBGSV,5,2,17,24,25,213,,56,15,092,,22,37,153,47,26,29,226,46*6C
$GBGSV,5,3,17,42,31,311,45,07,24,071,40,10,27,085,40,36,38,056,46*6C
$GBGSV,5,4,17,50,56,296,,21,75,248,52,02,05,108,34,14,06,317,37*64
$GBGSV,5,5,17,60,07,112,40*5A
$GPGGA,080017.00,,,,,0,00,,,M,,M,,*46
$PTNL,GGK,080017.00,010125,4742.1603358,N,01618.1000654,E,1,37,0.8,EHT751.8190,M*4C
$GPGGQ,080017.00,010125,4742.1603358,N,01618.1000654,E,1,37,0.999,708.6124,M*3E
$GPGFA,080017.00,4.246,6.755,0.447,0.348,346.780,0.824,,VVV*00
$GPLLK,080017.00,010125,,M,,M,1,37,0.9,,M*08
$GNGMP,080017.00,,,,,DAAA,37,0.4,,,,*58
$GPGMP,080017.00,,,,,,09,,,,2.9,136*75
$GLGMP,080017.00,,,,,,07,,,,,*76
$GAGMP,080017.00,,,,,,08,,,,,*74
$GBGMP,080017.00,,,,,,13,,,,,*7D
$PSSN,SNC,[0,288035000,2347]*40
$GPZDA,080022.00,01,01,2025,,*6B
$GPDTM,W84,,00.0000000,N,00.0000000,E,00.0000000,W84*5F
$PSSN,TFM,080022.00,,,,*67
$GPRMC,080022.00,A,4742.1603347,N,01618.1000656,E,0.0,,010125,5.1,E,D*1E
$GPGLL,4742.1603347,N,01618.1000656,E,080022.00,A,D*6F
$GPGGA,080022.00,4742.1603347,N,01618.1000656,E,2,37,0.4,708.6147,M,43.2066,M,1.7,0136*4E
$GNGNS,080022.00,4742.1603347,N,01618.1000656,E,DAAA,37,0.4,708.6147,43.2066,,*50
$GPGNS,080022.00,,,,,,09,,,,1.7,136*7E
$GLGNS,080022.00,,,,,,07,,,,,*70
$GAGNS,080022.00,,,,,,08,,,,,*72
$GBGNS,080022.00,,,,,,13,,,,,*7B
$GPLLQ,080022.00,010125,,M,,M,1,37,0.990,,M*1D
$GPVTG,,T,,M,0.00,N,0.00,K,D*26
$GPHDT,,T*1B
$GPTHS,,V*0E
$GPROT,,V*08
$PSSN,HRP,080022.00,010125,,,,,,,00,0,,*69
$PTNL,AVR,080022.00,,Yaw,,Tilt,,,,0,,00*3F
$GPGSA,A,3,05,07,08,13,14,15,18,20,30,,,,0.8,0.4,0.6*39
$GPGSA,A,3,65,66,72,74,75,76,82,,,,,,0.8,0.4,0.6*34
$GPGSA,A,3,02,03,05,08,13,24,25,26,,,,,0.8,0.4,0.6*33
$GPGSA,A,3,05,07,09,10,14,21,22,26,36,40,42,45,0.8,0.4,0.6*36
$GPGSA,A,3,60,,,,,,,,,,,,0.8,0.4,0.6*3E
$GPGST,080022.00,1.881,0.440,0.346,347.398,0.436,0.351,0.817*54
$GPGBS,080022.00,3.487,1.826,4.697,08,0.0001,1.176,1.228*5F
$GPGRS,080022.00,1,0.1,-1.0,1.2,-0.0,-0.1,-0.3,0.5,0.2,-0.1,,,*42
$GPGRS,080022.00,1,-1.3,-1.7,5.3,5.0,-2.3,-2.5,-1.1,,,,,*44
$GPGRS,080022.00,1,-0.8,0.2,0.1,0.3,0.8,-0.5,0.1,0.1,,,,*43
$GPGRS,080022.00,1,2.2,0.3,-1.2,2.0,3.7,-0.4,-0.6,-0.2,-1.5,-1.3,-0.9,-1.2*4C
$GPGRS,080022.00,1,-0.7,,,,,,,,,,,*42
$GPGSV,5,1,19,13,61,304,48,08,11,042,38,20,31,206,44,15,27,303,44*7B
$GPGSV,5,2,19,07,24,068,42,22,44,168,,05,51,246,48,14,59,141,48*7C
$GPGSV,5,3,19,30,60,063,49,18,08,313,38,36,35,170,44,58,13,245,36*7D
$GPGSV,5,4,19,40,24,133,36,34,31,208,43,49,34,195,44,57,07,112,37*7A
$GPGSV,5,5,19,41,07,108,35,61,03,257,38*73
$GLGSV,3,1,09,75,83,192,52,66,23,320,46,76,22,215,47,72,42,137,49*67
$GLGSV,3,2,09,74,38,040,45,65,75,321,49,81,00,300,37,82,09,342,43*63
$GLGSV,3,3,09,83,06,022,32*50
$GAGSV,3,1,10,03,86,003,49,13,14,292,38,24,37,055,45,02,22,189,42*6A
$GAGSV,3,2,10,08,34,299,44,05,36,113,44,16,56,085,,25,58,135,48*6E
$GAGSV,3,3,10,15,05,243,37,26,06,341,37*69
$GBGSV,5,1,17,45,82,153,51,09,11,070,36,40,24,063,43,05,21,130,39*64
$GBGSV,5,2,17,24,25,213,,56,15,092,,22,37,153,47,26,29,226,45*6F
$GBGSV,5,3,17,42,31,311,45,07,24,071,39,10,27,085,40,36,38,056,46*62
$GBGSV,5,4,17,50,56,296,,21,75,248,52,02,05,108,33,14,07,317,37*62
$GBGSV,5,5,17,60,07,112,40*5A
$GPGGA,080022.00,,,,,0,00,,,M,,M,,*40
$PTNL,GGK,080022.00,010125,4742.1603347,N,01618.1000656,E,1,37,0.8,EHT751.8212,M*4F
$GPGGQ,080022.00,010125,4742.1603347,N,01618.1000656,E,1,37,0.990,708.6147,M*38
$GPGFA,080022.00,4.183,6.699,0.440,0.346,347.398,0.817,,VVV*08
$GPLLK,080022.00,010125,,M,,M,1,37,0.9,,M*0E
$GNGMP,080022.00,,,,,DAAA,37,0.4,,,,*5E
$GPGMP,080022.00,,,,,,09,,,,1.7,136*7E
$GLGMP,080022.00,,,,,,07,,,,,*70
$GAGMP,080022.00,,,,,,08,,,,,*72
$GBGMP,080022.00,,,,,,13,,,,,*7B
$PSSN,SNC,[0,288040000,2347]*42
$GPZDA,080027.00,01,01,2025,,*6E
$GPDTM,W84,,00.0000000,N,00.0000000,E,00.0000000,W84*5F
$PSSN,TFM,080027.00,,,,*62
$GPRMC,080027.00,A,4742.1603354,N,01618.1000679,E,0.0,,010125,5.1,E,D*14
$GPGLL,4742.1603354,N,01618.1000679,E,080027.00,A,D*65
$GPGGA,080027.00,4742.1603354,N,01618.1000679,E,2,37,0.4,708.6233,M,43.2066,M,2.2,0136*42
$GNGNS,080027.00,4742.1603354,N,01618.1000679,E,DAAA,37,0.4,708.6233,43.2066,,*5A
$GPGNS,080027.00,,,,,,09,,,,2.2,136*7D
$GLGNS,080027.00,,,,,,07,,,,,*75
$GAGNS,080027.00,,,,,,08,,,,,*77
$GBGNS,080027.00,,,,,,13,,,,,*7E
$GPLLQ,080027.00,010125,,M,,M,1,37,0.986,,M*1F
$GPVTG,,T,,M,0.00,N,0.01,K,D*27
$GPHDT,,T*1B
$GPTHS,,V*0E
$GPROT,,V*08
$PSSN,HRP,080027.00,010125,,,,,,,00,0,,*6C
$PTNL,AVR,080027.00,,Yaw,,Tilt,,,,0,,00*3A
$GPGSA,A,3,05,07,08,13,14,15,18,20,30,,,,0.8,0.4,0.6*39
$GPGSA,A,3,65,66,72,74,75,76,82,,,,,,0.8,0.4,0.6*34
$GPGSA,A,3,02,03,05,08,13,24,25,26,,,,,0.8,0.4,0.6*33
$GPGSA,A,3,05,07,09,10,14,21,22,26,36,40,42,45,0.8,0.4,0.6*36
$GPGSA,A,3,60,,,,,,,,,,,,0.8,0.4,0.6*3E
$GPGST,080027.00,1.874,0.438,0.344,348.395,0.435,0.348,0.814*5C
$GPGBS,080027.00,3.502,1.843,4.635,72,0.0001,5.360,6.109*56
$GPGRS,080027.00,1,0.2,-0.7,1.1,-0.2,-0.1,-0.0,0.3,0.4,-0.1,,,*40
$GPGRS,080027.00,1,-0.9,-2.7,5.4,5.1,-2.0,-2.2,-1.3,,,,,*49
$GPGRS,080027.00,1,-1.1,0.1,0.1,-0.2,0.3,-0.4,0.0,0.2,,,,*69
$GPGRS,080027.00,1,1.8,0.5,-1.2,1.7,3.5,-0.4,-0.7,-0.4,-1.5,-1.5,-1.0,-1.2*49
$GPGRS,080027.00,1,-0.7,,,,,,,,,,,*47
$GPGSV,5,1,19,13,61,304,48,08,11,042,39,20,31,206,43,15,27,303,43*7A
$GPGSV,5,2,19,07,24,068,43,22,44,168,,05,51,246,47,14,59,141,48*72
$GPGSV,5,3,19,30,60,063,48,18,08,313,38,36,35,170,44,58,13,245,36*7C
$GPGSV,5,4,19,40,24,133,37,34,31,208,43,49,34,195,44,57,07,112,37*7B
$GPGSV,5,5,19,41,07,108,35,61,03,257,38*73
$GLGSV,3,1,09,75,83,192,52,66,23,320,46,76,22,215,47,72,42,137,48*66
$GLGSV,3,2,09,74,38,040,45,65,75,321,49,81,00,300,35,82,09,342,44*66
$GLGSV,3,3,09,83,06,022,31*53
$GAGSV,3,1,10,03,86,004,48,13,14,292,38,24,37,055,45,02,22,189,41*6F
$GAGSV,3,2,10,08,34,299,44,05,36,113,44,16,56,085,,25,58,135,48*6E
$GAGSV,3,3,10,15,05,243,37,26,06,341,37*69
$GBGSV,5,1,17,45,82,152,51,09,11,070,36,40,24,063,43,05,21,130,39*65
$GBGSV,5,2,17,24,25,213,,56,15,092,,22,37,153,48,26,29,226,45*60
$GBGSV,5,3,17,42,31,311,45,07,24,071,40,10,27,085,40,36,38,056,47*6D
$GBGSV,5,4,17,50,56,296,,21,75,248,52,02,05,108,33,14,07,317,37*62
$GBGSV,5,5,17,60,07,112,40*5A
$GPGGA,080027.00,,,,,0,00,,,M,,M,,*45
$PTNL,GGK,080027.00,010125,4742.1603354,N,01618.1000679,E,1,37,0.8,EHT751.8299,M*46
$GPGGQ,080027.00,010125,4742.1603354,N,01618.1000679,E,1,37,0.986,708.6233,M*35
$GPGFA,080027.00,4.168,6.675,0.438,0.344,348.395,0.814,,VVV*06
$GPLLK,080027.00,010125,,M,,M,1,37,0.9,,M*0B
$GNGMP,080027.00,,,,,DAAA,37,0.4,,,,*5B
$GPGMP,080027.00,,,,,,09,,,,2.2,136*7D
$GLGMP,080027.00,,,,,,07,,,,,*75
$GAGMP,080027.00,,,,,,08,,,,,*77
$GBGMP,080027.00,,,,,,13,,,,,*7E
$PSSN,SNC,[0,288045000,2347]*47
$GPZDA,080032.00,01,01,2025,,*6A
$GPDTM,W84,,00.0000000,N,00.0000000,E,00.0000000,W84*5F
$PSSN,TFM,080032.00,,,,*66
$GPRMC,080032.00,A,4742.1603342,N,01618.1000673,E,0.0,,010125,5.1,E,D*1D
$GPGLL,4742.1603342,N,01618.1000673,E,080032.00,A,D*6C
$GPGGA,080032.00,4742.1603342,N,01618.1000673,E,2,37,0.4,708.6254,M,43.2066,M,3.2,0136*4B
$GNGNS,080032.00,4742.1603342,N,01618.1000673,E,DAAA,37,0.4,708.6254,43.2066,,*52
$GPGNS,080032.00,,,,,,09,,,,3.2,136*78
$GLGNS,080032.00,,,,,,07,,,,,*71
$GAGNS,080032.00,,,,,,08,,,,,*73
$GBGNS,080032.00,,,,,,13,,,,,*7A
$GPLLQ,080032.00,010125,,M,,M,1,37,0.996,,M*1A
$GPVTG,,T,,M,0.00,N,0.01,K,D*27
$GPHDT,,T*1B
$GPTHS,,V*0E
$GPROT,,V*08
$PSSN,HRP,080032.00,010125,,,,,,,00,0,,*68
$PTNL,AVR,080032.00,,Yaw,,Tilt,,,,0,,00*3E
$GPGSA,A,3,05,07,08,13,14,15,18,20,30,,,,0.8,0.4,0.6*39
$GPGSA,A,3,65,66,72,74,75,76,82,,,,,,0.8,0.4,0.6*34
$GPGSA,A,3,02,03,05,08,13,24,25,26,,,,,0.8,0.4,0.6*33
$GPGSA,A,3,05,07,09,10,14,21,22,26,36,40,42,45,0.8,0.4,0.6*36
$GPGSA,A,3,60,,,,,,,,,,,,0.8,0.4,0.6*3E
$GPGST,080032.00,1.844,0.445,0.346,347.520,0.441,0.351,0.821*59
$GPGBS,080032.00,3.564,1.876,4.697,72,0.0001,5.891,6.109*59
$GPGRS,080032.00,1,-0.1,-0.3,1.1,0.1,-0.0,-0.4,0.1,-0.3,0.0,,,*41
$GPGRS,080032.00,1,-0.6,-2.4,5.9,5.9,-2.0,-1.8,-0.4,,,,,*4B
$GPGRS,080032.00,1,-1.3,0.3,0.2,-0.1,0.4,-0.4,-0.0,0.6,,,,*43
$GPGRS,080032.00,1,2.0,0.6,-0.6,1.5,1.4,-0.4,-0.4,0.0,-1.1,-1.6,-0.7,-1.0*68
$GPGRS,080032.00,1,-0.6,,,,,,,,,,,*42
$GPGSV,5,1,19,13,61,304,48,08,11,041,39,20,31,206,44,15,27,303,44*79
$GPGSV,5,2,19,07,24,068,43,22,44,168,,05,51,246,48,14,59,141,48*7D
$GPGSV,5,3,19,30,60,063,48,18,08,313,38,36,35,170,44,58,13,245,36*7C
$GPGSV,5,4,19,40,24,133,36,34,31,208,43,49,34,195,44,57,07,112,37*7A
$GPGSV,5,5,19,41,07,108,35,61,03,257,38*73
$GLGSV,3,1,09,75,83,191,52,66,23,320,46,76,22,215,47,72,42,137,49*64
$GLGSV,3,2,09,74,38,040,45,65,75,321,49,81,00,300,34,82,09,342,44*67
$GLGSV,3,3,09,83,06,021,31*50
$GAGSV,3,1,10,03,86,004,48,13,14,292,38,24,37,055,45,02,22,189,41*6F
$GAGSV,3,2,10,08,34,299,44,05,36,113,44,16,56,085,,25,58,135,48*6E
$GAGSV,3,3,10,15,05,243,36,26,06,341,37*68
$GBGSV,5,1,17,45,82,152,51,09,11,070,36,24,25,213,,05,21,130,39*64
$GBGSV,5,2,17,56,15,092,,40,24,063,42,22,37,153,48,26,29,226,45*60
$GBGSV,5,3,17,42,31,311,45,07,24,071,39,10,27,085,40,36,38,056,47*63
$GBGSV,5,4,17,50,56,296,,21,75,248,52,02,05,108,34,14,07,317,36*64
$GBGSV,5,5,17,60,07,112,40*5A
$GPGGA,080032.00,,,,,0,00,,,M,,M,,*41
$PTNL,GGK,080032.00,010125,4742.1603342,N,01618.1000673,E,1,37,0.8,EHT751.8319,M*46
$GPGGQ,080032.00,010125,4742.1603342,N,01618.1000673,E,1,37,0.996,708.6254,M*3C
$GPGFA,080032.00,4.229,6.733,0.445,0.346,347.520,0.821,,VVV*0E
$GPLLK,080032.00,010125,,M,,M,1,37,0.9,,M*0F
$GNGMP,080032.00,,,,,DAAA,37,0.4,,,,*5F
$GPGMP,080032.00,,,,,,09,,,,3.2,136*78
$GLGMP,080032.00,,,,,,07,,,,,*71
$GAGMP,080032.00,,,,,,08,,,,,*73
$GBGMP,080032.00,,,,,,13,,,,,*7A
$PSSN,SNC,[0,288050000,2347]*43
$GPZDA,080037.00,01,01,2025,,*6F
$GPDTM,W84,,00.0000000,N,00.0000000,E,00.0000000,W84*5F
$PSSN,TFM,080037.00,,,,*63
$GPRMC,080037.00,A,4742.1603334,N,01618.1000649,E,0.0,,010125,5.1,E,D*10
$GPGLL,4742.1603334,N,01618.1000649,E,080037.00,A,D*61
$GPGGA,080037.00,4742.1603334,N,01618.1000649,E,2,37,0.4,708.6291,M,43.2066,M,2.9,0136*45
$GNGNS,080037.00,4742.1603334,N,01618.1000649,E,DAAA,37,0.4,708.6291,43.2066,,*56
$GPGNS,080037.00,,,,,,09,,,,2.9,136*77
$GLGNS,080037.00,,,,,,07,,,,,*74
$GAGNS,080037.00,,,,,,08,,,,,*76
$GBGNS,080037.00,,,,,,13,,,,,*7F
$GPLLQ,080037.00,010125,,M,,M,1,37,0.998,,M*11
$GPVTG,,T,,M,0.00,N,0.00,K,D*26
$GPHDT,,T*1B
$GPTHS,,V*0E
$GPROT,,V*08
$PSSN,HRP,080037.00,010125,,,,,,,00,0,,*6D
$PTNL,AVR,080037.00,,Yaw,,Tilt,,,,0,,00*3B
$GPGSA,A,3,05,07,08,13,14,15,18,20,30,,,,0.8,0.4,0.6*39
$GPGSA,A,3,65,66,72,74,75,76,82,,,,,,0.8,0.4,0.6*34
$GPGSA,A,3,02,03,05,08,13,24,25,26,,,,,0.8,0.4,0.6*33
$GPGSA,A,3,05,07,09,10,14,21,22,26,36,40,42,45,0.8,0.4,0.6*36
$GPGSA,A,3,60,,,,,,,,,,,,0.8,0.4,0.6*3E
$GPGST,080037.00,1.790,0.447,0.348,346.601,0.442,0.354,0.823*53
$GPGBS,080037.00,3.597,1.879,4.698,72,0.0001,5.639,6.110*54
$GPGRS,080037.00,1,0.2,-0.5,0.9,-0.0,0.1,-0.2,0.2,0.1,-0.1,,,*63
$GPGRS,080037.00,1,-0.9,-2.3,5.6,5.6,-2.2,-2.1,-0.8,,,,,*42
$GPGRS,080037.00,1,-1.4,0.4,0.1,-0.2,0.7,-0.6,-0.0,0.8,,,,*49
$GPGRS,080037.00,1,1.8,0.3,-0.6,0.9,1.1,-0.4,-0.5,0.0,-1.3,-1.5,-0.5,-1.3*6A
$GPGRS,080037.00,1,-0.7,,,,,,,,,,,*46
$GPGSV,5,1,19,13,61,304,49,08,11,041,38,20,31,206,44,15,27,303,44*79
$GPGSV,5,2,19,07,24,068,42,22,44,168,,05,51,246,48,14,59,141,48*7C
$GPGSV,5,3,19,30,60,063,48,18,08,313,38,36,35,170,44,58,13,245,36*7C
$GPGSV,5,4,19,40,24,133,36,34,31,208,43,49,34,195,44,57,07,112,37*7A
$GPGSV,5,5,19,41,07,108,35,61,03,257,38*73
$GLGSV,3,1,09,75,83,191,51,66,23,320,47,76,22,215,47,72,42,138,48*68
$GLGSV,3,2,09,74,38,040,45,65,75,321,49,81,00,300,32,82,09,342,45*60
$GLGSV,3,3,09,83,06,021,32*53
$GAGSV,3,1,10,03,86,005,48,13,14,292,39,24,37,054,44,02,22,189,40*6E
$GAGSV,3,2,10,08,34,299,43,05,36,113,44,16,56,085,,25,58,135,48*69
$GAGSV,3,3,10,15,05,243,37,26,06,341,37*69
$GBGSV,5,1,17,45,82,152,51,09,11,070,36,24,25,213,,05,21,130,39*64
$GBGSV,5,2,17,56,15,092,,40,24,063,42,22,37,153,47,26,30,226,45*67
$GBGSV,5,3,17,42,31,311,45,07,24,071,39,10,27,085,40,36,38,056,47*63
$GBGSV,5,4,17,50,56,296,,21,75,248,52,02,05,108,34,14,07,317,36*64
$GBGSV,5,5,17,60,07,112,40*5A
$GPGGA,080037.00,,,,,0,00,,,M,,M,,*44
$PTNL,GGK,080037.00,010125,4742.1603334,N,01618.1000649,E,1,37,0.8,EHT751.8357,M*41
$GPGGQ,080037.00,010125,4742.1603334,N,01618.1000649,E,1,37,0.998,708.6291,M*36
$GPGFA,080037.00,4.245,6.745,0.447,0.348,346.601,0.823,,VVV*0F
$GPLLK,080037.00,010125,,M,,M,1,37,0.9,,M*0A
$GNGMP,080037.00,,,,,DAAA,37,0.4,,,,*5A
$GPGMP,080037.00,,,,,,09,,,,2.9,136*77
$GLGMP,080037.00,,,,,,07,,,,,*74
$GAGMP,080037.00,,,,,,08,,,,,*76
$GBGMP,080037.00,,,,,,13,,,,,*7F
$PSSN,SNC,[0,288055000,2347]*46
$GPZDA,080042.00,01,01,2025,,*6D
$GPDTM,W84,,00.0000000,N,00.0000000,E,00.0000000,W84*5F
$PSSN,TFM,080042.00,,,,*61
$GPRMC,080042.00,A,4742.1603348,N,01618.1000663,E,0.0,,010125,5.1,E,D*11
$GPGLL,4742.1603348,N,01618.1000663,E,080042.00,A,D*60
$GPGGA,080042.00,4742.1603348,N,01618.1000663,E,2,37,0.4,708.6302,M,43.2066,M,1.7,0136*42
$GNGNS,080042.00,4742.1603348,N,01618.1000663,E,DAAA,37,0.4,708.6302,43.2066,,*5C
$GPGNS,080042.00,,,,,,09,,,,1.7,136*78
$GLGNS,080042.00,,,,,,07,,,,,*76
$GAGNS,080042.00,,,,,,08,,,,,*74
$GBGNS,080042.00,,,,,,13,,,,,*7D
$GPLLQ,080042.00,010125,,M,,M,1,37,0.989,,M*13
$GPVTG,,T,,M,0.00,N,0.01,K,D*27
$GPHDT,,T*1B
$GPTHS,,V*0E
$GPROT,,V*08
$PSSN,HRP,080042.00,010125,,,,,,,00,0,,*6F
$PTNL,AVR,080042.00,,Yaw,,Tilt,,,,0,,00*39
$GPGSA,A,3,05,07,08,13,14,15,18,20,30,,,,0.8,0.4,0.6*39
$GPGSA,A,3,65,66,72,74,75,76,82,,,,,,0.8,0.4,0.6*34
$GPGSA,A,3,02,03,05,08,13,24,25,26,,,,,0.8,0.4,0.6*33
$GPGSA,A,3,05,07,09,10,14,21,22,26,36,40,42,45,0.8,0.4,0.6*36
$GPGSA,A,3,60,,,,,,,,,,,,0.8,0.4,0.6*3E
$GPGST,080042.00,1.706,0.440,0.346,347.237,0.436,0.351,0.815*54
$GPGBS,080042.00,3.486,1.820,4.700,74,0.0001,5.375,6.123*50
$GPGRS,080042.00,1,0.1,-0.6,0.3,-0.0,0.1,-0.2,0.3,0.1,-0.0,,,*6B
$GPGRS,080042.00,1,-1.1,-2.0,5.4,5.4,-2.4,-2.2,-0.5,,,,,*42
$GPGRS,080042.00,1,-1.1,0.3,-0.1,-0.3,0.5,-0.2,0.2,0.3,,,,*47
$GPGRS,080042.00,1,1.4,0.2,-0.4,0.4,1.5,-0.4,-0.7,0.4,-1.3,-1.5,-0.5,-1.1*6A
$GPGRS,080042.00,1,-0.8,,,,,,,,,,,*4B
$GPGSV,5,1,19,13,61,304,49,08,11,041,38,20,31,206,44,15,27,303,44*79
$GPGSV,5,2,19,07,24,068,42,22,44,168,,05,51,246,48,14,59,140,48*7D
$GPGSV,5,3,19,30,60,064,49,18,08,313,38,36,35,170,44,58,13,245,36*7A
$GPGSV,5,4,19,40,24,133,37,34,31,208,43,49,34,195,44,57,07,112,37*7B
$GPGSV,5,5,19,41,07,108,35,61,03,257,38*73
$GLGSV,3,1,09,75,83,191,52,66,23,320,46,76,22,215,47,72,42,138,49*6B
$GLGSV,3,2,09,74,38,040,45,65,75,321,49,81,00,300,29,82,09,342,44*6B
$GLGSV,3,3,09,83,06,021,31*50
$GAGSV,3,1,10,03,86,005,49,13,14,292,39,24,37,054,45,02,22,189,40*6E
$GAGSV,3,2,10,08,34,299,44,05,36,113,44,16,56,084,,25,58,135,48*6F
$GAGSV,3,3,10,15,05,243,37,26,06,341,37*69
$GBGSV,5,1,17,45,82,152,51,09,11,070,36,24,25,213,,05,21,130,39*64
$GBGSV,5,2,17,56,15,092,,40,24,063,42,22,37,153,48,26,30,226,45*68
$GBGSV,5,3,17,42,31,311,45,07,24,071,40,10,27,085,40,36,38,056,47*6D
$GBGSV,5,4,17,50,56,296,,21,75,248,52,02,05,108,34,14,07,317,36*64
$GBGSV,5,5,17,60,07,112,40*5A
$GPGGA,080042.00,,,,,0,00,,,M,,M,,*46
$PTNL,GGK,080042.00,010125,4742.1603348,N,01618.1000663,E,1,37,0.8,EHT751.8368,M*4C
$GPGGQ,080042.00,010125,4742.1603348,N,01618.1000663,E,1,37,0.989,708.6302,M*3C
$GPGFA,080042.00,4.183,6.686,0.440,0.346,347.237,0.815,,VVV*06
$GPLLK,080042.00,010125,,M,,M,1,37,0.9,,M*08
$GNGMP,080042.00,,,,,DAAA,37,0.4,,,,*58
$GPGMP,080042.00,,,,,,09,,,,1.7,136*78
$GLGMP,080042.00,,,,,,07,,,,,*76
$GAGMP,080042.00,,,,,,08,,,,,*74
$GBGMP,080042.00,,,,,,13,,,,,*7D
$PSSN,SNC,[0,288060000,2347]*40
$GPZDA,080047.00,01,01,2025,,*68
$GPDTM,W84,,00.0000000,N,00.0000000,E,00.0000000,W84*5F
$PSSN,TFM,080047.00,,,,*64
$GPRMC,080047.00,A,4742.1603355,N,01618.1000636,E,0.0,,010125,5.1,E,D*18
$GPGLL,4742.1603355,N,01618.1000636,E,080047.00,A,D*69
$GPGGA,080047.00,4742.1603355,N,01618.1000636,E,2,37,0.4,708.6301,M,43.2066,M,2.2,0136*4E
$GNGNS,080047.00,4742.1603355,N,01618.1000636,E,DAAA,37,0.4,708.6301,43.2066,,*56
$GPGNS,080047.00,,,,,,09,,,,2.2,136*7B
$GLGNS,080047.00,,,,,,07,,,,,*73
$GAGNS,080047.00,,,,,,08,,,,,*71
$GBGNS,080047.00,,,,,,13,,,,,*78
$GPLLQ,080047.00,010125,,M,,M,1,37,0.980,,M*1F
$GPVTG,,T,,M,0.01,N,0.01,K,D*26
$GPHDT,,T*1B
$GPTHS,,V*0E
$GPROT,,V*08
$PSSN,HRP,080047.00,010125,,,,,,,00,0,,*6A
$PTNL,AVR,080047.00,,Yaw,,Tilt,,,,0,,00*3C
$GPGSA,A,3,05,07,08,13,14,15,18,20,30,,,,0.8,0.4,0.6*39
$GPGSA,A,3,65,66,72,74,75,76,82,,,,,,0.8,0.4,0.6*34
$GPGSA,A,3,02,03,05,08,13,24,25,26,,,,,0.8,0.4,0.6*33
$GPGSA,A,3,05,07,09,10,14,21,22,26,36,40,42,45,0.8,0.4,0.6*36
$GPGSA,A,3,60,,,,,,,,,,,,0.8,0.4,0.6*3E
$GPGST,080047.00,1.797,0.438,0.342,347.852,0.434,0.346,0.808*53
$GPGBS,080047.00,3.500,1.803,4.611,72,0.0001,5.818,6.110*5C
$GPGRS,080047.00,1,0.2,-0.3,1.0,-0.1,0.1,-0.7,0.6,0.0,-0.1,,,*6B
$GPGRS,080047.00,1,-1.1,-2.6,5.8,4.9,-2.2,-2.4,-1.2,,,,,*47
$GPGRS,080047.00,1,-0.7,0.2,0.1,-0.3,0.6,-0.3,0.2,-0.1,,,,*44
$GPGRS,080047.00,1,2.0,0.0,-1.2,-0.1,2.0,-0.5,-0.5,0.1,-1.3,-1.3,-0.6,-1.0*41
$GPGRS,080047.00,1,-1.1,,,,,,,,,,,*46
$GPGSV,5,1,19,13,61,304,49,08,11,041,38,20,31,206,44,15,27,303,44*79
$GPGSV,5,2,19,07,24,068,42,22,44,168,,05,51,245,48,14,59,140,48*7E
$GPGSV,5,3,19,30,60,064,49,18,08,313,38,36,35,170,44,58,13,245,36*7A
$GPGSV,5,4,19,40,24,133,36,34,31,208,43,49,34,195,44,57,07,112,37*7A
$GPGSV,5,5,19,41,07,108,35,61,03,257,38*73
$GLGSV,3,1,09,75,83,191,52,66,23,320,46,76,22,215,47,72,42,138,48*6A
$GLGSV,3,2,09,74,38,040,45,65,75,321,49,81,00,300,26,82,09,342,44*64
$GLGSV,3,3,09,83,06,021,32*53
$GAGSV,3,1,10,03,86,005,49,13,14,292,39,24,37,054,45,02,22,189,41*6F
$GAGSV,3,2,10,08,34,299,44,05,36,113,44,16,56,084,,25,58,134,49*6F
$GAGSV,3,3,10,15,05,243,37,26,06,341,37*69
$GBGSV,5,1,17,45,82,151,51,09,11,070,36,24,25,213,,05,21,130,39*67
$GBGSV,5,2,17,56,15,092,,40,24,063,42,22,37,153,48,26,30,226,45*68
$GBGSV,5,3,17,42,31,311,45,07,24,071,40,10,27,085,40,36,38,056,47*6D
$GBGSV,5,4,17,50,56,296,,21,75,247,52,02,05,108,34,14,07,317,36*6B
$GBGSV,5,5,17,60,07,112,40*5A
$GPGGA,080047.00,,,,,0,00,,,M,,M,,*43
$PTNL,GGK,080047.00,010125,4742.1603355,N,01618.1000636,E,1,37,0.8,EHT751.8367,M*4A
$GPGGQ,080047.00,010125,4742.1603355,N,01618.1000636,E,1,37,0.980,708.6301,M*3F
$GPGFA,080047.00,4.164,6.623,0.438,0.342,347.852,0.808,,VVV*0B
$GPLLK,080047.00,010125,,M,,M,1,37,0.9,,M*0D
$GNGMP,080047.00,,,,,DAAA,37,0.4,,,,*5D
$GPGMP,080047.00,,,,,,09,,,,2.2,136*7B
$GLGMP,080047.00,,,,,,07,,,,,*73
$GAGMP,080047.00,,,,,,08,,,,,*71
$GBGMP,080047.00,,,,,,13,,,,,*78
$PSSN,SNC,[0,288065000,2347]*45
$GPZDA,080052.00,01,01,2025,,*6C
$GPDTM,W84,,00.0000000,N,00.0000000,E,00.0000000,W84*5F
$PSSN,TFM,080052.00,,,,*60
$GPRMC,080052.00,A,4742.1603355,N,01618.1000628,E,0.0,,010125,5.1,E,D*13
$GPGLL,4742.1603355,N,01618.1000628,E,080052.00,A,D*62
$GPGGA,080052.00,4742.1603355,N,01618.1000628,E,2,37,0.4,708.6379,M,43.2066,M,3.2,0136*4B
$GNGNS,080052.00,4742.1603355,N,01618.1000628,E,DAAA,37,0.4,708.6379,43.2066,,*52
$GPGNS,080052.00,,,,,,09,,,,3.2,136*7E
$GLGNS,080052.00,,,,,,07,,,,,*77
$GAGNS,080052.00,,,,,,08,,,,,*75
$GBGNS,080052.00,,,,,,13,,,,,*7C
$GPLLQ,080052.00,010125,,M,,M,1,37,0.989,,M*12
$GPVTG,,T,,M,0.00,N,0.01,K,D*27
$GPHDT,,T*1B
$GPTHS,,V*0E
$GPROT,,V*08
$PSSN,HRP,080052.00,010125,,,,,,,00,0,,*6E
$PTNL,AVR,080052.00,,Yaw,,Tilt,,,,0,,00*38
$GPGSA,A,3,05,07,08,13,14,15,18,20,30,,,,0.8,0.4,0.6*39
$GPGSA,A,3,65,66,72,74,75,76,82,,,,,,0.8,0.4,0.6*34
$GPGSA,A,3,02,03,05,08,13,24,25,26,,,,,0.8,0.4,0.6*33
$GPGSA,A,3,05,07,09,10,14,21,22,26,36,40,42,45,0.8,0.4,0.6*36
$GPGSA,A,3,60,,,,,,,,,,,,0.8,0.4,0.6*3E
$GPGST,080052.00,1.874,0.444,0.344,347.055,0.440,0.349,0.815*57
$GPGBS,080052.00,3.564,1.833,4.672,72,0.0001,6.126,6.110*5B
$GPGRS,080052.00,1,-0.1,-0.6,0.9,0.0,-0.2,-0.0,0.2,0.2,-0.1,,,*4F
$GPGRS,080052.00,1,-1.3,-2.6,6.1,5.4,-1.8,-2.5,-2.0,,,,,*4E
$GPGRS,080052.00,1,-0.4,0.2,-0.1,0.3,0.3,-0.2,0.1,0.4,,,,*6C
$GPGRS,080052.00,1,1.9,0.2,-0.9,-0.3,2.0,-0.5,-0.4,0.3,-1.2,-1.1,-1.1,-1.1*42
$GPGRS,080052.00,1,-0.8,,,,,,,,,,,*4A
$GPGSV,5,1,19,13,62,304,49,08,11,041,38,20,31,206,44,15,27,303,43*7D
$GPGSV,5,2,19,07,24,068,42,22,44,168,,05,51,245,48,14,59,140,48*7E
$GPGSV,5,3,19,30,60,064,49,18,08,313,39,36,35,170,44,58,13,245,36*7B
$GPGSV,5,4,19,40,24,133,36,34,31,208,43,49,34,195,44,57,07,112,37*7A
$GPGSV,5,5,19,41,07,108,35,61,03,257,38*73
$GLGSV,3,1,09,75,84,191,52,66,23,320,46,76,22,215,46,72,42,138,49*6D
$GLGSV,3,2,09,74,38,040,45,65,75,321,49,81,00,300,27,82,09,342,44*65
$GLGSV,3,3,09,83,06,021,33*52
$GAGSV,3,1,10,03,86,006,49,13,14,292,39,24,37,054,45,02,22,189,41*6C
$GAGSV,3,2,10,08,34,299,44,05,36,113,44,16,56,084,,25,58,134,48*6E
$GAGSV,3,3,10,15,05,243,36,26,06,341,37*68
$GBGSV,5,1,17,45,82,151,51,09,11,070,36,24,25,213,,05,21,130,39*67
$GBGSV,5,2,17,56,15,092,,26,30,226,45,42,31,311,45,40,24,063,42*61
$GBGSV,5,3,17,22,37,153,48,07,24,071,40,10,27,085,39,36,38,056,47*6A
$GBGSV,5,4,17,50,56,296,,21,75,247,52,02,05,108,34,14,07,317,37*6A
$GBGSV,5,5,17,60,07,112,40*5A
$GPGGA,080052.00,,,,,0,00,,,M,,M,,*47
$PTNL,GGK,080052.00,010125,4742.1603355,N,01618.1000628,E,1,37,0.8,EHT751.8445,M*46
$GPGGQ,080052.00,010125,4742.1603355,N,01618.1000628,E,1,37,0.989,708.6379,M*32
$GPGFA,080052.00,4.226,6.679,0.444,0.344,347.055,0.815,,VVV*0B
$GPLLK,080052.00,010125,,M,,M,1,37,0.9,,M*09
$GNGMP,080052.00,,,,,DAAA,37,0.4,,,,*59
$GPGMP,080052.00,,,,,,09,,,,3.2,136*7E
$GLGMP,080052.00,,,,,,07,,,,,*77
$GAGMP,080052.00,,,,,,08,,,,,*75
$GBGMP,080052.00,,,,,,13,,,,,*7C
$PSSN,SNC,[0,288070000,2347]*41
$GPZDA,080057.00,01,01,2025,,*69
$GPDTM,W84,,00.0000000,N,00.0000000,E,00.0000000,W84*5F
$PSSN,TFM,080057.00,,,,*65
$GPRMC,080057.00,A,4742.1603333,N,01618.1000626,E,0.0,,010125,5.1,E,D*18
$GPGLL,4742.1603333,N,01618.1000626,E,080057.00,A,D*69
$GPGGA,080057.00,4742.1603333,N,01618.1000626,E,2,37,0.4,708.6377,M,43.2066,M,2.9,0136*44
$GNGNS,080057.00,4742.1603333,N,01618.1000626,E,DAAA,37,0.4,708.6377,43.2066,,*57
$GPGNS,080057.00,,,,,,09,,,,2.9,136*71
$GLGNS,080057.00,,,,,,07,,,,,*72
$GAGNS,080057.00,,,,,,08,,,,,*70
$GBGNS,080057.00,,,,,,13,,,,,*79
$GPLLQ,080057.00,010125,,M,,M,1,37,0.997,,M*18
$GPVTG,,T,,M,0.01,N,0.01,K,D*26
$GPHDT,,T*1B
$GPTHS,,V*0E
$GPROT,,V*08
$PSSN,HRP,080057.00,010125,,,,,,,00,0,,*6B
$PTNL,AVR,080057.00,,Yaw,,Tilt,,,,0,,00*3D
$GPGSA,A,3,05,07,08,13,14,15,18,20,30,,,,0.8,0.4,0.6*39
$GPGSA,A,3,65,66,72,74,75,76,82,,,,,,0.8,0.4,0.6*34
$GPGSA,A,3,02,03,05,08,13,24,25,26,,,,,0.8,0.4,0.6*33
$GPGSA,A,3,05,07,09,10,14,21,22,26,36,40,42,45,0.8,0.4,0.6*36
$GPGSA,A,3,60,,,,,,,,,,,,0.8,0.4,0.6*3E
$GPGST,080057.00,2.004,0.446,0.347,346.456,0.442,0.354,0.821*50
$GPGBS,080057.00,3.596,1.875,4.702,74,0.0001,6.344,6.124*50
$GPGRS,080057.00,1,-0.2,-0.6,1.1,0.2,0.1,-0.3,0.1,-0.3,-0.1,,,*40
$GPGRS,080057.00,1,-1.0,-2.9,6.2,6.3,-1.8,-3.0,-0.8,,,,,*4E
$GPGRS,080057.00,1,-0.6,0.5,0.1,0.1,0.5,-0.0,-0.1,0.5,,,,*6B
$GPGRS,080057.00,1,2.2,0.8,-0.5,-0.1,2.6,-0.2,-0.4,0.6,-1.2,-0.8,-0.7,-1.2*43
$GPGRS,080057.00,1,-0.6,,,,,,,,,,,*41
$GPGSV,5,1,19,13,62,304,49,08,11,041,38,20,30,206,44,15,27,303,43*7C
$GPGSV,5,2,19,07,24,068,42,22,44,168,,05,51,245,48,14,59,140,48*7E
$GPGSV,5,3,19,30,60,064,49,18,08,313,39,36,35,170,44,58,13,245,36*7B
$GPGSV,5,4,19,40,24,133,36,34,31,208,43,49,34,195,44,57,07,112,37*7A
$GPGSV,5,5,19,41,07,108,35,61,03,257,38*73
$GLGSV,3,1,09,75,84,191,52,66,23,320,46,76,22,215,47,72,42,138,49*6C
$GLGSV,3,2,09,74,38,040,45,65,75,321,49,81,00,300,26,82,09,342,44*64
$GLGSV,3,3,09,83,06,021,33*52
$GAGSV,3,1,10,03,86,006,49,13,14,292,39,24,37,054,45,02,22,189,41*6C
$GAGSV,3,2,10,08,34,299,44,05,36,113,44,16,56,084,,25,58,134,48*6E
$GAGSV,3,3,10,15,05,243,36,26,06,341,37*68
$GBGSV,5,1,17,45,82,151,51,09,11,070,36,24,25,213,,05,21,130,39*67
$GBGSV,5,2,17,56,15,092,,26,30,226,46,42,31,311,45,40,24,063,42*62
$GBGSV,5,3,17,22,37,153,48,07,24,071,40,10,27,085,39,36,38,056,47*6A
$GBGSV,5,4,17,50,56,296,,21,75,247,52,02,05,108,33,14,07,317,36*6C
$GBGSV,5,5,17,60,07,112,40*5A
$GPGGA,080057.00,,,,,0,00,,,M,,M,,*42
$PTNL,GGK,080057.00,010125,4742.1603333,N,01618.1000626,E,1,37,0.8,EHT751.8442,M*4A
$GPGGQ,080057.00,010125,4742.1603333,N,01618.1000626,E,1,37,0.997,708.6377,M*38
$GPGFA,080057.00,4.244,6.732,0.446,0.347,346.456,0.821,,VVV*04
$GPLLK,080057.00,010125,,M,,M,1,37,0.9,,M*0C
$GNGMP,080057.00,,,,,DAAA,37,0.4,,,,*5C
$GPGMP,080057.00,,,,,,09,,,,2.9,136*71
$GLGMP,080057.00,,,,,,07,,,,,*72
$GAGMP,080057.00,,,,,,08,,,,,*70
$GBGMP,080057.00,,,,,,13,,,,,*79
$PSSN,SNC,[0,288075000,2347]*44
$GPZDA,080102.00,01,01,2025,,*68
$GPDTM,W84,,00.0000000,N,00.0000000,E,00.0000000,W84*5F
$PSSN,TFM,080102.00,,,,*64
$GPRMC,080102.00,A,4742.1603322,N,01618.1000600,E,0.0,,010125,5.1,E,D*1D
$GPGLL,4742.1603322,N,01618.1000600,E,080102.00,A,D*6C
$GPGGA,080102.00,4742.1603322,N,01618.1000600,E,2,37,0.4,708.6410,M,43.2066,M,1.7,0136*4A
$GNGNS,080102.00,4742.1603322,N,01618.1000600,E,DAAA,37,0.4,708.6410,43.2066,,*54
$GPGNS,080102.00,,,,,,09,,,,1.7,136*7D
$GLGNS,080102.00,,,,,,07,,,,,*73
$GAGNS,080102.00,,,,,,08,,,,,*71
$GBGNS,080102.00,,,,,,13,,,,,*78
$GPLLQ,080102.00,010125,,M,,M,1,37,0.991,,M*1F
$GPVTG,,T,,M,0.01,N,0.01,K,D*26
$GPHDT,,T*1B
$GPTHS,,V*0E
$GPROT,,V*08
$PSSN,HRP,080102.00,010125,,,,,,,00,0,,*6A
$PTNL,AVR,080102.00,,Yaw,,Tilt,,,,0,,00*3C
$GPGSA,A,3,05,07,08,13,14,15,18,20,30,,,,0.8,0.4,0.6*39
$GPGSA,A,3,65,66,72,74,75,76,82,,,,,,0.8,0.4,0.6*34
$GPGSA,A,3,02,03,05,08,13,24,25,26,,,,,0.8,0.4,0.6*33
$GPGSA,A,3,05,07,09,10,14,21,22,26,36,40,42,45,0.8,0.4,0.6*36
$GPGSA,A,3,60,,,,,,,,,,,,0.8,0.4,0.6*3E
$GPGST,080102.00,1.893,0.440,0.347,347.295,0.436,0.352,0.817*5A
$GPGBS,080102.00,3.485,1.817,4.705,08,0.0001,1.198,1.223*5D
$GPGRS,080102.00,1,0.1,-0.7,1.2,-0.2,0.1,-0.5,0.3,0.0,0.0,,,*46
$GPGRS,080102.00,1,-0.8,-2.8,5.8,5.6,-2.3,-1.8,-0.6,,,,,*44
$GPGRS,080102.00,1,-0.6,0.3,0.3,-0.5,0.4,-0.6,-0.1,0.5,,,,*40
$GPGRS,080102.00,1,1.8,1.6,-0.4,0.8,3.1,-0.5,-0.4,0.1,-1.1,-0.8,-0.9,-1.3*6B
$GPGRS,080102.00,1,-1.0,,,,,,,,,,,*47
$GPGSV,5,1,19,13,62,304,48,08,11,041,38,20,30,206,43,15,27,303,43*7A
$GPGSV,5,2,19,07,24,068,42,22,44,168,,05,51,245,48,14,59,140,48*7E
$GPGSV,5,3,19,30,60,064,49,18,08,313,39,36,35,170,44,58,13,245,36*7B
$GPGSV,5,4,19,40,24,133,36,34,31,208,42,49,34,195,44,57,07,112,37*7B
$GPGSV,5,5,19,41,07,108,34,61,03,257,38*72
$GLGSV,3,1,09,75,84,191,52,66,23,320,46,76,22,215,47,72,42,138,49*6C
$GLGSV,3,2,09,74,38,040,44,65,76,321,49,81,00,300,25,82,09,342,44*65
$GLGSV,3,3,09,83,06,021,32*53
$GAGSV,3,1,10,03,86,006,49,13,14,292,38,24,37,054,44,02,22,189,41*6C
$GAGSV,3,2,10,08,34,299,43,05,36,113,44,16,56,084,,25,58,134,48*69
$GAGSV,3,3,10,15,05,243,37,26,06,340,37*68
$GBGSV,5,1,17,45,82,151,51,09,11,070,36,24,25,213,,05,21,130,39*67
$GBGSV,5,2,17,56,15,092,,40,24,063,42,22,37,153,48,26,30,226,45*68
$GBGSV,5,3,17,42,31,311,45,07,24,071,40,10,27,085,40,36,38,056,47*6D
$GBGSV,5,4,17,50,56,296,,21,75,247,52,02,05,108,34,14,07,317,36*6B
$GBGSV,5,5,17,60,07,112,40*5A
$GPGGA,080102.00,,,,,0,00,,,M,,M,,*43
$PTNL,GGK,080102.00,010125,4742.1603322,N,01618.1000600,E,1,37,0.8,EHT751.8476,M*48
$GPGGQ,080102.00,010125,4742.1603322,N,01618.1000600,E,1,37,0.991,708.6410,M*3D
$GPGFA,080102.00,4.183,6.700,0.440,0.347,347.295,0.817,,VVV*07
$GPLLK,080102.00,010125,,M,,M,1,37,0.9,,M*0D
$GNGMP,080102.00,,,,,DAAA,37,0.4,,,,*5D
$GPGMP,080102.00,,,,,,09,,,,1.7,136*7D
$GLGMP,080102.00,,,,,,07,,,,,*73
$GAGMP,080102.00,,,,,,08,,,,,*71
$GBGMP,080102.00,,,,,,13,,,,,*78
$PSSN,SNC,[0,288080000,2347]*4E
$GPZDA,080107.00,01,01,2025,,*6D
$GPDTM,W84,,00.0000000,N,00.0000000,E,00.0000000,W84*5F
$PSSN,TFM,080107.00,,,,*61
$GPRMC,080107.00,A,4742.1603339,N,01618.1000568,E,0.0,,010125,5.1,E,D*1F
$GPGLL,4742.1603339,N,01618.1000568,E,080107.00,A,D*6E
$GPGGA,080107.00,4742.1603339,N,01618.1000568,E,2,37,0.4,708.6409,M,43.2066,M,2.2,0136*46
$GNGNS,080107.00,4742.1603339,N,01618.1000568,E,DAAA,37,0.4,708.6409,43.2066,,*5E
$GPGNS,080107.00,,,,,,09,,,,2.2,136*7E
$GLGNS,080107.00,,,,,,07,,,,,*76
$GAGNS,080107.00,,,,,,08,,,,,*74
$GBGNS,080107.00,,,,,,13,,,,,*7D
$GPLLQ,080107.00,010125,,M,,M,1,37,0.979,,M*1C
$GPVTG,,T,,M,0.01,N,0.01,K,D*26
$GPHDT,,T*1B
$GPTHS,,V*0E
$GPROT,,V*08
$PSSN,HRP,080107.00,010125,,,,,,,00,0,,*6F
$PTNL,AVR,080107.00,,Yaw,,Tilt,,,,0,,00*39
$GPGSA,A,3,05,07,08,13,14,15,18,20,30,,,,0.8,0.4,0.6*39
$GPGSA,A,3,65,66,72,74,75,76,82,,,,,,0.8,0.4,0.6*34
$GPGSA,A,3,02,03,05,08,13,24,25,26,,,,,0.8,0.4,0.6*33
$GPGSA,A,3,05,07,09,10,14,21,22,26,36,40,42,45,0.8,0.4,0.6*36
$GPGSA,A,3,60,,,,,,,,,,,,0.8,0.4,0.6*3E
$GPGST,080107.00,1.794,0.438,0.342,347.671,0.434,0.347,0.806*55
$GPGBS,080107.00,3.500,1.797,4.616,72,0.0001,5.548,6.111*55
$GPGRS,080107.00,1,-0.0,-0.6,0.9,-0.1,0.0,-0.0,0.1,0.1,-0.0,,,*4D
$GPGRS,080107.00,1,-1.0,-2.7,5.5,4.6,-2.1,-2.2,-1.0,,,,,*47
$GPGRS,080107.00,1,-0.5,0.3,0.2,-0.2,0.5,-0.3,0.3,0.5,,,,*6B
$GPGRS,080107.00,1,1.9,1.9,0.2,1.7,2.9,-0.4,-0.5,0.0,-0.8,-1.0,-0.6,-1.1*41
$GPGRS,080107.00,1,-0.9,,,,,,,,,,,*4A
$GPGSV,5,1,19,13,62,304,48,08,11,041,38,20,30,206,44,15,27,303,43*7D
$GPGSV,5,2,19,07,24,068,42,22,44,168,,05,51,245,48,14,59,140,48*7E
$GPGSV,5,3,19,30,60,064,48,18,08,313,39,36,35,170,44,58,13,245,36*7A
$GPGSV,5,4,19,40,24,133,36,34,31,208,43,49,34,195,44,57,07,112,37*7A
$GPGSV,5,5,19,41,07,108,35,61,03,257,38*73
$GLGSV,3,1,09,75,84,191,52,66,23,320,46,76,22,215,46,72,42,138,48*6C
$GLGSV,3,2,09,74,38,040,45,65,76,321,49,81,00,300,22,82,09,342,43*64
$GLGSV,3,3,09,83,06,021,32*53
$GAGSV,3,1,10,03,86,007,48,13,14,292,38,24,37,054,44,02,22,189,41*6C
$GAGSV,3,2,10,08,34,299,43,05,36,113,44,16,56,084,,25,59,134,48*68
$GAGSV,3,3,10,15,05,243,37,26,06,340,37*68
$GBGSV,5,1,17,45,82,150,51,09,11,070,37,24,25,213,,05,21,130,39*67
$GBGSV,5,2,17,56,15,092,,26,30,226,45,42,31,311,45,40,24,063,42*61
$GBGSV,5,3,17,22,37,153,48,07,24,071,40,10,27,085,39,36,38,056,47*6A
$GBGSV,5,4,17,50,56,296,,21,75,247,52,02,05,108,34,14,07,317,36*6B
$GBGSV,5,5,17,60,07,112,40*5A
$GPGGA,080107.00,,,,,0,00,,,M,,M,,*46
$PTNL,GGK,080107.00,010125,4742.1603339,N,01618.1000568,E,1,37,0.8,EHT751.8475,M*49
$GPGGQ,080107.00,010125,4742.1603339,N,01618.1000568,E,1,37,0.979,708.6409,M*31
$GPGFA,080107.00,4.164,6.611,0.438,0.342,347.671,0.806,,VVV*0E
$GPLLK,080107.00,010125,,M,,M,1,37,0.9,,M*08
$GNGMP,080107.00,,,,,DAAA,37,0.4,,,,*58
$GPGMP,080107.00,,,,,,09,,,,2.2,136*7E
$GLGMP,080107.00,,,,,,07,,,,,*76
$GAGMP,080107.00,,,,,,08,,,,,*74
$GBGMP,080107.00,,,,,,13,,,,,*7D
$PSSN,SNC,[0,288085000,2347]*4B
$GPZDA,080112.00,01,01,2025,,*69
$GPDTM,W84,,00.0000000,N,00.0000000,E,00.0000000,W84*5F
$PSSN,TFM,080112.00,,,,*65
$GPRMC,080112.00,A,4742.1603333,N,01618.1000562,E,0.0,,010125,5.1,E,D*1B
$GPGLL,4742.1603333,N,01618.1000562,E,080112.00,A,D*6A
$GPGGA,080112.00,4742.1603333,N,01618.1000562,E,2,37,0.4,708.6434,M,43.2066,M,3.2,0136*4D
$GNGNS,080112.00,4742.1603333,N,01618.1000562,E,DAAA,37,0.4,708.6434,43.2066,,*54
$GPGNS,080112.00,,,,,,09,,,,3.2,136*7B
$GLGNS,080112.00,,,,,,07,,,,,*72
$GAGNS,080112.00,,,,,,08,,,,,*70
$GBGNS,080112.00,,,,,,13,,,,,*79
$GPLLQ,080112.00,010125,,M,,M,1,37,0.989,,M*17
$GPVTG,,T,,M,0.01,N,0.01,K,D*26
$GPHDT,,T*1B
$GPTHS,,V*0E
$GPROT,,V*08
$PSSN,HRP,080112.00,010125,,,,,,,00,0,,*6B
$PTNL,AVR,080112.00,,Yaw,,Tilt,,,,0,,00*3D
$GPGSA,A,3,05,07,08,13,14,15,18,20,30,,,,0.8,0.4,0.6*39
$GPGSA,A,3,65,66,72,74,75,76,82,,,,,,0.8,0.4,0.6*34
$GPGSA,A,3,02,03,05,08,13,24,25,26,,,,,0.8,0.4,0.6*33
$GPGSA,A,3,05,07,09,10,14,21,22,26,36,40,42,45,0.8,0.4,0.6*36
$GPGSA,A,3,60,,,,,,,,,,,,0.8,0.4,0.6*3E
$GPGST,080112.00,1.988,0.444,0.344,346.897,0.440,0.350,0.813*59
$GPGBS,080112.00,3.563,1.830,4.679,08,0.0001,1.182,1.240*54
$GPGRS,080112.00,1,-0.1,-0.9,1.2,0.1,0.2,-0.3,-0.0,0.1,-0.3,,,*4E
$GPGRS,080112.00,1,-0.9,-2.7,5.8,5.5,-2.3,-3.1,-2.4,,,,,*43
$GPGRS,080112.00,1,-0.8,0.4,-0.0,-0.3,0.5,-0.0,0.3,0.6,,,,*4B
$GPGRS,080112.00,1,1.8,1.7,-0.5,1.8,2.6,-0.6,-0.2,0.4,-1.0,-1.0,-0.6,-1.1*68
$GPGRS,080112.00,1,-0.9,,,,,,,,,,,*4E
$GPGSV,5,1,19,13,62,304,48,08,11,041,38,20,30,206,44,15,27,303,43*7D
$GPGSV,5,2,19,07,24,068,43,22,44,168,,05,51,245,48,14,59,140,48*7F
$GPGSV,5,3,19,30,60,064,48,18,08,313,39,36,35,170,44,58,13,245,36*7A
$GPGSV,5,4,19,40,24,133,36,34,31,208,43,49,34,195,44,57,07,112,37*7A
$GPGSV,5,5,19,41,07,108,35,61,03,257,38*73
$GLGSV,3,1,09,75,84,191,52,66,23,320,46,76,22,215,47,72,42,138,49*6C
$GLGSV,3,2,09,74,38,040,44,65,76,321,49,81,00,300,21,82,09,342,42*67
$GLGSV,3,3,09,83,06,021,33*52
$GAGSV,3,1,10,03,86,007,48,13,14,292,39,24,37,054,44,02,22,189,42*6E
$GAGSV,3,2,10,08,34,299,43,05,36,113,44,16,56,084,,25,59,134,48*68
$GAGSV,3,3,10,15,04,243,36,26,06,340,37*68
$GBGSV,5,1,17,45,82,150,51,09,11,070,36,24,25,213,,05,21,130,39*66
$GBGSV,5,2,17,56,15,092,,26,30,226,46,42,32,311,45,40,24,063,42*61
$GBGSV,5,3,17,22,37,153,48,07,24,071,40,10,27,085,40,36,38,056,46*65
$GBGSV,5,4,17,50,56,296,,21,75,247,52,02,05,108,34,14,07,317,36*6B
$GBGSV,5,5,17,60,07,112,40*5A
$GPGGA,080112.00,,,,,0,00,,,M,,M,,*42
$PTNL,GGK,080112.00,010125,4742.1603333,N,01618.1000562,E,1,37,0.8,EHT751.8499,M*4F
$GPGGQ,080112.00,010125,4742.1603333,N,01618.1000562,E,1,37,0.989,708.6434,M*34
$GPGFA,080112.00,4.226,6.670,0.444,0.344,346.897,0.813,,VVV*06
$GPLLK,080112.00,010125,,M,,M,1,37,0.9,,M*0C
$GNGMP,080112.00,,,,,DAAA,37,0.4,,,,*5C
$GPGMP,080112.00,,,,,,09,,,,3.2,136*7B
$GLGMP,080112.00,,,,,,07,,,,,*72
$GAGMP,080112.00,,,,,,08,,,,,*70
$GBGMP,080112.00,,,,,,13,,,,,*79
$PSSN,SNC,[0,288090000,2347]*4F
$GPZDA,080117.00,01,01,2025,,*6C
$GPDTM,W84,,00.0000000,N,00.0000000,E,00.0000000,W84*5F
$PSSN,TFM,080117.00,,,,*60
$GPRMC,080117.00,A,4742.1603343,N,01618.1000544,E,0.0,,010125,5.1,E,D*1D
$GPGLL,4742.1603343,N,01618.1000544,E,080117.00,A,D*6C
$GPGGA,080117.00,4742.1603343,N,01618.1000544,E,2,37,0.4,708.6478,M,43.2066,M,2.9,0136*49
$GNGNS,080117.00,4742.1603343,N,01618.1000544,E,DAAA,37,0.4,708.6478,43.2066,,*5A
$GPGNS,080117.00,,,,,,09,,,,2.9,136*74
$GLGNS,080117.00,,,,,,07,,,,,*77
$GAGNS,080117.00,,,,,,08,,,,,*75
$GBGNS,080117.00,,,,,,13,,,,,*7C
$GPLLQ,080117.00,010125,,M,,M,1,37,0.996,,M*1C
$GPVTG,,T,,M,0.00,N,0.01,K,D*27
$GPHDT,,T*1B
$GPTHS,,V*0E
$GPROT,,V*08
$PSSN,HRP,080117.00,010125,,,,,,,00,0,,*6E
$PTNL,AVR,080117.00,,Yaw,,Tilt,,,,0,,00*38
$GPGSA,A,3,05,07,08,13,14,15,18,20,30,,,,0.8,0.4,0.6*39
$GPGSA,A,3,65,66,72,74,75,76,82,,,,,,0.8,0.4,0.6*34
$GPGSA,A,3,02,03,05,08,13,24,25,26,,,,,0.8,0.4,0.6*33
$GPGSA,A,3,05,07,09,10,14,21,22,26,36,40,42,45,0.8,0.4,0.6*36
$GPGSA,A,3,60,,,,,,,,,,,,0.8,0.4,0.6*3E
$GPGST,080117.00,1.864,0.447,0.348,346.349,0.442,0.354,0.820*5E
$GPGBS,080117.00,3.595,1.873,4.709,72,0.0001,6.081,6.111*51
$GPGRS,080117.00,1,-0.3,-0.7,1.0,0.1,0.1,-0.1,0.1,0.3,-0.1,,,*68
$GPGRS,080117.00,1,-1.2,-2.2,6.1,5.1,-2.3,-2.1,-2.2,,,,,*40
$GPGRS,080117.00,1,-1.0,0.3,0.3,-0.0,-0.2,-0.1,0.2,0.5,,,,*44
$GPGRS,080117.00,1,1.9,1.4,-0.5,1.4,2.0,-0.4,-0.2,0.1,-1.4,-0.8,-1.0,-1.0*69
$GPGRS,080117.00,1,-0.7,,,,,,,,,,,*45
$GPGSV,5,1,19,13,62,304,48,08,11,041,38,20,30,206,43,15,27,303,44*7D
$GPGSV,5,2,19,07,24,068,43,22,44,168,,05,51,245,48,14,59,140,48*7F
$GPGSV,5,3,19,30,60,064,49,18,08,313,39,36,35,170,44,58,13,245,36*7B
$GPGSV,5,4,19,40,24,133,36,34,31,208,43,49,34,195,44,57,07,112,37*7A
$GPGSV,5,5,19,41,07,108,35,61,03,257,38*73
$GLGSV,3,1,09,75,84,191,52,66,23,320,46,76,22,215,47,72,42,138,48*6D
$GLGSV,3,2,09,74,38,040,45,65,76,321,49,81,00,300,,82,09,342,43*64
$GLGSV,3,3,09,83,06,021,32*53
$GAGSV,3,1,10,03,86,008,48,13,14,292,39,24,37,054,44,02,22,189,41*62
$GAGSV,3,2,10,08,34,299,44,05,36,113,44,16,56,084,,25,59,134,48*6F
$GAGSV,3,3,10,15,04,243,36,26,06,340,37*68
$GBGSV,5,1,17,45,82,150,51,09,11,070,36,24,25,213,,05,21,130,39*66
$GBGSV,5,2,17,56,15,092,,26,30,226,45,42,32,311,45,40,24,063,43*63
$GBGSV,5,3,17,22,37,153,48,07,24,071,40,10,27,085,40,36,37,056,46*6A
$GBGSV,5,4,17,50,56,296,,21,75,246,52,02,05,108,34,14,07,317,37*6B
$GBGSV,5,5,17,60,07,112,40*5A
$GPGGA,080117.00,,,,,0,00,,,M,,M,,*47
$PTNL,GGK,080117.00,010125,4742.1603343,N,01618.1000544,E,1,37,0.8,EHT751.8543,M*4F
$GPGGQ,080117.00,010125,4742.1603343,N,01618.1000544,E,1,37,0.996,708.6478,M*34
$GPGFA,080117.00,4.245,6.725,0.447,0.348,346.349,0.820,,VVV*00
$GPLLK,080117.00,010125,,M,,M,1,37,0.9,,M*09
$GNGMP,080117.00,,,,,DAAA,37,0.4,,,,*59
$GPGMP,080117.00,,,,,,09,,,,2.9,136*74
$GLGMP,080117.00,,,,,,07,,,,,*77
$GAGMP,080117.00,,,,,,08,,,,,*75
$GBGMP,080117.00,,,,,,13,,,,,*7C
$PSSN,SNC,[0,288095000,2347]*4A
$GPZDA,080122.00,01,01,2025,,*6A
$GPDTM,W84,,00.0000000,N,00.0000000,E,00.0000000,W84*5F
$PSSN,TFM,080122.00,,,,*66
$GPRMC,080122.00,A,4742.1603339,N,01618.1000521,E,0.0,,010125,5.1,E,D*15
$GPGLL,4742.1603339,N,01618.1000521,E,080122.00,A,D*64
$GPGGA,080122.00,4742.1603339,N,01618.1000521,E,2,37,0.4,708.6499,M,43.2066,M,1.7,0136*43
$GNGNS,080122.00,4742.1603339,N,01618.1000521,E,DAAA,37,0.4,708.6499,43.2066,,*5D
$GPGNS,080122.00,,,,,,09,,,,1.7,136*7F
$GLGNS,080122.00,,,,,,07,,,,,*71
$GAGNS,080122.00,,,,,,08,,,,,*73
$GBGNS,080122.00,,,,,,13,,,,,*7A
$GPLLQ,080122.00,010125,,M,,M,1,37,0.986,,M*1B
$GPVTG,,T,,M,0.01,N,0.01,K,D*26
$GPHDT,,T*1B
$GPTHS,,V*0E
$GPROT,,V*08
$PSSN,HRP,080122.00,010125,,,,,,,00,0,,*68
$PTNL,AVR,080122.00,,Yaw,,Tilt,,,,0,,00*3E
$GPGSA,A,3,05,07,08,13,14,15,18,20,30,,,,0.8,0.4,0.6*39
$GPGSA,A,3,65,66,72,74,75,76,82,,,,,,0.8,0.4,0.6*34
$GPGSA,A,3,02,03,05,08,13,24,25,26,,,,,0.8,0.4,0.6*33
$GPGSA,A,3,05,07,09,10,14,21,22,26,36,40,42,45,0.8,0.4,0.6*36
$GPGSA,A,3,60,,,,,,,,,,,,0.8,0.4,0.6*3E
$GPGST,080122.00,1.887,0.440,0.346,346.954,0.435,0.351,0.812*5E
$GPGBS,080122.00,3.484,1.815,4.710,72,0.0001,6.116,6.111*51
$GPGRS,080122.00,1,0.1,-0.6,0.9,0.1,-0.1,-0.3,-0.1,0.0,0.1,,,*64
$GPGRS,080122.00,1,-1.1,-2.9,6.1,5.3,-2.1,-1.9,-1.2,,,,,*46
$GPGRS,080122.00,1,-1.4,0.2,0.2,-0.2,0.0,-0.2,0.3,0.3,,,,*6F
