$GPZDA,214442.00,01,01,2025,,*66
$GPDTM,W84,,00.0000000,N,00.0000000,E,00.0000000,W84*5F
$PSSN,TFM,214442.00,,,,*6A
$GPRMC,214442.00,A,4742.1601592,N,01618.1002923,E,0.0,,010125,5.1,E,D*10
$GPGLL,4742.1601592,N,01618.1002923,E,214442.00,A,D*61
$GPGGA,214442.00,4742.1601592,N,01618.1002923,E,2,37,0.4,708.4826,M,43.2066,M,2.1,0136*49
$GNGNS,214442.00,4742.1601592,N,01618.1002923,E,DAAA,37,0.4,708.4826,43.2066,,*52
$GPGNS,214442.00,,,,,,08,,,,2.1,136*77
$GLGNS,214442.00,,,,,,09,,,,,*73
$GAGNS,214442.00,,,,,,07,,,,,*70
$GBGNS,214442.00,,,,,,13,,,,,*76
$GPLLQ,214442.00,010125,,M,,M,1,37,1.056,,M*12
$GPVTG,,T,,M,0.00,N,0.01,K,D*27
$GPHDT,,T*1B
$GPTHS,,V*0E
$GPROT,,V*08
$PSSN,HRP,214442.00,010125,,,,,,,00,0,,*64
$PTNL,AVR,214442.00,,Yaw,,Tilt,,,,0,,00*32
$GPGSA,A,3,02,08,10,14,21,23,27,32,,,,,0.7,0.4,0.6*3F
$GPGSA,A,3,67,68,69,74,75,76,83,84,85,,,,0.7,0.4,0.6*3D
$GPGSA,A,3,07,08,13,21,26,31,33,,,,,,0.7,0.4,0.6*3F
$GPGSA,A,3,05,08,13,14,27,28,30,33,36,41,42,43,0.7,0.4,0.6*30
$GPGSA,A,3,60,,,,,,,,,,,,0.7,0.4,0.6*31
$GPGST,214442.00,2.122,0.536,0.312,17.894,0.519,0.340,0.855*60
$GPGBS,214442.00,3.224,2.094,4.682,76,0.0001,-6.751,6.445*71
$GPGRS,214442.00,1,0.0,0.1,0.1,-0.0,0.2,-0.3,-0.0,-0.3,,,,*49
$GPGRS,214442.00,1,5.0,5.9,0.5,-2.2,-1.8,-6.8,-1.7,-2.7,1.3,,,*42
$GPGRS,214442.00,1,-0.1,0.2,0.5,-0.2,0.2,-0.3,0.1,,,,,*4C
$GPGRS,214442.00,1,2.1,0.1,0.7,-0.4,0.4,0.0,0.0,-0.9,-0.6,0.6,-1.0,0.4*42
$GPGRS,214442.00,1,-1.1,,,,,,,,,,,*48
$GPGSV,5,1,18,08,74,250,50,27,55,159,49,23,18,050,40,32,34,124,45*71
$GPGSV,5,2,18,02,31,284,44,21,52,289,45,10,60,059,50,16,05,191,34*7D
$GPGSV,5,3,18,14,08,329,37,36,35,170,44,58,13,245,38,57,11,108,37*7A
$GPGSV,5,4,18,34,31,208,42,40,24,132,36,49,34,195,44,41,07,108,33*73
$GPGSV,5,5,18,61,03,257,38*4F
$GLGSV,3,1,09,84,64,341,41,74,12,249,41,67,13,025,44,85,17,301,45*65
$GLGSV,3,2,09,75,22,301,46,83,34,093,39,69,47,152,52,68,53,062,51*66
$GLGSV,3,3,09,76,05,355,42*5D
$GAGSV,3,1,10,26,77,335,48,08,30,067,43,07,29,127,42,23,34,240,*65
$GAGSV,3,2,10,31,29,301,42,13,38,078,44,33,32,277,42,29,01,171,*6B
$GAGSV,3,3,10,21,09,193,36,03,04,023,34*6C
$GBGSV,6,1,22,28,67,111,51,42,12,038,40,05,23,128,39,08,12,046,35*62
$GBGSV,6,2,22,30,14,299,41,13,20,049,41,60,11,108,40,31,13,071,*6B
$GBGSV,6,3,22,58,15,255,,41,47,170,49,14,35,051,44,57,47,249,*61
$GBGSV,6,4,22,27,64,302,51,33,55,078,50,39,03,075,37,02,08,105,34*67
$GBGSV,6,5,22,16,00,064,,43,05,118,36,46,07,263,,32,02,201,*60
$GBGSV,6,6,22,29,08,292,,36,08,311,40*6B
$GPGGA,214442.00,,,,,0,00,,,M,,M,,*4D
$PTNL,GGK,214442.00,010125,4742.1601592,N,01618.1002923,E,1,37,0.7,EHT751.6891,M*41
$GPGGQ,214442.00,010125,4742.1601592,N,01618.1002923,E,1,37,1.056,708.4826,M*38
$GPGFA,214442.00,5.094,7.010,0.536,0.312,17.894,0.855,,VVV*33
$GPLLK,214442.00,010125,,M,,M,1,37,0.8,,M*02
$GNGMP,214442.00,,,,,DAAA,37,0.4,,,,*53
$GPGMP,214442.00,,,,,,08,,,,2.1,136*77
$GLGMP,214442.00,,,,,,09,,,,,*73
$GAGMP,214442.00,,,,,,07,,,,,*70
$GBGMP,214442.00,,,,,,13,,,,,*76
$PSSN,SNC,[0,337500000,2347]*46
$GPZDA,214447.00,01,01,2025,,*63
$GPDTM,W84,,00.0000000,N,00.0000000,E,00.0000000,W84*5F
$PSSN,TFM,214447.00,,,,*6F
$GPRMC,214447.00,A,4742.1601562,N,01618.1002942,E,0.0,,010125,5.1,E,D*1D
$GPGLL,4742.1601562,N,01618.1002942,E,214447.00,A,D*6C
$GPGGA,214447.00,4742.1601562,N,01618.1002942,E,2,37,0.4,708.4789,M,43.2066,M,2.6,0136*49
$GNGNS,214447.00,4742.1601562,N,01618.1002942,E,DAAA,37,0.4,708.4789,43.2066,,*55
$GPGNS,214447.00,,,,,,08,,,,2.6,136*75
$GLGNS,214447.00,,,,,,09,,,,,*76
$GAGNS,214447.00,,,,,,07,,,,,*75
$GBGNS,214447.00,,,,,,13,,,,,*73
$GPLLQ,214447.00,010125,,M,,M,1,37,1.039,,M*1E
$GPVTG,,T,,M,0.00,N,0.01,K,D*27
$GPHDT,,T*1B
$GPTHS,,V*0E
$GPROT,,V*08
$PSSN,HRP,214447.00,010125,,,,,,,00,0,,*61
$PTNL,AVR,214447.00,,Yaw,,Tilt,,,,0,,00*37
$GPGSA,A,3,02,08,10,14,21,23,27,32,,,,,0.7,0.4,0.6*3F
$GPGSA,A,3,67,68,69,74,75,76,83,84,85,,,,0.7,0.4,0.6*3D
$GPGSA,A,3,07,08,13,21,26,31,33,,,,,,0.7,0.4,0.6*3F
$GPGSA,A,3,05,08,13,14,27,28,30,33,36,41,42,43,0.7,0.4,0.6*30
$GPGSA,A,3,60,,,,,,,,,,,,0.7,0.4,0.6*31
$GPGST,214447.00,2.114,0.531,0.310,17.256,0.515,0.335,0.838*64
$GPGBS,214447.00,3.262,2.134,4.765,76,0.0001,-6.242,6.443*74
$GPGRS,214447.00,1,0.1,0.4,-0.0,-0.1,0.3,-0.2,-0.4,-0.3,,,,*61
$GPGRS,214447.00,1,4.9,5.4,1.1,-4.0,-1.1,-6.2,-1.6,-2.6,2.1,,,*41
$GPGRS,214447.00,1,-0.1,0.1,0.4,0.1,0.1,0.1,0.2,,,,,*4A
$GPGRS,214447.00,1,1.9,-0.2,0.8,0.2,0.4,0.0,0.4,-0.7,-0.8,0.6,-0.9,-0.2*61
$GPGRS,214447.00,1,-1.1,,,,,,,,,,,*4D
$GPGSV,5,1,18,08,74,250,50,27,55,159,49,23,18,050,40,32,34,124,45*71
$GPGSV,5,2,18,02,31,284,44,21,52,290,45,10,60,059,50,16,05,191,34*75
$GPGSV,5,3,18,14,08,329,38,36,35,170,44,58,13,245,37,57,11,108,37*7A
$GPGSV,5,4,18,34,31,208,42,40,24,132,36,49,34,195,44,41,07,108,34*74
$GPGSV,5,5,18,61,03,257,38*4F
$GLGSV,3,1,09,84,64,341,41,74,12,249,40,67,13,025,44,85,17,301,45*64
$GLGSV,3,2,09,75,22,301,46,83,34,093,39,69,47,152,52,68,53,062,51*66
$GLGSV,3,3,09,76,05,355,43*5C
$GAGSV,3,1,10,26,77,336,48,08,30,066,43,07,29,127,42,23,34,240,*67
$GAGSV,3,2,10,31,29,301,42,13,38,078,44,33,32,277,42,29,01,171,*6B
$GAGSV,3,3,10,21,09,193,37,03,04,023,35*6C
$GBGSV,6,1,22,28,67,111,50,42,12,037,40,05,23,128,39,08,12,046,35*6C
$GBGSV,6,2,22,30,14,299,41,13,20,049,40,60,11,108,40,31,13,071,*6A
$GBGSV,6,3,22,58,15,255,,41,47,170,49,14,35,051,44,57,47,249,*61
$GBGSV,6,4,22,27,64,302,51,33,55,078,50,39,03,075,37,02,08,105,34*67
$GBGSV,6,5,22,16,00,064,,43,05,118,35,46,07,263,,32,02,201,*63
$GBGSV,6,6,22,29,08,292,,36,08,311,39*65
$GPGGA,214447.00,,,,,0,00,,,M,,M,,*48
$PTNL,GGK,214447.00,010125,4742.1601562,N,01618.1002942,E,1,37,0.7,EHT751.6855,M*44
$GPGGQ,214447.00,010125,4742.1601562,N,01618.1002942,E,1,37,1.039,708.4789,M*36
$GPGFA,214447.00,5.049,6.869,0.531,0.310,17.256,0.838,,VVV*3B
$GPLLK,214447.00,010125,,M,,M,1,37,0.8,,M*07
$GNGMP,214447.00,,,,,DAAA,37,0.4,,,,*56
$GPGMP,214447.00,,,,,,08,,,,2.6,136*75
$GLGMP,214447.00,,,,,,09,,,,,*76
$GAGMP,214447.00,,,,,,07,,,,,*75
$GBGMP,214447.00,,,,,,13,,,,,*73
$PSSN,SNC,[0,337505000,2347]*43
$GPZDA,214452.00,01,01,2025,,*67
$GPDTM,W84,,00.0000000,N,00.0000000,E,00.0000000,W84*5F
$PSSN,TFM,214452.00,,,,*6B
$GPRMC,214452.00,A,4742.1601565,N,01618.1003004,E,0.0,,010125,5.1,E,D*14
$GPGLL,4742.1601565,N,01618.1003004,E,214452.00,A,D*65
$GPGGA,214452.00,4742.1601565,N,01618.1003004,E,2,37,0.4,708.4769,M,43.2066,M,2.1,0136*49
$GNGNS,214452.00,4742.1601565,N,01618.1003004,E,DAAA,37,0.4,708.4769,43.2066,,*52
$GPGNS,214452.00,,,,,,08,,,,2.1,136*76
$GLGNS,214452.00,,,,,,09,,,,,*72
$GAGNS,214452.00,,,,,,07,,,,,*71
$GBGNS,214452.00,,,,,,13,,,,,*77
$GPLLQ,214452.00,010125,,M,,M,1,37,1.046,,M*12
$GPVTG,,T,,M,0.00,N,0.00,K,D*26
$GPHDT,,T*1B
$GPTHS,,V*0E
$GPROT,,V*08
$PSSN,HRP,214452.00,010125,,,,,,,00,0,,*65
$PTNL,AVR,214452.00,,Yaw,,Tilt,,,,0,,00*33
$GPGSA,A,3,02,08,10,14,21,23,27,32,,,,,0.7,0.4,0.6*3F
$GPGSA,A,3,67,68,69,74,75,76,83,84,85,,,,0.7,0.4,0.6*3D
$GPGSA,A,3,07,08,13,21,26,31,33,,,,,,0.7,0.4,0.6*3F
$GPGSA,A,3,05,08,13,14,27,28,30,33,36,41,42,43,0.7,0.4,0.6*30
$GPGSA,A,3,60,,,,,,,,,,,,0.7,0.4,0.6*31
$GPGST,214452.00,1.988,0.533,0.309,18.415,0.515,0.338,0.846*6E
$GPGBS,214452.00,3.238,2.101,4.868,68,0.0001,5.682,6.076*50
$GPGRS,214452.00,1,0.6,-0.1,-0.0,0.4,-0.0,-0.7,0.0,-0.2,,,,*61
$GPGRS,214452.00,1,3.6,5.7,0.4,-3.9,-1.5,-5.4,-2.0,-2.6,1.7,,,*45
$GPGRS,214452.00,1,-0.2,-0.1,0.2,-0.0,0.1,-0.0,0.4,,,,,*60
$GPGRS,214452.00,1,2.3,-0.8,0.9,0.1,0.5,0.1,0.5,-0.5,-0.8,0.5,-1.0,0.9*4A
$GPGRS,214452.00,1,-0.9,,,,,,,,,,,*40
$GPGSV,5,1,18,08,74,250,50,27,55,159,48,23,18,050,40,32,34,124,45*70
$GPGSV,5,2,18,02,31,284,44,21,52,290,44,10,60,059,50,16,05,191,33*73
$GPGSV,5,3,18,14,08,329,37,36,35,170,44,58,13,245,38,57,11,108,37*7A
$GPGSV,5,4,18,34,31,208,42,40,24,132,36,49,34,195,44,41,07,108,34*74
$GPGSV,5,5,18,61,03,257,38*4F
$GLGSV,3,1,09,84,64,341,41,74,12,249,41,67,13,025,44,85,17,301,45*65
$GLGSV,3,2,09,75,22,301,46,83,33,093,39,69,47,152,52,68,53,062,51*61
$GLGSV,3,3,09,76,05,355,42*5D
$GAGSV,3,1,10,26,77,336,49,08,30,066,43,07,29,127,42,23,34,240,*66
$GAGSV,3,2,10,31,29,301,43,13,38,078,45,33,32,277,43,29,01,171,*6A
$GAGSV,3,3,10,21,09,193,37,03,04,023,35*6C
$GBGSV,6,1,22,28,66,111,50,42,12,037,41,05,23,128,39,08,12,046,35*6C
$GBGSV,6,2,22,30,14,299,42,31,13,071,,13,20,049,40,60,11,108,40*69
$GBGSV,6,3,22,58,15,255,,41,47,170,49,14,35,051,45,57,47,249,*60
$GBGSV,6,4,22,27,64,302,51,33,55,078,50,39,03,075,37,16,00,064,*6B
$GBGSV,6,5,22,36,08,311,39,43,05,118,35,46,07,263,,32,02,201,*62
$GBGSV,6,6,22,29,08,292,,02,08,105,34*68
$GPGGA,214452.00,,,,,0,00,,,M,,M,,*4C
$PTNL,GGK,214452.00,010125,4742.1601565,N,01618.1003004,E,1,37,0.7,EHT751.6835,M*4B
$GPGGQ,214452.00,010125,4742.1601565,N,01618.1003004,E,1,37,1.046,708.4769,M*39
$GPGFA,214452.00,5.064,6.939,0.533,0.309,18.415,0.846,,VVV*39
$GPLLK,214452.00,010125,,M,,M,1,37,0.8,,M*03
$GNGMP,214452.00,,,,,DAAA,37,0.4,,,,*52
$GPGMP,214452.00,,,,,,08,,,,2.1,136*76
$GLGMP,214452.00,,,,,,09,,,,,*72
$GAGMP,214452.00,,,,,,07,,,,,*71
$GBGMP,214452.00,,,,,,13,,,,,*77
$PSSN,SNC,[0,337510000,2347]*47
$GPZDA,214457.00,01,01,2025,,*62
$GPDTM,W84,,00.0000000,N,00.0000000,E,00.0000000,W84*5F
$PSSN,TFM,214457.00,,,,*6E
$GPRMC,214457.00,A,4742.1601570,N,01618.1003011,E,0.0,,010125,5.1,E,D*11
$GPGLL,4742.1601570,N,01618.1003011,E,214457.00,A,D*60
$GPGGA,214457.00,4742.1601570,N,01618.1003011,E,2,37,0.4,708.4767,M,43.2066,M,3.1,0136*43
$GNGNS,214457.00,4742.1601570,N,01618.1003011,E,DAAA,37,0.4,708.4767,43.2066,,*59
$GPGNS,214457.00,,,,,,08,,,,3.1,136*72
$GLGNS,214457.00,,,,,,09,,,,,*77
$GAGNS,214457.00,,,,,,07,,,,,*74
$GBGNS,214457.00,,,,,,13,,,,,*72
$GPLLQ,214457.00,010125,,M,,M,1,37,1.058,,M*18
$GPVTG,,T,,M,0.00,N,0.01,K,D*27
$GPHDT,,T*1B
$GPTHS,,V*0E
$GPROT,,V*08
$PSSN,HRP,214457.00,010125,,,,,,,00,0,,*60
$PTNL,AVR,214457.00,,Yaw,,Tilt,,,,0,,00*36
$GPGSA,A,3,02,08,10,14,21,23,27,32,,,,,0.7,0.4,0.6*3F
$GPGSA,A,3,67,68,69,74,75,76,83,84,85,,,,0.7,0.4,0.6*3D
$GPGSA,A,3,07,08,13,21,26,31,33,,,,,,0.7,0.4,0.6*3F
$GPGSA,A,3,05,08,13,14,27,28,30,33,36,41,42,43,0.7,0.4,0.6*30
$GPGSA,A,3,60,,,,,,,,,,,,0.7,0.4,0.6*31
$GPGST,214457.00,1.931,0.534,0.309,18.983,0.515,0.340,0.860*67
$GPGBS,214457.00,3.280,2.138,4.981,68,0.0001,5.702,6.076*53
$GPGRS,214457.00,1,0.1,-0.3,-0.0,0.3,0.0,-0.0,0.1,0.2,,,,*60
$GPGRS,214457.00,1,3.5,5.7,0.2,-2.9,-0.7,-5.8,-1.2,-2.8,1.6,,,*45
$GPGRS,214457.00,1,-0.3,0.1,0.1,-0.1,0.2,-0.2,0.3,,,,,*4D
$GPGRS,214457.00,1,2.2,-1.3,0.6,0.3,0.4,0.1,0.5,-0.6,-0.4,1.0,-0.6,1.0*4C
$GPGRS,214457.00,1,-1.2,,,,,,,,,,,*4F
$GPGSV,5,1,18,08,74,250,50,27,55,159,49,23,18,050,40,32,34,124,46*72
$GPGSV,5,2,18,02,31,284,44,21,52,290,45,10,60,059,50,16,05,191,33*72
$GPGSV,5,3,18,14,08,329,37,36,35,170,44,58,13,245,38,57,11,108,37*7A
$GPGSV,5,4,18,34,31,208,42,40,24,132,36,49,34,195,44,41,07,108,34*74
$GPGSV,5,5,18,61,03,257,38*4F
$GLGSV,3,1,09,84,64,341,41,74,12,249,40,67,13,025,43,85,17,301,45*63
$GLGSV,3,2,09,75,22,301,46,83,33,093,39,69,47,152,51,68,53,062,51*62
$GLGSV,3,3,09,76,05,355,42*5D
$GAGSV,3,1,10,26,77,336,48,08,30,066,43,07,29,127,42,23,34,240,*67
$GAGSV,3,2,10,31,29,301,43,13,37,078,44,33,32,277,43,29,01,171,*64
$GAGSV,3,3,10,21,09,193,37,03,04,023,35*6C
$GBGSV,6,1,22,28,66,111,50,42,12,037,41,05,23,128,39,08,12,046,35*6C
$GBGSV,6,2,22,30,14,299,42,13,20,049,40,60,11,108,40,31,13,071,*69
$GBGSV,6,3,22,58,15,255,,41,47,170,49,14,35,051,45,57,47,249,*60
$GBGSV,6,4,22,27,64,302,51,33,55,078,50,39,03,075,37,02,08,105,34*67
$GBGSV,6,5,22,16,00,064,,43,05,118,35,46,07,263,,32,02,201,*63
$GBGSV,6,6,22,29,08,292,,36,08,311,39*65
$GPGGA,214457.00,,,,,0,00,,,M,,M,,*49
$PTNL,GGK,214457.00,010125,4742.1601570,N,01618.1003011,E,1,37,0.7,EHT751.6832,M*49
$GPGGQ,214457.00,010125,4742.1601570,N,01618.1003011,E,1,37,1.058,708.4767,M*3D
$GPGFA,214457.00,5.078,7.049,0.534,0.309,18.983,0.860,,VVV*3F
$GPLLK,214457.00,010125,,M,,M,1,37,0.8,,M*06
$GNGMP,214457.00,,,,,DAAA,37,0.4,,,,*57
$GPGMP,214457.00,,,,,,08,,,,3.1,136*72
$GLGMP,214457.00,,,,,,09,,,,,*77
$GAGMP,214457.00,,,,,,07,,,,,*74
$GBGMP,214457.00,,,,,,13,,,,,*72
$PSSN,SNC,[0,337515000,2347]*42
$GPZDA,214502.00,01,01,2025,,*63
$GPDTM,W84,,00.0000000,N,00.0000000,E,00.0000000,W84*5F
$PSSN,TFM,214502.00,,,,*6F
$GPRMC,214502.00,A,4742.1601567,N,01618.1003030,E,0.0,,010125,5.1,E,D*15
$GPGLL,4742.1601567,N,01618.1003030,E,214502.00,A,D*64
$GPGGA,214502.00,4742.1601567,N,01618.1003030,E,2,36,0.5,708.4760,M,43.2066,M,2.1,0136*41
$GNGNS,214502.00,4742.1601567,N,01618.1003030,E,DAAA,36,0.5,708.4760,43.2066,,*5A
$GPGNS,214502.00,,,,,,08,,,,2.1,136*72
$GLGNS,214502.00,,,,,,09,,,,,*76
$GAGNS,214502.00,,,,,,07,,,,,*75
$GBGNS,214502.00,,,,,,12,,,,,*72
$GPLLQ,214502.00,010125,,M,,M,1,36,1.059,,M*19
$GPVTG,,T,,M,0.00,N,0.00,K,D*26
$GPHDT,,T*1B
$GPTHS,,V*0E
$GPROT,,V*08
$PSSN,HRP,214502.00,010125,,,,,,,00,0,,*61
$PTNL,AVR,214502.00,,Yaw,,Tilt,,,,0,,00*37
$GPGSA,A,3,02,08,10,14,21,23,27,32,,,,,0.8,0.5,0.6*31
$GPGSA,A,3,67,68,69,74,75,76,83,84,85,,,,0.8,0.5,0.6*33
$GPGSA,A,3,07,08,13,21,26,31,33,,,,,,0.8,0.5,0.6*31
$GPGSA,A,3,05,08,13,14,27,28,30,33,36,41,42,60,0.8,0.5,0.6*3F
$GPGST,214502.00,2.106,0.536,0.312,17.924,0.519,0.340,0.858*64
$GPGBS,214502.00,3.254,2.096,4.727,76,0.0001,-6.461,6.441*7B
$GPGRS,214502.00,1,0.1,-0.2,-0.1,0.1,0.4,-0.3,0.1,-0.4,,,,*4F
$GPGRS,214502.00,1,2.7,5.5,0.2,-4.8,-1.0,-6.5,-1.3,-2.5,2.5,,,*46
$GPGRS,214502.00,1,-0.6,0.2,0.4,-0.0,0.2,-0.0,0.4,,,,,*4B
$GPGRS,214502.00,1,2.2,-0.9,0.5,0.2,0.2,-0.1,-0.1,-1.1,-0.8,1.0,-0.3,-1.2*66
$GPGSV,5,1,18,08,74,250,50,27,55,159,48,23,18,050,40,32,34,124,46*73
$GPGSV,5,2,18,02,31,284,44,21,52,290,44,10,59,059,50,16,05,191,32*78
$GPGSV,5,3,18,14,08,329,37,36,35,170,44,58,13,245,38,57,11,108,37*7A
$GPGSV,5,4,18,34,31,208,42,40,24,132,36,49,34,195,44,41,07,108,34*74
$GPGSV,5,5,18,61,03,257,38*4F
$GLGSV,3,1,09,84,64,342,41,74,12,249,41,67,13,025,42,85,17,301,45*60
$GLGSV,3,2,09,75,22,301,46,83,33,093,40,69,47,152,51,68,53,062,51*6C
$GLGSV,3,3,09,76,05,355,41*5E
$GAGSV,3,1,10,26,77,336,48,08,30,066,43,31,29,301,42,23,34,240,*64
$GAGSV,3,2,10,07,29,127,41,13,37,078,44,33,32,277,43,29,01,171,*65
$GAGSV,3,3,10,21,09,193,38,03,04,023,35*63
$GBGSV,6,1,22,28,66,111,50,42,12,037,41,05,23,128,39,08,12,046,35*6C
$GBGSV,6,2,22,30,14,299,42,13,20,049,40,60,11,108,40,31,13,071,*69
$GBGSV,6,3,22,58,14,255,,41,47,170,49,14,35,051,44,57,47,249,*60
$GBGSV,6,4,22,27,64,302,51,33,55,078,49,39,03,075,37,02,08,105,33*68
$GBGSV,6,5,22,16,00,064,,43,05,118,35,46,07,263,,32,02,201,*63
$GBGSV,6,6,22,29,08,292,,36,08,311,39*65
$GPGGA,214502.00,,,,,0,00,,,M,,M,,*48
$PTNL,GGK,214502.00,010125,4742.1601567,N,01618.1003030,E,1,36,0.8,EHT751.6826,M*46
$GPGGQ,214502.00,010125,4742.1601567,N,01618.1003030,E,1,36,1.059,708.4760,M*3E
$GPGFA,214502.00,5.098,7.033,0.536,0.312,17.924,0.858,,VVV*3C
$GPLLK,214502.00,010125,,M,,M,1,36,0.9,,M*07
$GNGMP,214502.00,,,,,DAAA,36,0.5,,,,*56
$GPGMP,214502.00,,,,,,08,,,,2.1,136*72
$GLGMP,214502.00,,,,,,09,,,,,*76
$GAGMP,214502.00,,,,,,07,,,,,*75
$GBGMP,214502.00,,,,,,12,,,,,*72
$PSSN,SNC,[0,337520000,2347]*44
$GPZDA,214507.00,01,01,2025,,*66
$GPDTM,W84,,00.0000000,N,00.0000000,E,00.0000000,W84*5F
$PSSN,TFM,214507.00,,,,*6A
$GPRMC,214507.00,A,4742.1601555,N,01618.1003052,E,0.0,,010125,5.1,E,D*15
$GPGLL,4742.1601555,N,01618.1003052,E,214507.00,A,D*64
$GPGGA,214507.00,4742.1601555,N,01618.1003052,E,2,36,0.5,708.4757,M,43.2066,M,2.6,0136*42
$GNGNS,214507.00,4742.1601555,N,01618.1003052,E,DAAA,36,0.5,708.4757,43.2066,,*5E
$GPGNS,214507.00,,,,,,08,,,,2.6,136*70
$GLGNS,214507.00,,,,,,09,,,,,*73
$GAGNS,214507.00,,,,,,07,,,,,*70
$GBGNS,214507.00,,,,,,12,,,,,*77
$GPLLQ,214507.00,010125,,M,,M,1,36,1.043,,M*17
$GPVTG,,T,,M,0.00,N,0.00,K,D*26
$GPHDT,,T*1B
$GPTHS,,V*0E
$GPROT,,V*08
$PSSN,HRP,214507.00,010125,,,,,,,00,0,,*64
$PTNL,AVR,214507.00,,Yaw,,Tilt,,,,0,,00*32
$GPGSA,A,3,02,08,10,14,21,23,27,32,,,,,0.8,0.5,0.6*31
$GPGSA,A,3,67,68,69,74,75,76,83,84,85,,,,0.8,0.5,0.6*33
$GPGSA,A,3,07,08,13,21,26,31,33,,,,,,0.8,0.5,0.6*31
$GPGSA,A,3,05,08,13,14,27,28,30,33,36,41,42,60,0.8,0.5,0.6*3F
$GPGST,214507.00,2.185,0.532,0.310,17.202,0.516,0.335,0.842*65
$GPGBS,214507.00,3.293,2.137,4.812,76,0.0001,-7.356,6.440*75
$GPGRS,214507.00,1,0.0,0.0,-0.0,0.1,0.2,0.1,0.2,-0.4,,,,*4F
$GPGRS,214507.00,1,3.0,6.0,0.1,-3.2,-1.3,-7.4,-1.3,-3.2,2.5,,,*48
$GPGRS,214507.00,1,-0.7,0.2,0.3,0.0,0.2,0.0,0.0,,,,,*4C
$GPGRS,214507.00,1,1.9,-0.8,0.4,0.2,0.1,-0.2,-0.2,-0.9,-0.7,0.9,-0.7,-1.1*61
$GPGSV,5,1,18,08,74,250,50,27,55,159,48,23,18,050,39,32,34,124,46*7D
$GPGSV,5,2,18,02,31,284,44,21,52,290,44,10,59,059,50,16,05,191,32*78
$GPGSV,5,3,18,14,08,329,38,36,35,170,44,58,13,245,38,57,11,108,37*75
$GPGSV,5,4,18,34,31,208,42,40,24,132,36,49,34,195,44,41,07,108,34*74
$GPGSV,5,5,18,61,03,257,38*4F
$GLGSV,3,1,09,84,64,342,41,74,12,249,41,67,13,025,42,85,17,301,45*60
$GLGSV,3,2,09,75,22,301,46,83,33,093,39,69,47,152,51,68,53,062,51*62
$GLGSV,3,3,09,76,05,355,41*5E
$GAGSV,3,1,10,26,77,336,48,08,30,066,43,07,29,127,41,23,34,240,*64
$GAGSV,3,2,10,31,29,301,42,13,37,078,43,33,32,277,43,29,01,171,*62
$GAGSV,3,3,10,21,09,193,37,03,04,023,35*6C
$GBGSV,6,1,22,28,66,111,50,42,12,037,41,05,23,128,39,08,12,046,35*6C
$GBGSV,6,2,22,30,14,299,41,13,20,049,40,60,11,108,40,31,13,071,*6A
$GBGSV,6,3,22,58,14,255,,41,47,170,49,14,35,051,44,57,47,249,*60
$GBGSV,6,4,22,27,64,302,50,33,55,078,49,39,03,075,37,02,08,105,34*6E
$GBGSV,6,5,22,16,00,064,,43,05,118,34,46,07,263,,32,02,201,*62
$GBGSV,6,6,22,29,08,292,,36,08,311,39*65
$GPGGA,214507.00,,,,,0,00,,,M,,M,,*4D
$PTNL,GGK,214507.00,010125,4742.1601555,N,01618.1003052,E,1,36,0.8,EHT751.6823,M*43
$GPGGQ,214507.00,010125,4742.1601555,N,01618.1003052,E,1,36,1.043,708.4757,M*31
$GPGFA,214507.00,5.059,6.904,0.532,0.310,17.202,0.842,,VVV*3A
$GPLLK,214507.00,010125,,M,,M,1,36,0.9,,M*02
$GNGMP,214507.00,,,,,DAAA,36,0.5,,,,*53
$GPGMP,214507.00,,,,,,08,,,,2.6,136*70
$GLGMP,214507.00,,,,,,09,,,,,*73
$GAGMP,214507.00,,,,,,07,,,,,*70
$GBGMP,214507.00,,,,,,12,,,,,*77
$PSSN,SNC,[0,337525000,2347]*41
$GPZDA,214512.00,01,01,2025,,*62
$GPDTM,W84,,00.0000000,N,00.0000000,E,00.0000000,W84*5F
$PSSN,TFM,214512.00,,,,*6E
$GPRMC,214512.00,A,4742.1601563,N,01618.1003075,E,0.0,,010125,5.1,E,D*11
$GPGLL,4742.1601563,N,01618.1003075,E,214512.00,A,D*60
$GPGGA,214512.00,4742.1601563,N,01618.1003075,E,2,36,0.5,708.4708,M,43.2066,M,2.1,0136*4B
$GNGNS,214512.00,4742.1601563,N,01618.1003075,E,DAAA,36,0.5,708.4708,43.2066,,*50
$GPGNS,214512.00,,,,,,08,,,,2.1,136*73
$GLGNS,214512.00,,,,,,09,,,,,*77
$GAGNS,214512.00,,,,,,07,,,,,*74
$GBGNS,214512.00,,,,,,12,,,,,*73
$GPLLQ,214512.00,010125,,M,,M,1,36,1.050,,M*11
$GPVTG,,T,,M,0.00,N,0.01,K,D*27
$GPHDT,,T*1B
$GPTHS,,V*0E
$GPROT,,V*08
$PSSN,HRP,214512.00,010125,,,,,,,00,0,,*60
$PTNL,AVR,214512.00,,Yaw,,Tilt,,,,0,,00*36
$GPGSA,A,3,02,08,10,14,21,23,27,32,,,,,0.8,0.5,0.6*31
$GPGSA,A,3,67,68,69,74,75,76,83,84,85,,,,0.8,0.5,0.6*33
$GPGSA,A,3,07,08,13,21,26,31,33,,,,,,0.8,0.5,0.6*31
$GPGSA,A,3,05,08,13,14,27,28,30,33,36,41,42,60,0.8,0.5,0.6*3F
$GPGST,214512.00,2.264,0.533,0.309,18.342,0.516,0.338,0.850*60
$GPGBS,214512.00,3.267,2.103,4.913,76,0.0001,-6.895,6.439*76
$GPGRS,214512.00,1,0.1,0.1,0.1,-0.1,0.0,-0.1,0.2,-0.6,,,,*67
$GPGRS,214512.00,1,3.9,6.2,0.5,-4.6,-1.6,-6.9,-1.9,-2.7,2.0,,,*42
$GPGRS,214512.00,1,-0.2,0.2,0.3,0.3,0.4,-0.2,0.1,,,,,*66
$GPGRS,214512.00,1,2.1,-0.5,0.3,-0.3,0.3,0.1,0.1,-0.6,-0.2,1.0,-0.6,-1.2*4A
$GPGSV,5,1,18,08,74,250,50,27,55,159,48,23,18,050,39,32,34,124,46*7D
$GPGSV,5,2,18,02,31,284,44,21,52,290,44,10,59,059,50,16,05,191,31*7B
$GPGSV,5,3,18,14,08,329,39,36,35,170,44,58,13,245,38,57,11,108,37*74
$GPGSV,5,4,18,34,31,208,42,40,24,132,36,49,34,195,44,41,07,108,34*74
$GPGSV,5,5,18,61,03,257,38*4F
$GLGSV,3,1,09,84,64,342,41,74,12,249,40,67,13,025,42,85,17,301,45*61
$GLGSV,3,2,09,75,22,301,45,83,33,093,39,69,47,152,52,68,53,062,51*62
$GLGSV,3,3,09,76,05,355,41*5E
$GAGSV,3,1,10,26,77,336,48,08,30,066,43,07,29,127,42,23,34,240,*67
$GAGSV,3,2,10,31,29,301,42,13,37,078,43,33,32,278,43,29,01,171,*6D
$GAGSV,3,3,10,21,09,193,38,03,04,023,35*63
$GBGSV,6,1,22,28,66,111,50,42,12,037,41,05,23,128,39,08,12,046,35*6C
$GBGSV,6,2,22,30,14,299,41,31,13,071,,13,20,049,40,60,11,108,40*6A
$GBGSV,6,3,22,58,14,255,,41,47,170,49,14,35,051,44,57,47,249,*60
$GBGSV,6,4,22,27,64,302,50,33,55,078,49,39,03,075,37,16,00,064,*62
$GBGSV,6,5,22,36,08,311,39,43,05,118,33,46,07,263,,32,02,201,*64
$GBGSV,6,6,22,29,08,292,,02,08,105,34*68
$GPGGA,214512.00,,,,,0,00,,,M,,M,,*49
$PTNL,GGK,214512.00,010125,4742.1601563,N,01618.1003075,E,1,36,0.8,EHT751.6774,M*4A
$GPGGQ,214512.00,010125,4742.1601563,N,01618.1003075,E,1,36,1.050,708.4708,M*3D
$GPGFA,214512.00,5.071,6.972,0.533,0.309,18.342,0.850,,VVV*35
$GPLLK,214512.00,010125,,M,,M,1,36,0.9,,M*06
$GNGMP,214512.00,,,,,DAAA,36,0.5,,,,*57
$GPGMP,214512.00,,,,,,08,,,,2.1,136*73
$GLGMP,214512.00,,,,,,09,,,,,*77
$GAGMP,214512.00,,,,,,07,,,,,*74
$GBGMP,214512.00,,,,,,12,,,,,*73
$PSSN,SNC,[0,337530000,2347]*45
$GPZDA,214517.00,01,01,2025,,*67
$GPDTM,W84,,00.0000000,N,00.0000000,E,00.0000000,W84*5F
$PSSN,TFM,214517.00,,,,*6B
$GPRMC,214517.00,A,4742.1601568,N,01618.1003104,E,0.0,,010125,5.1,E,D*18
$GPGLL,4742.1601568,N,01618.1003104,E,214517.00,A,D*69
$GPGGA,214517.00,4742.1601568,N,01618.1003104,E,2,36,0.5,708.4655,M,43.2066,M,3.1,0136*4A
$GNGNS,214517.00,4742.1601568,N,01618.1003104,E,DAAA,36,0.5,708.4655,43.2066,,*50
$GPGNS,214517.00,,,,,,08,,,,3.1,136*77
$GLGNS,214517.00,,,,,,09,,,,,*72
$GAGNS,214517.00,,,,,,07,,,,,*71
$GBGNS,214517.00,,,,,,12,,,,,*76
$GPLLQ,214517.00,010125,,M,,M,1,36,1.062,,M*15
$GPVTG,,T,,M,0.00,N,0.00,K,D*26
$GPHDT,,T*1B
$GPTHS,,V*0E
$GPROT,,V*08
$PSSN,HRP,214517.00,010125,,,,,,,00,0,,*65
$PTNL,AVR,214517.00,,Yaw,,Tilt,,,,0,,00*33
$GPGSA,A,3,02,08,10,14,21,23,27,32,,,,,0.8,0.5,0.6*31
$GPGSA,A,3,67,68,69,74,75,76,83,84,85,,,,0.8,0.5,0.6*33
$GPGSA,A,3,07,08,13,21,26,31,33,,,,,,0.8,0.5,0.6*31
$GPGSA,A,3,05,08,13,14,27,28,30,33,36,41,42,60,0.8,0.5,0.6*3F
$GPGST,214517.00,2.186,0.535,0.309,18.930,0.516,0.340,0.863*6C
$GPGBS,214517.00,3.309,2.139,5.029,76,0.0001,-6.825,6.438*78
$GPGRS,214517.00,1,0.1,0.2,-0.1,-0.3,0.1,0.2,0.3,-0.7,,,,*61
$GPGRS,214517.00,1,4.0,5.4,0.3,-4.6,-1.9,-6.8,-1.1,-3.0,2.3,,,*49
$GPGRS,214517.00,1,-0.1,0.1,0.6,0.2,0.2,0.1,0.1,,,,,*4F
$GPGRS,214517.00,1,1.6,-0.5,0.6,-0.4,0.3,0.3,0.1,-0.5,-0.1,0.7,-0.5,-1.1*4D
$GPGSV,5,1,18,08,74,249,50,27,55,159,49,23,18,050,40,32,34,124,46*7A
$GPGSV,5,2,18,02,31,284,44,21,52,290,44,10,59,059,50,16,05,191,31*7B
$GPGSV,5,3,18,14,08,329,39,36,35,170,44,58,13,245,38,57,11,108,37*74
$GPGSV,5,4,18,34,31,208,42,40,24,132,36,49,34,195,44,41,07,108,34*74
$GPGSV,5,5,18,61,03,257,38*4F
$GLGSV,3,1,09,84,64,342,41,74,12,249,40,67,13,025,43,85,18,301,46*6C
$GLGSV,3,2,09,75,22,301,46,83,33,093,39,69,47,152,51,68,53,062,51*62
$GLGSV,3,3,09,76,05,355,42*5D
$GAGSV,3,1,10,26,77,336,48,08,30,066,43,31,29,301,42,23,34,240,*64
$GAGSV,3,2,10,07,29,127,42,13,37,078,43,33,32,278,43,29,01,171,*6E
$GAGSV,3,3,10,21,09,193,37,03,04,023,35*6C
$GBGSV,6,1,22,28,66,111,50,42,12,037,41,05,23,128,39,08,12,046,36*6F
$GBGSV,6,2,22,30,14,299,41,13,20,049,39,60,11,108,40,31,13,071,*64
$GBGSV,6,3,22,58,14,255,,41,47,170,49,14,35,051,44,57,47,250,*68
$GBGSV,6,4,22,27,64,302,50,33,55,078,49,39,03,075,37,02,08,105,34*6E
$GBGSV,6,5,22,16,00,064,,43,05,118,33,46,07,263,,32,02,201,*65
$GBGSV,6,6,22,29,08,292,,36,08,311,39*65
$GPGGA,214517.00,,,,,0,00,,,M,,M,,*4C
$PTNL,GGK,214517.00,010125,4742.1601568,N,01618.1003104,E,1,36,0.8,EHT751.6720,M*42
$GPGGQ,214517.00,010125,4742.1601568,N,01618.1003104,E,1,36,1.062,708.4655,M*3C
$GPGFA,214517.00,5.085,7.078,0.535,0.309,18.930,0.863,,VVV*30
$GPLLK,214517.00,010125,,M,,M,1,36,0.9,,M*03
$GNGMP,214517.00,,,,,DAAA,36,0.5,,,,*52
$GPGMP,214517.00,,,,,,08,,,,3.1,136*77
$GLGMP,214517.00,,,,,,09,,,,,*72
$GAGMP,214517.00,,,,,,07,,,,,*71
$GBGMP,214517.00,,,,,,12,,,,,*76
$PSSN,SNC,[0,337535000,2347]*40
$GPZDA,214522.00,01,01,2025,,*61
$GPDTM,W84,,00.0000000,N,00.0000000,E,00.0000000,W84*5F
$PSSN,TFM,214522.00,,,,*6D
$GPRMC,214522.00,A,4742.1601550,N,01618.1003129,E,0.0,,010125,5.1,E,D*1A
$GPGLL,4742.1601550,N,01618.1003129,E,214522.00,A,D*6B
$GPGGA,214522.00,4742.1601550,N,01618.1003129,E,2,36,0.5,708.4610,M,43.2066,M,2.1,0136*48
$GNGNS,214522.00,4742.1601550,N,01618.1003129,E,DAAA,36,0.5,708.4610,43.2066,,*53
$GPGNS,214522.00,,,,,,08,,,,2.1,136*70
$GLGNS,214522.00,,,,,,09,,,,,*74
$GAGNS,214522.00,,,,,,07,,,,,*77
$GBGNS,214522.00,,,,,,12,,,,,*70
$GPLLQ,214522.00,010125,,M,,M,1,36,1.061,,M*10
$GPVTG,,T,,M,0.00,N,0.00,K,D*26
$GPHDT,,T*1B
$GPTHS,,V*0E
$GPROT,,V*08
$PSSN,HRP,214522.00,010125,,,,,,,00,0,,*63
$PTNL,AVR,214522.00,,Yaw,,Tilt,,,,0,,00*35
$GPGSA,A,3,02,08,10,14,21,23,27,32,,,,,0.8,0.5,0.6*31
$GPGSA,A,3,67,68,69,74,75,76,83,84,85,,,,0.8,0.5,0.6*33
$GPGSA,A,3,07,08,13,21,26,31,33,,,,,,0.8,0.5,0.6*31
$GPGSA,A,3,05,08,13,14,27,28,30,33,36,41,42,60,0.8,0.5,0.6*3F
$GPGST,214522.00,2.036,0.537,0.312,17.928,0.520,0.340,0.860*68
$GPGBS,214522.00,3.265,2.097,4.743,76,0.0001,-6.138,6.435*72
$GPGRS,214522.00,1,0.1,0.1,0.1,-0.4,0.1,0.3,0.1,-0.4,,,,*4E
$GPGRS,214522.00,1,3.8,5.2,-0.2,-3.9,-1.8,-6.1,-1.8,-2.1,2.9,,,*69
$GPGRS,214522.00,1,-0.5,0.0,0.5,0.2,-0.1,-0.3,-0.2,,,,,*60
$GPGRS,214522.00,1,1.5,-0.1,0.3,0.3,0.3,0.1,-0.1,-0.9,-0.0,0.2,-0.5,-1.4*41
$GPGSV,5,1,18,08,74,249,50,27,55,159,48,23,18,050,40,32,34,124,46*7B
$GPGSV,5,2,18,02,31,284,44,21,52,290,44,10,59,059,50,16,05,191,31*7B
$GPGSV,5,3,18,14,08,329,39,36,35,170,44,58,13,245,37,57,11,108,37*7B
$GPGSV,5,4,18,34,31,208,42,40,24,132,36,49,34,195,44,41,07,108,34*74
$GPGSV,5,5,18,61,03,257,38*4F
$GLGSV,3,1,09,84,64,342,41,74,12,249,40,85,18,301,46,67,13,025,42*6D
$GLGSV,3,2,09,75,22,301,46,83,33,093,38,69,47,152,51,68,52,062,51*62
$GLGSV,3,3,09,76,05,355,43*5C
$GAGSV,3,1,10,26,77,337,48,08,30,066,43,07,29,127,42,23,34,240,*66
$GAGSV,3,2,10,31,29,301,42,13,37,078,43,33,32,278,43,29,02,171,*6E
$GAGSV,3,3,10,21,09,193,37,03,04,023,35*6C
$GBGSV,6,1,22,28,66,112,50,42,12,037,41,05,23,128,39,08,12,046,36*6C
$GBGSV,6,2,22,30,14,299,41,13,20,049,39,60,11,108,40,31,13,071,*64
$GBGSV,6,3,22,58,14,255,,41,47,170,49,14,35,051,44,57,48,250,*67
$GBGSV,6,4,22,27,64,302,50,33,55,078,49,39,03,075,37,02,08,105,34*6E
$GBGSV,6,5,22,16,00,064,25,43,05,118,33,46,07,263,,32,02,201,*62
$GBGSV,6,6,22,29,08,292,,36,08,311,40*6B
$GPGGA,214522.00,,,,,0,00,,,M,,M,,*4A
$PTNL,GGK,214522.00,010125,4742.1601550,N,01618.1003129,E,1,36,0.8,EHT751.6675,M*41
$GPGGQ,214522.00,010125,4742.1601550,N,01618.1003129,E,1,36,1.061,708.4610,M*3C
$GPGFA,214522.00,5.103,7.056,0.537,0.312,17.928,0.860,,VVV*38
$GPLLK,214522.00,010125,,M,,M,1,36,0.9,,M*05
$GNGMP,214522.00,,,,,DAAA,36,0.5,,,,*54
$GPGMP,214522.00,,,,,,08,,,,2.1,136*70
$GLGMP,214522.00,,,,,,09,,,,,*74
$GAGMP,214522.00,,,,,,07,,,,,*77
$GBGMP,214522.00,,,,,,12,,,,,*70
$PSSN,SNC,[0,337540000,2347]*42
$GPZDA,214527.00,01,01,2025,,*64
$GPDTM,W84,,00.0000000,N,00.0000000,E,00.0000000,W84*5F
$PSSN,TFM,214527.00,,,,*68
$GPRMC,214527.00,A,4742.1601549,N,01618.1003131,E,0.0,,010125,5.1,E,D*1E
$GPGLL,4742.1601549,N,01618.1003131,E,214527.00,A,D*6F
$GPGGA,214527.00,4742.1601549,N,01618.1003131,E,2,36,0.5,708.4574,M,43.2066,M,2.6,0136*4A
$GNGNS,214527.00,4742.1601549,N,01618.1003131,E,DAAA,36,0.5,708.4574,43.2066,,*56
$GPGNS,214527.00,,,,,,08,,,,2.6,136*72
$GLGNS,214527.00,,,,,,09,,,,,*71
$GAGNS,214527.00,,,,,,07,,,,,*72
$GBGNS,214527.00,,,,,,12,,,,,*75
$GPLLQ,214527.00,010125,,M,,M,1,36,1.044,,M*12
$GPVTG,,T,,M,0.00,N,0.00,K,D*26
$GPHDT,,T*1B
$GPTHS,,V*0E
$GPROT,,V*08
$PSSN,HRP,214527.00,010125,,,,,,,00,0,,*66
$PTNL,AVR,214527.00,,Yaw,,Tilt,,,,0,,00*30
$GPGSA,A,3,02,08,10,14,21,23,27,32,,,,,0.8,0.5,0.6*31
$GPGSA,A,3,67,68,69,74,75,76,83,84,85,,,,0.8,0.5,0.6*33
$GPGSA,A,3,07,08,13,21,26,31,33,,,,,,0.8,0.5,0.6*31
$GPGSA,A,3,05,08,13,14,27,28,30,33,36,41,42,60,0.8,0.5,0.6*3F
$GPGST,214527.00,2.092,0.532,0.310,17.273,0.516,0.335,0.843*67
$GPGBS,214527.00,3.304,2.138,4.830,76,0.0001,-6.157,6.434*76
$GPGRS,214527.00,1,0.4,-0.0,-0.0,-0.7,0.4,-0.3,0.2,-0.6,,,,*64
$GPGRS,214527.00,1,4.3,5.5,-0.2,-3.4,-1.8,-6.2,-2.7,-1.4,2.7,,,*6D
$GPGRS,214527.00,1,-0.6,0.0,0.5,0.2,-0.1,-0.0,0.0,,,,,*4A
$GPGRS,214527.00,1,1.8,0.2,-0.0,0.1,0.3,-0.1,-0.2,-0.7,-0.6,0.4,-0.6,-1.6*6A
$GPGSV,5,1,18,08,74,249,50,27,55,159,48,23,17,050,41,32,34,124,46*75
$GPGSV,5,2,18,02,31,284,44,21,52,290,44,10,59,059,50,16,05,191,31*7B
$GPGSV,5,3,18,14,08,329,38,36,35,170,44,58,13,245,38,57,11,108,37*75
$GPGSV,5,4,18,34,31,208,42,40,24,132,36,49,34,195,44,41,07,108,34*74
$GPGSV,5,5,18,61,03,257,38*4F
$GLGSV,3,1,09,84,64,342,41,74,12,249,40,85,18,301,46,67,13,025,43*6C
$GLGSV,3,2,09,75,22,301,46,83,33,093,39,69,47,152,52,68,52,062,50*61
$GLGSV,3,3,09,76,05,355,43*5C
$GAGSV,3,1,10,26,77,337,48,08,30,066,43,07,29,127,41,23,34,240,*65
$GAGSV,3,2,10,31,29,301,42,13,37,078,44,33,32,278,43,29,02,171,*69
$GAGSV,3,3,10,21,08,193,37,03,04,023,35*6D
$GBGSV,6,1,22,28,66,112,50,42,12,037,41,05,23,128,39,08,12,047,37*6C
$GBGSV,6,2,22,30,14,299,42,13,20,049,39,60,11,108,40,31,13,071,*67
$GBGSV,6,3,22,58,14,255,,41,47,170,49,14,35,051,45,57,48,250,*66
$GBGSV,6,4,22,27,64,302,50,33,55,078,50,39,03,075,37,02,08,105,34*66
$GBGSV,6,5,22,16,00,064,22,43,05,118,34,46,07,263,,32,02,201,*62
$GBGSV,6,6,22,29,08,292,,36,08,311,40*6B
$GPGGA,214527.00,,,,,0,00,,,M,,M,,*4F
$PTNL,GGK,214527.00,010125,4742.1601549,N,01618.1003131,E,1,36,0.8,EHT751.6640,M*43
$GPGGQ,214527.00,010125,4742.1601549,N,01618.1003131,E,1,36,1.044,708.4574,M*3E
$GPGFA,214527.00,5.056,6.915,0.532,0.310,17.273,0.843,,VVV*30
$GPLLK,214527.00,010125,,M,,M,1,36,0.9,,M*00
$GNGMP,214527.00,,,,,DAAA,36,0.5,,,,*51
$GPGMP,214527.00,,,,,,08,,,,2.6,136*72
$GLGMP,214527.00,,,,,,09,,,,,*71
$GAGMP,214527.00,,,,,,07,,,,,*72
$GBGMP,214527.00,,,,,,12,,,,,*75
$PSSN,SNC,[0,337545000,2347]*47
$GPZDA,214532.00,01,01,2025,,*60
$GPDTM,W84,,00.0000000,N,00.0000000,E,00.0000000,W84*5F
$PSSN,TFM,214532.00,,,,*6C
$GPRMC,214532.00,A,4742.1601558,N,01618.1003188,E,0.0,,010125,5.1,E,D*18
$GPGLL,4742.1601558,N,01618.1003188,E,214532.00,A,D*69
$GPGGA,214532.00,4742.1601558,N,01618.1003188,E,2,36,0.5,708.4499,M,43.2066,M,2.1,0136*49
$GNGNS,214532.00,4742.1601558,N,01618.1003188,E,DAAA,36,0.5,708.4499,43.2066,,*52
$GPGNS,214532.00,,,,,,08,,,,2.1,136*71
$GLGNS,214532.00,,,,,,09,,,,,*75
$GAGNS,214532.00,,,,,,07,,,,,*76
$GBGNS,214532.00,,,,,,12,,,,,*71
$GPLLQ,214532.00,010125,,M,,M,1,36,1.051,,M*12
$GPVTG,,T,,M,0.00,N,0.00,K,D*26
$GPHDT,,T*1B
$GPTHS,,V*0E
$GPROT,,V*08
$PSSN,HRP,214532.00,010125,,,,,,,00,0,,*62
$PTNL,AVR,214532.00,,Yaw,,Tilt,,,,0,,00*34
$GPGSA,A,3,02,08,10,14,21,23,27,32,,,,,0.8,0.5,0.6*31
$GPGSA,A,3,67,68,69,74,75,76,83,84,85,,,,0.8,0.5,0.6*33
$GPGSA,A,3,07,08,13,21,26,31,33,,,,,,0.8,0.5,0.6*31
$GPGSA,A,3,05,08,13,14,27,28,30,33,36,41,42,60,0.8,0.5,0.6*3F
$GPGST,214532.00,2.156,0.533,0.309,18.416,0.515,0.338,0.852*67
$GPGBS,214532.00,3.276,2.105,4.930,76,0.0001,-6.912,6.434*70
$GPGRS,214532.00,1,0.4,0.1,-0.0,-0.2,0.4,-0.4,0.1,-0.5,,,,*4E
$GPGRS,214532.00,1,4.6,5.2,0.2,-3.8,-1.0,-6.9,-1.5,-2.2,2.3,,,*49
$GPGRS,214532.00,1,-0.6,0.0,0.1,0.1,-0.0,0.1,-0.2,,,,,*4B
$GPGRS,214532.00,1,2.0,0.4,-0.0,0.3,0.2,-0.2,-0.2,-1.1,-1.5,0.7,-0.8,-1.2*6F
$GPGSV,5,1,18,08,74,249,50,27,55,159,49,23,17,050,41,32,34,124,46*74
$GPGSV,5,2,18,02,31,284,45,21,52,290,44,10,59,059,50,16,05,191,31*7A
$GPGSV,5,3,18,14,08,329,38,36,35,170,44,58,13,245,37,57,11,108,37*7A
$GPGSV,5,4,18,34,31,208,42,40,24,132,36,49,34,195,44,41,07,108,34*74
$GPGSV,5,5,18,61,03,257,37*40
$GLGSV,3,1,09,84,64,342,41,74,12,249,41,85,18,301,46,67,13,025,43*6D
$GLGSV,3,2,09,75,22,301,45,83,33,093,39,69,48,152,52,68,52,062,50*6D
$GLGSV,3,3,09,76,05,355,42*5D
$GAGSV,3,1,10,26,77,337,48,08,30,066,43,07,29,127,41,23,34,240,*65
$GAGSV,3,2,10,31,29,301,42,13,37,078,44,33,32,278,43,29,02,171,*69
$GAGSV,3,3,10,21,08,193,37,03,04,023,35*6D
$GBGSV,6,1,22,28,66,112,50,42,12,037,41,05,23,128,39,08,12,047,36*6D
$GBGSV,6,2,22,30,14,299,42,13,20,049,40,60,11,108,40,31,13,071,*69
$GBGSV,6,3,22,58,14,254,,41,47,170,49,14,35,051,45,57,48,250,*67
$GBGSV,6,4,22,27,64,302,50,33,55,078,50,39,03,075,37,02,08,105,34*66
$GBGSV,6,5,22,16,01,064,21,43,05,118,34,46,07,263,,32,02,201,*60
$GBGSV,6,6,22,29,08,292,,36,08,311,40*6B
$GPGGA,214532.00,,,,,0,00,,,M,,M,,*4B
$PTNL,GGK,214532.00,010125,4742.1601558,N,01618.1003188,E,1,36,0.8,EHT751.6565,M*41
$GPGGQ,214532.00,010125,4742.1601558,N,01618.1003188,E,1,36,1.051,708.4499,M*3E
$GPGFA,214532.00,5.069,6.985,0.533,0.309,18.416,0.852,,VVV*32
$GPLLK,214532.00,010125,,M,,M,1,36,0.9,,M*04
$GNGMP,214532.00,,,,,DAAA,36,0.5,,,,*55
$GPGMP,214532.00,,,,,,08,,,,2.1,136*71
$GLGMP,214532.00,,,,,,09,,,,,*75
$GAGMP,214532.00,,,,,,07,,,,,*76
$GBGMP,214532.00,,,,,,12,,,,,*71
$PSSN,SNC,[0,337550000,2347]*43
$GPZDA,214537.00,01,01,2025,,*65
$GPDTM,W84,,00.0000000,N,00.0000000,E,00.0000000,W84*5F
$PSSN,TFM,214537.00,,,,*69
$GPRMC,214537.00,A,4742.1601561,N,01618.1003240,E,0.0,,010125,5.1,E,D*10
$GPGLL,4742.1601561,N,01618.1003240,E,214537.00,A,D*61
$GPGGA,214537.00,4742.1601561,N,01618.1003240,E,2,36,0.5,708.4401,M,43.2066,M,3.1,0136*41
$GNGNS,214537.00,4742.1601561,N,01618.1003240,E,DAAA,36,0.5,708.4401,43.2066,,*5B
$GPGNS,214537.00,,,,,,08,,,,3.1,136*75
$GLGNS,214537.00,,,,,,09,,,,,*70
$GAGNS,214537.00,,,,,,07,,,,,*73
$GBGNS,214537.00,,,,,,12,,,,,*74
$GPLLQ,214537.00,010125,,M,,M,1,36,1.063,,M*16
$GPVTG,,T,,M,0.00,N,0.00,K,D*26
$GPHDT,,T*1B
$GPTHS,,V*0E
$GPROT,,V*08
$PSSN,HRP,214537.00,010125,,,,,,,00,0,,*67
$PTNL,AVR,214537.00,,Yaw,,Tilt,,,,0,,00*31
$GPGSA,A,3,02,08,10,14,21,23,27,32,,,,,0.8,0.5,0.6*31
$GPGSA,A,3,67,68,69,74,75,76,83,84,85,,,,0.8,0.5,0.6*33
$GPGSA,A,3,07,08,13,21,26,31,33,,,,,,0.8,0.5,0.6*31
$GPGSA,A,3,05,08,13,14,27,28,30,33,36,41,42,60,0.8,0.5,0.6*3F
$GPGST,214537.00,2.259,0.535,0.309,19.014,0.515,0.340,0.865*64
$GPGBS,214537.00,3.319,2.142,5.044,76,0.0001,-7.549,6.433*71
$GPGRS,214537.00,1,0.3,0.1,0.0,-0.3,0.1,-0.6,0.2,-0.4,,,,*65
$GPGRS,214537.00,1,4.3,5.6,0.7,-3.6,-1.5,-7.5,-1.1,-2.9,2.5,,,*47
$GPGRS,214537.00,1,-0.4,0.5,0.1,-0.3,0.1,0.1,0.2,,,,,*67
$GPGRS,214537.00,1,1.6,0.7,-0.0,0.5,0.3,-0.1,-0.2,-0.8,-0.7,1.1,-0.6,-1.5*6D
$GPGSV,5,1,18,08,74,249,50,27,55,159,49,23,17,050,41,32,34,124,46*74
$GPGSV,5,2,18,02,31,284,44,21,52,290,44,10,59,059,50,16,05,191,30*7A
$GPGSV,5,3,18,14,08,329,39,36,35,170,44,58,13,245,38,57,11,108,37*74
$GPGSV,5,4,18,34,31,208,42,40,24,132,36,49,34,195,44,41,07,108,34*74
$GPGSV,5,5,18,61,03,257,38*4F
$GLGSV,3,1,09,84,64,342,41,74,12,249,40,85,18,301,46,67,13,025,43*6C
$GLGSV,3,2,09,75,22,301,45,83,33,093,39,69,48,152,52,68,52,061,51*6F
$GLGSV,3,3,09,76,05,355,42*5D
$GAGSV,3,1,10,26,77,337,48,08,30,066,43,31,29,301,42,23,34,239,*6B
$GAGSV,3,2,10,07,29,127,42,13,37,078,44,33,32,278,43,29,02,171,*6A
$GAGSV,3,3,10,21,08,193,36,03,04,023,34*6D
$GBGSV,6,1,22,28,66,112,51,42,12,037,41,05,23,128,39,08,12,047,37*6D
$GBGSV,6,2,22,30,14,299,42,13,20,049,40,60,11,108,40,31,13,071,*69
$GBGSV,6,3,22,58,14,254,,41,47,170,49,14,35,051,45,57,48,250,*67
$GBGSV,6,4,22,27,64,302,51,33,55,078,50,39,03,075,37,02,08,105,34*67
$GBGSV,6,5,22,16,01,064,,43,05,118,34,46,07,263,,32,02,201,*63
$GBGSV,6,6,22,29,08,292,,36,08,311,40*6B
$GPGGA,214537.00,,,,,0,00,,,M,,M,,*4E
$PTNL,GGK,214537.00,010125,4742.1601561,N,01618.1003240,E,1,36,0.8,EHT751.6466,M*4B
$GPGGQ,214537.00,010125,4742.1601561,N,01618.1003240,E,1,36,1.063,708.4401,M*36
$GPGFA,214537.00,5.083,7.092,0.535,0.309,19.014,0.865,,VVV*38
$GPLLK,214537.00,010125,,M,,M,1,36,0.9,,M*01
$GNGMP,214537.00,,,,,DAAA,36,0.5,,,,*50
$GPGMP,214537.00,,,,,,08,,,,3.1,136*75
$GLGMP,214537.00,,,,,,09,,,,,*70
$GAGMP,214537.00,,,,,,07,,,,,*73
$GBGMP,214537.00,,,,,,12,,,,,*74
$PSSN,SNC,[0,337555000,2347]*46
$GPZDA,214542.00,01,01,2025,,*67
$GPDTM,W84,,00.0000000,N,00.0000000,E,00.0000000,W84*5F
$PSSN,TFM,214542.00,,,,*6B
$GPRMC,214542.00,A,4742.1601574,N,01618.1003263,E,0.0,,010125,5.1,E,D*17
$GPGLL,4742.1601574,N,01618.1003263,E,214542.00,A,D*66
$GPGGA,214542.00,4742.1601574,N,01618.1003263,E,2,36,0.5,708.4377,M,43.2066,M,2.1,0136*41
$GNGNS,214542.00,4742.1601574,N,01618.1003263,E,DAAA,36,0.5,708.4377,43.2066,,*5A
$GPGNS,214542.00,,,,,,08,,,,2.1,136*76
$GLGNS,214542.00,,,,,,09,,,,,*72
$GAGNS,214542.00,,,,,,07,,,,,*71
$GBGNS,214542.00,,,,,,12,,,,,*76
$GPLLQ,214542.00,010125,,M,,M,1,36,1.063,,M*14
$GPVTG,,T,,M,0.00,N,0.01,K,D*27
$GPHDT,,T*1B
$GPTHS,,V*0E
$GPROT,,V*08
$PSSN,HRP,214542.00,010125,,,,,,,00,0,,*65
$PTNL,AVR,214542.00,,Yaw,,Tilt,,,,0,,00*33
$GPGSA,A,3,02,08,10,14,21,23,27,32,,,,,0.8,0.5,0.6*31
$GPGSA,A,3,67,68,69,74,75,76,83,84,85,,,,0.8,0.5,0.6*33
$GPGSA,A,3,07,08,13,21,26,31,33,,,,,,0.8,0.5,0.6*31
$GPGSA,A,3,05,08,13,14,27,28,30,33,36,41,42,60,0.8,0.5,0.6*3F
$GPGST,214542.00,2.211,0.537,0.312,18.011,0.519,0.340,0.862*6D
$GPGBS,214542.00,3.276,2.100,4.759,76,0.0001,-7.069,6.431*72
$GPGRS,214542.00,1,0.1,0.1,0.1,-0.3,0.3,-0.3,0.1,-0.4,,,,*60
$GPGRS,214542.00,1,4.3,5.6,0.4,-4.0,-1.6,-7.1,-0.5,-2.3,2.8,,,*42
$GPGRS,214542.00,1,-0.5,0.1,0.3,-0.3,0.0,-0.2,-0.2,,,,,*60
$GPGRS,214542.00,1,1.7,0.0,-0.1,0.1,0.4,0.1,-0.7,-0.9,-1.5,0.9,-0.5,-1.5*4B
$GPGSV,5,1,18,08,74,249,50,27,55,159,48,23,17,050,40,32,34,124,46*74
$GPGSV,5,2,18,02,31,284,44,21,52,290,44,10,59,059,50,16,05,191,30*7A
$GPGSV,5,3,18,14,08,329,39,36,35,170,44,58,13,245,38,57,11,108,37*74
$GPGSV,5,4,18,34,31,208,42,40,24,132,36,49,34,195,44,41,07,108,34*74
$GPGSV,5,5,18,61,03,257,37*40
$GLGSV,3,1,09,84,64,342,41,74,12,249,39,85,18,301,45,67,13,025,42*60
$GLGSV,3,2,09,75,22,301,45,83,33,093,40,69,48,152,52,68,52,061,51*61
$GLGSV,3,3,09,76,05,355,42*5D
$GAGSV,3,1,10,26,77,337,48,08,30,066,43,07,29,127,42,23,34,239,*68
$GAGSV,3,2,10,31,29,301,42,13,37,078,43,33,32,278,43,29,02,171,*6E
$GAGSV,3,3,10,21,08,193,36,03,04,023,34*6D
$GBGSV,6,1,22,28,66,112,51,42,12,037,41,05,23,128,39,08,12,047,37*6D
$GBGSV,6,2,22,30,14,299,42,13,20,049,40,60,11,108,40,31,13,071,*69
$GBGSV,6,3,22,58,14,254,,41,47,170,49,14,35,051,44,57,48,250,*66
$GBGSV,6,4,22,27,64,302,51,33,55,078,50,39,03,075,37,02,08,105,34*67
$GBGSV,6,5,22,16,01,064,,43,05,118,34,46,07,263,,32,02,201,*63
$GBGSV,6,6,22,29,08,292,,36,08,311,40*6B
$GPGGA,214542.00,,,,,0,00,,,M,,M,,*4C
$PTNL,GGK,214542.00,010125,4742.1601574,N,01618.1003263,E,1,36,0.8,EHT751.6442,M*4A
$GPGGQ,214542.00,010125,4742.1601574,N,01618.1003263,E,1,36,1.063,708.4377,M*37
$GPGFA,214542.00,5.102,7.071,0.537,0.312,18.011,0.862,,VVV*34
$GPLLK,214542.00,010125,,M,,M,1,36,0.9,,M*03
$GNGMP,214542.00,,,,,DAAA,36,0.5,,,,*52
$GPGMP,214542.00,,,,,,08,,,,2.1,136*76
$GLGMP,214542.00,,,,,,09,,,,,*72
$GAGMP,214542.00,,,,,,07,,,,,*71
$GBGMP,214542.00,,,,,,12,,,,,*76
$PSSN,SNC,[0,337560000,2347]*40
$GPZDA,214547.00,01,01,2025,,*62
$GPDTM,W84,,00.0000000,N,00.0000000,E,00.0000000,W84*5F
$PSSN,TFM,214547.00,,,,*6E
$GPRMC,214547.00,A,4742.1601562,N,01618.1003323,E,0.0,,010125,5.1,E,D*10
$GPGLL,4742.1601562,N,01618.1003323,E,214547.00,A,D*61
$GPGGA,214547.00,4742.1601562,N,01618.1003323,E,2,36,0.5,708.4326,M,43.2066,M,2.6,0136*45
$GNGNS,214547.00,4742.1601562,N,01618.1003323,E,DAAA,36,0.5,708.4326,43.2066,,*59
$GPGNS,214547.00,,,,,,08,,,,2.6,136*74
$GLGNS,214547.00,,,,,,09,,,,,*77
$GAGNS,214547.00,,,,,,07,,,,,*74
$GBGNS,214547.00,,,,,,12,,,,,*73
$GPLLQ,214547.00,010125,,M,,M,1,36,1.046,,M*16
$GPVTG,,T,,M,0.01,N,0.01,K,D*26
$GPHDT,,T*1B
$GPTHS,,V*0E
$GPROT,,V*08
$PSSN,HRP,214547.00,010125,,,,,,,00,0,,*60
$PTNL,AVR,214547.00,,Yaw,,Tilt,,,,0,,00*36
$GPGSA,A,3,02,08,10,14,21,23,27,32,,,,,0.8,0.5,0.6*31
$GPGSA,A,3,67,68,69,74,75,76,83,84,85,,,,0.8,0.5,0.6*33
$GPGSA,A,3,07,08,13,21,26,31,33,,,,,,0.8,0.5,0.6*31
$GPGSA,A,3,05,08,13,14,27,28,30,33,36,41,42,60,0.8,0.5,0.6*3F
$GPGST,214547.00,2.146,0.532,0.310,17.359,0.516,0.336,0.845*65
$GPGBS,214547.00,3.317,2.140,4.846,76,0.0001,-6.251,6.431*7C
$GPGRS,214547.00,1,0.3,0.3,-0.0,-0.4,0.2,-0.4,-0.2,-0.6,,,,*64
$GPGRS,214547.00,1,3.4,5.7,0.4,-5.4,-1.1,-6.3,-0.9,-2.2,2.1,,,*43
$GPGRS,214547.00,1,-0.4,0.1,0.3,-0.0,0.1,0.1,-0.1,,,,,*4B
$GPGRS,214547.00,1,2.0,-0.0,0.1,0.1,0.6,0.3,-0.5,-0.8,-1.0,0.9,-0.5,-1.0*49
$GPGSV,5,1,18,08,74,248,50,27,55,159,48,23,17,050,39,32,34,124,45*78
$GPGSV,5,2,18,02,31,284,44,21,52,290,45,10,59,059,50,16,05,191,30*7B
$GPGSV,5,3,18,14,08,329,39,36,35,170,44,58,13,245,38,57,11,108,37*74
$GPGSV,5,4,18,34,31,208,42,40,24,132,36,49,34,195,43,41,07,108,34*73
$GPGSV,5,5,18,61,03,257,38*4F
$GLGSV,3,1,09,84,64,342,41,74,12,249,39,85,18,301,45,67,13,025,42*60
$GLGSV,3,2,09,75,22,300,46,83,33,093,40,69,48,152,52,68,52,061,51*63
$GLGSV,3,3,09,76,05,355,42*5D
$GAGSV,3,1,10,26,77,337,48,08,30,066,43,07,30,127,42,23,34,239,*60
$GAGSV,3,2,10,31,29,301,42,13,37,078,44,33,32,278,43,29,02,171,*69
$GAGSV,3,3,10,21,08,193,36,03,04,023,35*6C
$GBGSV,6,1,22,28,66,112,51,42,12,037,41,05,23,128,39,08,12,047,36*6C
$GBGSV,6,2,22,30,14,299,42,13,20,049,40,60,11,108,40,31,13,071,*69
$GBGSV,6,3,22,58,14,254,,41,48,170,49,14,35,051,45,57,48,250,*68
$GBGSV,6,4,22,27,64,302,51,33,55,077,50,39,03,075,37,02,08,105,34*68
$GBGSV,6,5,22,16,01,064,,43,05,118,34,46,07,263,,32,02,201,*63
$GBGSV,6,6,22,29,08,292,,36,08,311,40*6B
$GPGGA,214547.00,,,,,0,00,,,M,,M,,*49
$PTNL,GGK,214547.00,010125,4742.1601562,N,01618.1003323,E,1,36,0.8,EHT751.6391,M*44
$GPGGQ,214547.00,010125,4742.1601562,N,01618.1003323,E,1,36,1.046,708.4326,M*33
$GPGFA,214547.00,5.057,6.932,0.532,0.310,17.359,0.845,,VVV*3D
$GPLLK,214547.00,010125,,M,,M,1,36,0.9,,M*06
$GNGMP,214547.00,,,,,DAAA,36,0.5,,,,*57
$GPGMP,214547.00,,,,,,08,,,,2.6,136*74
$GLGMP,214547.00,,,,,,09,,,,,*77
$GAGMP,214547.00,,,,,,07,,,,,*74
$GBGMP,214547.00,,,,,,12,,,,,*73
$PSSN,SNC,[0,337565000,2347]*45
$GPZDA,214552.00,01,01,2025,,*66
$GPDTM,W84,,00.0000000,N,00.0000000,E,00.0000000,W84*5F
$PSSN,TFM,214552.00,,,,*6A
$GPRMC,214552.00,A,4742.1601551,N,01618.1003363,E,0.0,,010125,5.1,E,D*10
$GPGLL,4742.1601551,N,01618.1003363,E,214552.00,A,D*61
$GPGGA,214552.00,4742.1601551,N,01618.1003363,E,2,36,0.5,708.4226,M,43.2066,M,2.1,0136*43
$GNGNS,214552.00,4742.1601551,N,01618.1003363,E,DAAA,36,0.5,708.4226,43.2066,,*58
$GPGNS,214552.00,,,,,,08,,,,2.1,136*77
$GLGNS,214552.00,,,,,,09,,,,,*73
$GAGNS,214552.00,,,,,,07,,,,,*70
$GBGNS,214552.00,,,,,,12,,,,,*77
$GPLLQ,214552.00,010125,,M,,M,1,36,1.055,,M*10
$GPVTG,,T,,M,0.00,N,0.01,K,D*27
$GPHDT,,T*1B
$GPTHS,,V*0E
$GPROT,,V*08
$PSSN,HRP,214552.00,010125,,,,,,,00,0,,*64
$PTNL,AVR,214552.00,,Yaw,,Tilt,,,,0,,00*32
$GPGSA,A,3,02,08,10,14,21,23,27,32,,,,,0.8,0.5,0.6*31
$GPGSA,A,3,67,68,69,74,75,76,83,84,85,,,,0.8,0.5,0.6*33
$GPGSA,A,3,07,08,13,21,26,31,33,,,,,,0.8,0.5,0.6*31
$GPGSA,A,3,05,08,13,14,27,28,30,33,36,41,42,60,0.8,0.5,0.6*3F
$GPGST,214552.00,2.054,0.535,0.309,18.763,0.516,0.340,0.855*6E
$GPGBS,214552.00,3.345,2.110,4.872,76,0.0001,-6.354,6.429*70
$GPGRS,214552.00,1,0.1,0.4,0.0,-0.5,0.3,-0.0,-0.2,-0.5,,,,*4F
$GPGRS,214552.00,1,3.1,5.3,0.3,-4.5,-0.6,-6.4,-1.6,-2.6,2.2,,,*49
$GPGRS,214552.00,1,-0.9,0.3,0.4,0.2,0.1,-0.2,-0.0,,,,,*47
$GPGRS,214552.00,1,1.6,1.1,0.2,0.2,0.5,-0.0,-0.5,-0.8,-0.9,0.8,-0.4,-1.3*43
$GPGSV,5,1,18,08,74,248,50,27,55,160,48,23,17,050,39,32,34,124,45*72
$GPGSV,5,2,18,02,31,284,45,21,52,290,45,10,59,058,50,16,05,190,30*7A
$GPGSV,5,3,18,14,08,329,38,36,35,170,44,58,13,245,38,57,11,108,37*75
$GPGSV,5,4,18,34,31,208,42,40,24,132,36,49,34,195,44,41,07,108,34*74
$GPGSV,5,5,18,61,03,257,38*4F
$GLGSV,3,1,09,84,64,342,41,74,12,249,40,85,18,301,46,67,13,025,42*6D
$GLGSV,3,2,09,75,22,300,46,83,33,093,39,69,48,152,52,68,52,061,51*6D
$GLGSV,3,3,09,76,06,355,42*5E
$GAGSV,3,1,10,26,77,337,48,08,30,066,43,31,29,301,42,23,34,239,*6B
$GAGSV,3,2,10,07,30,127,42,13,37,078,44,33,32,278,43,29,02,171,*62
$GAGSV,3,3,10,21,08,193,36,03,04,023,35*6C
$GBGSV,6,1,22,28,66,112,51,42,12,037,41,05,23,128,39,08,12,047,36*6C
$GBGSV,6,2,22,30,14,299,41,13,20,049,40,60,11,108,40,31,13,071,*6A
$GBGSV,6,3,22,58,14,254,,41,48,170,50,14,34,051,45,57,48,250,*61
$GBGSV,6,4,22,27,64,302,51,33,55,077,50,39,03,075,37,02,08,105,34*68
$GBGSV,6,5,22,16,01,064,,43,05,118,34,46,07,263,,32,02,201,*63
$GBGSV,6,6,22,29,08,292,,36,08,311,41*6A
$GPGGA,214552.00,,,,,0,00,,,M,,M,,*4D
$PTNL,GGK,214552.00,010125,4742.1601551,N,01618.1003363,E,1,36,0.8,EHT751.6291,M*45
$GPGGQ,214552.00,010125,4742.1601551,N,01618.1003363,E,1,36,1.055,708.4226,M*30
$GPGFA,214552.00,5.087,7.009,0.535,0.309,18.763,0.855,,VVV*38
$GPLLK,214552.00,010125,,M,,M,1,36,0.9,,M*02
$GNGMP,214552.00,,,,,DAAA,36,0.5,,,,*53
$GPGMP,214552.00,,,,,,08,,,,2.1,136*77
$GLGMP,214552.00,,,,,,09,,,,,*73
$GAGMP,214552.00,,,,,,07,,,,,*70
$GBGMP,214552.00,,,,,,12,,,,,*77
$PSSN,SNC,[0,337570000,2347]*41
$GPZDA,214557.00,01,01,2025,,*63
$GPDTM,W84,,00.0000000,N,00.0000000,E,00.0000000,W84*5F
$PSSN,TFM,214557.00,,,,*6F
$GPRMC,214557.00,A,4742.1601558,N,01618.1003363,E,0.0,,010125,5.1,E,D*1C
$GPGLL,4742.1601558,N,01618.1003363,E,214557.00,A,D*6D
$GPGGA,214557.00,4742.1601558,N,01618.1003363,E,2,36,0.5,708.4174,M,43.2066,M,3.1,0136*4A
$GNGNS,214557.00,4742.1601558,N,01618.1003363,E,DAAA,36,0.5,708.4174,43.2066,,*50
$GPGNS,214557.00,,,,,,08,,,,3.1,136*73
$GLGNS,214557.00,,,,,,09,,,,,*76
$GAGNS,214557.00,,,,,,07,,,,,*75
$GBGNS,214557.00,,,,,,12,,,,,*72
$GPLLQ,214557.00,010125,,M,,M,1,36,1.069,,M*1A
$GPVTG,,T,,M,0.00,N,0.01,K,D*27
$GPHDT,,T*1B
$GPTHS,,V*0E
$GPROT,,V*08
$PSSN,HRP,214557.00,010125,,,,,,,00,0,,*61
$PTNL,AVR,214557.00,,Yaw,,Tilt,,,,0,,00*37
$GPGSA,A,3,02,08,10,14,21,23,27,32,,,,,0.8,0.5,0.6*31
$GPGSA,A,3,67,68,69,74,75,76,83,84,85,,,,0.8,0.5,0.6*33
$GPGSA,A,3,07,08,13,21,26,31,33,,,,,,0.8,0.5,0.6*31
$GPGSA,A,3,05,08,13,14,27,28,30,33,36,41,42,60,0.8,0.5,0.6*3F
$GPGST,214557.00,2.101,0.539,0.311,19.681,0.518,0.344,0.869*66
$GPGBS,214557.00,3.391,2.148,4.986,76,0.0001,-6.513,6.428*7F
$GPGRS,214557.00,1,0.1,0.0,-0.0,-0.8,0.1,0.2,0.1,-0.3,,,,*6B
$GPGRS,214557.00,1,4.0,5.5,0.6,-3.1,-1.2,-6.5,-2.6,-2.8,2.2,,,*43
$GPGRS,214557.00,1,-1.1,0.3,0.6,-0.0,0.1,-0.0,0.0,,,,,*49
$GPGRS,214557.00,1,1.7,0.4,0.0,0.5,0.4,0.0,0.4,-0.8,-0.4,0.8,-0.6,-1.1*4B
$GPGSV,5,1,18,08,74,248,50,27,55,160,48,23,17,050,39,32,34,124,45*72
$GPGSV,5,2,18,02,31,284,45,21,52,290,45,10,59,058,50,16,05,190,29*72
$GPGSV,5,3,18,14,08,329,38,36,35,170,44,58,13,245,38,57,11,108,37*75
$GPGSV,5,4,18,34,31,208,42,40,24,132,36,49,34,195,44,41,07,108,34*74
$GPGSV,5,5,18,61,03,257,38*4F
$GLGSV,3,1,09,84,64,343,40,74,12,249,39,85,18,301,46,67,13,025,43*62
$GLGSV,3,2,09,75,22,300,46,83,33,093,38,69,48,152,52,68,52,061,51*6C
$GLGSV,3,3,09,76,06,355,41*5D
$GAGSV,3,1,10,26,77,337,48,08,30,066,43,31,29,301,42,23,34,239,*6B
$GAGSV,3,2,10,07,30,127,41,13,37,078,44,33,32,278,43,29,02,171,*61
$GAGSV,3,3,10,21,08,193,36,03,04,023,35*6C
$GBGSV,6,1,22,28,66,112,51,42,12,037,41,05,23,128,39,08,12,047,36*6C
$GBGSV,6,2,22,30,14,299,42,13,20,049,40,60,11,108,41,31,13,071,*68
$GBGSV,6,3,22,58,14,254,,41,48,170,50,14,34,051,45,57,48,250,*61
$GBGSV,6,4,22,27,64,302,51,33,55,077,50,39,03,075,36,02,08,105,34*69
$GBGSV,6,5,22,16,01,064,,43,05,118,34,46,07,263,,32,02,201,*63
$GBGSV,6,6,22,29,08,292,,36,08,311,40*6B
$GPGGA,214557.00,,,,,0,00,,,M,,M,,*48
$PTNL,GGK,214557.00,010125,4742.1601558,N,01618.1003363,E,1,36,0.8,EHT751.6240,M*45
$GPGGQ,214557.00,010125,4742.1601558,N,01618.1003363,E,1,36,1.069,708.4174,M*37
$GPGFA,214557.00,5.123,7.128,0.539,0.311,19.681,0.869,,VVV*36
$GPLLK,214557.00,010125,,M,,M,1,36,0.9,,M*07
$GNGMP,214557.00,,,,,DAAA,36,0.5,,,,*56
$GPGMP,214557.00,,,,,,08,,,,3.1,136*73
$GLGMP,214557.00,,,,,,09,,,,,*76
$GAGMP,214557.00,,,,,,07,,,,,*75
$GBGMP,214557.00,,,,,,12,,,,,*72
$PSSN,SNC,[0,337575000,2347]*44
$GPZDA,214602.00,01,01,2025,,*60
$GPDTM,W84,,00.0000000,N,00.0000000,E,00.0000000,W84*5F
$PSSN,TFM,214602.00,,,,*6C
$GPRMC,214602.00,A,4742.1601552,N,01618.1003349,E,0.0,,010125,5.1,E,D*1D
$GPGLL,4742.1601552,N,01618.1003349,E,214602.00,A,D*6C
$GPGGA,214602.00,4742.1601552,N,01618.1003349,E,2,36,0.5,708.4140,M,43.2066,M,2.1,0136*4D
$GNGNS,214602.00,4742.1601552,N,01618.1003349,E,DAAA,36,0.5,708.4140,43.2066,,*56
$GPGNS,214602.00,,,,,,08,,,,2.1,136*71
$GLGNS,214602.00,,,,,,09,,,,,*75
$GAGNS,214602.00,,,,,,07,,,,,*76
$GBGNS,214602.00,,,,,,12,,,,,*71
$GPLLQ,214602.00,010125,,M,,M,1,36,1.069,,M*19
$GPVTG,,T,,M,0.00,N,0.01,K,D*27
$GPHDT,,T*1B
$GPTHS,,V*0E
$GPROT,,V*08
$PSSN,HRP,214602.00,010125,,,,,,,00,0,,*62
$PTNL,AVR,214602.00,,Yaw,,Tilt,,,,0,,00*34
$GPGSA,A,3,02,08,10,14,21,23,27,32,,,,,0.8,0.5,0.6*31
$GPGSA,A,3,67,68,69,74,75,76,83,84,85,,,,0.8,0.5,0.6*33
$GPGSA,A,3,07,08,13,21,26,31,33,,,,,,0.8,0.5,0.6*31
$GPGSA,A,3,05,08,13,14,27,28,30,33,36,41,42,60,0.8,0.5,0.6*3F
$GPGST,214602.00,2.285,0.540,0.314,18.690,0.522,0.344,0.867*67
$GPGBS,214602.00,3.341,2.105,4.698,76,0.0001,-7.280,6.429*75
$GPGRS,214602.00,1,-0.1,-0.0,0.2,-0.6,0.1,0.5,0.0,-0.2,,,,*4E
$GPGRS,214602.00,1,4.6,6.2,0.3,-2.7,-1.1,-7.3,-2.2,-3.4,2.2,,,*4D
$GPGRS,214602.00,1,-1.0,0.2,0.7,0.1,-0.1,-0.2,0.3,,,,,*4B
$GPGRS,214602.00,1,1.8,-0.5,-0.0,0.3,0.2,0.0,0.6,-0.9,-0.2,0.8,-0.5,-1.1*40
$GPGSV,5,1,18,08,74,248,50,27,55,160,49,23,17,050,39,32,34,124,46*70
$GPGSV,5,2,18,02,31,284,45,21,52,290,44,10,59,058,50,16,05,190,29*73
$GPGSV,5,3,18,14,08,329,38,36,35,170,44,58,13,245,38,57,11,108,37*75
$GPGSV,5,4,18,34,31,208,42,40,24,132,36,49,34,195,44,41,07,108,34*74
$GPGSV,5,5,18,61,03,257,38*4F
$GLGSV,3,1,09,84,64,343,40,74,12,249,41,85,18,301,45,67,13,025,42*6F
$GLGSV,3,2,09,75,22,300,46,83,33,093,39,69,48,152,51,68,52,061,51*6E
$GLGSV,3,3,09,76,06,355,41*5D
$GAGSV,3,1,10,26,77,338,48,08,30,066,43,07,30,127,41,23,34,239,*6C
$GAGSV,3,2,10,31,29,301,43,13,37,078,44,33,32,278,43,29,02,171,*68
$GAGSV,3,3,10,21,08,193,37,03,04,023,35*6D
$GBGSV,6,1,22,28,66,112,51,42,12,037,41,05,23,128,39,08,12,047,35*6F
$GBGSV,6,2,22,30,14,299,42,13,20,049,40,60,11,108,40,31,13,071,*69
$GBGSV,6,3,22,58,14,254,,41,48,170,50,14,34,051,44,57,48,250,*60
$GBGSV,6,4,22,27,64,302,51,33,55,077,49,39,03,075,36,02,08,105,34*61
$GBGSV,6,5,22,16,01,064,,43,05,118,34,46,07,263,,32,02,201,*63
$GBGSV,6,6,22,29,08,292,,36,08,311,40*6B
$GPGGA,214602.00,,,,,0,00,,,M,,M,,*4B
$PTNL,GGK,214602.00,010125,4742.1601552,N,01618.1003349,E,1,36,0.8,EHT751.6206,M*46
$GPGGQ,214602.00,010125,4742.1601552,N,01618.1003349,E,1,36,1.069,708.4140,M*31
$GPGFA,214602.00,5.138,7.107,0.540,0.314,18.690,0.867,,VVV*36
$GPLLK,214602.00,010125,,M,,M,1,36,0.9,,M*04
$GNGMP,214602.00,,,,,DAAA,36,0.5,,,,*55
$GPGMP,214602.00,,,,,,08,,,,2.1,136*71
$GLGMP,214602.00,,,,,,09,,,,,*75
$GAGMP,214602.00,,,,,,07,,,,,*76
$GBGMP,214602.00,,,,,,12,,,,,*71
$PSSN,SNC,[0,337580000,2347]*4E
$GPZDA,214607.00,01,01,2025,,*65
$GPDTM,W84,,00.0000000,N,00.0000000,E,00.0000000,W84*5F
$PSSN,TFM,214607.00,,,,*69
$GPRMC,214607.00,A,4742.1601534,N,01618.1003307,E,0.0,,010125,5.1,E,D*12
$GPGLL,4742.1601534,N,01618.1003307,E,214607.00,A,D*63
$GPGGA,214607.00,4742.1601534,N,01618.1003307,E,2,36,0.5,708.4113,M,43.2066,M,2.6,0136*43
$GNGNS,214607.00,4742.1601534,N,01618.1003307,E,DAAA,36,0.5,708.4113,43.2066,,*5F
$GPGNS,214607.00,,,,,,08,,,,2.6,136*73
$GLGNS,214607.00,,,,,,09,,,,,*70
$GAGNS,214607.00,,,,,,07,,,,,*73
$GBGNS,214607.00,,,,,,12,,,,,*74
$GPLLQ,214607.00,010125,,M,,M,1,36,1.052,,M*14
$GPVTG,,T,,M,0.00,N,0.01,K,D*27
$GPHDT,,T*1B
$GPTHS,,V*0E
$GPROT,,V*08
$PSSN,HRP,214607.00,010125,,,,,,,00,0,,*67
$PTNL,AVR,214607.00,,Yaw,,Tilt,,,,0,,00*31
$GPGSA,A,3,02,08,10,14,21,23,27,32,,,,,0.8,0.5,0.6*31
$GPGSA,A,3,67,68,69,74,75,76,83,84,85,,,,0.8,0.5,0.6*33
$GPGSA,A,3,07,08,13,21,26,31,33,,,,,,0.8,0.5,0.6*31
$GPGSA,A,3,05,08,13,14,27,28,30,33,36,41,42,60,0.8,0.5,0.6*3F
$GPGST,214607.00,2.198,0.535,0.311,18.017,0.518,0.339,0.850*64
$GPGBS,214607.00,3.387,2.145,4.789,76,0.0001,-7.140,6.426*7F
$GPGRS,214607.00,1,-0.7,0.1,0.2,0.0,0.0,0.5,-0.0,-0.1,,,,*65
$GPGRS,214607.00,1,3.9,5.8,-0.1,-2.9,-2.1,-7.1,-0.7,-3.5,2.3,,,*6E
$GPGRS,214607.00,1,-0.5,0.2,0.5,-0.2,0.1,-0.5,0.4,,,,,*4B
$GPGRS,214607.00,1,1.8,-1.0,0.2,-0.8,0.5,0.1,0.3,-0.8,-0.5,0.6,-0.6,-1.3*42
$GPGSV,5,1,18,08,74,248,50,27,55,160,49,23,17,050,40,32,34,124,46*7E
$GPGSV,5,2,18,02,31,284,45,21,52,290,44,10,59,058,50,16,05,190,29*73
$GPGSV,5,3,18,14,08,329,37,36,35,170,44,58,13,245,38,57,11,108,37*7A
$GPGSV,5,4,18,34,31,208,42,40,24,132,36,49,34,195,44,41,07,108,34*74
$GPGSV,5,5,18,61,03,257,38*4F
$GLGSV,3,1,09,84,64,343,41,74,12,249,41,85,18,301,46,67,12,025,43*6D
$GLGSV,3,2,09,75,22,300,45,83,33,093,39,69,48,152,51,68,52,061,51*6D
$GLGSV,3,3,09,76,06,355,42*5E
$GAGSV,3,1,10,26,77,338,48,08,30,066,44,31,29,301,43,23,34,239,*62
$GAGSV,3,2,10,07,30,127,41,13,37,078,44,33,32,278,43,29,02,171,*61
$GAGSV,3,3,10,21,08,193,37,03,04,023,35*6D
$GBGSV,6,1,22,28,66,112,50,42,12,037,40,05,23,128,39,08,12,047,36*6C
$GBGSV,6,2,22,30,14,299,42,13,20,049,40,60,11,108,40,31,13,071,*69
$GBGSV,6,3,22,58,14,254,,41,48,170,49,14,34,051,44,57,48,250,*68
$GBGSV,6,4,22,27,64,302,51,33,55,077,49,39,03,075,36,02,08,105,34*61
$GBGSV,6,5,22,16,01,064,,43,05,118,33,46,07,263,,32,02,201,*64
$GBGSV,6,6,22,29,08,292,,36,08,311,40*6B
$GPGGA,214607.00,,,,,0,00,,,M,,M,,*4E
$PTNL,GGK,214607.00,010125,4742.1601534,N,01618.1003307,E,1,36,0.8,EHT751.6178,M*43
$GPGGQ,214607.00,010125,4742.1601534,N,01618.1003307,E,1,36,1.052,708.4113,M*30
$GPGFA,214607.00,5.090,6.971,0.535,0.311,18.017,0.850,,VVV*32
$GPLLK,214607.00,010125,,M,,M,1,36,0.9,,M*01
$GNGMP,214607.00,,,,,DAAA,36,0.5,,,,*50
$GPGMP,214607.00,,,,,,08,,,,2.6,136*73
$GLGMP,214607.00,,,,,,09,,,,,*70
$GAGMP,214607.00,,,,,,07,,,,,*73
$GBGMP,214607.00,,,,,,12,,,,,*74
$PSSN,SNC,[0,337585000,2347]*4B
$GPZDA,214612.00,01,01,2025,,*61
$GPDTM,W84,,00.0000000,N,00.0000000,E,00.0000000,W84*5F
$PSSN,TFM,214612.00,,,,*6D
$GPRMC,214612.00,A,4742.1601522,N,01618.1003262,E,0.0,,010125,5.1,E,D*13
$GPGLL,4742.1601522,N,01618.1003262,E,214612.00,A,D*62
$GPGGA,214612.00,4742.1601522,N,01618.1003262,E,2,36,0.5,708.4079,M,43.2066,M,2.1,0136*48
$GNGNS,214612.00,4742.1601522,N,01618.1003262,E,DAAA,36,0.5,708.4079,43.2066,,*53
$GPGNS,214612.00,,,,,,08,,,,2.1,136*70
$GLGNS,214612.00,,,,,,09,,,,,*74
$GAGNS,214612.00,,,,,,07,,,,,*77
$GBGNS,214612.00,,,,,,12,,,,,*70
$GPLLQ,214612.00,010125,,M,,M,1,36,1.059,,M*1B
$GPVTG,,T,,M,0.00,N,0.00,K,D*26
$GPHDT,,T*1B
$GPTHS,,V*0E
$GPROT,,V*08
$PSSN,HRP,214612.00,010125,,,,,,,00,0,,*63
$PTNL,AVR,214612.00,,Yaw,,Tilt,,,,0,,00*35
$GPGSA,A,3,02,08,10,14,21,23,27,32,,,,,0.8,0.5,0.6*31
$GPGSA,A,3,67,68,69,74,75,76,83,84,85,,,,0.8,0.5,0.6*33
$GPGSA,A,3,07,08,13,21,26,31,33,,,,,,0.8,0.5,0.6*31
$GPGSA,A,3,05,08,13,14,27,28,30,33,36,41,42,60,0.8,0.5,0.6*3F
$GPGST,214612.00,2.172,0.537,0.310,19.128,0.517,0.341,0.858*63
$GPGBS,214612.00,3.353,2.113,4.888,76,0.0001,-6.493,6.425*76
$GPGRS,214612.00,1,-0.5,0.2,0.1,0.1,0.2,0.1,-0.0,-0.2,,,,*67
$GPGRS,214612.00,1,4.3,5.5,0.4,-3.7,-1.6,-6.5,-1.6,-2.9,2.9,,,*4B
$GPGRS,214612.00,1,-0.2,-0.2,0.4,-0.1,0.3,-0.5,-0.2,,,,,*4E
$GPGRS,214612.00,1,1.9,-1.2,0.2,-1.3,0.5,-0.1,0.1,-0.8,0.1,0.6,-0.8,-1.2*46
$GPGSV,5,1,18,08,74,248,50,27,55,160,49,23,17,050,40,32,34,124,46*7E
$GPGSV,5,2,18,02,31,284,44,21,52,290,44,10,59,058,50,16,05,190,30*7A
$GPGSV,5,3,18,14,08,329,37,36,35,170,44,58,13,245,38,57,11,108,37*7A
$GPGSV,5,4,18,34,31,208,42,40,24,132,35,49,34,195,43,41,07,108,34*70
$GPGSV,5,5,18,61,03,257,38*4F
$GLGSV,3,1,09,84,64,343,41,74,12,249,41,85,18,301,45,67,12,025,43*6E
$GLGSV,3,2,09,75,22,300,46,83,33,093,39,69,48,152,52,68,52,061,51*6D
$GLGSV,3,3,09,76,06,355,42*5E
$GAGSV,3,1,10,26,77,338,48,08,30,066,43,31,29,301,42,23,34,239,*64
$GAGSV,3,2,10,07,30,127,41,13,37,078,44,33,32,278,43,29,02,171,*61
$GAGSV,3,3,10,21,08,193,37,03,04,023,36*6E
$GBGSV,6,1,22,28,66,112,50,42,12,037,40,05,23,128,39,08,12,047,35*6F
$GBGSV,6,2,22,30,14,299,42,13,20,049,40,60,11,108,40,31,13,071,*69
$GBGSV,6,3,22,58,14,254,,41,48,170,49,14,34,051,44,57,48,250,*68
$GBGSV,6,4,22,27,64,302,51,33,55,077,49,39,03,075,36,02,08,105,34*61
$GBGSV,6,5,22,16,01,064,,43,05,118,33,46,07,263,,32,02,201,*64
$GBGSV,6,6,22,29,08,292,,36,08,311,40*6B
$GPGGA,214612.00,,,,,0,00,,,M,,M,,*4A
$PTNL,GGK,214612.00,010125,4742.1601522,N,01618.1003262,E,1,36,0.8,EHT751.6145,M*4C
$GPGGQ,214612.00,010125,4742.1601522,N,01618.1003262,E,1,36,1.059,708.4079,M*37
$GPGFA,214612.00,5.106,7.039,0.537,0.310,19.128,0.858,,VVV*3B
$GPLLK,214612.00,010125,,M,,M,1,36,0.9,,M*05
$GNGMP,214612.00,,,,,DAAA,36,0.5,,,,*54
$GPGMP,214612.00,,,,,,08,,,,2.1,136*70
$GLGMP,214612.00,,,,,,09,,,,,*74
$GAGMP,214612.00,,,,,,07,,,,,*77
$GBGMP,214612.00,,,,,,12,,,,,*70
$PSSN,SNC,[0,337590000,2347]*4F
$GPZDA,214617.00,01,01,2025,,*64
$GPDTM,W84,,00.0000000,N,00.0000000,E,00.0000000,W84*5F
$PSSN,TFM,214617.00,,,,*68
$GPRMC,214617.00,A,4742.1601513,N,01618.1003251,E,0.0,,010125,5.1,E,D*14
$GPGLL,4742.1601513,N,01618.1003251,E,214617.00,A,D*65
$GPGGA,214617.00,4742.1601513,N,01618.1003251,E,2,36,0.5,708.4057,M,43.2066,M,3.1,0136*42
$GNGNS,214617.00,4742.1601513,N,01618.1003251,E,DAAA,36,0.5,708.4057,43.2066,,*58
$GPGNS,214617.00,,,,,,08,,,,3.1,136*74
$GLGNS,214617.00,,,,,,09,,,,,*71
$GAGNS,214617.00,,,,,,07,,,,,*72
$GBGNS,214617.00,,,,,,12,,,,,*75
$GPLLQ,214617.00,010125,,M,,M,1,36,1.070,,M*15
$GPVTG,,T,,M,0.00,N,0.00,K,D*26
$GPHDT,,T*1B
$GPTHS,,V*0E
$GPROT,,V*08
$PSSN,HRP,214617.00,010125,,,,,,,00,0,,*66
$PTNL,AVR,214617.00,,Yaw,,Tilt,,,,0,,00*30
$GPGSA,A,3,02,08,10,14,21,23,27,32,,,,,0.8,0.5,0.6*31
$GPGSA,A,3,67,68,69,74,75,76,83,84,85,,,,0.8,0.5,0.6*33
$GPGSA,A,3,07,08,13,21,26,31,33,,,,,,0.8,0.5,0.6*31
$GPGSA,A,3,05,08,13,14,27,28,30,33,36,41,42,60,0.8,0.5,0.6*3F
$GPGST,214617.00,2.125,0.539,0.311,19.768,0.518,0.344,0.871*68
$GPGBS,214617.00,3.399,2.150,5.002,76,0.0001,-5.980,6.423*73
$GPGRS,214617.00,1,-0.2,0.2,0.2,0.5,-0.1,0.1,-0.1,-0.4,,,,*4B
$GPGRS,214617.00,1,4.6,5.5,0.7,-4.1,-1.0,-6.0,-1.7,-2.0,3.0,,,*4A
$GPGRS,214617.00,1,-0.3,-0.1,0.2,-0.4,0.3,-0.3,-0.1,,,,,*4F
$GPGRS,214617.00,1,2.1,-0.1,0.1,-1.0,0.5,-0.1,-0.1,-0.8,-0.3,0.5,-0.8,-0.9*41
$GPGSV,5,1,18,08,74,248,50,27,55,160,48,23,17,050,40,32,34,124,46*7F
$GPGSV,5,2,18,02,31,284,44,21,52,290,45,10,59,058,50,16,04,190,29*72
$GPGSV,5,3,18,14,08,329,37,36,35,170,44,58,13,245,37,57,11,108,37*75
$GPGSV,5,4,18,34,31,208,42,40,24,132,36,49,34,195,43,41,07,108,34*73
$GPGSV,5,5,18,61,03,257,37*40
$GLGSV,3,1,09,84,64,343,41,74,12,249,40,85,18,301,46,67,12,025,43*6C
$GLGSV,3,2,09,75,22,300,46,83,33,093,39,69,48,152,52,68,52,061,51*6D
$GLGSV,3,3,09,76,06,355,43*5F
$GAGSV,3,1,10,26,77,338,49,08,30,066,43,31,29,301,42,23,34,239,*65
$GAGSV,3,2,10,07,30,127,41,13,37,078,44,33,32,278,43,29,02,171,*61
$GAGSV,3,3,10,21,08,193,37,03,04,023,35*6D
$GBGSV,6,1,22,28,66,112,50,42,12,037,40,05,23,128,39,08,12,047,36*6C
$GBGSV,6,2,22,30,14,299,42,13,20,049,40,60,11,108,40,31,13,071,*69
$GBGSV,6,3,22,58,14,254,,41,48,170,49,14,34,051,44,57,48,250,*68
$GBGSV,6,4,22,27,64,302,51,33,55,077,50,39,03,075,36,02,08,105,34*69
$GBGSV,6,5,22,16,01,064,,43,05,119,33,46,07,263,,32,02,201,*65
$GBGSV,6,6,22,29,08,292,,36,08,311,39*65
$GPGGA,214617.00,,,,,0,00,,,M,,M,,*4F
$PTNL,GGK,214617.00,010125,4742.1601513,N,01618.1003251,E,1,36,0.8,EHT751.6123,M*4B
$GPGGQ,214617.00,010125,4742.1601513,N,01618.1003251,E,1,36,1.070,708.4057,M*37
$GPGFA,214617.00,5.121,7.144,0.539,0.311,19.768,0.871,,VVV*36
$GPLLK,214617.00,010125,,M,,M,1,36,0.9,,M*00
$GNGMP,214617.00,,,,,DAAA,36,0.5,,,,*51
$GPGMP,214617.00,,,,,,08,,,,3.1,136*74
$GLGMP,214617.00,,,,,,09,,,,,*71
$GAGMP,214617.00,,,,,,07,,,,,*72
$GBGMP,214617.00,,,,,,12,,,,,*75
$PSSN,SNC,[0,337595000,2347]*4A
$GPZDA,214622.00,01,01,2025,,*62
$GPDTM,W84,,00.0000000,N,00.0000000,E,00.0000000,W84*5F
$PSSN,TFM,214622.00,,,,*6E
$GPRMC,214622.00,A,4742.1601480,N,01618.1003258,E,0.0,,010125,5.1,E,D*10
$GPGLL,4742.1601480,N,01618.1003258,E,214622.00,A,D*61
$GPGGA,214622.00,4742.1601480,N,01618.1003258,E,2,36,0.5,708.4035,M,43.2066,M,2.1,0136*43
$GNGNS,214622.00,4742.1601480,N,01618.1003258,E,DAAA,36,0.5,708.4035,43.2066,,*58
$GPGNS,214622.00,,,,,,08,,,,2.1,136*73
$GLGNS,214622.00,,,,,,09,,,,,*77
$GAGNS,214622.00,,,,,,07,,,,,*74
$GBGNS,214622.00,,,,,,12,,,,,*73
$GPLLQ,214622.00,010125,,M,,M,1,36,1.070,,M*13
$GPVTG,,T,,M,0.00,N,0.01,K,D*27
$GPHDT,,T*1B
$GPTHS,,V*0E
$GPROT,,V*08
$PSSN,HRP,214622.00,010125,,,,,,,00,0,,*60
$PTNL,AVR,214622.00,,Yaw,,Tilt,,,,0,,00*36
$GPGSA,A,3,02,08,10,14,21,23,27,32,,,,,0.8,0.5,0.6*31
$GPGSA,A,3,67,68,69,74,75,76,83,84,85,,,,0.8,0.5,0.6*33
$GPGSA,A,3,07,08,13,21,26,31,33,,,,,,0.8,0.5,0.6*31
$GPGSA,A,3,05,08,13,14,27,28,30,33,36,41,42,60,0.8,0.5,0.6*3F
$GPGST,214622.00,2.043,0.540,0.314,18.783,0.521,0.344,0.869*63
$GPGBS,214622.00,3.351,2.107,4.715,76,0.0001,-6.442,6.421*71
$GPGRS,214622.00,1,-0.2,-0.0,0.1,0.5,0.3,-0.1,-0.1,-0.2,,,,*65
$GPGRS,214622.00,1,4.2,5.5,0.2,-2.9,-1.3,-6.4,-0.9,-2.4,2.5,,,*4B
$GPGRS,214622.00,1,-0.4,0.0,0.3,-0.1,0.0,-0.3,-0.0,,,,,*64
$GPGRS,214622.00,1,1.9,0.4,0.1,-0.4,0.3,0.1,-0.3,-0.8,-0.9,0.5,-0.9,-1.1*4A
$GPGSV,5,1,18,08,74,247,50,27,54,160,48,23,17,050,40,32,34,124,46*71
