$GPZDA,082942.00,01,01,2025,,*66
$GPDTM,W84,,00.0000000,N,00.0000000,E,00.0000000,W84*5F
$PSSN,TFM,082942.00,,,,*6A
$GPRMC,082942.00,A,4742.1601526,N,01618.1002854,E,0.0,,010125,5.1,E,D*1E
$GPGLL,4742.1601526,N,01618.1002854,E,082942.00,A,D*6F
$GPGGA,082942.00,4742.1601526,N,01618.1002854,E,2,37,0.4,708.1313,M,43.2066,M,1.7,0136*4A
$GNGNS,082942.00,4742.1601526,N,01618.1002854,E,DAAA,37,0.4,708.1313,43.2066,,*54
$GPGNS,082942.00,,,,,,11,,,,1.7,136*7A
$GLGNS,082942.00,,,,,,06,,,,,*7C
$GAGNS,082942.00,,,,,,08,,,,,*7F
$GBGNS,082942.00,,,,,,12,,,,,*77
$GPLLQ,082942.00,010125,,M,,M,1,37,0.789,,M*16
$GPVTG,,T,,M,0.01,N,0.01,K,D*26
$GPHDT,,T*1B
$GPTHS,,V*0E
$GPROT,,V*08
$PSSN,HRP,082942.00,010125,,,,,,,00,0,,*64
$PTNL,AVR,082942.00,,Yaw,,Tilt,,,,0,,00*32
$GPGSA,A,3,05,07,08,13,14,15,17,20,23,24,30,,0.7,0.4,0.6*3E
$GPGSA,A,3,65,66,72,74,75,76,,,,,,,0.7,0.4,0.6*31
$GPGSA,A,3,02,03,05,08,13,24,25,26,,,,,0.7,0.4,0.6*3C
$GPGSA,A,3,05,07,10,14,21,22,26,36,40,42,45,60,0.7,0.4,0.6*36
$GPGST,082942.00,1.794,0.393,0.328,347.506,0.390,0.331,0.600*57
$GPGBS,082942.00,2.367,1.639,3.498,72,0.0001,5.799,6.196*5F
$GPGRS,082942.00,1,-0.4,-1.2,0.4,-0.2,0.5,-0.3,0.6,-0.0,0.4,1.1,-0.0,*60
$GPGRS,082942.00,1,-1.9,-2.9,5.8,3.1,-3.7,-2.4,,,,,,*45
$GPGRS,082942.00,1,-1.1,-0.3,0.6,-0.5,0.6,-0.6,0.2,0.3,,,,*4A
$GPGRS,082942.00,1,0.9,0.4,-0.1,2.1,-0.7,1.1,-0.5,-1.4,-1.9,-0.4,-1.5,0.7*61
$GPGSV,6,1,22,13,75,309,49,20,18,201,40,07,14,074,41,15,39,303,46*7D
$GPGSV,6,2,22,05,42,229,47,22,58,159,,30,48,070,47,14,66,114,48*72
$GPGSV,6,3,22,08,08,030,37,18,05,301,37,23,07,331,39,24,05,264,36*7A
$GPGSV,6,4,22,17,08,132,36,36,35,170,44,58,13,245,36,40,23,133,35*7E
$GPGSV,6,5,22,34,31,208,43,49,34,195,44,57,07,112,37,41,07,108,35*7B
$GPGSV,6,6,22,61,03,257,38*46
$GLGSV,2,1,08,65,85,214,49,72,27,147,44,74,24,041,40,66,37,322,50*6E
$GLGSV,2,2,08,76,36,223,50,75,79,030,52,82,05,330,41,83,09,008,33*67
$GAGSV,3,1,09,03,81,118,48,24,29,048,42,02,33,190,43,05,27,121,42*63
$GAGSV,3,2,09,08,44,302,45,16,52,068,,25,65,114,48,13,08,283,36*6C
$GAGSV,3,3,09,26,07,332,37*54
$GBGSV,5,1,17,45,79,072,51,22,25,157,45,14,17,317,39,36,27,057,45*6D
$GBGSV,5,2,17,05,21,130,38,40,27,058,43,56,20,089,,24,37,218,*67
$GBGSV,5,3,17,07,27,068,41,42,42,306,47,10,31,081,41,26,41,233,48*64
$GBGSV,5,4,17,21,69,210,52,50,63,277,,02,04,109,33,09,08,076,35*6E
$GBGSV,5,5,17,60,07,112,41*5B
$GPGGA,082942.00,,,,,0,00,,,M,,M,,*4D
$PTNL,GGK,082942.00,010125,4742.1601526,N,01618.1002854,E,1,37,0.7,EHT751.3378,M*46
$GPGGQ,082942.00,010125,4742.1601526,N,01618.1002854,E,1,37,0.789,708.1313,M*3A
$GPGFA,082942.00,3.737,4.922,0.393,0.328,347.506,0.600,,VVV*0E
$GPLLK,082942.00,010125,,M,,M,1,37,0.8,,M*02
$GNGMP,082942.00,,,,,DAAA,37,0.4,,,,*53
$GPGMP,082942.00,,,,,,11,,,,1.7,136*7A
$GLGMP,082942.00,,,,,,06,,,,,*7C
$GAGMP,082942.00,,,,,,08,,,,,*7F
$GBGMP,082942.00,,,,,,12,,,,,*77
$PSSN,SNC,[0,289800000,2347]*4F
$GPZDA,082947.00,01,01,2025,,*63
$GPDTM,W84,,00.0000000,N,00.0000000,E,00.0000000,W84*5F
$PSSN,TFM,082947.00,,,,*6F
$GPRMC,082947.00,A,4742.1601553,N,01618.1002815,E,0.0,,010125,5.1,E,D*1C
$GPGLL,4742.1601553,N,01618.1002815,E,082947.00,A,D*6D
$GPGGA,082947.00,4742.1601553,N,01618.1002815,E,2,37,0.4,708.1296,M,43.2066,M,2.4,0136*44
$GNGNS,082947.00,4742.1601553,N,01618.1002815,E,DAAA,37,0.4,708.1296,43.2066,,*5A
$GPGNS,082947.00,,,,,,11,,,,2.4,136*7F
$GLGNS,082947.00,,,,,,06,,,,,*79
$GAGNS,082947.00,,,,,,08,,,,,*7A
$GBGNS,082947.00,,,,,,12,,,,,*72
$GPLLQ,082947.00,010125,,M,,M,1,37,0.783,,M*19
$GPVTG,,T,,M,0.00,N,0.01,K,D*27
$GPHDT,,T*1B
$GPTHS,,V*0E
$GPROT,,V*08
$PSSN,HRP,082947.00,010125,,,,,,,00,0,,*61
$PTNL,AVR,082947.00,,Yaw,,Tilt,,,,0,,00*37
$GPGSA,A,3,05,07,08,13,14,15,17,20,23,24,30,,0.7,0.4,0.6*3E
$GPGSA,A,3,65,66,72,74,75,76,,,,,,,0.7,0.4,0.6*31
$GPGSA,A,3,02,03,05,08,13,24,25,26,,,,,0.7,0.4,0.6*3C
$GPGSA,A,3,05,07,10,14,21,22,26,36,40,42,45,60,0.7,0.4,0.6*36
$GPGST,082947.00,1.907,0.393,0.325,346.321,0.390,0.329,0.594*5E
$GPGBS,082947.00,2.389,1.693,3.516,07,0.0001,-1.687,1.485*78
$GPGRS,082947.00,1,-0.5,-1.7,-0.4,-0.1,0.7,-0.4,0.6,-0.1,0.7,0.7,0.2,*60
$GPGRS,082947.00,1,-1.8,-3.1,6.4,4.0,-3.5,-2.5,,,,,,*42
$GPGRS,082947.00,1,-0.9,-0.0,0.5,-0.2,0.6,-0.6,0.1,0.4,,,,*45
$GPGRS,082947.00,1,0.8,0.0,0.0,1.4,-0.5,1.3,-0.3,-1.6,-1.5,-0.0,-1.6,0.7*44
$GPGSV,6,1,22,13,75,309,49,20,18,201,41,07,14,074,41,15,39,303,46*7C
$GPGSV,6,2,22,05,42,229,47,22,58,159,,30,48,070,47,14,66,113,48*75
$GPGSV,6,3,22,08,08,030,37,18,05,301,38,23,07,331,39,24,05,264,36*75
$GPGSV,6,4,22,17,08,132,36,36,35,170,44,58,13,245,36,40,23,133,35*7E
$GPGSV,6,5,22,34,31,208,43,49,34,195,44,57,07,112,37,41,07,108,35*7B
$GPGSV,6,6,22,61,03,257,38*46
$GLGSV,2,1,08,65,85,214,49,72,27,147,45,74,24,041,40,66,37,322,49*67
$GLGSV,2,2,08,76,36,223,49,75,79,030,52,82,05,330,42,83,09,008,33*6C
$GAGSV,3,1,09,03,81,118,48,24,29,048,42,02,33,190,43,05,27,121,42*63
$GAGSV,3,2,09,08,44,302,44,16,52,068,,25,65,114,48,13,08,283,36*6D
$GAGSV,3,3,09,26,07,332,37*54
$GBGSV,5,1,17,45,79,072,51,22,24,157,45,14,17,317,38,36,27,057,44*6C
$GBGSV,5,2,17,05,21,130,38,40,27,058,42,56,21,089,,24,37,218,*67
$GBGSV,5,3,17,07,27,067,41,42,42,306,47,10,31,081,41,26,41,233,47*64
$GBGSV,5,4,17,21,69,210,52,50,63,277,,02,04,109,33,09,08,076,35*6E
$GBGSV,5,5,17,60,07,112,40*5A
$GPGGA,082947.00,,,,,0,00,,,M,,M,,*48
$PTNL,GGK,082947.00,010125,4742.1601553,N,01618.1002815,E,1,37,0.7,EHT751.3362,M*4F
$GPGGQ,082947.00,010125,4742.1601553,N,01618.1002815,E,1,37,0.783,708.1296,M*3E
$GPGFA,082947.00,3.738,4.869,0.393,0.325,346.321,0.594,,VVV*0B
$GPLLK,082947.00,010125,,M,,M,1,37,0.8,,M*07
$GNGMP,082947.00,,,,,DAAA,37,0.4,,,,*56
$GPGMP,082947.00,,,,,,11,,,,2.4,136*7F
$GLGMP,082947.00,,,,,,06,,,,,*79
$GAGMP,082947.00,,,,,,08,,,,,*7A
$GBGMP,082947.00,,,,,,12,,,,,*72
$PSSN,SNC,[0,289805000,2347]*4A
$GPZDA,082952.00,01,01,2025,,*67
$GPDTM,W84,,00.0000000,N,00.0000000,E,00.0000000,W84*5F
$PSSN,TFM,082952.00,,,,*6B
$GPRMC,082952.00,A,4742.1601554,N,01618.1002809,E,0.0,,010125,5.1,E,D*12
$GPGLL,4742.1601554,N,01618.1002809,E,082952.00,A,D*63
$GPGGA,082952.00,4742.1601554,N,01618.1002809,E,2,38,0.4,708.1309,M,43.2066,M,3.4,0136*43
$GNGNS,082952.00,4742.1601554,N,01618.1002809,E,DAAA,38,0.4,708.1309,43.2066,,*5C
$GPGNS,082952.00,,,,,,11,,,,3.4,136*7A
$GLGNS,082952.00,,,,,,06,,,,,*7D
$GAGNS,082952.00,,,,,,08,,,,,*7E
$GBGNS,082952.00,,,,,,13,,,,,*77
$GPLLQ,082952.00,010125,,M,,M,1,38,0.793,,M*13
$GPVTG,,T,,M,0.01,N,0.01,K,D*26
$GPHDT,,T*1B
$GPTHS,,V*0E
$GPROT,,V*08
$PSSN,HRP,082952.00,010125,,,,,,,00,0,,*65
$PTNL,AVR,082952.00,,Yaw,,Tilt,,,,0,,00*33
$GPGSA,A,3,05,07,08,13,14,15,17,20,23,24,30,,0.7,0.4,0.6*3E
$GPGSA,A,3,65,66,72,74,75,76,,,,,,,0.7,0.4,0.6*31
$GPGSA,A,3,02,03,05,08,13,24,25,26,,,,,0.7,0.4,0.6*3C
$GPGSA,A,3,05,07,09,10,14,21,22,26,36,40,42,45,0.7,0.4,0.6*39
$GPGSA,A,3,60,,,,,,,,,,,,0.7,0.4,0.6*31
$GPGST,082952.00,2.072,0.398,0.326,345.141,0.394,0.331,0.603*5D
$GPGBS,082952.00,2.395,1.701,3.542,72,0.0001,7.498,6.196*5F
$GPGRS,082952.00,1,-0.5,-1.5,0.1,-0.0,0.5,-0.5,0.2,-0.2,0.6,0.6,0.2,*4B
$GPGRS,082952.00,1,-2.3,-3.5,7.5,4.5,-3.4,-2.6,,,,,,*4D
$GPGRS,082952.00,1,-0.8,-0.1,0.5,-0.2,0.9,-0.8,-0.1,0.9,,,,*60
$GPGRS,082952.00,1,0.9,0.2,1.0,0.2,1.2,-0.7,1.4,-0.6,-1.3,-1.3,-0.5,-1.7*46
$GPGRS,082952.00,1,0.9,,,,,,,,,,,*6D
$GPGSV,6,1,22,13,75,309,49,20,18,201,41,07,14,074,40,15,40,303,46*73
$GPGSV,6,2,22,05,42,229,47,22,58,159,,30,48,070,47,14,66,113,48*75
$GPGSV,6,3,22,08,08,030,37,18,05,301,38,23,07,331,38,24,05,264,36*74
$GPGSV,6,4,22,17,08,132,37,36,35,170,44,58,13,245,36,40,23,133,35*7F
$GPGSV,6,5,22,34,31,208,43,49,34,195,44,57,07,112,37,41,07,108,35*7B
$GPGSV,6,6,22,61,03,257,38*46
$GLGSV,2,1,08,65,85,214,49,72,27,147,45,74,24,041,40,66,37,322,49*67
$GLGSV,2,2,08,76,36,223,49,75,79,030,52,82,05,330,42,83,09,008,34*6B
$GAGSV,3,1,09,03,81,118,48,24,29,048,42,02,33,190,44,05,27,121,42*64
$GAGSV,3,2,09,08,44,302,45,16,52,067,,25,65,114,48,13,08,283,36*63
$GAGSV,3,3,09,26,07,332,38*5B
$GBGSV,5,1,17,45,79,072,51,22,24,157,45,14,17,317,39,36,27,057,44*6D
$GBGSV,5,2,17,05,21,130,38,40,27,058,42,56,21,089,,24,37,218,*67
$GBGSV,5,3,17,07,27,067,41,42,42,306,47,10,31,081,41,26,41,233,47*64
$GBGSV,5,4,17,21,69,209,52,50,63,277,,02,04,109,33,09,08,076,35*66
$GBGSV,5,5,17,60,07,112,41*5B
$GPGGA,082952.00,,,,,0,00,,,M,,M,,*4C
$PTNL,GGK,082952.00,010125,4742.1601554,N,01618.1002809,E,1,38,0.7,EHT751.3375,M*48
$GPGGQ,082952.00,010125,4742.1601554,N,01618.1002809,E,1,38,0.793,708.1309,M*39
$GPGFA,082952.00,3.785,4.945,0.398,0.326,345.141,0.603,,VVV*04
$GPLLK,082952.00,010125,,M,,M,1,38,0.8,,M*0C
$GNGMP,082952.00,,,,,DAAA,38,0.4,,,,*5D
$GPGMP,082952.00,,,,,,11,,,,3.4,136*7A
$GLGMP,082952.00,,,,,,06,,,,,*7D
$GAGMP,082952.00,,,,,,08,,,,,*7E
$GBGMP,082952.00,,,,,,13,,,,,*77
$PSSN,SNC,[0,289810000,2347]*4E
$GPZDA,082957.00,01,01,2025,,*62
$GPDTM,W84,,00.0000000,N,00.0000000,E,00.0000000,W84*5F
$PSSN,TFM,082957.00,,,,*6E
$GPRMC,082957.00,A,4742.1601554,N,01618.1002756,E,0.0,,010125,5.1,E,D*12
$GPGLL,4742.1601554,N,01618.1002756,E,082957.00,A,D*63
$GPGGA,082957.00,4742.1601554,N,01618.1002756,E,2,38,0.4,708.1318,M,43.2066,M,2.7,0136*41
$GNGNS,082957.00,4742.1601554,N,01618.1002756,E,DAAA,38,0.4,708.1318,43.2066,,*5C
$GPGNS,082957.00,,,,,,10,,,,2.7,136*7C
$GLGNS,082957.00,,,,,,07,,,,,*79
$GAGNS,082957.00,,,,,,08,,,,,*7B
$GBGNS,082957.00,,,,,,13,,,,,*72
$GPLLQ,082957.00,010125,,M,,M,1,38,0.841,,M*16
$GPVTG,,T,,M,0.00,N,0.00,K,D*26
$GPHDT,,T*1B
$GPTHS,,V*0E
$GPROT,,V*08
$PSSN,HRP,082957.00,010125,,,,,,,00,0,,*60
$PTNL,AVR,082957.00,,Yaw,,Tilt,,,,0,,00*36
$GPGSA,A,3,05,07,08,13,14,15,17,20,23,30,,,0.7,0.4,0.6*38
$GPGSA,A,3,65,66,72,74,75,76,83,,,,,,0.7,0.4,0.6*3A
$GPGSA,A,3,02,03,05,08,13,24,25,26,,,,,0.7,0.4,0.6*3C
$GPGSA,A,3,05,07,09,10,14,21,22,26,36,40,42,45,0.7,0.4,0.6*39
$GPGSA,A,3,60,,,,,,,,,,,,0.7,0.4,0.6*31
$GPGST,082957.00,2.069,0.395,0.351,346.352,0.393,0.354,0.655*5B
$GPGBS,082957.00,2.535,1.972,3.702,07,0.0001,-2.015,1.510*7C
$GPGRS,082957.00,1,-0.4,-2.0,0.3,-0.0,0.6,-0.2,0.5,-0.3,0.5,0.1,,*61
$GPGRS,082957.00,1,-2.1,-3.1,7.1,4.8,-3.5,-2.9,0.1,,,,,*66
$GPGRS,082957.00,1,-0.9,-0.2,0.9,-0.2,0.8,-0.7,0.1,0.3,,,,*42
$GPGRS,082957.00,1,0.8,0.1,0.9,0.6,2.4,-0.7,1.6,-0.4,-1.2,-0.8,-0.3,-1.5*47
$GPGRS,082957.00,1,1.0,,,,,,,,,,,*60
$GPGSV,6,1,22,13,75,309,48,20,18,201,40,07,14,074,40,15,40,303,46*73
$GPGSV,6,2,22,05,42,229,47,22,58,159,,30,48,070,47,14,66,113,48*75
$GPGSV,6,3,22,08,08,030,37,18,05,301,37,23,07,331,38,24,05,264,35*78
$GPGSV,6,4,22,17,08,132,37,36,35,170,44,58,13,245,36,40,23,133,35*7F
$GPGSV,6,5,22,34,31,208,43,49,34,195,44,57,07,112,37,41,07,108,35*7B
$GPGSV,6,6,22,61,03,257,38*46
$GLGSV,2,1,08,65,85,213,49,72,27,147,46,74,24,041,41,66,37,322,49*62
$GLGSV,2,2,08,76,36,224,49,75,79,030,51,82,05,330,43,83,09,008,35*6F
$GAGSV,3,1,09,03,81,118,48,24,29,048,42,02,33,190,43,05,27,121,41*60
$GAGSV,3,2,09,16,52,067,,08,44,302,45,25,65,114,48,13,08,283,37*62
$GAGSV,3,3,09,26,07,332,37*54
$GBGSV,5,1,17,45,78,072,51,22,24,157,45,14,17,317,39,36,27,057,44*6C
$GBGSV,5,2,17,05,21,130,38,40,27,058,42,56,21,089,,24,37,218,*67
$GBGSV,5,3,17,07,27,067,40,42,42,306,47,10,31,081,41,26,41,233,47*65
$GBGSV,5,4,17,21,69,209,52,50,63,277,,02,04,109,33,09,08,076,36*65
$GBGSV,5,5,17,60,07,112,40*5A
$GPGGA,082957.00,,,,,0,00,,,M,,M,,*49
$PTNL,GGK,082957.00,010125,4742.1601554,N,01618.1002756,E,1,38,0.7,EHT751.3384,M*46
$GPGGQ,082957.00,010125,4742.1601554,N,01618.1002756,E,1,38,0.841,708.1318,M*39
$GPGFA,082957.00,3.756,5.367,0.395,0.351,346.352,0.655,,VVV*09
$GPLLK,082957.00,010125,,M,,M,1,38,0.8,,M*09
$GNGMP,082957.00,,,,,DAAA,38,0.4,,,,*58
$GPGMP,082957.00,,,,,,10,,,,2.7,136*7C
$GLGMP,082957.00,,,,,,07,,,,,*79
$GAGMP,082957.00,,,,,,08,,,,,*7B
$GBGMP,082957.00,,,,,,13,,,,,*72
$PSSN,SNC,[0,289815000,2347]*4B
$GPZDA,083002.00,01,01,2025,,*6A
$GPDTM,W84,,00.0000000,N,00.0000000,E,00.0000000,W84*5F
$PSSN,TFM,083002.00,,,,*66
$GPRMC,083002.00,A,4742.1601534,N,01618.1002749,E,0.0,,010125,5.1,E,D*12
$GPGLL,4742.1601534,N,01618.1002749,E,083002.00,A,D*63
$GPGGA,083002.00,4742.1601534,N,01618.1002749,E,2,38,0.4,708.1328,M,43.2066,M,1.7,0136*41
$GNGNS,083002.00,4742.1601534,N,01618.1002749,E,DAAA,38,0.4,708.1328,43.2066,,*5F
$GPGNS,083002.00,,,,,,11,,,,1.7,136*76
$GLGNS,083002.00,,,,,,06,,,,,*70
$GAGNS,083002.00,,,,,,08,,,,,*73
$GBGNS,083002.00,,,,,,13,,,,,*7A
$GPLLQ,083002.00,010125,,M,,M,1,38,0.790,,M*1D
$GPVTG,,T,,M,0.00,N,0.01,K,D*27
$GPHDT,,T*1B
$GPTHS,,V*0E
$GPROT,,V*08
$PSSN,HRP,083002.00,010125,,,,,,,00,0,,*68
$PTNL,AVR,083002.00,,Yaw,,Tilt,,,,0,,00*3E
$GPGSA,A,3,05,07,08,13,14,15,17,20,23,24,30,,0.7,0.4,0.6*3E
$GPGSA,A,3,65,66,72,74,75,76,,,,,,,0.7,0.4,0.6*31
$GPGSA,A,3,02,03,05,08,13,24,25,26,,,,,0.7,0.4,0.6*3C
$GPGSA,A,3,05,07,09,10,14,21,22,26,36,40,42,45,0.7,0.4,0.6*39
$GPGSA,A,3,60,,,,,,,,,,,,0.7,0.4,0.6*31
$GPGST,083002.00,2.110,0.393,0.327,346.076,0.390,0.331,0.602*5C
$GPGBS,083002.00,2.358,1.649,3.513,72,0.0001,6.561,6.197*5D
$GPGRS,083002.00,1,-0.4,-1.2,0.6,-0.1,0.6,-0.3,0.3,-0.4,0.5,0.9,-0.2,*65
$GPGRS,083002.00,1,-2.2,-3.1,6.6,5.6,-3.8,-2.8,,,,,,*47
$GPGRS,083002.00,1,-0.9,-0.3,0.9,-0.2,0.4,-0.9,0.2,-0.5,,,,*61
$GPGRS,083002.00,1,0.6,-0.0,1.7,-0.3,3.3,-0.6,0.9,-0.1,-1.1,-0.7,-0.5,-1.5*4C
$GPGRS,083002.00,1,0.6,,,,,,,,,,,*6F
$GPGSV,6,1,22,13,75,309,49,20,18,201,40,07,14,074,40,15,40,303,47*73
$GPGSV,6,2,22,05,42,229,47,22,58,159,,30,48,070,47,14,66,113,48*75
$GPGSV,6,3,22,08,08,030,37,18,05,301,39,23,07,331,39,24,05,264,36*74
$GPGSV,6,4,22,17,08,132,38,36,35,170,44,58,13,245,36,40,23,133,35*70
$GPGSV,6,5,22,34,31,208,43,49,34,195,44,57,07,112,37,41,07,108,35*7B
$GPGSV,6,6,22,61,03,257,38*46
$GLGSV,2,1,08,65,84,213,48,72,27,147,45,74,24,041,41,66,37,322,49*61
$GLGSV,2,2,08,76,36,224,49,75,79,030,51,82,05,329,42,83,09,008,34*67
$GAGSV,3,1,09,03,81,118,48,24,29,048,42,02,33,190,43,05,27,121,41*60
$GAGSV,3,2,09,16,52,067,,08,44,302,45,25,65,114,48,13,08,283,36*63
$GAGSV,3,3,09,26,07,332,36*55
$GBGSV,5,1,17,45,78,072,51,22,24,157,44,14,17,317,39,36,27,057,44*6D
$GBGSV,5,2,17,05,21,130,38,40,27,058,43,56,21,089,,24,37,218,*66
$GBGSV,5,3,17,07,27,067,40,42,42,306,47,10,31,081,41,26,41,233,47*65
$GBGSV,5,4,17,21,68,209,52,50,63,276,,02,04,109,33,09,08,076,36*65
$GBGSV,5,5,17,60,07,112,40*5A
$GPGGA,083002.00,,,,,0,00,,,M,,M,,*41
$PTNL,GGK,083002.00,010125,4742.1601534,N,01618.1002749,E,1,38,0.7,EHT751.3393,M*40
$GPGGQ,083002.00,010125,4742.1601534,N,01618.1002749,E,1,38,0.790,708.1328,M*39
$GPGFA,083002.00,3.738,4.933,0.393,0.327,346.076,0.602,,VVV*03
$GPLLK,083002.00,010125,,M,,M,1,38,0.8,,M*01
$GNGMP,083002.00,,,,,DAAA,38,0.4,,,,*50
$GPGMP,083002.00,,,,,,11,,,,1.7,136*76
$GLGMP,083002.00,,,,,,06,,,,,*70
$GAGMP,083002.00,,,,,,08,,,,,*73
$GBGMP,083002.00,,,,,,13,,,,,*7A
$PSSN,SNC,[0,289820000,2347]*4D
$GPZDA,083007.00,01,01,2025,,*6F
$GPDTM,W84,,00.0000000,N,00.0000000,E,00.0000000,W84*5F
$PSSN,TFM,083007.00,,,,*63
$GPRMC,083007.00,A,4742.1601532,N,01618.1002727,E,0.0,,010125,5.1,E,D*19
$GPGLL,4742.1601532,N,01618.1002727,E,083007.00,A,D*68
$GPGGA,083007.00,4742.1601532,N,01618.1002727,E,2,38,0.4,708.1391,M,43.2066,M,2.4,0136*48
$GNGNS,083007.00,4742.1601532,N,01618.1002727,E,DAAA,38,0.4,708.1391,43.2066,,*56
$GPGNS,083007.00,,,,,,11,,,,2.4,136*73
$GLGNS,083007.00,,,,,,06,,,,,*75
$GAGNS,083007.00,,,,,,08,,,,,*76
$GBGNS,083007.00,,,,,,13,,,,,*7F
$GPLLQ,083007.00,010125,,M,,M,1,38,0.784,,M*1D
$GPVTG,,T,,M,0.00,N,0.01,K,D*27
$GPHDT,,T*1B
$GPTHS,,V*0E
$GPROT,,V*08
$PSSN,HRP,083007.00,010125,,,,,,,00,0,,*6D
$PTNL,AVR,083007.00,,Yaw,,Tilt,,,,0,,00*3B
$GPGSA,A,3,05,07,08,13,14,15,17,20,23,24,30,,0.7,0.4,0.6*3E
$GPGSA,A,3,65,66,72,74,75,76,,,,,,,0.7,0.4,0.6*31
$GPGSA,A,3,02,03,05,08,13,24,25,26,,,,,0.7,0.4,0.6*3C
$GPGSA,A,3,05,07,09,10,14,21,22,26,36,40,42,45,0.7,0.4,0.6*39
$GPGSA,A,3,60,,,,,,,,,,,,0.7,0.4,0.6*31
$GPGST,083007.00,1.969,0.393,0.324,344.907,0.389,0.330,0.595*56
$GPGBS,083007.00,2.383,1.704,3.533,72,0.0001,6.002,6.197*54
$GPGRS,083007.00,1,-0.4,-1.2,0.3,-0.1,0.3,-0.4,0.4,0.0,0.5,1.2,0.0,*6C
$GPGRS,083007.00,1,-2.0,-3.2,6.0,5.6,-3.5,-2.8,,,,,,*48
$GPGRS,083007.00,1,-0.9,-0.1,1.0,-0.4,0.2,-0.7,0.1,0.1,,,,*4A
$GPGRS,083007.00,1,0.8,-0.1,1.5,0.0,1.8,-0.5,0.5,-0.5,-1.0,-0.6,-0.7,-1.4*6B
$GPGRS,083007.00,1,1.0,,,,,,,,,,,*6D
$GPGSV,6,1,22,13,75,309,49,20,18,201,40,07,14,074,41,15,40,303,46*73
$GPGSV,6,2,22,05,42,229,47,22,58,159,,30,47,070,47,14,66,113,48*7A
$GPGSV,6,3,22,08,08,030,37,18,05,301,39,23,07,331,39,24,06,264,36*77
$GPGSV,6,4,22,17,08,132,37,36,35,170,44,58,13,245,36,40,23,133,35*7F
$GPGSV,6,5,22,34,31,208,43,49,34,195,44,57,07,112,37,41,07,108,35*7B
$GPGSV,6,6,22,61,03,257,38*46
$GLGSV,2,1,08,65,84,212,48,72,27,147,46,74,24,041,42,66,37,322,49*60
$GLGSV,2,2,08,76,36,224,49,75,79,030,51,82,05,329,42,83,09,008,34*67
$GAGSV,3,1,09,03,81,118,48,24,29,048,42,02,33,190,43,05,27,121,42*63
$GAGSV,3,2,09,16,52,067,,08,44,302,45,25,65,114,48,13,08,283,36*63
$GAGSV,3,3,09,26,07,332,36*55
$GBGSV,5,1,17,45,78,072,51,22,24,157,45,14,17,317,39,36,27,057,44*6C
$GBGSV,5,2,17,05,21,130,38,40,27,058,43,56,21,089,,24,37,218,*66
$GBGSV,5,3,17,07,27,067,40,42,42,306,47,10,31,081,41,26,41,233,47*65
$GBGSV,5,4,17,21,68,209,52,50,63,276,,02,04,109,33,09,08,076,36*65
$GBGSV,5,5,17,60,07,112,40*5A
$GPGGA,083007.00,,,,,0,00,,,M,,M,,*44
$PTNL,GGK,083007.00,010125,4742.1601532,N,01618.1002727,E,1,38,0.7,EHT751.3457,M*44
$GPGGQ,083007.00,010125,4742.1601532,N,01618.1002727,E,1,38,0.784,708.1391,M*35
$GPGFA,083007.00,3.741,4.883,0.393,0.324,344.907,0.595,,VVV*01
$GPLLK,083007.00,010125,,M,,M,1,38,0.8,,M*04
$GNGMP,083007.00,,,,,DAAA,38,0.4,,,,*55
$GPGMP,083007.00,,,,,,11,,,,2.4,136*73
$GLGMP,083007.00,,,,,,06,,,,,*75
$GAGMP,083007.00,,,,,,08,,,,,*76
$GBGMP,083007.00,,,,,,13,,,,,*7F
$PSSN,SNC,[0,289825000,2347]*48
$GPZDA,083012.00,01,01,2025,,*6B
$GPDTM,W84,,00.0000000,N,00.0000000,E,00.0000000,W84*5F
$PSSN,TFM,083012.00,,,,*67
$GPRMC,083012.00,A,4742.1601556,N,01618.1002711,E,0.0,,010125,5.1,E,D*1A
$GPGLL,4742.1601556,N,01618.1002711,E,083012.00,A,D*6B
$GPGGA,083012.00,4742.1601556,N,01618.1002711,E,2,38,0.4,708.1406,M,43.2066,M,3.4,0136*43
$GNGNS,083012.00,4742.1601556,N,01618.1002711,E,DAAA,38,0.4,708.1406,43.2066,,*5C
$GPGNS,083012.00,,,,,,11,,,,3.4,136*76
$GLGNS,083012.00,,,,,,06,,,,,*71
$GAGNS,083012.00,,,,,,08,,,,,*72
$GBGNS,083012.00,,,,,,13,,,,,*7B
$GPLLQ,083012.00,010125,,M,,M,1,38,0.791,,M*1D
$GPVTG,,T,,M,0.00,N,0.00,K,D*26
$GPHDT,,T*1B
$GPTHS,,V*0E
$GPROT,,V*08
$PSSN,HRP,083012.00,010125,,,,,,,00,0,,*69
$PTNL,AVR,083012.00,,Yaw,,Tilt,,,,0,,00*3F
$GPGSA,A,3,05,07,08,13,14,15,17,20,23,24,30,,0.7,0.4,0.6*3E
$GPGSA,A,3,65,66,72,74,75,76,,,,,,,0.7,0.4,0.6*31
$GPGSA,A,3,02,03,05,08,13,24,25,26,,,,,0.7,0.4,0.6*3C
$GPGSA,A,3,05,07,09,10,14,21,22,26,36,40,42,45,0.7,0.4,0.6*39
$GPGSA,A,3,60,,,,,,,,,,,,0.7,0.4,0.6*31
$GPGST,083012.00,2.016,0.399,0.325,344.451,0.394,0.331,0.601*56
$GPGBS,083012.00,2.411,1.711,3.566,72,0.0001,6.711,6.198*52
$GPGRS,083012.00,1,-0.3,-1.3,-0.2,-0.2,0.3,-0.2,1.1,-0.1,0.4,1.1,0.0,*6D
$GPGRS,083012.00,1,-2.0,-2.8,6.7,5.1,-3.8,-3.0,,,,,,*43
$GPGRS,083012.00,1,-0.8,-0.1,1.1,-0.4,0.2,-0.7,0.1,0.8,,,,*47
$GPGRS,083012.00,1,1.0,-0.0,0.9,-0.3,1.7,-0.6,1.4,-0.4,-1.1,-0.8,-0.3,-1.5*43
$GPGRS,083012.00,1,0.9,,,,,,,,,,,*61
$GPGSV,6,1,22,13,75,309,49,20,18,201,41,07,14,074,41,15,40,303,46*72
$GPGSV,6,2,22,05,42,229,47,22,58,159,,30,47,070,47,14,66,113,48*7A
$GPGSV,6,3,22,08,08,030,37,18,05,301,38,23,07,331,39,24,06,264,35*75
$GPGSV,6,4,22,17,08,132,38,36,35,170,44,58,13,245,36,40,23,133,35*70
$GPGSV,6,5,22,34,31,208,43,49,34,195,44,57,07,112,37,41,07,108,35*7B
$GPGSV,6,6,22,61,03,257,38*46
$GLGSV,2,1,08,65,84,212,49,72,27,147,45,74,24,041,41,66,37,322,49*61
$GLGSV,2,2,08,76,36,224,50,75,79,030,51,82,04,329,43,83,09,008,34*6F
$GAGSV,3,1,09,03,81,118,48,24,29,048,42,02,33,190,44,05,27,121,42*64
$GAGSV,3,2,09,16,52,067,,08,44,302,45,25,65,114,48,13,08,283,37*62
$GAGSV,3,3,09,26,07,332,36*55
$GBGSV,5,1,17,45,78,072,51,22,24,157,46,14,17,317,39,36,27,057,44*6F
$GBGSV,5,2,17,05,21,130,38,40,27,058,43,56,21,089,,24,37,218,*66
$GBGSV,5,3,17,07,27,067,40,42,42,306,47,10,31,081,41,26,41,233,47*65
$GBGSV,5,4,17,21,68,209,52,50,63,276,,02,04,109,33,09,08,076,36*65
$GBGSV,5,5,17,60,07,112,40*5A
$GPGGA,083012.00,,,,,0,00,,,M,,M,,*40
$PTNL,GGK,083012.00,010125,4742.1601556,N,01618.1002711,E,1,38,0.7,EHT751.3471,M*43
$GPGGQ,083012.00,010125,4742.1601556,N,01618.1002711,E,1,38,0.791,708.1406,M*3B
$GPGFA,083012.00,3.789,4.931,0.399,0.325,344.451,0.601,,VVV*02
$GPLLK,083012.00,010125,,M,,M,1,38,0.8,,M*00
$GNGMP,083012.00,,,,,DAAA,38,0.4,,,,*51
$GPGMP,083012.00,,,,,,11,,,,3.4,136*76
$GLGMP,083012.00,,,,,,06,,,,,*71
$GAGMP,083012.00,,,,,,08,,,,,*72
$GBGMP,083012.00,,,,,,13,,,,,*7B
$PSSN,SNC,[0,289830000,2347]*4C
$GPZDA,083017.00,01,01,2025,,*6E
$GPDTM,W84,,00.0000000,N,00.0000000,E,00.0000000,W84*5F
$PSSN,TFM,083017.00,,,,*62
$GPRMC,083017.00,A,4742.1601577,N,01618.1002677,E,0.0,,010125,5.1,E,D*1D
$GPGLL,4742.1601577,N,01618.1002677,E,083017.00,A,D*6C
$GPGGA,083017.00,4742.1601577,N,01618.1002677,E,2,37,0.4,708.1456,M,43.2066,M,2.7,0136*4C
$GNGNS,083017.00,4742.1601577,N,01618.1002677,E,DAAA,37,0.4,708.1456,43.2066,,*51
$GPGNS,083017.00,,,,,,10,,,,2.7,136*70
$GLGNS,083017.00,,,,,,06,,,,,*74
$GAGNS,083017.00,,,,,,08,,,,,*77
$GBGNS,083017.00,,,,,,13,,,,,*7E
$GPLLQ,083017.00,010125,,M,,M,1,37,0.843,,M*17
$GPVTG,,T,,M,0.00,N,0.00,K,D*26
$GPHDT,,T*1B
$GPTHS,,V*0E
$GPROT,,V*08
$PSSN,HRP,083017.00,010125,,,,,,,00,0,,*6C
$PTNL,AVR,083017.00,,Yaw,,Tilt,,,,0,,00*3A
$GPGSA,A,3,05,07,08,13,14,15,17,20,23,30,,,0.7,0.4,0.6*38
$GPGSA,A,3,65,66,72,74,75,76,,,,,,,0.7,0.4,0.6*31
$GPGSA,A,3,02,03,05,08,13,24,25,26,,,,,0.7,0.4,0.6*3C
$GPGSA,A,3,05,07,09,10,14,21,22,26,36,40,42,45,0.7,0.4,0.6*39
$GPGSA,A,3,60,,,,,,,,,,,,0.7,0.4,0.6*31
$GPGST,083017.00,1.889,0.398,0.352,345.282,0.396,0.355,0.655*57
$GPGBS,083017.00,2.536,1.972,3.717,72,0.0001,5.983,6.198*5A
$GPGRS,083017.00,1,-0.1,-1.3,-0.1,-0.2,0.3,-0.4,0.8,0.2,0.4,0.4,,*63
$GPGRS,083017.00,1,-1.7,-3.0,6.0,4.8,-3.3,-2.2,,,,,,*4C
$GPGRS,083017.00,1,-0.8,-0.0,0.9,-0.4,1.2,-0.8,0.5,0.7,,,,*4F
$GPGRS,083017.00,1,1.0,0.2,0.5,-0.1,2.1,-0.4,1.8,-0.5,-1.1,-0.8,0.1,-1.3*44
$GPGRS,083017.00,1,0.8,,,,,,,,,,,*65
$GPGSV,6,1,22,13,75,309,49,20,18,201,41,07,14,074,40,15,40,303,46*73
$GPGSV,6,2,22,05,41,229,47,22,58,159,,30,47,070,47,14,66,113,48*79
$GPGSV,6,3,22,08,08,030,38,18,05,301,38,23,07,331,39,24,06,264,35*7A
$GPGSV,6,4,22,17,08,132,38,36,35,170,44,58,13,245,36,40,23,133,35*70
$GPGSV,6,5,22,34,31,208,43,49,34,195,44,57,07,112,37,41,07,108,35*7B
$GPGSV,6,6,22,61,03,257,38*46
$GLGSV,2,1,08,65,84,212,49,72,27,147,45,74,24,041,41,66,37,322,50*69
$GLGSV,2,2,08,76,36,224,50,75,79,030,52,82,04,329,42,83,09,008,33*6A
$GAGSV,3,1,09,03,81,118,48,24,29,048,42,02,33,190,44,05,27,121,42*64
$GAGSV,3,2,09,16,52,067,,08,44,302,45,25,65,114,48,13,08,283,37*62
$GAGSV,3,3,09,26,07,332,37*54
$GBGSV,5,1,17,45,78,072,51,22,24,157,46,14,17,317,39,36,27,057,44*6F
$GBGSV,5,2,17,05,21,130,38,40,27,058,43,56,21,089,,24,37,218,*66
$GBGSV,5,3,17,07,27,067,40,42,42,306,47,10,31,081,41,26,41,233,47*65
$GBGSV,5,4,17,21,68,209,52,50,63,276,,02,04,109,33,09,08,076,36*65
$GBGSV,5,5,17,60,07,112,41*5B
$GPGGA,083017.00,,,,,0,00,,,M,,M,,*45
$PTNL,GGK,083017.00,010125,4742.1601577,N,01618.1002677,E,1,37,0.7,EHT751.3522,M*4C
$GPGGQ,083017.00,010125,4742.1601577,N,01618.1002677,E,1,37,0.843,708.1456,M*36
$GPGFA,083017.00,3.787,5.370,0.398,0.352,345.282,0.655,,VVV*0E
$GPLLK,083017.00,010125,,M,,M,1,37,0.8,,M*0A
$GNGMP,083017.00,,,,,DAAA,37,0.4,,,,*5B
$GPGMP,083017.00,,,,,,10,,,,2.7,136*70
$GLGMP,083017.00,,,,,,06,,,,,*74
$GAGMP,083017.00,,,,,,08,,,,,*77
$GBGMP,083017.00,,,,,,13,,,,,*7E
$PSSN,SNC,[0,289835000,2347]*49
$GPZDA,083022.00,01,01,2025,,*68
$GPDTM,W84,,00.0000000,N,00.0000000,E,00.0000000,W84*5F
$PSSN,TFM,083022.00,,,,*64
$GPRMC,083022.00,A,4742.1601590,N,01618.1002657,E,0.0,,010125,5.1,E,D*10
$GPGLL,4742.1601590,N,01618.1002657,E,083022.00,A,D*61
$GPGGA,083022.00,4742.1601590,N,01618.1002657,E,2,38,0.4,708.1557,M,43.2066,M,1.7,0136*4D
$GNGNS,083022.00,4742.1601590,N,01618.1002657,E,DAAA,38,0.4,708.1557,43.2066,,*53
$GPGNS,083022.00,,,,,,11,,,,1.7,136*74
$GLGNS,083022.00,,,,,,06,,,,,*72
$GAGNS,083022.00,,,,,,08,,,,,*71
$GBGNS,083022.00,,,,,,13,,,,,*78
$GPLLQ,083022.00,010125,,M,,M,1,38,0.788,,M*16
$GPVTG,,T,,M,0.00,N,0.00,K,D*26
$GPHDT,,T*1B
$GPTHS,,V*0E
$GPROT,,V*08
$PSSN,HRP,083022.00,010125,,,,,,,00,0,,*6A
$PTNL,AVR,083022.00,,Yaw,,Tilt,,,,0,,00*3C
$GPGSA,A,3,05,07,08,13,14,15,17,20,23,24,30,,0.7,0.4,0.6*3E
$GPGSA,A,3,65,66,72,74,75,76,,,,,,,0.7,0.4,0.6*31
$GPGSA,A,3,02,03,05,08,13,24,25,26,,,,,0.7,0.4,0.6*3C
$GPGSA,A,3,05,07,09,10,14,21,22,26,36,40,42,45,0.7,0.4,0.6*39
$GPGSA,A,3,60,,,,,,,,,,,,0.7,0.4,0.6*31
$GPGST,083022.00,1.789,0.393,0.326,346.144,0.390,0.331,0.600*58
$GPGBS,083022.00,2.350,1.648,3.509,24,0.0001,1.336,1.253*51
$GPGRS,083022.00,1,-0.2,-1.5,0.8,-0.0,-0.0,-0.4,0.7,-0.4,0.7,1.3,0.0,*67
$GPGRS,083022.00,1,-1.4,-2.4,6.1,4.3,-3.0,-2.2,,,,,,*45
$GPGRS,083022.00,1,-0.8,-0.1,0.8,-0.7,0.6,-0.7,0.3,0.6,,,,*47
$GPGRS,083022.00,1,0.6,0.1,0.5,-0.2,2.0,-0.6,1.4,-0.5,-1.0,-1.0,0.1,-1.5*44
$GPGRS,083022.00,1,1.0,,,,,,,,,,,*6A
$GPGSV,6,1,22,13,75,309,49,20,18,201,41,07,14,074,40,15,40,303,46*73
$GPGSV,6,2,22,05,41,229,47,22,58,159,,30,47,070,47,14,66,113,48*79
$GPGSV,6,3,22,08,08,030,38,18,05,301,37,23,07,331,39,24,06,264,35*75
$GPGSV,6,4,22,17,08,132,38,36,35,170,44,58,13,245,36,40,23,133,35*70
$GPGSV,6,5,22,34,31,208,42,49,34,195,44,57,07,112,37,41,07,108,35*7A
$GPGSV,6,6,22,61,03,257,38*46
$GLGSV,2,1,08,65,84,211,49,72,27,147,45,74,24,041,42,66,37,322,49*61
$GLGSV,2,2,08,76,36,224,50,75,79,030,52,82,04,329,43,83,09,008,33*6B
$GAGSV,3,1,09,03,81,119,48,24,29,048,42,02,33,190,44,05,27,121,42*65
$GAGSV,3,2,09,16,52,067,,08,44,302,45,25,65,114,48,13,08,283,37*62
$GAGSV,3,3,09,26,07,332,37*54
$GBGSV,5,1,17,45,78,072,51,22,24,157,46,14,17,317,39,36,27,057,44*6F
$GBGSV,5,2,17,05,21,130,38,40,27,058,43,56,21,089,,24,37,218,*66
$GBGSV,5,3,17,07,27,067,40,42,42,306,47,10,31,081,41,26,41,233,47*65
$GBGSV,5,4,17,21,68,209,52,50,64,276,,02,04,109,33,09,08,076,36*62
$GBGSV,5,5,17,60,07,112,41*5B
$GPGGA,083022.00,,,,,0,00,,,M,,M,,*43
$PTNL,GGK,083022.00,010125,4742.1601590,N,01618.1002657,E,1,38,0.7,EHT751.3623,M*4C
$GPGGQ,083022.00,010125,4742.1601590,N,01618.1002657,E,1,38,0.788,708.1557,M*3C
$GPGFA,083022.00,3.737,4.916,0.393,0.326,346.144,0.600,,VVV*0A
$GPLLK,083022.00,010125,,M,,M,1,38,0.8,,M*03
$GNGMP,083022.00,,,,,DAAA,38,0.4,,,,*52
$GPGMP,083022.00,,,,,,11,,,,1.7,136*74
$GLGMP,083022.00,,,,,,06,,,,,*72
$GAGMP,083022.00,,,,,,08,,,,,*71
$GBGMP,083022.00,,,,,,13,,,,,*78
$PSSN,SNC,[0,289840000,2347]*4B
$GPZDA,083027.00,01,01,2025,,*6D
$GPDTM,W84,,00.0000000,N,00.0000000,E,00.0000000,W84*5F
$PSSN,TFM,083027.00,,,,*61
$GPRMC,083027.00,A,4742.1601563,N,01618.1002662,E,0.0,,010125,5.1,E,D*1F
$GPGLL,4742.1601563,N,01618.1002662,E,083027.00,A,D*6E
$GPGGA,083027.00,4742.1601563,N,01618.1002662,E,2,38,0.4,708.1612,M,43.2066,M,2.4,0136*40
$GNGNS,083027.00,4742.1601563,N,01618.1002662,E,DAAA,38,0.4,708.1612,43.2066,,*5E
$GPGNS,083027.00,,,,,,11,,,,2.4,136*71
$GLGNS,083027.00,,,,,,06,,,,,*77
$GAGNS,083027.00,,,,,,08,,,,,*74
$GBGNS,083027.00,,,,,,13,,,,,*7D
$GPLLQ,083027.00,010125,,M,,M,1,38,0.782,,M*19
$GPVTG,,T,,M,0.00,N,0.01,K,D*27
$GPHDT,,T*1B
$GPTHS,,V*0E
$GPROT,,V*08
$PSSN,HRP,083027.00,010125,,,,,,,00,0,,*6F
$PTNL,AVR,083027.00,,Yaw,,Tilt,,,,0,,00*39
$GPGSA,A,3,05,07,08,13,14,15,17,20,23,24,30,,0.7,0.4,0.6*3E
$GPGSA,A,3,65,66,72,74,75,76,,,,,,,0.7,0.4,0.6*31
$GPGSA,A,3,02,03,05,08,13,24,25,26,,,,,0.7,0.4,0.6*3C
$GPGSA,A,3,05,07,09,10,14,21,22,26,36,40,42,45,0.7,0.4,0.6*39
$GPGSA,A,3,60,,,,,,,,,,,,0.7,0.4,0.6*31
$GPGST,083027.00,1.856,0.393,0.324,344.861,0.389,0.329,0.593*56
$GPGBS,083027.00,2.373,1.702,3.530,24,0.0001,1.231,1.259*5C
$GPGRS,083027.00,1,-0.5,-1.3,0.3,-0.1,0.0,-0.0,0.9,-0.3,0.7,1.2,0.0,*48
$GPGRS,083027.00,1,-1.5,-2.3,5.9,4.9,-3.6,-2.7,,,,,,*44
$GPGRS,083027.00,1,-0.8,-0.1,0.8,-0.3,0.3,-0.5,0.3,0.5,,,,*42
$GPGRS,083027.00,1,0.9,0.3,0.8,0.2,1.4,-0.5,1.8,-0.4,-1.1,-1.3,-0.1,-1.5*4A
$GPGRS,083027.00,1,0.8,,,,,,,,,,,*66
$GPGSV,6,1,22,13,75,309,49,20,18,201,41,07,14,074,40,15,40,303,47*72
$GPGSV,6,2,22,05,41,229,47,22,58,159,,30,47,070,47,14,66,113,48*79
$GPGSV,6,3,22,08,08,030,37,18,05,301,38,23,07,331,38,24,06,264,36*77
$GPGSV,6,4,22,17,08,132,39,36,35,170,44,58,13,245,36,40,23,133,35*71
$GPGSV,6,5,22,34,31,208,43,49,34,195,44,57,07,112,37,41,07,108,35*7B
$GPGSV,6,6,22,61,03,257,38*46
$GLGSV,2,1,08,65,84,211,48,72,27,147,44,74,24,041,42,66,37,322,50*69
$GLGSV,2,2,08,76,36,224,50,75,79,030,51,82,04,329,43,83,09,008,34*6F
$GAGSV,3,1,09,03,81,119,48,24,29,048,42,02,33,190,44,05,27,121,42*65
$GAGSV,3,2,09,16,52,067,,08,44,302,45,25,65,114,48,13,08,283,37*62
$GAGSV,3,3,09,26,07,332,37*54
$GBGSV,5,1,17,45,78,072,51,22,24,157,45,14,17,317,38,36,27,057,44*6D
$GBGSV,5,2,17,05,21,130,38,40,27,058,43,56,21,089,,24,37,218,*66
$GBGSV,5,3,17,07,27,067,40,42,42,306,47,10,31,081,41,26,41,233,47*65
$GBGSV,5,4,17,21,68,209,52,50,64,276,,02,04,109,33,09,08,076,36*62
$GBGSV,5,5,17,60,07,112,41*5B
$GPGGA,083027.00,,,,,0,00,,,M,,M,,*46
$PTNL,GGK,083027.00,010125,4742.1601563,N,01618.1002662,E,1,38,0.7,EHT751.3678,M*4D
$GPGGQ,083027.00,010125,4742.1601563,N,01618.1002662,E,1,38,0.782,708.1612,M*3B
$GPGFA,083027.00,3.738,4.863,0.393,0.324,344.861,0.593,,VVV*04
$GPLLK,083027.00,010125,,M,,M,1,38,0.8,,M*06
$GNGMP,083027.00,,,,,DAAA,38,0.4,,,,*57
$GPGMP,083027.00,,,,,,11,,,,2.4,136*71
$GLGMP,083027.00,,,,,,06,,,,,*77
$GAGMP,083027.00,,,,,,08,,,,,*74
$GBGMP,083027.00,,,,,,13,,,,,*7D
$PSSN,SNC,[0,289845000,2347]*4E
$GPZDA,083032.00,01,01,2025,,*69
$GPDTM,W84,,00.0000000,N,00.0000000,E,00.0000000,W84*5F
$PSSN,TFM,083032.00,,,,*65
$GPRMC,083032.00,A,4742.1601547,N,01618.1002661,E,0.0,,010125,5.1,E,D*1E
$GPGLL,4742.1601547,N,01618.1002661,E,083032.00,A,D*6F
$GPGGA,083032.00,4742.1601547,N,01618.1002661,E,2,37,0.4,708.1683,M,43.2066,M,3.3,0136*40
$GNGNS,083032.00,4742.1601547,N,01618.1002661,E,DAAA,37,0.4,708.1683,43.2066,,*58
$GPGNS,083032.00,,,,,,10,,,,3.3,136*72
$GLGNS,083032.00,,,,,,06,,,,,*73
$GAGNS,083032.00,,,,,,08,,,,,*70
$GBGNS,083032.00,,,,,,13,,,,,*79
$GPLLQ,083032.00,010125,,M,,M,1,37,0.837,,M*13
$GPVTG,,T,,M,0.01,N,0.01,K,D*26
$GPHDT,,T*1B
$GPTHS,,V*0E
$GPROT,,V*08
$PSSN,HRP,083032.00,010125,,,,,,,00,0,,*6B
$PTNL,AVR,083032.00,,Yaw,,Tilt,,,,0,,00*3D
$GPGSA,A,3,05,07,08,13,14,15,17,20,23,30,,,0.7,0.4,0.6*38
$GPGSA,A,3,65,66,72,74,75,76,,,,,,,0.7,0.4,0.6*31
$GPGSA,A,3,02,03,05,08,13,24,25,26,,,,,0.7,0.4,0.6*3C
$GPGSA,A,3,05,07,09,10,14,21,22,26,36,40,42,45,0.7,0.4,0.6*39
$GPGSA,A,3,60,,,,,,,,,,,,0.7,0.4,0.6*31
$GPGST,083032.00,1.868,0.398,0.349,344.115,0.394,0.353,0.649*50
$GPGBS,083032.00,2.502,1.947,3.728,72,0.0001,6.152,6.200*55
$GPGRS,083032.00,1,-0.5,-0.8,-0.0,-0.2,0.3,0.1,0.9,-0.6,0.6,0.1,,*6C
$GPGRS,083032.00,1,-1.6,-2.5,6.2,4.2,-3.6,-3.0,,,,,,*40
$GPGRS,083032.00,1,-1.1,-0.1,0.8,-0.2,0.7,-0.7,0.0,0.7,,,,*48
$GPGRS,083032.00,1,0.7,0.2,0.9,0.0,0.8,-0.6,1.8,-0.4,-1.1,-1.1,-0.1,-1.5*4E
$GPGRS,083032.00,1,0.9,,,,,,,,,,,*63
$GPGSV,6,1,22,13,75,309,49,20,18,201,41,07,13,074,40,15,40,303,47*75
$GPGSV,6,2,22,05,41,229,47,22,58,159,,30,47,070,47,14,66,113,48*79
$GPGSV,6,3,22,08,08,030,37,18,04,301,38,23,07,331,38,24,06,264,35*75
$GPGSV,6,4,22,17,08,132,39,36,35,170,44,58,13,245,36,40,23,133,35*71
$GPGSV,6,5,22,34,31,208,43,49,34,195,44,57,07,112,37,41,07,108,34*7A
$GPGSV,6,6,22,61,03,257,38*46
$GLGSV,2,1,08,65,84,211,49,72,27,147,44,74,24,041,41,66,37,322,49*63
$GLGSV,2,2,08,76,36,224,50,75,79,030,52,82,04,329,44,83,09,008,33*6C
$GAGSV,3,1,09,03,81,119,48,24,29,048,42,02,33,190,44,05,27,121,42*65
$GAGSV,3,2,09,16,52,067,,08,44,302,45,25,65,113,48,13,08,283,37*65
$GAGSV,3,3,09,26,07,331,37*57
$GBGSV,5,1,17,45,78,071,51,22,24,157,44,14,17,317,39,36,27,057,44*6E
$GBGSV,5,2,17,05,21,130,38,40,27,058,43,56,21,089,,24,37,218,*66
$GBGSV,5,3,17,07,27,067,40,42,42,306,48,10,31,081,41,26,41,233,48*65
$GBGSV,5,4,17,21,68,209,52,50,64,276,,02,04,109,33,09,08,076,35*61
$GBGSV,5,5,17,60,07,112,41*5B
$GPGGA,083032.00,,,,,0,00,,,M,,M,,*42
$PTNL,GGK,083032.00,010125,4742.1601547,N,01618.1002661,E,1,37,0.7,EHT751.3749,M*40
$GPGGQ,083032.00,010125,4742.1601547,N,01618.1002661,E,1,37,0.837,708.1683,M*3C
$GPGFA,083032.00,3.782,5.318,0.398,0.349,344.115,0.649,,VVV*09
$GPLLK,083032.00,010125,,M,,M,1,37,0.8,,M*0D
$GNGMP,083032.00,,,,,DAAA,37,0.4,,,,*5C
$GPGMP,083032.00,,,,,,10,,,,3.3,136*72
$GLGMP,083032.00,,,,,,06,,,,,*73
$GAGMP,083032.00,,,,,,08,,,,,*70
$GBGMP,083032.00,,,,,,13,,,,,*79
$PSSN,SNC,[0,289850000,2347]*4A
$GPZDA,083037.00,01,01,2025,,*6C
$GPDTM,W84,,00.0000000,N,00.0000000,E,00.0000000,W84*5F
$PSSN,TFM,083037.00,,,,*60
$GPRMC,083037.00,A,4742.1601525,N,01618.1002628,E,0.0,,010125,5.1,E,D*12
$GPGLL,4742.1601525,N,01618.1002628,E,083037.00,A,D*63
$GPGGA,083037.00,4742.1601525,N,01618.1002628,E,2,38,0.4,708.1735,M,43.2066,M,2.5,0136*48
$GNGNS,083037.00,4742.1601525,N,01618.1002628,E,DAAA,38,0.4,708.1735,43.2066,,*57
$GPGNS,083037.00,,,,,,11,,,,2.5,136*71
$GLGNS,083037.00,,,,,,06,,,,,*76
$GAGNS,083037.00,,,,,,08,,,,,*75
$GBGNS,083037.00,,,,,,13,,,,,*7C
$GPLLQ,083037.00,010125,,M,,M,1,38,0.796,,M*1D
$GPVTG,,T,,M,0.01,N,0.01,K,D*26
$GPHDT,,T*1B
$GPTHS,,V*0E
$GPROT,,V*08
$PSSN,HRP,083037.00,010125,,,,,,,00,0,,*6E
$PTNL,AVR,083037.00,,Yaw,,Tilt,,,,0,,00*38
$GPGSA,A,3,05,07,08,13,14,15,17,20,23,24,30,,0.7,0.4,0.6*3E
$GPGSA,A,3,65,66,72,74,75,76,,,,,,,0.7,0.4,0.6*31
$GPGSA,A,3,02,03,05,08,13,24,25,26,,,,,0.7,0.4,0.6*3C
$GPGSA,A,3,05,07,09,10,14,21,22,26,36,40,42,45,0.7,0.4,0.6*39
$GPGSA,A,3,60,,,,,,,,,,,,0.7,0.4,0.6*31
$GPGST,083037.00,1.824,0.398,0.328,345.361,0.394,0.333,0.606*57
$GPGBS,083037.00,2.418,1.718,3.539,72,0.0001,6.694,6.200*51
$GPGRS,083037.00,1,-0.5,-1.2,0.7,-0.1,0.2,-0.1,1.3,-0.7,0.8,0.9,0.2,*47
$GPGRS,083037.00,1,-1.4,-2.3,6.7,3.5,-3.5,-3.0,,,,,,*47
$GPGRS,083037.00,1,-0.6,-0.0,1.0,-0.1,0.5,-0.6,0.4,0.4,,,,*44
$GPGRS,083037.00,1,0.7,0.1,0.1,0.5,1.1,-0.5,1.5,-0.1,-1.1,-1.0,-0.3,-1.4*44
$GPGRS,083037.00,1,0.7,,,,,,,,,,,*68
$GPGSV,6,1,22,13,75,309,49,20,18,201,41,07,13,074,40,15,40,303,47*75
$GPGSV,6,2,22,05,41,229,47,22,58,159,,30,47,070,47,14,66,112,48*78
$GPGSV,6,3,22,08,08,030,38,18,04,301,38,23,07,331,39,24,06,264,37*79
$GPGSV,6,4,22,17,09,132,39,36,35,170,44,58,13,245,36,40,23,133,35*70
$GPGSV,6,5,22,34,31,208,42,49,34,195,44,57,07,112,37,41,07,108,35*7A
$GPGSV,6,6,22,61,03,257,38*46
$GLGSV,2,1,08,65,84,210,49,72,27,147,45,74,24,041,41,66,37,322,49*63
$GLGSV,2,2,08,76,37,224,49,75,79,030,51,82,04,329,43,83,09,008,33*61
$GAGSV,3,1,09,03,81,119,48,24,29,048,42,02,33,190,44,05,27,121,42*65
$GAGSV,3,2,09,16,52,067,,08,44,302,45,25,65,113,48,13,08,283,36*64
$GAGSV,3,3,09,26,07,331,37*57
$GBGSV,5,1,17,45,78,071,51,22,24,157,44,14,17,317,39,36,27,057,44*6E
$GBGSV,5,2,17,05,21,130,38,40,27,058,43,56,21,089,,24,37,219,*67
$GBGSV,5,3,17,07,27,067,40,42,42,306,48,10,31,081,41,26,41,233,48*65
$GBGSV,5,4,17,21,68,209,52,50,64,276,,02,04,109,33,09,08,076,35*61
$GBGSV,5,5,17,60,07,112,41*5B
$GPGGA,083037.00,,,,,0,00,,,M,,M,,*47
$PTNL,GGK,083037.00,010125,4742.1601525,N,01618.1002628,E,1,38,0.7,EHT751.3801,M*40
$GPGGQ,083037.00,010125,4742.1601525,N,01618.1002628,E,1,38,0.796,708.1735,M*37
$GPGFA,083037.00,3.786,4.968,0.398,0.328,345.361,0.606,,VVV*08
$GPLLK,083037.00,010125,,M,,M,1,38,0.8,,M*07
$GNGMP,083037.00,,,,,DAAA,38,0.4,,,,*56
$GPGMP,083037.00,,,,,,11,,,,2.5,136*71
$GLGMP,083037.00,,,,,,06,,,,,*76
$GAGMP,083037.00,,,,,,08,,,,,*75
$GBGMP,083037.00,,,,,,13,,,,,*7C
$PSSN,SNC,[0,289855000,2347]*4F
$GPZDA,083042.00,01,01,2025,,*6E
$GPDTM,W84,,00.0000000,N,00.0000000,E,00.0000000,W84*5F
$PSSN,TFM,083042.00,,,,*62
$GPRMC,083042.00,A,4742.1601497,N,01618.1002601,E,0.0,,010125,5.1,E,D*13
$GPGLL,4742.1601497,N,01618.1002601,E,083042.00,A,D*62
$GPGGA,083042.00,4742.1601497,N,01618.1002601,E,2,37,0.4,708.1821,M,43.2066,M,1.7,0136*4D
$GNGNS,083042.00,4742.1601497,N,01618.1002601,E,DAAA,37,0.4,708.1821,43.2066,,*53
$GPGNS,083042.00,,,,,,10,,,,1.7,136*73
$GLGNS,083042.00,,,,,,06,,,,,*74
$GAGNS,083042.00,,,,,,08,,,,,*77
$GBGNS,083042.00,,,,,,13,,,,,*7E
$GPLLQ,083042.00,010125,,M,,M,1,37,0.808,,M*18
$GPVTG,,T,,M,0.00,N,0.01,K,D*27
$GPHDT,,T*1B
$GPTHS,,V*0E
$GPROT,,V*08
$PSSN,HRP,083042.00,010125,,,,,,,00,0,,*6C
$PTNL,AVR,083042.00,,Yaw,,Tilt,,,,0,,00*3A
$GPGSA,A,3,05,07,08,13,14,15,17,20,23,30,,,0.7,0.4,0.6*38
$GPGSA,A,3,65,66,72,74,75,76,,,,,,,0.7,0.4,0.6*31
$GPGSA,A,3,02,03,05,08,13,24,25,26,,,,,0.7,0.4,0.6*3C
$GPGSA,A,3,05,07,09,10,14,21,22,26,36,40,42,45,0.7,0.4,0.6*39
$GPGSA,A,3,60,,,,,,,,,,,,0.7,0.4,0.6*31
$GPGST,083042.00,1.886,0.393,0.337,345.952,0.390,0.340,0.620*56
$GPGBS,083042.00,2.440,1.914,3.681,72,0.0001,6.763,6.200*55
$GPGRS,083042.00,1,-0.5,-1.0,0.6,-0.1,0.1,-0.4,0.7,-0.1,0.7,-0.0,,*44
$GPGRS,083042.00,1,-1.4,-2.4,6.8,4.5,-3.1,-2.6,,,,,,*49
$GPGRS,083042.00,1,-0.5,-0.0,0.9,-0.1,0.3,-0.5,0.7,0.3,,,,*4C
$GPGRS,083042.00,1,0.7,-0.3,0.6,0.5,1.9,-0.6,1.0,-0.1,-1.1,-1.2,-0.2,-1.3*64
$GPGRS,083042.00,1,1.0,,,,,,,,,,,*6C
$GPGSV,6,1,22,13,75,309,48,20,18,201,40,07,13,074,41,15,40,303,46*75
$GPGSV,6,2,22,05,41,229,47,22,58,159,,30,47,070,47,14,66,112,48*78
$GPGSV,6,3,22,08,08,030,37,18,04,301,39,23,07,331,38,24,06,264,35*74
$GPGSV,6,4,22,17,09,132,39,36,35,170,44,58,13,245,36,40,23,133,34*71
$GPGSV,6,5,22,34,31,208,42,49,34,195,44,57,07,112,37,41,07,108,34*7B
$GPGSV,6,6,22,61,03,257,38*46
$GLGSV,2,1,08,65,84,210,49,72,27,147,45,74,23,041,41,66,37,322,49*64
$GLGSV,2,2,08,76,37,224,50,75,79,030,52,82,04,329,43,83,09,008,33*6A
$GAGSV,3,1,09,03,81,119,48,24,29,048,42,02,33,190,44,05,27,121,42*65
$GAGSV,3,2,09,16,52,067,,08,44,302,45,25,65,113,48,13,08,283,36*64
$GAGSV,3,3,09,26,07,331,36*56
$GBGSV,5,1,17,45,78,071,51,22,24,157,44,14,17,317,39,36,27,057,44*6E
$GBGSV,5,2,17,05,21,130,38,40,27,058,43,56,21,089,,24,37,219,*67
$GBGSV,5,3,17,07,27,067,40,42,42,306,47,10,31,081,41,26,41,233,48*6A
$GBGSV,5,4,17,21,68,209,52,50,64,276,,02,04,109,33,09,08,076,35*61
$GBGSV,5,5,17,60,07,112,41*5B
$GPGGA,083042.00,,,,,0,00,,,M,,M,,*45
$PTNL,GGK,083042.00,010125,4742.1601497,N,01618.1002601,E,1,37,0.7,EHT751.3886,M*41
$GPGGQ,083042.00,010125,4742.1601497,N,01618.1002601,E,1,37,0.808,708.1821,M*3B
$GPGFA,083042.00,3.737,5.085,0.393,0.337,345.952,0.620,,VVV*00
$GPLLK,083042.00,010125,,M,,M,1,37,0.8,,M*0A
$GNGMP,083042.00,,,,,DAAA,37,0.4,,,,*5B
$GPGMP,083042.00,,,,,,10,,,,1.7,136*73
$GLGMP,083042.00,,,,,,06,,,,,*74
$GAGMP,083042.00,,,,,,08,,,,,*77
$GBGMP,083042.00,,,,,,13,,,,,*7E
$PSSN,SNC,[0,289860000,2347]*49
$GPZDA,083047.00,01,01,2025,,*6B
$GPDTM,W84,,00.0000000,N,00.0000000,E,00.0000000,W84*5F
$PSSN,TFM,083047.00,,,,*67
$GPRMC,083047.00,A,4742.1601495,N,01618.1002567,E,0.0,,010125,5.1,E,D*17
$GPGLL,4742.1601495,N,01618.1002567,E,083047.00,A,D*66
$GPGGA,083047.00,4742.1601495,N,01618.1002567,E,2,37,0.4,708.1883,M,43.2066,M,2.3,0136*46
$GNGNS,083047.00,4742.1601495,N,01618.1002567,E,DAAA,37,0.4,708.1883,43.2066,,*5F
$GPGNS,083047.00,,,,,,10,,,,2.3,136*71
$GLGNS,083047.00,,,,,,06,,,,,*71
$GAGNS,083047.00,,,,,,08,,,,,*72
$GBGNS,083047.00,,,,,,13,,,,,*7B
$GPLLQ,083047.00,010125,,M,,M,1,37,0.828,,M*1F
$GPVTG,,T,,M,0.00,N,0.00,K,D*26
$GPHDT,,T*1B
$GPTHS,,V*0E
$GPROT,,V*08
$PSSN,HRP,083047.00,010125,,,,,,,00,0,,*69
$PTNL,AVR,083047.00,,Yaw,,Tilt,,,,0,,00*3F
$GPGSA,A,3,05,07,08,13,14,15,17,20,23,30,,,0.7,0.4,0.6*38
$GPGSA,A,3,65,66,72,74,75,76,,,,,,,0.7,0.4,0.6*31
$GPGSA,A,3,02,03,05,08,13,24,25,26,,,,,0.7,0.4,0.6*3C
$GPGSA,A,3,05,07,09,10,14,21,22,26,36,40,42,45,0.7,0.4,0.6*39
$GPGSA,A,3,60,,,,,,,,,,,,0.7,0.4,0.6*31
$GPGST,083047.00,1.912,0.393,0.347,344.627,0.390,0.351,0.641*53
$GPGBS,083047.00,2.461,1.927,3.694,72,0.0001,6.379,6.201*59
$GPGRS,083047.00,1,-0.1,-1.3,0.3,-0.2,0.3,-0.3,0.9,-0.4,0.8,0.1,,*6D
$GPGRS,083047.00,1,-1.5,-2.4,6.4,4.9,-3.0,-2.4,,,,,,*4E
$GPGRS,083047.00,1,-0.7,0.0,1.0,-0.1,0.1,-0.5,0.7,0.3,,,,*6C
$GPGRS,083047.00,1,1.0,0.2,0.3,0.2,2.8,-0.4,1.2,-0.4,-0.8,-1.0,-0.1,-1.4*40
$GPGRS,083047.00,1,1.0,,,,,,,,,,,*69
$GPGSV,6,1,22,13,76,309,48,20,18,201,39,07,13,074,40,15,40,303,46*79
$GPGSV,6,2,22,05,41,229,47,22,58,159,,30,47,070,47,14,66,112,48*78
$GPGSV,6,3,22,08,08,030,36,18,04,301,38,23,07,330,38,24,06,264,35*75
$GPGSV,6,4,22,17,09,132,39,36,35,170,44,58,13,245,36,40,23,133,34*71
$GPGSV,6,5,22,34,31,208,42,49,34,195,44,57,07,112,37,41,07,108,34*7B
$GPGSV,6,6,22,61,03,257,38*46
$GLGSV,2,1,08,65,84,210,49,72,27,147,43,74,23,041,41,66,37,322,50*6A
$GLGSV,2,2,08,76,37,224,49,75,79,030,52,82,04,329,42,83,09,008,34*64
$GAGSV,3,1,09,03,81,119,48,24,29,048,42,02,33,191,44,05,27,121,42*64
$GAGSV,3,2,09,16,52,067,,08,44,302,45,25,65,113,48,13,08,283,37*65
$GAGSV,3,3,09,26,07,331,36*56
$GBGSV,5,1,17,45,78,071,51,22,24,157,45,14,17,317,39,36,27,057,44*6F
$GBGSV,5,2,17,05,21,130,38,40,27,058,44,56,21,089,,24,37,219,*60
$GBGSV,5,3,17,07,27,067,41,42,42,306,47,10,31,081,41,26,41,233,47*64
$GBGSV,5,4,17,21,68,209,52,50,64,276,,02,04,109,33,09,08,076,35*61
$GBGSV,5,5,17,60,07,112,41*5B
$GPGGA,083047.00,,,,,0,00,,,M,,M,,*40
$PTNL,GGK,083047.00,010125,4742.1601495,N,01618.1002567,E,1,37,0.7,EHT751.3949,M*47
$GPGGQ,083047.00,010125,4742.1601495,N,01618.1002567,E,1,37,0.828,708.1883,M*35
$GPGFA,083047.00,3.741,5.254,0.393,0.347,344.627,0.641,,VVV*06
$GPLLK,083047.00,010125,,M,,M,1,37,0.8,,M*0F
$GNGMP,083047.00,,,,,DAAA,37,0.4,,,,*5E
$GPGMP,083047.00,,,,,,10,,,,2.3,136*71
$GLGMP,083047.00,,,,,,06,,,,,*71
$GAGMP,083047.00,,,,,,08,,,,,*72
$GBGMP,083047.00,,,,,,13,,,,,*7B
$PSSN,SNC,[0,289865000,2347]*4C
$GPZDA,083052.00,01,01,2025,,*6F
$GPDTM,W84,,00.0000000,N,00.0000000,E,00.0000000,W84*5F
$PSSN,TFM,083052.00,,,,*63
$GPRMC,083052.00,A,4742.1601489,N,01618.1002578,E,0.0,,010125,5.1,E,D*10
$GPGLL,4742.1601489,N,01618.1002578,E,083052.00,A,D*61
$GPGGA,083052.00,4742.1601489,N,01618.1002578,E,2,38,0.4,708.1968,M,43.2066,M,3.4,0136*4C
$GNGNS,083052.00,4742.1601489,N,01618.1002578,E,DAAA,38,0.4,708.1968,43.2066,,*53
$GPGNS,083052.00,,,,,,11,,,,3.4,136*72
$GLGNS,083052.00,,,,,,06,,,,,*75
$GAGNS,083052.00,,,,,,08,,,,,*76
$GBGNS,083052.00,,,,,,13,,,,,*7F
$GPLLQ,083052.00,010125,,M,,M,1,38,0.789,,M*10
$GPVTG,,T,,M,0.00,N,0.01,K,D*27
$GPHDT,,T*1B
$GPTHS,,V*0E
$GPROT,,V*08
$PSSN,HRP,083052.00,010125,,,,,,,00,0,,*6D
$PTNL,AVR,083052.00,,Yaw,,Tilt,,,,0,,00*3B
$GPGSA,A,3,05,07,08,13,14,15,17,20,23,24,30,,0.7,0.4,0.6*3E
$GPGSA,A,3,65,66,72,74,75,76,,,,,,,0.7,0.4,0.6*31
$GPGSA,A,3,02,03,05,08,13,24,25,26,,,,,0.7,0.4,0.6*3C
$GPGSA,A,3,05,07,09,10,14,21,22,26,36,40,42,45,0.7,0.4,0.6*39
$GPGSA,A,3,60,,,,,,,,,,,,0.7,0.4,0.6*31
$GPGST,083052.00,1.852,0.397,0.325,345.164,0.393,0.331,0.599*50
$GPGBS,083052.00,2.381,1.718,3.555,24,0.0001,1.594,1.263*5A
$GPGRS,083052.00,1,-0.0,-1.3,0.7,-0.1,0.1,-0.4,0.4,-0.3,0.5,1.6,-0.2,*6A
$GPGRS,083052.00,1,-1.7,-2.5,6.2,4.0,-3.5,-3.1,,,,,,*47
$GPGRS,083052.00,1,-0.8,-0.2,0.8,-0.2,0.7,-0.5,0.4,0.5,,,,*41
$GPGRS,083052.00,1,0.6,0.7,0.6,0.0,1.7,-0.6,1.6,-0.3,-1.1,-1.4,-0.1,-1.5*41
$GPGRS,083052.00,1,0.9,,,,,,,,,,,*65
$GPGSV,6,1,22,13,76,309,49,20,18,201,40,07,13,074,40,15,40,303,46*76
$GPGSV,6,2,22,05,41,229,47,22,58,159,,30,47,070,47,14,66,112,48*78
$GPGSV,6,3,22,08,08,030,36,18,04,301,39,23,07,330,38,24,06,264,35*74
$GPGSV,6,4,22,17,09,132,39,36,35,170,44,58,13,245,36,40,23,133,35*70
$GPGSV,6,5,22,34,31,208,42,49,34,195,44,57,07,112,37,41,07,108,35*7A
$GPGSV,6,6,22,61,03,257,38*46
$GLGSV,2,1,08,65,84,209,49,72,27,147,44,74,23,041,41,66,37,322,49*6D
$GLGSV,2,2,08,76,37,224,49,75,79,030,51,82,04,329,42,83,09,008,34*67
$GAGSV,3,1,09,03,81,119,48,24,29,048,42,02,33,191,44,05,27,121,42*64
$GAGSV,3,2,09,16,52,067,,08,44,302,45,25,65,113,48,13,08,283,36*64
$GAGSV,3,3,09,26,07,331,35*55
$GBGSV,5,1,17,45,78,071,51,22,24,157,45,14,17,317,39,36,27,057,44*6F
$GBGSV,5,2,17,05,21,130,38,40,27,058,44,56,21,089,,24,37,219,*60
$GBGSV,5,3,17,07,27,067,41,42,42,306,48,10,31,081,41,26,41,233,47*6B
$GBGSV,5,4,17,21,68,209,52,50,64,276,,02,04,109,33,09,08,076,35*61
$GBGSV,5,5,17,60,07,112,41*5B
$GPGGA,083052.00,,,,,0,00,,,M,,M,,*44
$PTNL,GGK,083052.00,010125,4742.1601489,N,01618.1002578,E,1,38,0.7,EHT751.4033,M*4C
$GPGGQ,083052.00,010125,4742.1601489,N,01618.1002578,E,1,38,0.789,708.1968,M*3D
$GPGFA,083052.00,3.776,4.916,0.397,0.325,345.164,0.599,,VVV*0D
$GPLLK,083052.00,010125,,M,,M,1,38,0.8,,M*04
$GNGMP,083052.00,,,,,DAAA,38,0.4,,,,*55
$GPGMP,083052.00,,,,,,11,,,,3.4,136*72
$GLGMP,083052.00,,,,,,06,,,,,*75
$GAGMP,083052.00,,,,,,08,,,,,*76
$GBGMP,083052.00,,,,,,13,,,,,*7F
$PSSN,SNC,[0,289870000,2347]*48
$GPZDA,083057.00,01,01,2025,,*6A
$GPDTM,W84,,00.0000000,N,00.0000000,E,00.0000000,W84*5F
$PSSN,TFM,083057.00,,,,*66
$GPRMC,083057.00,A,4742.1601472,N,01618.1002608,E,0.0,,010125,5.1,E,D*15
$GPGLL,4742.1601472,N,01618.1002608,E,083057.00,A,D*64
$GPGGA,083057.00,4742.1601472,N,01618.1002608,E,2,38,0.4,708.2068,M,43.2066,M,2.5,0136*43
$GNGNS,083057.00,4742.1601472,N,01618.1002608,E,DAAA,38,0.4,708.2068,43.2066,,*5C
$GPGNS,083057.00,,,,,,11,,,,2.5,136*77
$GLGNS,083057.00,,,,,,06,,,,,*70
$GAGNS,083057.00,,,,,,08,,,,,*73
$GBGNS,083057.00,,,,,,13,,,,,*7A
$GPLLQ,083057.00,010125,,M,,M,1,38,0.823,,M*1A
$GPVTG,,T,,M,0.00,N,0.00,K,D*26
$GPHDT,,T*1B
$GPTHS,,V*0E
$GPROT,,V*08
$PSSN,HRP,083057.00,010125,,,,,,,00,0,,*68
$PTNL,AVR,083057.00,,Yaw,,Tilt,,,,0,,00*3E
$GPGSA,A,3,05,07,08,13,14,15,17,20,23,24,30,,0.7,0.4,0.6*3E
$GPGSA,A,3,65,66,72,74,75,76,,,,,,,0.7,0.4,0.6*31
$GPGSA,A,3,02,03,05,08,13,24,25,26,,,,,0.7,0.4,0.6*3C
$GPGSA,A,3,05,07,09,10,14,21,22,26,36,40,42,45,0.7,0.4,0.6*39
$GPGSA,A,3,60,,,,,,,,,,,,0.7,0.4,0.6*31
$GPGST,083057.00,2.036,0.412,0.340,346.147,0.408,0.345,0.627*57
$GPGBS,083057.00,2.395,1.718,3.526,24,0.0001,2.002,1.233*52
$GPGRS,083057.00,1,-0.5,-1.7,0.7,-0.0,-0.1,-0.4,0.4,-0.1,1.3,2.0,0.1,*6C
$GPGRS,083057.00,1,-1.8,-2.6,7.4,4.1,-3.9,-2.5,,,,,,*41
$GPGRS,083057.00,1,-1.0,-0.3,0.5,-0.4,0.6,-0.6,0.1,0.7,,,,*42
$GPGRS,083057.00,1,0.8,0.9,-0.2,-0.6,1.4,-0.6,1.2,-0.2,-1.1,-1.9,-0.2,-1.7*4C
$GPGRS,083057.00,1,0.7,,,,,,,,,,,*6E
$GPGSV,6,1,22,13,76,309,49,20,18,201,40,07,13,074,40,15,40,303,46*76
$GPGSV,6,2,22,05,41,229,47,22,58,159,,30,47,070,47,14,66,112,48*78
$GPGSV,6,3,22,08,08,030,37,18,04,301,37,23,07,330,38,24,06,264,36*78
$GPGSV,6,4,22,17,09,132,38,36,35,170,44,58,13,245,36,40,23,133,35*71
$GPGSV,6,5,22,34,31,208,42,49,34,195,44,57,07,112,37,41,07,108,34*7B
$GPGSV,6,6,22,61,03,257,38*46
$GLGSV,2,1,08,65,84,209,49,72,27,147,45,74,23,041,41,66,37,322,50*64
$GLGSV,2,2,08,76,37,224,50,75,79,030,52,82,04,329,43,83,09,008,33*6A
$GAGSV,3,1,09,03,81,119,48,24,29,048,42,02,33,191,44,05,27,121,42*64
$GAGSV,3,2,09,16,52,067,,08,44,302,45,25,65,113,48,13,08,283,37*65
$GAGSV,3,3,09,26,07,331,36*56
$GBGSV,5,1,17,45,78,071,50,22,24,157,45,14,17,317,39,36,27,057,44*6E
$GBGSV,5,2,17,05,21,130,38,40,27,058,44,56,21,089,,24,37,219,*60
$GBGSV,5,3,17,07,27,067,41,42,42,306,47,10,31,081,41,26,41,233,47*64
$GBGSV,5,4,17,21,68,209,52,50,64,276,,02,04,109,33,09,08,076,35*61
$GBGSV,5,5,17,60,07,112,41*5B
$GPGGA,083057.00,,,,,0,00,,,M,,M,,*41
$PTNL,GGK,083057.00,010125,4742.1601472,N,01618.1002608,E,1,38,0.7,EHT751.4133,M*48
$GPGGQ,083057.00,010125,4742.1601472,N,01618.1002608,E,1,38,0.823,708.2068,M*3D
$GPGFA,083057.00,3.913,5.139,0.412,0.340,346.147,0.627,,VVV*0C
$GPLLK,083057.00,010125,,M,,M,1,38,0.8,,M*01
$GNGMP,083057.00,,,,,DAAA,38,0.4,,,,*50
$GPGMP,083057.00,,,,,,11,,,,2.5,136*77
$GLGMP,083057.00,,,,,,06,,,,,*70
$GAGMP,083057.00,,,,,,08,,,,,*73
$GBGMP,083057.00,,,,,,13,,,,,*7A
$PSSN,SNC,[0,289875000,2347]*4D
$GPZDA,083102.00,01,01,2025,,*6B
$GPDTM,W84,,00.0000000,N,00.0000000,E,00.0000000,W84*5F
$PSSN,TFM,083102.00,,,,*67
$GPRMC,083102.00,A,4742.1601453,N,01618.1002637,E,0.0,,010125,5.1,E,D*1B
$GPGLL,4742.1601453,N,01618.1002637,E,083102.00,A,D*6A
$GPGGA,083102.00,4742.1601453,N,01618.1002637,E,2,38,0.4,708.2207,M,43.2066,M,1.7,0136*47
$GNGNS,083102.00,4742.1601453,N,01618.1002637,E,DAAA,38,0.4,708.2207,43.2066,,*59
$GPGNS,083102.00,,,,,,11,,,,1.7,136*77
$GLGNS,083102.00,,,,,,06,,,,,*71
$GAGNS,083102.00,,,,,,08,,,,,*72
$GBGNS,083102.00,,,,,,13,,,,,*7B
$GPLLQ,083102.00,010125,,M,,M,1,38,0.782,,M*1F
$GPVTG,,T,,M,0.00,N,0.01,K,D*27
$GPHDT,,T*1B
$GPTHS,,V*0E
$GPROT,,V*08
$PSSN,HRP,083102.00,010125,,,,,,,00,0,,*69
$PTNL,AVR,083102.00,,Yaw,,Tilt,,,,0,,00*3F
$GPGSA,A,3,05,07,08,13,14,15,17,20,23,24,30,,0.7,0.4,0.6*3E
$GPGSA,A,3,65,66,72,74,75,76,,,,,,,0.7,0.4,0.6*31
$GPGSA,A,3,02,03,05,08,13,24,25,26,,,,,0.7,0.4,0.6*3C
$GPGSA,A,3,05,07,09,10,14,21,22,26,36,40,42,45,0.7,0.4,0.6*39
$GPGSA,A,3,60,,,,,,,,,,,,0.7,0.4,0.6*31
$GPGST,083102.00,1.940,0.390,0.326,347.943,0.387,0.329,0.595*5D
$GPGBS,083102.00,2.296,1.644,3.473,24,0.0001,1.586,1.242*54
$GPGRS,083102.00,1,-0.7,-1.4,0.2,-0.1,0.1,-0.2,0.6,-0.0,1.0,1.6,-0.1,*6B
$GPGRS,083102.00,1,-1.3,-2.5,6.9,3.7,-3.3,-2.2,,,,,,*48
$GPGRS,083102.00,1,-1.0,-0.3,0.5,-0.4,0.4,-0.6,0.1,0.5,,,,*43
$GPGRS,083102.00,1,0.9,0.7,0.9,-1.2,3.2,-0.5,1.1,-0.2,-0.9,-2.2,-0.2,-1.6*65
$GPGRS,083102.00,1,0.6,,,,,,,,,,,*6E
$GPGSV,6,1,22,13,76,310,48,20,18,201,41,07,13,074,41,15,40,303,46*7F
$GPGSV,6,2,22,05,41,229,47,22,58,159,,30,47,070,47,14,66,112,48*78
$GPGSV,6,3,22,08,08,030,37,18,04,301,37,23,07,330,39,24,06,264,36*79
$GPGSV,6,4,22,17,09,132,38,36,35,170,44,58,13,245,36,40,23,133,35*71
$GPGSV,6,5,22,34,31,208,43,49,34,195,44,57,07,112,37,41,07,108,35*7B
$GPGSV,6,6,22,61,03,257,38*46
$GLGSV,2,1,08,65,84,208,49,72,27,147,45,74,23,041,41,66,38,322,51*6B
$GLGSV,2,2,08,76,37,224,49,75,79,030,52,82,04,329,42,83,09,008,33*63
$GAGSV,3,1,09,03,81,119,48,24,29,048,42,02,34,191,44,05,27,121,42*63
$GAGSV,3,2,09,16,52,067,,08,44,302,45,25,65,113,48,13,08,283,37*65
$GAGSV,3,3,09,26,07,331,37*57
$GBGSV,5,1,17,45,78,071,50,22,24,157,44,14,17,317,39,36,27,057,44*6F
$GBGSV,5,2,17,05,21,130,38,40,27,058,44,56,21,089,,24,37,219,*60
$GBGSV,5,3,17,07,27,067,41,42,42,306,48,10,31,081,41,26,41,233,48*64
$GBGSV,5,4,17,21,68,209,52,50,64,276,,02,04,109,33,09,08,076,36*62
$GBGSV,5,5,17,60,07,112,41*5B
$GPGGA,083102.00,,,,,0,00,,,M,,M,,*40
$PTNL,GGK,083102.00,010125,4742.1601453,N,01618.1002637,E,1,38,0.7,EHT751.4273,M*41
$GPGGQ,083102.00,010125,4742.1601453,N,01618.1002637,E,1,38,0.782,708.2207,M*3C
$GPGFA,083102.00,3.706,4.878,0.390,0.326,347.943,0.595,,VVV*00
$GPLLK,083102.00,010125,,M,,M,1,38,0.8,,M*00
$GNGMP,083102.00,,,,,DAAA,38,0.4,,,,*51
$GPGMP,083102.00,,,,,,11,,,,1.7,136*77
$GLGMP,083102.00,,,,,,06,,,,,*71
$GAGMP,083102.00,,,,,,08,,,,,*72
$GBGMP,083102.00,,,,,,13,,,,,*7B
$PSSN,SNC,[0,289880000,2347]*47
$GPZDA,083107.00,01,01,2025,,*6E
$GPDTM,W84,,00.0000000,N,00.0000000,E,00.0000000,W84*5F
$PSSN,TFM,083107.00,,,,*62
$GPRMC,083107.00,A,4742.1601429,N,01618.1002653,E,0.0,,010125,5.1,E,D*11
$GPGLL,4742.1601429,N,01618.1002653,E,083107.00,A,D*60
$GPGGA,083107.00,4742.1601429,N,01618.1002653,E,2,38,0.4,708.2288,M,43.2066,M,2.4,0136*4A
$GNGNS,083107.00,4742.1601429,N,01618.1002653,E,DAAA,38,0.4,708.2288,43.2066,,*54
$GPGNS,083107.00,,,,,,11,,,,2.4,136*72
$GLGNS,083107.00,,,,,,06,,,,,*74
$GAGNS,083107.00,,,,,,08,,,,,*77
$GBGNS,083107.00,,,,,,13,,,,,*7E
$GPLLQ,083107.00,010125,,M,,M,1,38,0.777,,M*10
$GPVTG,,T,,M,0.00,N,0.01,K,D*27
$GPHDT,,T*1B
$GPTHS,,V*0E
$GPROT,,V*08
$PSSN,HRP,083107.00,010125,,,,,,,00,0,,*6C
$PTNL,AVR,083107.00,,Yaw,,Tilt,,,,0,,00*3A
$GPGSA,A,3,05,07,08,13,14,15,17,20,23,24,30,,0.7,0.4,0.6*3E
$GPGSA,A,3,65,66,72,74,75,76,,,,,,,0.7,0.4,0.6*31
$GPGSA,A,3,02,03,05,08,13,24,25,26,,,,,0.7,0.4,0.6*3C
$GPGSA,A,3,05,07,09,10,14,21,22,26,36,40,42,45,0.7,0.4,0.6*39
$GPGSA,A,3,60,,,,,,,,,,,,0.7,0.4,0.6*31
$GPGST,083107.00,1.820,0.390,0.323,346.512,0.387,0.327,0.589*50
$GPGBS,083107.00,2.318,1.697,3.492,23,0.0001,1.469,1.217*50
$GPGRS,083107.00,1,-0.4,-1.5,-0.2,-0.2,0.2,-0.1,0.9,-0.3,1.5,0.8,-0.1,*44
$GPGRS,083107.00,1,-1.7,-2.1,5.7,3.9,-3.2,-2.8,,,,,,*45
$GPGRS,083107.00,1,-0.9,-0.3,0.9,-0.3,0.9,-0.3,0.0,0.1,,,,*48
$GPGRS,083107.00,1,0.4,0.8,1.7,-1.1,2.6,-0.4,1.0,-0.4,-1.0,-2.0,-0.1,-1.4*66
$GPGRS,083107.00,1,0.9,,,,,,,,,,,*64
$GPGSV,6,1,22,13,76,310,48,20,18,201,41,07,13,074,41,15,40,303,46*7F
$GPGSV,6,2,22,05,41,229,47,22,58,159,,30,47,070,47,14,66,112,48*78
$GPGSV,6,3,22,08,07,030,37,18,04,301,37,23,07,330,38,24,06,264,36*77
$GPGSV,6,4,22,17,09,132,38,36,35,170,44,58,13,245,36,40,23,133,35*71
$GPGSV,6,5,22,34,31,208,43,49,34,195,44,57,07,112,37,41,07,108,35*7B
$GPGSV,6,6,22,61,03,257,38*46
$GLGSV,2,1,08,65,84,208,49,72,27,147,44,74,23,041,40,66,38,322,50*6A
$GLGSV,2,2,08,76,37,224,50,75,78,030,52,82,04,329,42,83,09,008,34*6D
$GAGSV,3,1,09,03,81,119,48,24,29,048,42,02,34,191,44,05,27,121,42*63
$GAGSV,3,2,09,16,52,067,,08,44,302,45,25,65,113,48,13,08,283,37*65
$GAGSV,3,3,09,26,07,331,37*57
$GBGSV,5,1,17,45,78,071,50,22,24,157,44,14,17,317,39,36,27,057,44*6F
$GBGSV,5,2,17,05,21,130,38,40,27,058,44,56,21,089,,24,38,219,*6F
$GBGSV,5,3,17,07,27,067,41,42,42,306,48,10,31,081,40,26,41,233,47*6A
$GBGSV,5,4,17,21,68,208,52,50,64,275,,02,04,109,33,09,08,076,36*60
$GBGSV,5,5,17,60,07,112,41*5B
$GPGGA,083107.00,,,,,0,00,,,M,,M,,*45
$PTNL,GGK,083107.00,010125,4742.1601429,N,01618.1002653,E,1,38,0.7,EHT751.4353,M*48
$GPGGQ,083107.00,010125,4742.1601429,N,01618.1002653,E,1,38,0.777,708.2288,M*3B
$GPGFA,083107.00,3.709,4.829,0.390,0.323,346.512,0.589,,VVV*0F
$GPLLK,083107.00,010125,,M,,M,1,38,0.8,,M*05
$GNGMP,083107.00,,,,,DAAA,38,0.4,,,,*54
$GPGMP,083107.00,,,,,,11,,,,2.4,136*72
$GLGMP,083107.00,,,,,,06,,,,,*74
$GAGMP,083107.00,,,,,,08,,,,,*77
$GBGMP,083107.00,,,,,,13,,,,,*7E
$PSSN,SNC,[0,289885000,2347]*42
$GPZDA,083112.00,01,01,2025,,*6A
$GPDTM,W84,,00.0000000,N,00.0000000,E,00.0000000,W84*5F
$PSSN,TFM,083112.00,,,,*66
$GPRMC,083112.00,A,4742.1601413,N,01618.1002663,E,0.0,,010125,5.1,E,D*1F
$GPGLL,4742.1601413,N,01618.1002663,E,083112.00,A,D*6E
$GPGGA,083112.00,4742.1601413,N,01618.1002663,E,2,38,0.4,708.2380,M,43.2066,M,3.4,0136*4C
$GNGNS,083112.00,4742.1601413,N,01618.1002663,E,DAAA,38,0.4,708.2380,43.2066,,*53
$GPGNS,083112.00,,,,,,11,,,,3.4,136*77
$GLGNS,083112.00,,,,,,06,,,,,*70
$GAGNS,083112.00,,,,,,08,,,,,*73
$GBGNS,083112.00,,,,,,13,,,,,*7A
$GPLLQ,083112.00,010125,,M,,M,1,38,0.786,,M*1A
$GPVTG,,T,,M,0.01,N,0.01,K,D*26
$GPHDT,,T*1B
$GPTHS,,V*0E
$GPROT,,V*08
$PSSN,HRP,083112.00,010125,,,,,,,00,0,,*68
$PTNL,AVR,083112.00,,Yaw,,Tilt,,,,0,,00*3E
$GPGSA,A,3,05,07,08,13,14,15,17,20,23,24,30,,0.7,0.4,0.6*3E
$GPGSA,A,3,65,66,72,74,75,76,,,,,,,0.7,0.4,0.6*31
$GPGSA,A,3,02,03,05,08,13,24,25,26,,,,,0.7,0.4,0.6*3C
$GPGSA,A,3,05,07,09,10,14,21,22,26,36,40,42,45,0.7,0.4,0.6*39
$GPGSA,A,3,60,,,,,,,,,,,,0.7,0.4,0.6*31
$GPGST,083112.00,1.908,0.395,0.325,346.141,0.391,0.329,0.597*58
$GPGBS,083112.00,2.348,1.713,3.531,24,0.0001,1.614,1.257*5F
$GPGRS,083112.00,1,-0.3,-1.5,0.5,-0.2,0.2,-0.1,0.4,-0.2,0.8,1.6,-0.0,*63
$GPGRS,083112.00,1,-2.2,-3.4,6.2,4.1,-3.5,-2.5,,,,,,*40
$GPGRS,083112.00,1,-0.9,-0.1,0.9,-0.4,0.4,-0.5,-0.1,0.3,,,,*6C
$GPGRS,083112.00,1,1.1,0.2,0.9,-1.1,0.9,-0.5,0.9,-0.5,-1.1,-2.3,-0.2,-1.4*67
$GPGRS,083112.00,1,0.7,,,,,,,,,,,*6E
$GPGSV,6,1,22,13,76,310,48,20,18,201,40,07,13,074,40,15,40,303,46*7F
$GPGSV,6,2,22,05,41,229,46,22,58,159,,30,47,070,47,14,66,112,48*79
$GPGSV,6,3,22,08,07,030,37,18,04,301,38,23,07,330,38,24,06,264,36*78
$GPGSV,6,4,22,17,09,132,39,36,35,170,44,58,13,245,36,40,23,133,35*70
$GPGSV,6,5,22,34,31,208,42,49,34,195,44,57,07,112,37,41,07,108,34*7B
$GPGSV,6,6,22,61,03,257,38*46
$GLGSV,2,1,08,65,84,208,49,72,27,147,45,74,23,041,41,66,38,322,49*62
$GLGSV,2,2,08,76,37,224,50,75,78,030,52,82,04,329,41,83,09,008,34*6E
$GAGSV,3,1,09,03,81,119,48,24,29,048,42,02,34,191,44,05,27,121,41*60
$GAGSV,3,2,09,16,52,067,,08,44,302,45,25,65,113,48,13,08,283,37*65
$GAGSV,3,3,09,26,07,331,36*56
$GBGSV,5,1,17,45,78,071,50,22,24,157,45,14,17,317,38,36,27,057,44*6F
$GBGSV,5,2,17,05,21,130,38,40,27,058,43,56,21,089,,24,38,219,*68
$GBGSV,5,3,17,07,27,067,41,42,42,306,47,10,31,081,40,26,41,233,47*65
$GBGSV,5,4,17,21,68,208,52,50,64,275,,02,04,109,33,09,08,076,35*63
$GBGSV,5,5,17,60,07,112,41*5B
$GPGGA,083112.00,,,,,0,00,,,M,,M,,*41
$PTNL,GGK,083112.00,010125,4742.1601413,N,01618.1002663,E,1,38,0.7,EHT751.4446,M*45
$GPGGQ,083112.00,010125,4742.1601413,N,01618.1002663,E,1,38,0.786,708.2380,M*32
$GPGFA,083112.00,3.756,4.893,0.395,0.325,346.141,0.597,,VVV*0E
$GPLLK,083112.00,010125,,M,,M,1,38,0.8,,M*01
$GNGMP,083112.00,,,,,DAAA,38,0.4,,,,*50
$GPGMP,083112.00,,,,,,11,,,,3.4,136*77
$GLGMP,083112.00,,,,,,06,,,,,*70
$GAGMP,083112.00,,,,,,08,,,,,*73
$GBGMP,083112.00,,,,,,13,,,,,*7A
$PSSN,SNC,[0,289890000,2347]*46
$GPZDA,083117.00,01,01,2025,,*6F
$GPDTM,W84,,00.0000000,N,00.0000000,E,00.0000000,W84*5F
$PSSN,TFM,083117.00,,,,*63
$GPRMC,083117.00,A,4742.1601412,N,01618.1002681,E,0.0,,010125,5.1,E,D*17
$GPGLL,4742.1601412,N,01618.1002681,E,083117.00,A,D*66
$GPGGA,083117.00,4742.1601412,N,01618.1002681,E,2,38,0.4,708.2453,M,43.2066,M,2.5,0136*4D
$GNGNS,083117.00,4742.1601412,N,01618.1002681,E,DAAA,38,0.4,708.2453,43.2066,,*52
$GPGNS,083117.00,,,,,,11,,,,2.5,136*72
$GLGNS,083117.00,,,,,,06,,,,,*75
$GAGNS,083117.00,,,,,,08,,,,,*76
$GBGNS,083117.00,,,,,,13,,,,,*7F
$GPLLQ,083117.00,010125,,M,,M,1,38,0.791,,M*19
$GPVTG,,T,,M,0.00,N,0.01,K,D*27
$GPHDT,,T*1B
$GPTHS,,V*0E
$GPROT,,V*08
$PSSN,HRP,083117.00,010125,,,,,,,00,0,,*6D
$PTNL,AVR,083117.00,,Yaw,,Tilt,,,,0,,00*3B
$GPGSA,A,3,05,07,08,13,14,15,17,20,23,24,30,,0.7,0.4,0.6*3E
$GPGSA,A,3,65,66,72,74,75,76,,,,,,,0.7,0.4,0.6*31
$GPGSA,A,3,02,03,05,08,13,24,25,26,,,,,0.7,0.4,0.6*3C
$GPGSA,A,3,05,07,09,10,14,21,22,26,36,40,42,45,0.7,0.4,0.6*39
$GPGSA,A,3,60,,,,,,,,,,,,0.7,0.4,0.6*31
$GPGST,083117.00,1.844,0.395,0.328,347.093,0.392,0.331,0.602*53
$GPGBS,083117.00,2.363,1.713,3.505,07,0.0001,-1.515,1.594*72
$GPGRS,083117.00,1,-0.4,-1.5,0.3,-0.2,0.2,-0.1,0.2,-0.1,0.8,1.0,0.0,*49
$GPGRS,083117.00,1,-2.0,-2.9,5.8,4.6,-3.4,-2.3,,,,,,*42
$GPGRS,083117.00,1,-0.6,-0.3,0.8,-0.1,0.1,-0.8,0.0,0.7,,,,*40
$GPGRS,083117.00,1,0.7,-0.2,1.1,-0.9,0.2,-0.6,1.4,-0.5,-1.3,-2.3,-0.5,-1.4*49
$GPGRS,083117.00,1,0.6,,,,,,,,,,,*6A
$GPGSV,6,1,22,13,76,310,49,20,17,201,40,07,13,074,40,15,40,303,46*71
$GPGSV,6,2,22,05,41,229,46,22,58,159,,30,47,070,47,14,66,112,48*79
$GPGSV,6,3,22,08,07,030,36,18,04,301,38,23,07,330,38,24,06,264,36*79
$GPGSV,6,4,22,17,09,132,39,36,35,170,44,58,13,245,36,40,23,133,35*70
$GPGSV,6,5,22,34,31,208,42,49,34,195,44,57,07,112,37,41,07,108,35*7A
$GPGSV,6,6,22,61,03,257,38*46
$GLGSV,2,1,08,65,84,208,49,72,27,147,44,74,23,041,41,66,38,322,50*6B
$GLGSV,2,2,08,76,37,224,50,75,78,030,52,82,04,329,40,83,09,008,33*68
$GAGSV,3,1,09,03,81,119,48,24,29,048,42,02,34,191,44,05,27,121,42*63
$GAGSV,3,2,09,16,52,067,,08,44,302,45,25,65,113,48,13,08,283,37*65
$GAGSV,3,3,09,26,07,331,37*57
$GBGSV,5,1,17,45,78,071,51,22,24,157,45,14,17,317,39,36,26,057,44*6E
$GBGSV,5,2,17,05,21,130,38,40,27,058,43,56,21,089,,24,38,219,*68
$GBGSV,5,3,17,07,27,067,41,42,42,306,47,10,31,081,40,26,41,233,47*65
$GBGSV,5,4,17,21,68,208,52,50,64,275,,02,04,109,33,09,08,076,36*60
$GBGSV,5,5,17,60,07,112,41*5B
$GPGGA,083117.00,,,,,0,00,,,M,,M,,*44
$PTNL,GGK,083117.00,010125,4742.1601412,N,01618.1002681,E,1,38,0.7,EHT751.4518,M*47
$GPGGQ,083117.00,010125,4742.1601412,N,01618.1002681,E,1,38,0.791,708.2453,M*35
$GPGFA,083117.00,3.756,4.935,0.395,0.328,347.093,0.602,,VVV*0B
$GPLLK,083117.00,010125,,M,,M,1,38,0.8,,M*04
$GNGMP,083117.00,,,,,DAAA,38,0.4,,,,*55
$GPGMP,083117.00,,,,,,11,,,,2.5,136*72
$GLGMP,083117.00,,,,,,06,,,,,*75
$GAGMP,083117.00,,,,,,08,,,,,*76
$GBGMP,083117.00,,,,,,13,,,,,*7F
$PSSN,SNC,[0,289895000,2347]*43
$GPZDA,083122.00,01,01,2025,,*69
$GPDTM,W84,,00.0000000,N,00.0000000,E,00.0000000,W84*5F
$PSSN,TFM,083122.00,,,,*65
$GPRMC,083122.00,A,4742.1601402,N,01618.1002679,E,0.0,,010125,5.1,E,D*17
$GPGLL,4742.1601402,N,01618.1002679,E,083122.00,A,D*66
$GPGGA,083122.00,4742.1601402,N,01618.1002679,E,2,38,0.4,708.2522,M,43.2066,M,1.7,0136*4B
$GNGNS,083122.00,4742.1601402,N,01618.1002679,E,DAAA,38,0.4,708.2522,43.2066,,*55
$GPGNS,083122.00,,,,,,11,,,,1.7,136*75
$GLGNS,083122.00,,,,,,06,,,,,*73
$GAGNS,083122.00,,,,,,08,,,,,*70
$GBGNS,083122.00,,,,,,13,,,,,*79
$GPLLQ,083122.00,010125,,M,,M,1,38,0.785,,M*1A
$GPVTG,,T,,M,0.00,N,0.01,K,D*27
$GPHDT,,T*1B
$GPTHS,,V*0E
$GPROT,,V*08
$PSSN,HRP,083122.00,010125,,,,,,,00,0,,*6B
$PTNL,AVR,083122.00,,Yaw,,Tilt,,,,0,,00*3D
$GPGSA,A,3,05,07,08,13,14,15,17,20,23,24,30,,0.7,0.4,0.6*3E
$GPGSA,A,3,65,66,72,74,75,76,,,,,,,0.7,0.4,0.6*31
$GPGSA,A,3,02,03,05,08,13,24,25,26,,,,,0.7,0.4,0.6*3C
$GPGSA,A,3,05,07,09,10,14,21,22,26,36,40,42,45,0.7,0.4,0.6*39
$GPGSA,A,3,60,,,,,,,,,,,,0.7,0.4,0.6*31
$GPGST,083122.00,1.844,0.391,0.327,348.212,0.389,0.330,0.597*5E
$GPGBS,083122.00,2.289,1.648,3.474,23,0.0001,1.377,1.204*5E
