$GPZDA,001442.00,01,01,2025,,*60
$GPDTM,W84,,00.0000000,N,00.0000000,E,00.0000000,W84*5F
$PSSN,TFM,001442.00,,,,*6C
$GPRMC,001442.00,A,4742.1601213,N,01618.1004213,E,0.0,,010125,5.1,E,D*16
$GPGLL,4742.1601213,N,01618.1004213,E,001442.00,A,D*67
$GPGGA,001442.00,4742.1601213,N,01618.1004213,E,2,40,0.4,708.1584,M,43.2066,M,2.2,0136*4C
$GNGNS,001442.00,4742.1601213,N,01618.1004213,E,DAAA,40,0.4,708.1584,43.2066,,*54
$GPGNS,001442.00,,,,,,10,,,,2.2,136*7B
$GLGNS,001442.00,,,,,,08,,,,,*74
$GAGNS,001442.00,,,,,,10,,,,,*70
$GBGNS,001442.00,,,,,,12,,,,,*71
$GPLLQ,001442.00,010125,,M,,M,1,40,0.802,,M*1C
$GPVTG,,T,,M,0.00,N,0.01,K,D*27
$GPHDT,,T*1B
$GPTHS,,V*0E
$GPROT,,V*08
$PSSN,HRP,001442.00,010125,,,,,,,00,0,,*62
$PTNL,AVR,001442.00,,Yaw,,Tilt,,,,0,,00*34
$GPGSA,A,3,02,03,04,08,17,19,21,28,31,32,,,0.7,0.4,0.6*3E
$GPGSA,A,3,68,69,70,76,77,83,84,85,,,,,0.7,0.4,0.6*3A
$GPGSA,A,3,02,04,06,09,10,11,12,19,30,36,,,0.7,0.4,0.6*32
$GPGSA,A,3,05,06,09,16,19,20,29,30,32,35,39,60,0.7,0.4,0.6*33
$GPGST,001442.00,1.401,0.394,0.341,23.564,0.386,0.350,0.610*62
$GPGBS,001442.00,2.165,1.859,3.688,68,0.0001,4.879,6.142*50
$GPGRS,001442.00,1,-0.1,0.1,0.4,-0.4,0.0,-0.6,0.2,0.6,-0.5,-0.5,,*62
$GPGRS,001442.00,1,4.9,0.4,2.2,-1.6,-4.0,-2.6,-0.7,1.7,,,,*42
$GPGRS,001442.00,1,-0.1,-0.3,0.3,0.5,0.6,-0.3,-0.2,-0.4,-0.4,-0.0,,*63
$GPGRS,001442.00,1,1.6,0.1,0.8,-0.2,-0.0,-0.3,0.3,0.5,0.2,-0.6,0.1,-0.8*64
$GPGSV,6,1,21,02,87,167,50,28,20,094,40,04,15,198,40,31,11,121,39*7A
$GPGSV,6,2,21,08,16,182,40,32,30,049,45,17,31,308,44,03,55,266,48*72
$GPGSV,6,3,21,21,65,131,45,19,07,326,38,10,01,071,37,14,04,273,36*7E
$GPGSV,6,4,21,36,35,170,45,58,13,245,37,40,24,132,35,34,31,208,42*79
$GPGSV,6,5,21,49,34,195,43,57,10,109,36,41,07,108,34,61,03,257,37*7B
$GPGSV,6,6,21*7A
$GLGSV,2,1,08,84,87,059,40,83,22,139,37,70,19,220,36,85,33,322,49*68
$GLGSV,2,2,08,68,39,038,50,69,87,204,52,77,07,021,37,76,06,339,44*68
$GAGSV,3,1,10,11,80,091,44,09,33,186,43,02,10,281,37,19,24,044,37*6C
$GAGSV,3,2,10,12,27,116,37,06,52,164,47,36,45,304,45,10,51,113,46*6B
$GAGSV,3,3,10,04,62,114,47,30,07,330,37*6E
$GBGSV,5,1,18,29,67,267,51,30,40,162,48,22,15,219,,35,16,315,43*6A
$GBGSV,5,2,18,19,18,229,43,05,24,128,38,57,15,090,,39,26,058,42*63
$GBGSV,5,3,18,06,25,073,40,16,26,069,41,09,24,088,39,48,44,226,*63
$GBGSV,5,4,18,32,52,055,49,20,67,222,52,02,08,105,33,31,00,101,*62
$GBGSV,5,5,18,13,05,076,36,60,10,109,38*65
$GPGGA,001442.00,,,,,0,00,,,M,,M,,*4B
$PTNL,GGK,001442.00,010125,4742.1601213,N,01618.1004213,E,1,40,0.7,EHT751.3650,M*41
$GPGGQ,001442.00,010125,4742.1601213,N,01618.1004213,E,1,40,0.802,708.1584,M*36
$GPGFA,001442.00,3.743,5.005,0.394,0.341,23.564,0.610,,VVV*3A
$GPLLK,001442.00,010125,,M,,M,1,40,0.8,,M*04
$GNGMP,001442.00,,,,,DAAA,40,0.4,,,,*55
$GPGMP,001442.00,,,,,,10,,,,2.2,136*7B
$GLGMP,001442.00,,,,,,08,,,,,*74
$GAGMP,001442.00,,,,,,10,,,,,*70
$GBGMP,001442.00,,,,,,12,,,,,*71
$PSSN,SNC,[0,260100000,2347]*41
$GPZDA,001447.00,01,01,2025,,*65
$GPDTM,W84,,00.0000000,N,00.0000000,E,00.0000000,W84*5F
$PSSN,TFM,001447.00,,,,*69
$GPRMC,001447.00,A,4742.1601218,N,01618.1004206,E,0.0,,010125,5.1,E,D*1C
$GPGLL,4742.1601218,N,01618.1004206,E,001447.00,A,D*6D
$GPGGA,001447.00,4742.1601218,N,01618.1004206,E,2,40,0.4,708.1538,M,43.2066,M,2.0,0136*43
$GNGNS,001447.00,4742.1601218,N,01618.1004206,E,DAAA,40,0.4,708.1538,43.2066,,*59
$GPGNS,001447.00,,,,,,10,,,,2.0,136*7C
$GLGNS,001447.00,,,,,,08,,,,,*71
$GAGNS,001447.00,,,,,,10,,,,,*75
$GBGNS,001447.00,,,,,,12,,,,,*74
$GPLLQ,001447.00,010125,,M,,M,1,40,0.797,,M*1A
$GPVTG,,T,,M,0.00,N,0.01,K,D*27
$GPHDT,,T*1B
$GPTHS,,V*0E
$GPROT,,V*08
$PSSN,HRP,001447.00,010125,,,,,,,00,0,,*67
$PTNL,AVR,001447.00,,Yaw,,Tilt,,,,0,,00*31
$GPGSA,A,3,02,03,04,08,17,19,21,28,31,32,,,0.7,0.4,0.6*3E
$GPGSA,A,3,68,69,70,76,77,83,84,85,,,,,0.7,0.4,0.6*3A
$GPGSA,A,3,02,04,06,09,10,11,12,19,30,36,,,0.7,0.4,0.6*32
$GPGSA,A,3,05,06,09,16,19,20,29,30,32,35,39,60,0.7,0.4,0.6*33
$GPGST,001447.00,1.347,0.390,0.341,21.517,0.384,0.348,0.606*6C
$GPGBS,001447.00,2.190,1.827,3.751,68,0.0001,4.675,6.143*50
$GPGRS,001447.00,1,-0.1,0.0,0.3,-0.7,-0.1,-0.4,0.3,0.6,-0.3,-0.2,,*4C
$GPGRS,001447.00,1,4.7,0.6,0.5,-2.4,-3.4,-2.5,-0.0,1.9,,,,*46
$GPGRS,001447.00,1,0.0,-0.0,0.1,0.6,0.3,-0.3,-0.2,-0.9,-0.3,0.0,,*6A
$GPGRS,001447.00,1,1.4,0.7,1.6,0.2,-0.5,-0.3,0.2,0.4,0.0,-0.9,0.1,-0.9*4E
$GPGSV,6,1,21,02,87,167,50,28,20,094,40,04,15,198,40,31,11,121,39*7A
$GPGSV,6,2,21,08,16,182,40,32,30,049,44,17,31,308,44,03,55,266,48*73
$GPGSV,6,3,21,21,65,131,45,19,07,326,37,10,01,071,37,14,04,273,35*72
$GPGSV,6,4,21,36,35,170,45,58,13,245,37,40,24,132,35,34,31,208,42*79
$GPGSV,6,5,21,49,34,195,43,57,10,109,36,41,07,108,34,61,03,257,37*7B
$GPGSV,6,6,21*7A
$GLGSV,2,1,08,84,87,060,40,83,22,139,37,70,19,220,37,85,33,322,49*63
$GLGSV,2,2,08,68,39,038,49,69,87,204,52,77,07,021,37,76,06,338,43*66
$GAGSV,3,1,10,11,80,091,44,09,33,186,44,02,10,281,38,19,24,044,36*65
$GAGSV,3,2,10,12,27,116,38,06,52,164,47,36,45,304,45,10,51,113,46*64
$GAGSV,3,3,10,04,62,114,47,30,07,330,37*6E
$GBGSV,5,1,18,29,67,267,51,30,40,162,48,22,15,219,,35,16,315,43*6A
$GBGSV,5,2,18,19,18,229,42,05,24,128,38,57,15,090,,39,26,058,42*62
$GBGSV,5,3,18,06,25,073,40,16,26,069,41,09,24,088,40,48,44,227,*6C
$GBGSV,5,4,18,32,52,055,49,20,67,222,52,02,08,105,33,31,00,101,*62
$GBGSV,5,5,18,13,05,076,36,60,10,109,38*65
$GPGGA,001447.00,,,,,0,00,,,M,,M,,*4E
$PTNL,GGK,001447.00,010125,4742.1601218,N,01618.1004206,E,1,40,0.7,EHT751.3604,M*4A
$GPGGQ,001447.00,010125,4742.1601218,N,01618.1004206,E,1,40,0.797,708.1538,M*38
$GPGFA,001447.00,3.710,4.966,0.390,0.341,21.517,0.606,,VVV*31
$GPLLK,001447.00,010125,,M,,M,1,40,0.8,,M*01
$GNGMP,001447.00,,,,,DAAA,40,0.4,,,,*50
$GPGMP,001447.00,,,,,,10,,,,2.0,136*7C
$GLGMP,001447.00,,,,,,08,,,,,*71
$GAGMP,001447.00,,,,,,10,,,,,*75
$GBGMP,001447.00,,,,,,12,,,,,*74
$PSSN,SNC,[0,260105000,2347]*44
$GPZDA,001452.00,01,01,2025,,*61
$GPDTM,W84,,00.0000000,N,00.0000000,E,00.0000000,W84*5F
$PSSN,TFM,001452.00,,,,*6D
$GPRMC,001452.00,A,4742.1601212,N,01618.1004198,E,0.0,,010125,5.1,E,D*16
$GPGLL,4742.1601212,N,01618.1004198,E,001452.00,A,D*67
$GPGGA,001452.00,4742.1601212,N,01618.1004198,E,2,40,0.4,708.1534,M,43.2066,M,3.0,0136*44
$GNGNS,001452.00,4742.1601212,N,01618.1004198,E,DAAA,40,0.4,708.1534,43.2066,,*5F
$GPGNS,001452.00,,,,,,10,,,,3.0,136*79
$GLGNS,001452.00,,,,,,08,,,,,*75
$GAGNS,001452.00,,,,,,10,,,,,*71
$GBGNS,001452.00,,,,,,12,,,,,*70
$GPLLQ,001452.00,010125,,M,,M,1,40,0.805,,M*1A
$GPVTG,,T,,M,0.01,N,0.01,K,D*26
$GPHDT,,T*1B
$GPTHS,,V*0E
$GPROT,,V*08
$PSSN,HRP,001452.00,010125,,,,,,,00,0,,*63
$PTNL,AVR,001452.00,,Yaw,,Tilt,,,,0,,00*35
$GPGSA,A,3,02,03,04,08,17,19,21,28,31,32,,,0.7,0.4,0.6*3E
$GPGSA,A,3,68,69,70,76,77,83,84,85,,,,,0.7,0.4,0.6*3A
$GPGSA,A,3,02,04,06,09,10,11,12,19,30,36,,,0.7,0.4,0.6*32
$GPGSA,A,3,05,06,09,16,19,20,29,30,32,35,39,60,0.7,0.4,0.6*33
$GPGST,001452.00,1.442,0.391,0.344,19.440,0.386,0.350,0.614*6E
$GPGBS,001452.00,2.210,1.831,3.825,68,0.0001,4.806,6.143*5E
$GPGRS,001452.00,1,-0.1,-0.0,0.3,-0.7,0.1,0.2,0.1,0.8,-0.5,-0.2,,*69
$GPGRS,001452.00,1,4.8,0.6,0.2,-3.7,-3.3,-1.9,-0.0,2.1,,,,*4B
$GPGRS,001452.00,1,0.3,0.1,0.2,0.6,0.6,-0.3,-0.2,-0.8,-0.5,0.2,,*42
$GPGRS,001452.00,1,1.4,0.6,1.9,0.1,0.3,-0.2,0.0,0.6,0.4,-1.1,-0.1,-1.1*44
$GPGSV,6,1,21,02,87,167,50,28,20,094,41,04,15,198,39,31,11,121,39*75
$GPGSV,6,2,21,08,16,182,39,32,30,049,44,17,31,308,44,03,55,266,48*7D
$GPGSV,6,3,21,21,65,131,45,19,07,326,38,10,01,071,37,14,04,273,36*7E
$GPGSV,6,4,21,36,35,170,45,58,13,245,37,40,24,132,35,34,31,208,42*79
$GPGSV,6,5,21,49,34,195,43,57,10,109,36,41,07,108,34,61,03,257,37*7B
$GPGSV,6,6,21*7A
$GLGSV,2,1,08,84,87,062,40,83,22,139,37,70,19,220,37,85,33,322,49*61
$GLGSV,2,2,08,68,38,038,50,69,87,204,52,77,07,021,37,76,06,338,44*68
$GAGSV,3,1,10,11,80,091,44,09,33,186,44,02,10,281,38,19,24,044,36*65
$GAGSV,3,2,10,12,27,116,38,06,52,164,47,36,45,304,45,10,51,113,46*64
$GAGSV,3,3,10,04,62,114,47,30,07,330,37*6E
$GBGSV,5,1,18,29,67,267,51,30,40,162,48,22,15,219,,35,16,315,42*6B
$GBGSV,5,2,18,19,18,229,43,05,24,128,38,57,15,090,,39,26,058,42*63
$GBGSV,5,3,18,06,25,073,40,16,26,069,41,09,24,088,40,48,44,227,*6C
$GBGSV,5,4,18,32,52,055,49,20,67,222,52,02,08,105,33,31,00,101,*62
$GBGSV,5,5,18,13,05,076,36,60,10,109,38*65
$GPGGA,001452.00,,,,,0,00,,,M,,M,,*4A
$PTNL,GGK,001452.00,010125,4742.1601212,N,01618.1004198,E,1,40,0.7,EHT751.3599,M*47
$GPGGQ,001452.00,010125,4742.1601212,N,01618.1004198,E,1,40,0.805,708.1534,M*3A
$GPGFA,001452.00,3.715,5.037,0.391,0.344,19.440,0.614,,VVV*33
$GPLLK,001452.00,010125,,M,,M,1,40,0.8,,M*05
$GNGMP,001452.00,,,,,DAAA,40,0.4,,,,*54
$GPGMP,001452.00,,,,,,10,,,,3.0,136*79
$GLGMP,001452.00,,,,,,08,,,,,*75
$GAGMP,001452.00,,,,,,10,,,,,*71
$GBGMP,001452.00,,,,,,12,,,,,*70
$PSSN,SNC,[0,260110000,2347]*40
$GPZDA,001457.00,01,01,2025,,*64
$GPDTM,W84,,00.0000000,N,00.0000000,E,00.0000000,W84*5F
$PSSN,TFM,001457.00,,,,*68
$GPRMC,001457.00,A,4742.1601185,N,01618.1004170,E,0.0,,010125,5.1,E,D*18
$GPGLL,4742.1601185,N,01618.1004170,E,001457.00,A,D*69
$GPGGA,001457.00,4742.1601185,N,01618.1004170,E,2,40,0.4,708.1474,M,43.2066,M,2.8,0136*46
$GNGNS,001457.00,4742.1601185,N,01618.1004170,E,DAAA,40,0.4,708.1474,43.2066,,*54
$GPGNS,001457.00,,,,,,10,,,,2.8,136*75
$GLGNS,001457.00,,,,,,08,,,,,*70
$GAGNS,001457.00,,,,,,10,,,,,*74
$GBGNS,001457.00,,,,,,12,,,,,*75
$GPLLQ,001457.00,010125,,M,,M,1,40,0.811,,M*1A
$GPVTG,,T,,M,0.00,N,0.01,K,D*27
$GPHDT,,T*1B
$GPTHS,,V*0E
$GPROT,,V*08
$PSSN,HRP,001457.00,010125,,,,,,,00,0,,*66
$PTNL,AVR,001457.00,,Yaw,,Tilt,,,,0,,00*30
$GPGSA,A,3,02,03,04,08,17,19,21,28,31,32,,,0.7,0.4,0.6*3E
$GPGSA,A,3,68,69,70,76,77,83,84,85,,,,,0.7,0.4,0.6*3A
$GPGSA,A,3,02,04,06,09,10,11,12,19,30,36,,,0.7,0.4,0.6*32
$GPGSA,A,3,05,06,09,16,19,20,29,30,32,35,39,60,0.7,0.4,0.6*33
$GPGST,001457.00,1.530,0.394,0.345,22.210,0.388,0.352,0.619*61
$GPGBS,001457.00,2.196,1.802,3.639,28,0.0001,0.983,1.124*5F
$GPGRS,001457.00,1,-0.0,0.2,-0.0,-0.7,-0.2,0.1,0.4,1.0,-0.7,-0.1,,*4C
$GPGRS,001457.00,1,5.0,0.5,1.2,-3.1,-4.4,-1.8,-0.7,2.2,,,,*46
$GPGRS,001457.00,1,-0.1,0.1,0.3,0.3,0.7,-0.3,-0.1,-0.3,-0.4,0.0,,*66
$GPGRS,001457.00,1,1.5,0.1,1.8,-0.3,0.7,-0.1,0.0,0.3,0.3,-1.7,-0.2,-1.3*6B
$GPGSV,6,1,21,02,87,167,50,28,20,094,41,04,15,198,39,31,11,121,39*75
$GPGSV,6,2,21,08,16,182,39,32,30,049,44,17,31,308,45,03,55,266,48*7C
$GPGSV,6,3,21,21,65,131,45,19,07,326,37,10,01,071,37,14,04,273,36*71
$GPGSV,6,4,21,36,35,170,45,58,13,245,37,40,24,132,35,34,31,208,42*79
$GPGSV,6,5,21,49,34,195,43,57,10,109,36,41,07,108,34,61,03,257,37*7B
$GPGSV,6,6,21*7A
$GLGSV,2,1,08,84,87,062,40,83,22,139,37,70,19,220,37,85,33,322,49*61
$GLGSV,2,2,08,68,38,038,50,69,87,204,52,77,07,021,37,76,06,338,44*68
$GAGSV,3,1,10,11,80,091,44,09,33,186,44,02,10,281,38,19,24,044,36*65
$GAGSV,3,2,10,12,27,116,38,06,52,164,47,36,45,304,45,10,51,113,47*65
$GAGSV,3,3,10,04,62,114,47,30,07,330,37*6E
$GBGSV,5,1,18,20,67,222,52,35,16,315,42,57,15,090,,22,15,219,*61
$GBGSV,5,2,18,05,24,128,38,19,18,229,43,30,40,162,48,06,25,073,40*66
$GBGSV,5,3,18,09,24,088,40,39,26,058,42,16,26,069,41,48,44,227,*68
$GBGSV,5,4,18,32,52,055,49,29,67,267,51,13,05,076,37,31,00,101,*65
$GBGSV,5,5,18,02,08,105,33,60,10,109,38*68
$GPGGA,001457.00,,,,,0,00,,,M,,M,,*4F
$PTNL,GGK,001457.00,010125,4742.1601185,N,01618.1004170,E,1,40,0.7,EHT751.3540,M*4D
$GPGGQ,001457.00,010125,4742.1601185,N,01618.1004170,E,1,40,0.811,708.1474,M*34
$GPGFA,001457.00,3.749,5.075,0.394,0.345,22.210,0.619,,VVV*3B
$GPLLK,001457.00,010125,,M,,M,1,40,0.8,,M*00
$GNGMP,001457.00,,,,,DAAA,40,0.4,,,,*51
$GPGMP,001457.00,,,,,,10,,,,2.8,136*75
$GLGMP,001457.00,,,,,,08,,,,,*70
$GAGMP,001457.00,,,,,,10,,,,,*74
$GBGMP,001457.00,,,,,,12,,,,,*75
$PSSN,SNC,[0,260115000,2347]*45
$GPZDA,001502.00,01,01,2025,,*65
$GPDTM,W84,,00.0000000,N,00.0000000,E,00.0000000,W84*5F
$PSSN,TFM,001502.00,,,,*69
$GPRMC,001502.00,A,4742.1601192,N,01618.1004158,E,0.0,,010125,5.1,E,D*15
$GPGLL,4742.1601192,N,01618.1004158,E,001502.00,A,D*64
$GPGGA,001502.00,4742.1601192,N,01618.1004158,E,2,40,0.4,708.1416,M,43.2066,M,2.2,0136*45
$GNGNS,001502.00,4742.1601192,N,01618.1004158,E,DAAA,40,0.4,708.1416,43.2066,,*5D
$GPGNS,001502.00,,,,,,10,,,,2.2,136*7E
$GLGNS,001502.00,,,,,,08,,,,,*71
$GAGNS,001502.00,,,,,,10,,,,,*75
$GBGNS,001502.00,,,,,,12,,,,,*74
$GPLLQ,001502.00,010125,,M,,M,1,40,0.803,,M*18
$GPVTG,,T,,M,0.00,N,0.01,K,D*27
$GPHDT,,T*1B
$GPTHS,,V*0E
$GPROT,,V*08
$PSSN,HRP,001502.00,010125,,,,,,,00,0,,*67
$PTNL,AVR,001502.00,,Yaw,,Tilt,,,,0,,00*31
$GPGSA,A,3,02,03,04,08,17,19,21,28,31,32,,,0.7,0.4,0.6*3E
$GPGSA,A,3,68,69,70,76,77,83,84,85,,,,,0.7,0.4,0.6*3A
$GPGSA,A,3,02,04,06,09,10,11,12,19,30,36,,,0.7,0.4,0.6*32
$GPGSA,A,3,05,06,09,16,19,20,29,30,32,35,39,60,0.7,0.4,0.6*33
$GPGST,001502.00,1.357,0.394,0.340,23.883,0.386,0.350,0.611*67
$GPGBS,001502.00,2.165,1.850,3.694,68,0.0001,4.777,6.144*56
$GPGRS,001502.00,1,-0.2,0.2,0.2,-0.6,-0.3,0.2,0.2,0.5,-0.3,-0.3,,*67
$GPGRS,001502.00,1,4.8,0.5,0.9,-2.9,-3.9,-1.7,-0.6,1.4,,,,*4C
$GPGRS,001502.00,1,-0.6,-0.0,0.4,0.2,0.4,-0.3,0.1,-0.1,-0.7,-0.1,,*49
$GPGRS,001502.00,1,1.2,-0.1,0.7,-0.1,-0.1,-0.2,-0.0,0.5,0.4,-1.3,-0.2,-1.3*4C
$GPGSV,6,1,21,02,87,166,50,28,20,094,40,04,15,198,39,31,11,121,39*75
$GPGSV,6,2,21,08,16,182,39,32,30,049,44,17,31,308,45,03,55,266,48*7C
$GPGSV,6,3,21,21,65,131,45,19,07,326,37,10,01,071,37,14,04,273,36*71
$GPGSV,6,4,21,36,35,170,45,58,13,245,37,40,24,132,36,34,31,208,42*7A
$GPGSV,6,5,21,49,34,195,43,57,10,109,36,41,07,108,34,61,03,257,37*7B
$GPGSV,6,6,21*7A
$GLGSV,2,1,08,84,87,064,41,83,22,139,38,70,19,220,37,85,33,322,49*69
$GLGSV,2,2,08,68,38,038,49,69,87,204,52,77,07,021,38,76,06,338,43*68
$GAGSV,3,1,10,11,80,091,44,09,33,186,44,02,10,281,38,19,24,044,37*64
$GAGSV,3,2,10,12,27,116,38,06,52,164,47,36,45,304,45,10,51,113,47*65
$GAGSV,3,3,10,04,62,114,47,30,07,330,36*6F
$GBGSV,5,1,18,20,67,222,52,35,16,315,42,57,15,090,,22,15,219,*61
$GBGSV,5,2,18,05,24,128,38,19,18,229,44,30,40,162,48,06,25,073,39*6F
$GBGSV,5,3,18,09,24,088,40,39,26,058,42,16,26,069,41,48,44,227,*68
$GBGSV,5,4,18,32,52,055,49,29,67,267,51,13,05,076,36,31,00,101,*64
$GBGSV,5,5,18,02,08,105,33,60,10,109,38*68
$GPGGA,001502.00,,,,,0,00,,,M,,M,,*4E
$PTNL,GGK,001502.00,010125,4742.1601192,N,01618.1004158,E,1,40,0.7,EHT751.3482,M*4F
$GPGGQ,001502.00,010125,4742.1601192,N,01618.1004158,E,1,40,0.803,708.1416,M*3E
$GPGFA,001502.00,3.746,5.008,0.394,0.340,23.883,0.611,,VVV*33
$GPLLK,001502.00,010125,,M,,M,1,40,0.8,,M*01
$GNGMP,001502.00,,,,,DAAA,40,0.4,,,,*50
$GPGMP,001502.00,,,,,,10,,,,2.2,136*7E
$GLGMP,001502.00,,,,,,08,,,,,*71
$GAGMP,001502.00,,,,,,10,,,,,*75
$GBGMP,001502.00,,,,,,12,,,,,*74
$PSSN,SNC,[0,260120000,2347]*43
$GPZDA,001507.00,01,01,2025,,*60
$GPDTM,W84,,00.0000000,N,00.0000000,E,00.0000000,W84*5F
$PSSN,TFM,001507.00,,,,*6C
$GPRMC,001507.00,A,4742.1601190,N,01618.1004169,E,0.0,,010125,5.1,E,D*10
$GPGLL,4742.1601190,N,01618.1004169,E,001507.00,A,D*61
$GPGGA,001507.00,4742.1601190,N,01618.1004169,E,2,40,0.4,708.1432,M,43.2066,M,2.0,0136*44
$GNGNS,001507.00,4742.1601190,N,01618.1004169,E,DAAA,40,0.4,708.1432,43.2066,,*5E
$GPGNS,001507.00,,,,,,10,,,,2.0,136*79
$GLGNS,001507.00,,,,,,08,,,,,*74
$GAGNS,001507.00,,,,,,10,,,,,*70
$GBGNS,001507.00,,,,,,12,,,,,*71
$GPLLQ,001507.00,010125,,M,,M,1,40,0.797,,M*1F
$GPVTG,,T,,M,0.01,N,0.01,K,D*26
$GPHDT,,T*1B
$GPTHS,,V*0E
$GPROT,,V*08
$PSSN,HRP,001507.00,010125,,,,,,,00,0,,*62
$PTNL,AVR,001507.00,,Yaw,,Tilt,,,,0,,00*34
$GPGSA,A,3,02,03,04,08,17,19,21,28,31,32,,,0.7,0.4,0.6*3E
$GPGSA,A,3,68,69,70,76,77,83,84,85,,,,,0.7,0.4,0.6*3A
$GPGSA,A,3,02,04,06,09,10,11,12,19,30,36,,,0.7,0.4,0.6*32
$GPGSA,A,3,05,06,09,16,19,20,29,30,32,35,39,60,0.7,0.4,0.6*33
$GPGST,001507.00,1.382,0.390,0.341,21.876,0.384,0.348,0.606*6A
$GPGBS,001507.00,2.189,1.816,3.756,31,0.0001,-1.027,1.107*7A
$GPGRS,001507.00,1,-0.0,-0.2,0.9,-0.6,-0.0,0.6,0.0,0.6,-1.0,0.1,,*6D
$GPGRS,001507.00,1,4.4,0.6,0.2,-3.2,-4.2,-1.6,-0.7,1.5,,,,*4A
$GPGRS,001507.00,1,-0.2,-0.1,0.3,0.3,0.4,-0.3,0.5,-0.5,-0.2,0.1,,*67
$GPGRS,001507.00,1,1.4,0.1,0.7,0.0,-0.5,-0.1,0.1,0.6,0.3,-0.9,-0.3,-1.1*69
$GPGSV,6,1,21,02,87,166,50,28,20,094,41,04,15,198,40,31,11,121,39*7A
$GPGSV,6,2,21,08,16,182,39,32,30,049,44,17,31,308,45,03,55,266,48*7C
$GPGSV,6,3,21,21,65,131,45,19,07,326,38,10,01,071,37,14,04,273,36*7E
$GPGSV,6,4,21,36,35,170,45,58,13,245,37,40,24,132,36,34,31,208,42*7A
$GPGSV,6,5,21,49,34,195,43,57,10,109,36,41,07,108,34,61,03,257,37*7B
$GPGSV,6,6,21*7A
$GLGSV,2,1,08,84,87,065,40,83,22,139,37,70,19,220,36,85,33,322,49*67
$GLGSV,2,2,08,68,38,038,49,69,87,204,52,77,07,021,37,76,06,338,42*66
$GAGSV,3,1,10,11,80,091,44,09,33,186,44,02,10,281,37,19,24,044,37*6B
$GAGSV,3,2,10,12,27,116,38,06,52,164,47,36,45,304,45,10,51,113,47*65
$GAGSV,3,3,10,04,62,114,47,30,07,330,37*6E
$GBGSV,5,1,18,20,67,222,52,35,16,315,42,57,15,090,,22,15,219,*61
$GBGSV,5,2,18,05,24,128,38,19,18,229,44,30,40,162,48,06,25,073,39*6F
$GBGSV,5,3,18,09,24,088,39,39,26,058,43,16,26,069,41,48,44,227,*67
$GBGSV,5,4,18,32,52,055,48,29,67,267,51,13,05,076,36,31,00,101,*65
$GBGSV,5,5,18,02,08,105,33,60,10,109,38*68
$GPGGA,001507.00,,,,,0,00,,,M,,M,,*4B
$PTNL,GGK,001507.00,010125,4742.1601190,N,01618.1004169,E,1,40,0.7,EHT751.3497,M*4E
$GPGGQ,001507.00,010125,4742.1601190,N,01618.1004169,E,1,40,0.797,708.1432,M*3F
$GPGFA,001507.00,3.711,4.967,0.390,0.341,21.876,0.606,,VVV*3E
$GPLLK,001507.00,010125,,M,,M,1,40,0.8,,M*04
$GNGMP,001507.00,,,,,DAAA,40,0.4,,,,*55
$GPGMP,001507.00,,,,,,10,,,,2.0,136*79
$GLGMP,001507.00,,,,,,08,,,,,*74
$GAGMP,001507.00,,,,,,10,,,,,*70
$GBGMP,001507.00,,,,,,12,,,,,*71
$PSSN,SNC,[0,260125000,2347]*46
$GPZDA,001512.00,01,01,2025,,*64
$GPDTM,W84,,00.0000000,N,00.0000000,E,00.0000000,W84*5F
$PSSN,TFM,001512.00,,,,*68
$GPRMC,001512.00,A,4742.1601180,N,01618.1004152,E,0.0,,010125,5.1,E,D*1D
$GPGLL,4742.1601180,N,01618.1004152,E,001512.00,A,D*6C
$GPGGA,001512.00,4742.1601180,N,01618.1004152,E,2,40,0.4,708.1407,M,43.2066,M,3.0,0136*4E
$GNGNS,001512.00,4742.1601180,N,01618.1004152,E,DAAA,40,0.4,708.1407,43.2066,,*55
$GPGNS,001512.00,,,,,,10,,,,3.0,136*7C
$GLGNS,001512.00,,,,,,08,,,,,*70
$GAGNS,001512.00,,,,,,10,,,,,*74
$GBGNS,001512.00,,,,,,12,,,,,*75
$GPLLQ,001512.00,010125,,M,,M,1,40,0.805,,M*1F
$GPVTG,,T,,M,0.00,N,0.00,K,D*26
$GPHDT,,T*1B
$GPTHS,,V*0E
$GPROT,,V*08
$PSSN,HRP,001512.00,010125,,,,,,,00,0,,*66
$PTNL,AVR,001512.00,,Yaw,,Tilt,,,,0,,00*30
$GPGSA,A,3,02,03,04,08,17,19,21,28,31,32,,,0.7,0.4,0.6*3E
$GPGSA,A,3,68,69,70,76,77,83,84,85,,,,,0.7,0.4,0.6*3A
$GPGSA,A,3,02,04,06,09,10,11,12,19,30,36,,,0.7,0.4,0.6*32
$GPGSA,A,3,05,06,09,16,19,20,29,30,32,35,39,60,0.7,0.4,0.6*33
$GPGST,001512.00,1.408,0.391,0.344,19.824,0.386,0.350,0.614*6B
$GPGBS,001512.00,2.207,1.820,3.830,28,0.0001,1.060,1.113*52
$GPGRS,001512.00,1,-0.0,-0.1,0.7,-0.8,-0.5,0.9,0.1,1.1,-0.5,-0.1,,*4E
$GPGRS,001512.00,1,4.4,0.2,1.2,-3.8,-3.2,-2.0,-1.3,1.7,,,,*44
$GPGRS,001512.00,1,-0.0,-0.0,0.3,0.4,0.3,-0.3,0.3,-0.7,-0.6,0.1,,*60
$GPGRS,001512.00,1,1.5,-0.7,-0.1,0.2,-1.2,-0.3,0.2,0.2,0.2,-0.8,-0.4,-0.8*62
$GPGSV,6,1,21,02,87,166,50,28,20,094,41,04,15,198,40,31,11,121,39*7A
$GPGSV,6,2,21,08,16,182,39,32,30,049,44,17,31,308,45,03,55,266,48*7C
$GPGSV,6,3,21,21,65,131,45,19,07,326,39,10,01,071,37,14,04,273,36*7F
$GPGSV,6,4,21,36,35,170,45,58,13,245,37,40,24,132,36,34,31,208,41*79
$GPGSV,6,5,21,49,34,195,43,57,10,109,36,41,07,108,34,61,03,257,37*7B
$GPGSV,6,6,21*7A
$GLGSV,2,1,08,84,87,066,40,83,22,139,37,70,20,220,37,85,33,322,49*6F
$GLGSV,2,2,08,68,38,038,49,69,87,204,52,77,07,021,37,76,06,338,43*67
$GAGSV,3,1,10,11,80,091,44,09,33,186,44,02,10,281,38,19,24,044,37*64
$GAGSV,3,2,10,12,27,116,37,06,52,164,47,36,45,304,45,10,51,113,46*6B
$GAGSV,3,3,10,04,62,114,47,30,07,330,36*6F
$GBGSV,5,1,18,20,67,222,52,35,16,315,43,57,15,090,,22,15,219,*60
$GBGSV,5,2,18,05,24,128,38,19,18,229,43,30,40,162,48,06,25,073,39*68
$GBGSV,5,3,18,09,24,088,40,39,26,058,43,16,26,069,41,48,45,227,*68
$GBGSV,5,4,18,32,51,055,49,29,67,267,51,13,05,076,36,31,00,101,*67
$GBGSV,5,5,18,02,08,105,33,60,10,109,38*68
$GPGGA,001512.00,,,,,0,00,,,M,,M,,*4F
$PTNL,GGK,001512.00,010125,4742.1601180,N,01618.1004152,E,1,40,0.7,EHT751.3473,M*49
$GPGGQ,001512.00,010125,4742.1601180,N,01618.1004152,E,1,40,0.805,708.1407,M*30
$GPGFA,001512.00,3.716,5.038,0.391,0.344,19.824,0.614,,VVV*34
$GPLLK,001512.00,010125,,M,,M,1,40,0.8,,M*00
$GNGMP,001512.00,,,,,DAAA,40,0.4,,,,*51
$GPGMP,001512.00,,,,,,10,,,,3.0,136*7C
$GLGMP,001512.00,,,,,,08,,,,,*70
$GAGMP,001512.00,,,,,,10,,,,,*74
$GBGMP,001512.00,,,,,,12,,,,,*75
$PSSN,SNC,[0,260130000,2347]*42
$GPZDA,001517.00,01,01,2025,,*61
$GPDTM,W84,,00.0000000,N,00.0000000,E,00.0000000,W84*5F
$PSSN,TFM,001517.00,,,,*6D
$GPRMC,001517.00,A,4742.1601177,N,01618.1004149,E,0.0,,010125,5.1,E,D*1A
$GPGLL,4742.1601177,N,01618.1004149,E,001517.00,A,D*6B
$GPGGA,001517.00,4742.1601177,N,01618.1004149,E,2,40,0.4,708.1427,M,43.2066,M,2.8,0136*42
$GNGNS,001517.00,4742.1601177,N,01618.1004149,E,DAAA,40,0.4,708.1427,43.2066,,*50
$GPGNS,001517.00,,,,,,10,,,,2.8,136*70
$GLGNS,001517.00,,,,,,08,,,,,*75
$GAGNS,001517.00,,,,,,10,,,,,*71
$GBGNS,001517.00,,,,,,12,,,,,*70
$GPLLQ,001517.00,010125,,M,,M,1,40,0.811,,M*1F
$GPVTG,,T,,M,0.00,N,0.01,K,D*27
$GPHDT,,T*1B
$GPTHS,,V*0E
$GPROT,,V*08
$PSSN,HRP,001517.00,010125,,,,,,,00,0,,*63
$PTNL,AVR,001517.00,,Yaw,,Tilt,,,,0,,00*35
$GPGSA,A,3,02,03,04,08,17,19,21,28,31,32,,,0.7,0.4,0.6*3E
$GPGSA,A,3,68,69,70,76,77,83,84,85,,,,,0.7,0.4,0.6*3A
$GPGSA,A,3,02,04,06,09,10,11,12,19,30,36,,,0.7,0.4,0.6*32
$GPGSA,A,3,05,06,09,16,19,20,29,30,32,35,39,60,0.7,0.4,0.6*33
$GPGST,001517.00,1.549,0.394,0.344,22.533,0.387,0.352,0.619*62
$GPGBS,001517.00,2.193,1.791,3.646,04,0.0001,1.132,0.980*58
$GPGRS,001517.00,1,-0.3,0.0,1.1,-0.5,-0.2,0.7,0.1,0.8,-0.6,0.0,,*40
$GPGRS,001517.00,1,4.1,0.3,1.6,-3.3,-3.8,-4.4,-0.9,1.2,,,,*4C
$GPGRS,001517.00,1,-0.1,-0.2,0.2,0.4,0.5,-0.5,0.1,-0.9,0.0,0.1,,*40
$GPGRS,001517.00,1,1.6,-0.7,0.4,-0.1,-1.2,-0.4,0.1,0.7,0.3,-0.8,-0.6,-1.4*6D
$GPGSV,6,1,21,02,87,165,50,28,20,093,41,04,16,198,40,31,11,121,39*7D
$GPGSV,6,2,21,08,16,182,39,32,30,049,44,17,31,308,45,03,55,266,48*7C
$GPGSV,6,3,21,21,65,131,45,19,07,326,38,10,01,071,37,14,04,273,36*7E
$GPGSV,6,4,21,36,35,170,45,58,13,245,37,40,24,132,36,34,31,208,41*79
$GPGSV,6,5,21,49,34,195,43,57,10,109,36,41,07,108,34,61,03,257,37*7B
$GPGSV,6,6,21*7A
$GLGSV,2,1,08,84,87,067,40,83,22,139,37,70,20,220,36,85,33,322,49*6F
$GLGSV,2,2,08,68,38,038,49,69,87,204,52,77,07,021,38,76,06,338,42*69
$GAGSV,3,1,10,11,80,092,44,09,33,186,44,12,27,116,38,19,24,044,37*6F
$GAGSV,3,2,10,36,45,304,45,06,52,164,48,10,51,113,47,04,62,114,48*69
$GAGSV,3,3,10,30,07,330,36,02,10,281,38*6B
$GBGSV,5,1,18,20,67,222,52,35,16,315,43,57,15,090,,22,15,219,*60
$GBGSV,5,2,18,05,24,128,38,19,18,229,43,30,40,162,48,06,25,073,39*68
$GBGSV,5,3,18,09,24,088,40,39,26,058,43,16,26,069,41,48,45,227,*68
$GBGSV,5,4,18,32,51,055,49,29,67,267,51,13,05,076,36,31,00,101,*67
$GBGSV,5,5,18,02,08,105,33,60,10,109,38*68
$GPGGA,001517.00,,,,,0,00,,,M,,M,,*4A
$PTNL,GGK,001517.00,010125,4742.1601177,N,01618.1004149,E,1,40,0.7,EHT751.3492,M*41
$GPGGQ,001517.00,010125,4742.1601177,N,01618.1004149,E,1,40,0.811,708.1427,M*30
$GPGFA,001517.00,3.749,5.076,0.394,0.344,22.533,0.619,,VVV*3A
$GPLLK,001517.00,010125,,M,,M,1,40,0.8,,M*05
$GNGMP,001517.00,,,,,DAAA,40,0.4,,,,*54
$GPGMP,001517.00,,,,,,10,,,,2.8,136*70
$GLGMP,001517.00,,,,,,08,,,,,*75
$GAGMP,001517.00,,,,,,10,,,,,*71
$GBGMP,001517.00,,,,,,12,,,,,*70
$PSSN,SNC,[0,260135000,2347]*47
$GPZDA,001522.00,01,01,2025,,*67
$GPDTM,W84,,00.0000000,N,00.0000000,E,00.0000000,W84*5F
$PSSN,TFM,001522.00,,,,*6B
$GPRMC,001522.00,A,4742.1601201,N,01618.1004146,E,0.0,,010125,5.1,E,D*11
$GPGLL,4742.1601201,N,01618.1004146,E,001522.00,A,D*60
$GPGGA,001522.00,4742.1601201,N,01618.1004146,E,2,40,0.4,708.1442,M,43.2066,M,2.2,0136*40
$GNGNS,001522.00,4742.1601201,N,01618.1004146,E,DAAA,40,0.4,708.1442,43.2066,,*58
$GPGNS,001522.00,,,,,,10,,,,2.2,136*7C
$GLGNS,001522.00,,,,,,08,,,,,*73
$GAGNS,001522.00,,,,,,10,,,,,*77
$GBGNS,001522.00,,,,,,12,,,,,*76
$GPLLQ,001522.00,010125,,M,,M,1,40,0.802,,M*1B
$GPVTG,,T,,M,0.00,N,0.00,K,D*26
$GPHDT,,T*1B
$GPTHS,,V*0E
$GPROT,,V*08
$PSSN,HRP,001522.00,010125,,,,,,,00,0,,*65
$PTNL,AVR,001522.00,,Yaw,,Tilt,,,,0,,00*33
$GPGSA,A,3,02,03,04,08,17,19,21,28,31,32,,,0.7,0.4,0.6*3E
$GPGSA,A,3,68,69,70,76,77,83,84,85,,,,,0.7,0.4,0.6*3A
$GPGSA,A,3,02,04,06,09,10,11,12,19,30,36,,,0.7,0.4,0.6*32
$GPGSA,A,3,05,06,09,16,19,20,29,30,32,35,39,60,0.7,0.4,0.6*33
$GPGST,001522.00,1.400,0.394,0.340,24.128,0.385,0.349,0.611*64
$GPGBS,001522.00,2.162,1.840,3.699,04,0.0001,0.875,0.944*52
$GPGRS,001522.00,1,-0.1,-0.2,0.9,-0.1,-0.3,0.6,0.1,0.8,-0.8,-0.2,,*47
$GPGRS,001522.00,1,4.9,0.6,1.0,-2.5,-3.3,-2.7,-1.3,1.4,,,,*45
$GPGRS,001522.00,1,0.2,-0.1,0.2,0.3,0.5,-0.2,0.4,-0.6,-0.1,0.1,,*4D
$GPGRS,001522.00,1,1.2,-1.3,0.2,-0.1,-0.3,-0.1,-0.0,0.4,0.3,-1.5,-0.4,-1.2*4E
$GPGSV,6,1,21,02,87,165,50,28,20,093,41,04,16,198,40,31,11,121,40*73
$GPGSV,6,2,21,08,16,182,39,32,30,049,44,17,31,308,45,03,55,266,48*7C
$GPGSV,6,3,21,21,65,131,45,19,07,326,39,10,01,071,38,14,04,273,35*73
$GPGSV,6,4,21,36,35,170,45,58,13,245,37,40,24,132,36,34,31,208,42*7A
$GPGSV,6,5,21,49,34,195,43,57,10,109,36,41,07,108,34,61,03,257,37*7B
$GPGSV,6,6,21*7A
$GLGSV,2,1,08,84,87,069,40,83,22,139,36,70,20,220,37,85,33,322,49*61
$GLGSV,2,2,08,68,38,038,49,69,87,204,52,77,07,021,38,76,06,338,42*69
$GAGSV,3,1,10,11,80,092,44,09,34,186,44,12,27,116,39,19,24,044,37*69
$GAGSV,3,2,10,36,45,304,45,06,52,164,47,10,51,113,46,04,62,114,47*68
$GAGSV,3,3,10,30,07,329,37,02,10,281,37*6D
$GBGSV,5,1,18,20,67,222,52,35,16,315,42,57,15,090,,22,15,219,*61
$GBGSV,5,2,18,05,24,128,38,19,18,229,42,30,40,162,48,06,26,073,39*6A
$GBGSV,5,3,18,09,24,088,39,39,26,058,43,16,26,069,41,48,45,227,*66
$GBGSV,5,4,18,32,51,055,49,29,67,266,51,13,05,076,36,31,00,102,*65
$GBGSV,5,5,18,02,08,105,33,60,10,109,39*69
$GPGGA,001522.00,,,,,0,00,,,M,,M,,*4C
$PTNL,GGK,001522.00,010125,4742.1601201,N,01618.1004146,E,1,40,0.7,EHT751.3508,M*48
$GPGGQ,001522.00,010125,4742.1601201,N,01618.1004146,E,1,40,0.802,708.1442,M*3A
$GPGFA,001522.00,3.746,5.009,0.394,0.340,24.128,0.611,,VVV*3F
$GPLLK,001522.00,010125,,M,,M,1,40,0.8,,M*03
$GNGMP,001522.00,,,,,DAAA,40,0.4,,,,*52
$GPGMP,001522.00,,,,,,10,,,,2.2,136*7C
$GLGMP,001522.00,,,,,,08,,,,,*73
$GAGMP,001522.00,,,,,,10,,,,,*77
$GBGMP,001522.00,,,,,,12,,,,,*76
$PSSN,SNC,[0,260140000,2347]*45
$GPZDA,001527.00,01,01,2025,,*62
$GPDTM,W84,,00.0000000,N,00.0000000,E,00.0000000,W84*5F
$PSSN,TFM,001527.00,,,,*6E
$GPRMC,001527.00,A,4742.1601212,N,01618.1004120,E,0.0,,010125,5.1,E,D*16
$GPGLL,4742.1601212,N,01618.1004120,E,001527.00,A,D*67
$GPGGA,001527.00,4742.1601212,N,01618.1004120,E,2,40,0.4,708.1458,M,43.2066,M,2.0,0136*4E
$GNGNS,001527.00,4742.1601212,N,01618.1004120,E,DAAA,40,0.4,708.1458,43.2066,,*54
$GPGNS,001527.00,,,,,,10,,,,2.0,136*7B
$GLGNS,001527.00,,,,,,08,,,,,*76
$GAGNS,001527.00,,,,,,10,,,,,*72
$GBGNS,001527.00,,,,,,12,,,,,*73
$GPLLQ,001527.00,010125,,M,,M,1,40,0.797,,M*1D
$GPVTG,,T,,M,0.00,N,0.00,K,D*26
$GPHDT,,T*1B
$GPTHS,,V*0E
$GPROT,,V*08
$PSSN,HRP,001527.00,010125,,,,,,,00,0,,*60
$PTNL,AVR,001527.00,,Yaw,,Tilt,,,,0,,00*36
$GPGSA,A,3,02,03,04,08,17,19,21,28,31,32,,,0.7,0.4,0.6*3E
$GPGSA,A,3,68,69,70,76,77,83,84,85,,,,,0.7,0.4,0.6*3A
$GPGSA,A,3,02,04,06,09,10,11,12,19,30,36,,,0.7,0.4,0.6*32
$GPGSA,A,3,05,06,09,16,19,20,29,30,32,35,39,60,0.7,0.4,0.6*33
$GPGST,001527.00,1.371,0.390,0.340,22.185,0.384,0.348,0.606*63
$GPGBS,001527.00,2.186,1.807,3.761,68,0.0001,5.057,6.146*53
$GPGRS,001527.00,1,-0.0,0.1,0.6,-0.2,-0.3,-0.0,-0.0,0.5,-0.3,0.0,,*4F
$GPGRS,001527.00,1,5.1,0.6,0.3,-3.1,-3.2,-1.7,-1.0,1.3,,,,*48
$GPGRS,001527.00,1,-0.0,0.0,0.1,0.4,0.5,-0.4,0.2,-0.9,-0.3,-0.1,,*6F
$GPGRS,001527.00,1,1.4,-0.7,-0.2,-0.1,1.1,-0.2,0.2,0.4,0.1,-1.7,-0.7,-1.0*66
$GPGSV,6,1,21,02,87,165,50,28,20,093,41,04,16,198,40,31,11,121,39*7D
$GPGSV,6,2,21,08,16,182,39,32,30,049,44,17,31,308,44,03,55,267,48*7C
$GPGSV,6,3,21,21,65,131,45,19,07,326,39,10,01,071,38,14,04,273,35*73
$GPGSV,6,4,21,36,35,170,45,58,13,245,37,40,24,132,36,34,31,208,42*7A
$GPGSV,6,5,21,49,34,195,44,57,10,109,36,41,07,108,34,61,03,257,37*7C
$GPGSV,6,6,21*7A
$GLGSV,2,1,08,84,87,069,40,83,22,139,37,70,20,220,37,85,34,322,49*67
$GLGSV,2,2,08,68,38,038,49,69,87,204,52,77,07,021,37,76,06,338,42*66
$GAGSV,3,1,10,11,80,092,44,09,34,186,44,12,27,116,39,19,24,044,36*68
$GAGSV,3,2,10,36,45,304,45,06,52,164,47,10,51,113,46,04,62,114,47*68
$GAGSV,3,3,10,30,07,329,37,02,10,281,37*6D
$GBGSV,5,1,18,20,67,222,52,35,16,315,43,57,15,090,,22,15,219,*60
$GBGSV,5,2,18,05,24,128,38,19,18,229,43,30,39,162,48,06,26,073,39*65
$GBGSV,5,3,18,09,24,088,40,39,26,058,43,16,26,069,41,48,45,227,*68
$GBGSV,5,4,18,32,51,055,49,29,67,266,51,13,05,076,37,31,00,102,*64
$GBGSV,5,5,18,02,08,105,33,60,10,109,39*69
$GPGGA,001527.00,,,,,0,00,,,M,,M,,*49
$PTNL,GGK,001527.00,010125,4742.1601212,N,01618.1004120,E,1,40,0.7,EHT751.3524,M*41
$GPGGQ,001527.00,010125,4742.1601212,N,01618.1004120,E,1,40,0.797,708.1458,M*35
$GPGFA,001527.00,3.711,4.967,0.390,0.340,22.185,0.606,,VVV*3B
$GPLLK,001527.00,010125,,M,,M,1,40,0.8,,M*06
$GNGMP,001527.00,,,,,DAAA,40,0.4,,,,*57
$GPGMP,001527.00,,,,,,10,,,,2.0,136*7B
$GLGMP,001527.00,,,,,,08,,,,,*76
$GAGMP,001527.00,,,,,,10,,,,,*72
$GBGMP,001527.00,,,,,,12,,,,,*73
$PSSN,SNC,[0,260145000,2347]*40
$GPZDA,001532.00,01,01,2025,,*66
$GPDTM,W84,,00.0000000,N,00.0000000,E,00.0000000,W84*5F
$PSSN,TFM,001532.00,,,,*6A
$GPRMC,001532.00,A,4742.1601238,N,01618.1004141,E,0.0,,010125,5.1,E,D*1D
$GPGLL,4742.1601238,N,01618.1004141,E,001532.00,A,D*6C
$GPGGA,001532.00,4742.1601238,N,01618.1004141,E,2,40,0.4,708.1415,M,43.2066,M,3.0,0136*4D
$GNGNS,001532.00,4742.1601238,N,01618.1004141,E,DAAA,40,0.4,708.1415,43.2066,,*56
$GPGNS,001532.00,,,,,,10,,,,3.0,136*7E
$GLGNS,001532.00,,,,,,08,,,,,*72
$GAGNS,001532.00,,,,,,10,,,,,*76
$GBGNS,001532.00,,,,,,12,,,,,*77
$GPLLQ,001532.00,010125,,M,,M,1,40,0.805,,M*1D
$GPVTG,,T,,M,0.00,N,0.00,K,D*26
$GPHDT,,T*1B
$GPTHS,,V*0E
$GPROT,,V*08
$PSSN,HRP,001532.00,010125,,,,,,,00,0,,*64
$PTNL,AVR,001532.00,,Yaw,,Tilt,,,,0,,00*32
$GPGSA,A,3,02,03,04,08,17,19,21,28,31,32,,,0.7,0.4,0.6*3E
$GPGSA,A,3,68,69,70,76,77,83,84,85,,,,,0.7,0.4,0.6*3A
$GPGSA,A,3,02,04,06,09,10,11,12,19,30,36,,,0.7,0.4,0.6*32
$GPGSA,A,3,05,06,09,16,19,20,29,30,32,35,39,60,0.7,0.4,0.6*33
$GPGST,001532.00,1.504,0.391,0.344,20.165,0.386,0.350,0.615*63
$GPGBS,001532.00,2.206,1.811,3.835,68,0.0001,4.962,6.146*5B
$GPGRS,001532.00,1,-0.1,0.2,0.3,-0.1,-0.6,0.1,0.0,0.5,-0.4,-0.0,,*61
$GPGRS,001532.00,1,5.0,0.4,1.5,-3.3,-4.0,-1.6,-1.2,2.2,,,,*4E
$GPGRS,001532.00,1,-0.1,-0.0,-0.1,0.4,0.5,-0.5,-0.1,-0.9,-0.3,-0.0,,*44
$GPGRS,001532.00,1,1.7,-0.5,0.0,-0.4,1.1,-0.5,0.0,0.6,0.3,-1.0,-0.9,-1.5*40
$GPGSV,6,1,21,02,87,164,50,28,20,093,41,04,16,198,40,31,11,121,40*72
$GPGSV,6,2,21,08,15,182,39,32,30,049,44,17,31,308,44,03,55,267,48*7F
$GPGSV,6,3,21,21,65,131,45,19,07,326,38,10,01,071,37,14,04,273,36*7E
$GPGSV,6,4,21,36,35,170,45,58,13,245,37,40,24,132,36,34,31,208,42*7A
$GPGSV,6,5,21,49,34,195,44,57,10,109,36,41,07,108,34,61,03,257,37*7C
$GPGSV,6,6,21*7A
$GLGSV,2,1,08,84,87,071,40,83,22,139,37,70,20,220,37,85,34,322,49*6E
$GLGSV,2,2,08,68,38,038,49,69,87,204,52,77,07,021,37,76,06,338,43*67
$GAGSV,3,1,10,11,80,092,44,09,34,186,44,12,26,116,39,19,24,044,37*68
$GAGSV,3,2,10,36,45,304,45,06,52,164,47,10,51,113,46,04,62,114,47*68
$GAGSV,3,3,10,30,07,329,37,02,10,281,37*6D
$GBGSV,5,1,18,20,67,222,52,35,16,315,43,57,15,090,,22,15,219,*60
$GBGSV,5,2,18,05,24,128,38,19,18,229,44,30,39,162,48,06,26,073,39*62
$GBGSV,5,3,18,09,24,088,39,39,26,058,43,16,26,069,41,48,45,227,*66
$GBGSV,5,4,18,32,51,055,49,29,67,266,51,13,05,077,37,31,00,102,*65
$GBGSV,5,5,18,02,08,105,33,60,10,109,39*69
$GPGGA,001532.00,,,,,0,00,,,M,,M,,*4D
$PTNL,GGK,001532.00,010125,4742.1601238,N,01618.1004141,E,1,40,0.7,EHT751.3481,M*44
$GPGGQ,001532.00,010125,4742.1601238,N,01618.1004141,E,1,40,0.805,708.1415,M*33
$GPGFA,001532.00,3.716,5.039,0.391,0.344,20.165,0.615,,VVV*30
$GPLLK,001532.00,010125,,M,,M,1,40,0.8,,M*02
$GNGMP,001532.00,,,,,DAAA,40,0.4,,,,*53
$GPGMP,001532.00,,,,,,10,,,,3.0,136*7E
$GLGMP,001532.00,,,,,,08,,,,,*72
$GAGMP,001532.00,,,,,,10,,,,,*76
$GBGMP,001532.00,,,,,,12,,,,,*77
$PSSN,SNC,[0,260150000,2347]*44
$GPZDA,001537.00,01,01,2025,,*63
$GPDTM,W84,,00.0000000,N,00.0000000,E,00.0000000,W84*5F
$PSSN,TFM,001537.00,,,,*6F
$GPRMC,001537.00,A,4742.1601262,N,01618.1004111,E,0.0,,010125,5.1,E,D*12
$GPGLL,4742.1601262,N,01618.1004111,E,001537.00,A,D*63
$GPGGA,001537.00,4742.1601262,N,01618.1004111,E,2,40,0.4,708.1451,M,43.2066,M,2.8,0136*4B
$GNGNS,001537.00,4742.1601262,N,01618.1004111,E,DAAA,40,0.4,708.1451,43.2066,,*59
$GPGNS,001537.00,,,,,,10,,,,2.8,136*72
$GLGNS,001537.00,,,,,,08,,,,,*77
$GAGNS,001537.00,,,,,,10,,,,,*73
$GBGNS,001537.00,,,,,,12,,,,,*72
$GPLLQ,001537.00,010125,,M,,M,1,40,0.811,,M*1D
$GPVTG,,T,,M,0.00,N,0.01,K,D*27
$GPHDT,,T*1B
$GPTHS,,V*0E
$GPROT,,V*08
$PSSN,HRP,001537.00,010125,,,,,,,00,0,,*61
$PTNL,AVR,001537.00,,Yaw,,Tilt,,,,0,,00*37
$GPGSA,A,3,02,03,04,08,17,19,21,28,31,32,,,0.7,0.4,0.6*3E
$GPGSA,A,3,68,69,70,76,77,83,84,85,,,,,0.7,0.4,0.6*3A
$GPGSA,A,3,02,04,06,09,10,11,12,19,30,36,,,0.7,0.4,0.6*32
$GPGSA,A,3,05,06,09,16,19,20,29,30,32,35,39,60,0.7,0.4,0.6*33
$GPGST,001537.00,1.429,0.394,0.344,22.853,0.387,0.352,0.619*6C
$GPGBS,001537.00,2.191,1.781,3.652,68,0.0001,4.818,6.147*57
$GPGRS,001537.00,1,-0.2,-0.1,0.7,-0.2,-0.3,0.2,0.2,0.5,-0.3,0.0,,*60
$GPGRS,001537.00,1,4.8,0.5,1.2,-3.0,-3.8,-2.7,0.3,1.4,,,,*62
$GPGRS,001537.00,1,0.2,-0.0,0.1,0.2,0.4,-0.5,0.0,-0.5,-0.4,-0.1,,*63
$GPGRS,001537.00,1,1.3,-0.2,0.4,-0.2,0.1,-0.5,0.0,0.3,0.1,-1.6,-0.8,-1.6*46
$GPGSV,6,1,21,02,87,164,50,28,20,093,40,04,16,198,40,31,11,121,39*7D
$GPGSV,6,2,21,08,15,182,40,32,30,049,45,17,31,308,44,03,55,267,48*70
$GPGSV,6,3,21,21,65,131,45,19,07,326,37,10,01,071,36,14,04,273,36*70
$GPGSV,6,4,21,36,35,170,45,58,13,245,37,40,24,132,36,34,31,208,42*7A
$GPGSV,6,5,21,49,34,195,43,57,10,109,36,41,07,108,34,61,03,257,37*7B
$GPGSV,6,6,21*7A
$GLGSV,2,1,08,84,87,072,41,83,22,139,36,70,20,220,37,85,34,322,49*6D
$GLGSV,2,2,08,68,38,038,49,69,87,205,52,77,07,021,36,76,06,338,43*67
$GAGSV,3,1,10,11,80,092,44,09,34,186,44,12,26,116,39,19,24,044,36*69
$GAGSV,3,2,10,36,45,304,45,06,53,164,47,10,51,113,46,04,62,113,47*6E
$GAGSV,3,3,10,30,07,329,36,02,10,281,37*6C
$GBGSV,5,1,18,20,67,222,52,35,16,315,42,57,15,090,,22,15,219,*61
$GBGSV,5,2,18,05,24,128,38,19,18,229,43,30,39,162,48,06,26,073,39*65
$GBGSV,5,3,18,09,24,088,40,39,26,058,43,16,26,069,41,48,45,227,*68
$GBGSV,5,4,18,32,51,055,49,29,67,266,51,13,05,077,37,31,00,102,*65
$GBGSV,5,5,18,02,08,105,34,60,10,109,39*6E
$GPGGA,001537.00,,,,,0,00,,,M,,M,,*48
$PTNL,GGK,001537.00,010125,4742.1601262,N,01618.1004111,E,1,40,0.7,EHT751.3516,M*44
$GPGGQ,001537.00,010125,4742.1601262,N,01618.1004111,E,1,40,0.811,708.1451,M*39
$GPGFA,001537.00,3.749,5.078,0.394,0.344,22.853,0.619,,VVV*3D
$GPLLK,001537.00,010125,,M,,M,1,40,0.8,,M*07
$GNGMP,001537.00,,,,,DAAA,40,0.4,,,,*56
$GPGMP,001537.00,,,,,,10,,,,2.8,136*72
$GLGMP,001537.00,,,,,,08,,,,,*77
$GAGMP,001537.00,,,,,,10,,,,,*73
$GBGMP,001537.00,,,,,,12,,,,,*72
$PSSN,SNC,[0,260155000,2347]*41
$GPZDA,001542.00,01,01,2025,,*61
$GPDTM,W84,,00.0000000,N,00.0000000,E,00.0000000,W84*5F
$PSSN,TFM,001542.00,,,,*6D
$GPRMC,001542.00,A,4742.1601260,N,01618.1004130,E,0.0,,010125,5.1,E,D*11
$GPGLL,4742.1601260,N,01618.1004130,E,001542.00,A,D*60
$GPGGA,001542.00,4742.1601260,N,01618.1004130,E,2,40,0.4,708.1448,M,43.2066,M,2.2,0136*4A
$GNGNS,001542.00,4742.1601260,N,01618.1004130,E,DAAA,40,0.4,708.1448,43.2066,,*52
$GPGNS,001542.00,,,,,,10,,,,2.2,136*7A
$GLGNS,001542.00,,,,,,08,,,,,*75
$GAGNS,001542.00,,,,,,10,,,,,*71
$GBGNS,001542.00,,,,,,12,,,,,*70
$GPLLQ,001542.00,010125,,M,,M,1,40,0.802,,M*1D
$GPVTG,,T,,M,0.00,N,0.01,K,D*27
$GPHDT,,T*1B
$GPTHS,,V*0E
$GPROT,,V*08
$PSSN,HRP,001542.00,010125,,,,,,,00,0,,*63
$PTNL,AVR,001542.00,,Yaw,,Tilt,,,,0,,00*35
$GPGSA,A,3,02,03,04,08,17,19,21,28,31,32,,,0.7,0.4,0.6*3E
$GPGSA,A,3,68,69,70,76,77,83,84,85,,,,,0.7,0.4,0.6*3A
$GPGSA,A,3,02,04,06,09,10,11,12,19,30,36,,,0.7,0.4,0.6*32
$GPGSA,A,3,05,06,09,16,19,20,29,30,32,35,39,60,0.7,0.4,0.6*33
$GPGST,001542.00,1.421,0.394,0.339,24.421,0.385,0.349,0.611*63
$GPGBS,001542.00,2.160,1.831,3.705,68,0.0001,4.265,6.147*5C
$GPGRS,001542.00,1,-0.3,-0.0,0.6,-0.3,0.1,0.7,-0.1,0.5,-0.1,0.0,,*64
$GPGRS,001542.00,1,4.3,0.2,1.0,-2.6,-4.3,-3.4,0.1,1.3,,,,*62
$GPGRS,001542.00,1,-0.1,-0.3,0.2,0.1,0.1,-0.4,-0.3,-0.6,-0.2,-0.2,,*60
$GPGRS,001542.00,1,1.1,-0.7,0.5,-0.3,-0.3,-0.3,0.3,0.5,0.2,-1.5,-0.8,-1.2*6B
$GPGSV,6,1,21,02,87,164,50,28,20,093,41,04,16,198,40,31,11,121,39*7C
$GPGSV,6,2,21,08,15,182,39,32,30,049,45,17,31,308,44,03,55,267,48*7E
$GPGSV,6,3,21,21,65,131,45,19,07,326,38,10,01,071,36,14,04,273,36*7F
$GPGSV,6,4,21,36,35,170,45,58,13,245,37,40,24,132,36,34,31,208,42*7A
$GPGSV,6,5,21,49,34,195,43,57,10,109,36,41,07,108,34,61,03,257,37*7B
$GPGSV,6,6,21*7A
$GLGSV,2,1,08,84,87,073,40,83,22,139,36,70,20,220,37,85,34,322,49*6D
$GLGSV,2,2,08,68,38,038,50,69,87,205,52,77,07,021,37,76,06,338,44*69
$GAGSV,3,1,10,11,80,092,44,09,34,186,43,12,26,116,39,19,24,044,36*6E
$GAGSV,3,2,10,36,45,304,45,06,53,164,47,10,51,113,46,04,62,113,47*6E
$GAGSV,3,3,10,30,07,329,36,02,10,281,37*6C
$GBGSV,5,1,18,20,67,222,52,35,16,315,43,57,15,090,,22,15,219,*60
$GBGSV,5,2,18,05,24,128,38,19,18,229,43,30,39,162,48,06,26,073,39*65
$GBGSV,5,3,18,09,24,088,40,39,26,058,43,16,26,069,41,48,45,227,*68
$GBGSV,5,4,18,32,51,055,49,29,67,266,51,13,05,077,38,31,00,102,*6A
$GBGSV,5,5,18,02,08,105,33,60,10,109,38*68
$GPGGA,001542.00,,,,,0,00,,,M,,M,,*4A
$PTNL,GGK,001542.00,010125,4742.1601260,N,01618.1004130,E,1,40,0.7,EHT751.3514,M*45
$GPGGQ,001542.00,010125,4742.1601260,N,01618.1004130,E,1,40,0.802,708.1448,M*30
$GPGFA,001542.00,3.746,5.011,0.394,0.339,24.421,0.611,,VVV*32
$GPLLK,001542.00,010125,,M,,M,1,40,0.8,,M*05
$GNGMP,001542.00,,,,,DAAA,40,0.4,,,,*54
$GPGMP,001542.00,,,,,,10,,,,2.2,136*7A
$GLGMP,001542.00,,,,,,08,,,,,*75
$GAGMP,001542.00,,,,,,10,,,,,*71
$GBGMP,001542.00,,,,,,12,,,,,*70
$PSSN,SNC,[0,260160000,2347]*47
$GPZDA,001547.00,01,01,2025,,*64
$GPDTM,W84,,00.0000000,N,00.0000000,E,00.0000000,W84*5F
$PSSN,TFM,001547.00,,,,*68
$GPRMC,001547.00,A,4742.1601263,N,01618.1004132,E,0.0,,010125,5.1,E,D*15
$GPGLL,4742.1601263,N,01618.1004132,E,001547.00,A,D*64
$GPGGA,001547.00,4742.1601263,N,01618.1004132,E,2,40,0.4,708.1499,M,43.2066,M,2.0,0136*40
$GNGNS,001547.00,4742.1601263,N,01618.1004132,E,DAAA,40,0.4,708.1499,43.2066,,*5A
$GPGNS,001547.00,,,,,,10,,,,2.0,136*7D
$GLGNS,001547.00,,,,,,08,,,,,*70
$GAGNS,001547.00,,,,,,10,,,,,*74
$GBGNS,001547.00,,,,,,12,,,,,*75
$GPLLQ,001547.00,010125,,M,,M,1,40,0.797,,M*1B
$GPVTG,,T,,M,0.00,N,0.00,K,D*26
$GPHDT,,T*1B
$GPTHS,,V*0E
$GPROT,,V*08
$PSSN,HRP,001547.00,010125,,,,,,,00,0,,*66
$PTNL,AVR,001547.00,,Yaw,,Tilt,,,,0,,00*30
$GPGSA,A,3,02,03,04,08,17,19,21,28,31,32,,,0.7,0.4,0.6*3E
$GPGSA,A,3,68,69,70,76,77,83,84,85,,,,,0.7,0.4,0.6*3A
$GPGSA,A,3,02,04,06,09,10,11,12,19,30,36,,,0.7,0.4,0.6*32
$GPGSA,A,3,05,06,09,16,19,20,29,30,32,35,39,60,0.7,0.4,0.6*33
$GPGST,001547.00,1.533,0.390,0.340,22.592,0.383,0.348,0.606*60
$GPGBS,001547.00,2.185,1.799,3.768,68,0.0001,5.124,6.148*5C
$GPGRS,001547.00,1,-0.1,0.0,0.4,-0.5,-0.4,0.6,0.3,0.7,-0.5,-0.0,,*67
$GPGRS,001547.00,1,5.1,0.3,1.5,-1.6,-4.6,-3.3,-1.1,1.9,,,,*47
$GPGRS,001547.00,1,-0.1,-0.1,0.2,0.1,0.6,-0.3,-0.1,-0.4,-0.2,-0.1,,*64
$GPGRS,001547.00,1,1.7,-0.5,0.3,0.4,-0.1,-0.1,0.2,0.7,0.4,-1.1,-0.6,-1.3*48
$GPGSV,6,1,21,02,87,164,50,28,20,093,40,04,16,198,39,31,11,120,39*72
$GPGSV,6,2,21,08,15,182,39,32,30,049,44,17,32,308,45,03,55,267,48*7D
$GPGSV,6,3,21,21,65,131,45,19,07,326,38,10,01,071,36,14,04,273,37*7E
$GPGSV,6,4,21,36,35,170,45,58,13,245,37,40,24,132,35,34,31,208,42*79
$GPGSV,6,5,21,49,34,195,43,57,10,109,36,41,07,108,34,61,03,257,37*7B
$GPGSV,6,6,21*7A
$GLGSV,2,1,08,84,87,074,41,83,21,139,36,70,20,220,37,85,34,322,49*68
$GLGSV,2,2,08,68,38,038,50,69,87,205,52,77,07,020,38,76,06,338,45*66
$GAGSV,3,1,10,11,80,092,44,09,34,186,44,12,26,116,39,19,24,044,36*69
$GAGSV,3,2,10,36,45,304,45,06,53,164,47,10,51,113,47,04,62,113,47*6F
$GAGSV,3,3,10,30,07,329,37,02,10,281,38*62
$GBGSV,5,1,18,20,67,222,52,35,16,315,42,57,15,090,,22,15,219,*61
$GBGSV,5,2,18,05,24,128,38,19,18,229,44,30,39,162,48,06,26,073,39*62
$GBGSV,5,3,18,09,24,088,39,39,26,058,43,16,26,069,41,48,45,227,*66
$GBGSV,5,4,18,32,51,055,49,29,67,266,51,13,05,077,37,31,00,102,*65
$GBGSV,5,5,18,02,08,105,33,60,10,109,38*68
$GPGGA,001547.00,,,,,0,00,,,M,,M,,*4F
$PTNL,GGK,001547.00,010125,4742.1601263,N,01618.1004132,E,1,40,0.7,EHT751.3565,M*47
$GPGGQ,001547.00,010125,4742.1601263,N,01618.1004132,E,1,40,0.797,708.1499,M*3B
$GPGFA,001547.00,3.713,4.969,0.390,0.340,22.592,0.606,,VVV*33
$GPLLK,001547.00,010125,,M,,M,1,40,0.8,,M*00
$GNGMP,001547.00,,,,,DAAA,40,0.4,,,,*51
$GPGMP,001547.00,,,,,,10,,,,2.0,136*7D
$GLGMP,001547.00,,,,,,08,,,,,*70
$GAGMP,001547.00,,,,,,10,,,,,*74
$GBGMP,001547.00,,,,,,12,,,,,*75
$PSSN,SNC,[0,260165000,2347]*42
$GPZDA,001552.00,01,01,2025,,*60
$GPDTM,W84,,00.0000000,N,00.0000000,E,00.0000000,W84*5F
$PSSN,TFM,001552.00,,,,*6C
$GPRMC,001552.00,A,4742.1601258,N,01618.1004111,E,0.0,,010125,5.1,E,D*18
$GPGLL,4742.1601258,N,01618.1004111,E,001552.00,A,D*69
$GPGGA,001552.00,4742.1601258,N,01618.1004111,E,2,40,0.4,708.1427,M,43.2066,M,3.0,0136*49
$GNGNS,001552.00,4742.1601258,N,01618.1004111,E,DAAA,40,0.4,708.1427,43.2066,,*52
$GPGNS,001552.00,,,,,,10,,,,3.0,136*78
$GLGNS,001552.00,,,,,,08,,,,,*74
$GAGNS,001552.00,,,,,,10,,,,,*70
$GBGNS,001552.00,,,,,,12,,,,,*71
$GPLLQ,001552.00,010125,,M,,M,1,40,0.805,,M*1B
$GPVTG,,T,,M,0.00,N,0.01,K,D*27
$GPHDT,,T*1B
$GPTHS,,V*0E
$GPROT,,V*08
$PSSN,HRP,001552.00,010125,,,,,,,00,0,,*62
$PTNL,AVR,001552.00,,Yaw,,Tilt,,,,0,,00*34
$GPGSA,A,3,02,03,04,08,17,19,21,28,31,32,,,0.7,0.4,0.6*3E
$GPGSA,A,3,68,69,70,76,77,83,84,85,,,,,0.7,0.4,0.6*3A
$GPGSA,A,3,02,04,06,09,10,11,12,19,30,36,,,0.7,0.4,0.6*32
$GPGSA,A,3,05,06,09,16,19,20,29,30,32,35,39,60,0.7,0.4,0.6*33
$GPGST,001552.00,1.472,0.391,0.343,20.577,0.385,0.349,0.615*6E
$GPGBS,001552.00,2.203,1.801,3.841,08,0.0001,-0.885,0.980*79
$GPGRS,001552.00,1,-0.2,0.1,0.5,-0.9,-0.5,0.5,0.4,1.0,-0.4,-0.3,,*6D
$GPGRS,001552.00,1,5.0,0.4,1.3,-2.4,-3.8,-3.0,-0.7,1.5,,,,*43
$GPGRS,001552.00,1,-0.3,-0.1,0.3,0.3,0.7,-0.3,-0.2,-0.5,-0.7,-0.2,,*64
$GPGRS,001552.00,1,1.2,-0.6,0.3,0.1,-0.5,-0.2,0.1,0.6,0.2,-1.8,-0.7,-1.4*43
$GPGSV,6,1,21,02,87,163,50,28,20,093,40,04,16,198,39,31,11,120,39*75
$GPGSV,6,2,21,08,15,182,39,32,30,049,44,17,32,308,45,03,55,267,48*7D
$GPGSV,6,3,21,21,65,131,45,19,07,326,38,10,01,071,37,14,04,273,36*7E
$GPGSV,6,4,21,36,35,170,44,58,13,245,37,40,24,132,36,34,31,208,42*7B
$GPGSV,6,5,21,49,34,195,43,57,10,109,36,41,07,108,34,61,03,257,37*7B
$GPGSV,6,6,21*7A
$GLGSV,2,1,08,84,87,075,41,83,21,139,36,70,20,220,36,85,34,322,49*68
$GLGSV,2,2,08,68,38,038,49,69,87,205,52,77,07,020,38,76,06,338,43*68
$GAGSV,3,1,10,11,80,093,44,09,34,186,44,12,26,116,38,19,24,044,37*68
$GAGSV,3,2,10,36,45,304,45,06,53,164,47,10,51,113,47,04,62,113,47*6F
$GAGSV,3,3,10,30,07,329,36,02,10,281,37*6C
$GBGSV,5,1,18,20,67,222,52,35,16,315,42,57,15,090,,22,15,219,*61
$GBGSV,5,2,18,05,24,128,38,19,18,229,43,30,39,163,48,06,26,073,39*64
$GBGSV,5,3,18,09,25,088,39,39,26,058,43,16,26,069,41,48,45,227,*67
$GBGSV,5,4,18,32,51,055,49,29,67,266,51,13,05,077,37,31,00,102,*65
$GBGSV,5,5,18,02,08,105,33,60,10,109,38*68
$GPGGA,001552.00,,,,,0,00,,,M,,M,,*4B
$PTNL,GGK,001552.00,010125,4742.1601258,N,01618.1004111,E,1,40,0.7,EHT751.3493,M*42
$GPGGQ,001552.00,010125,4742.1601258,N,01618.1004111,E,1,40,0.805,708.1427,M*37
$GPGFA,001552.00,3.716,5.040,0.391,0.343,20.577,0.615,,VVV*38
$GPLLK,001552.00,010125,,M,,M,1,40,0.8,,M*04
$GNGMP,001552.00,,,,,DAAA,40,0.4,,,,*55
$GPGMP,001552.00,,,,,,10,,,,3.0,136*78
$GLGMP,001552.00,,,,,,08,,,,,*74
$GAGMP,001552.00,,,,,,10,,,,,*70
$GBGMP,001552.00,,,,,,12,,,,,*71
$PSSN,SNC,[0,260170000,2347]*46
$GPZDA,001557.00,01,01,2025,,*65
$GPDTM,W84,,00.0000000,N,00.0000000,E,00.0000000,W84*5F
$PSSN,TFM,001557.00,,,,*69
$GPRMC,001557.00,A,4742.1601272,N,01618.1004078,E,0.0,,010125,5.1,E,D*1B
$GPGLL,4742.1601272,N,01618.1004078,E,001557.00,A,D*6A
$GPGGA,001557.00,4742.1601272,N,01618.1004078,E,2,40,0.4,708.1457,M,43.2066,M,2.8,0136*44
$GNGNS,001557.00,4742.1601272,N,01618.1004078,E,DAAA,40,0.4,708.1457,43.2066,,*56
$GPGNS,001557.00,,,,,,10,,,,2.8,136*74
$GLGNS,001557.00,,,,,,08,,,,,*71
$GAGNS,001557.00,,,,,,10,,,,,*75
$GBGNS,001557.00,,,,,,12,,,,,*74
$GPLLQ,001557.00,010125,,M,,M,1,40,0.811,,M*1B
$GPVTG,,T,,M,0.00,N,0.01,K,D*27
$GPHDT,,T*1B
$GPTHS,,V*0E
$GPROT,,V*08
$PSSN,HRP,001557.00,010125,,,,,,,00,0,,*67
$PTNL,AVR,001557.00,,Yaw,,Tilt,,,,0,,00*31
$GPGSA,A,3,02,03,04,08,17,19,21,28,31,32,,,0.7,0.4,0.6*3E
$GPGSA,A,3,68,69,70,76,77,83,84,85,,,,,0.7,0.4,0.6*3A
$GPGSA,A,3,02,04,06,09,10,11,12,19,30,36,,,0.7,0.4,0.6*32
$GPGSA,A,3,05,06,09,16,19,20,29,30,32,35,39,60,0.7,0.4,0.6*33
$GPGST,001557.00,1.314,0.395,0.344,23.127,0.387,0.352,0.619*69
$GPGBS,001557.00,2.190,1.772,3.660,28,0.0001,0.833,1.118*59
$GPGRS,001557.00,1,-0.1,-0.0,0.3,-0.7,-0.2,0.4,0.1,0.8,-0.3,0.1,,*6D
$GPGRS,001557.00,1,4.6,0.5,0.0,-2.9,-3.6,-1.8,-0.0,1.4,,,,*4D
$GPGRS,001557.00,1,0.4,0.0,0.2,0.6,0.6,-0.3,-0.0,-0.2,-0.5,0.1,,*4B
$GPGRS,001557.00,1,1.2,-0.5,0.2,0.1,-0.0,-0.2,0.2,0.5,0.3,-1.3,-0.8,-1.4*44
$GPGSV,6,1,21,02,87,163,50,28,20,093,41,04,16,198,39,31,11,120,39*74
$GPGSV,6,2,21,08,15,182,39,32,30,049,44,17,32,308,45,03,55,267,48*7D
$GPGSV,6,3,21,21,64,131,45,19,07,326,38,10,01,071,37,14,04,273,36*7F
$GPGSV,6,4,21,36,35,170,45,58,13,245,37,40,24,132,36,34,31,208,42*7A
$GPGSV,6,5,21,49,34,195,43,57,10,109,36,41,07,108,34,61,03,257,37*7B
$GPGSV,6,6,21*7A
$GLGSV,2,1,08,84,87,076,40,83,21,139,37,70,20,220,37,85,34,322,49*6A
$GLGSV,2,2,08,68,38,038,49,69,87,205,52,77,07,020,38,76,06,338,43*68
$GAGSV,3,1,10,11,80,093,44,09,34,186,44,12,26,116,38,19,24,044,36*69
$GAGSV,3,2,10,36,45,304,45,06,53,164,47,10,51,113,46,04,62,113,47*6E
$GAGSV,3,3,10,30,07,329,37,02,10,281,38*62
$GBGSV,5,1,18,20,67,222,52,35,16,315,42,57,15,090,,22,15,219,*61
$GBGSV,5,2,18,05,24,128,38,19,18,229,43,30,39,163,48,06,26,073,39*64
$GBGSV,5,3,18,09,25,088,39,39,26,058,43,16,26,069,41,48,45,227,*67
$GBGSV,5,4,18,32,51,055,49,29,67,266,51,13,05,077,37,31,00,102,*65
$GBGSV,5,5,18,02,08,105,33,60,10,109,39*69
$GPGGA,001557.00,,,,,0,00,,,M,,M,,*4E
$PTNL,GGK,001557.00,010125,4742.1601272,N,01618.1004078,E,1,40,0.7,EHT751.3522,M*4A
$GPGGQ,001557.00,010125,4742.1601272,N,01618.1004078,E,1,40,0.811,708.1457,M*36
$GPGFA,001557.00,3.751,5.080,0.395,0.344,23.127,0.619,,VVV*3F
$GPLLK,001557.00,010125,,M,,M,1,40,0.8,,M*01
$GNGMP,001557.00,,,,,DAAA,40,0.4,,,,*50
$GPGMP,001557.00,,,,,,10,,,,2.8,136*74
$GLGMP,001557.00,,,,,,08,,,,,*71
$GAGMP,001557.00,,,,,,10,,,,,*75
$GBGMP,001557.00,,,,,,12,,,,,*74
$PSSN,SNC,[0,260175000,2347]*43
$GPZDA,001602.00,01,01,2025,,*66
$GPDTM,W84,,00.0000000,N,00.0000000,E,00.0000000,W84*5F
$PSSN,TFM,001602.00,,,,*6A
$GPRMC,001602.00,A,4742.1601245,N,01618.1004042,E,0.0,,010125,5.1,E,D*15
$GPGLL,4742.1601245,N,01618.1004042,E,001602.00,A,D*64
$GPGGA,001602.00,4742.1601245,N,01618.1004042,E,2,40,0.4,708.1441,M,43.2066,M,2.2,0136*47
$GNGNS,001602.00,4742.1601245,N,01618.1004042,E,DAAA,40,0.4,708.1441,43.2066,,*5F
$GPGNS,001602.00,,,,,,10,,,,2.2,136*7D
$GLGNS,001602.00,,,,,,08,,,,,*72
$GAGNS,001602.00,,,,,,10,,,,,*76
$GBGNS,001602.00,,,,,,12,,,,,*77
$GPLLQ,001602.00,010125,,M,,M,1,40,0.802,,M*1A
$GPVTG,,T,,M,0.00,N,0.00,K,D*26
$GPHDT,,T*1B
$GPTHS,,V*0E
$GPROT,,V*08
$PSSN,HRP,001602.00,010125,,,,,,,00,0,,*64
$PTNL,AVR,001602.00,,Yaw,,Tilt,,,,0,,00*32
$GPGSA,A,3,02,03,04,08,17,19,21,28,31,32,,,0.7,0.4,0.6*3E
$GPGSA,A,3,68,69,70,76,77,83,84,85,,,,,0.7,0.4,0.6*3A
$GPGSA,A,3,02,04,06,09,10,11,12,19,30,36,,,0.7,0.4,0.6*32
$GPGSA,A,3,05,06,09,16,19,20,29,30,32,35,39,60,0.7,0.4,0.6*33
$GPGST,001602.00,1.344,0.394,0.339,24.677,0.385,0.349,0.611*61
$GPGBS,001602.00,2.158,1.821,3.710,08,0.0001,-1.084,0.961*7C
$GPGRS,001602.00,1,-0.1,-0.1,0.4,-1.1,-0.1,-0.2,0.2,1.2,-0.3,0.1,,*4F
$GPGRS,001602.00,1,4.5,0.3,0.4,-2.9,-3.9,-1.3,-0.3,1.8,,,,*44
$GPGRS,001602.00,1,0.1,-0.1,0.4,0.2,0.4,-0.4,-0.4,-0.4,-0.4,-0.1,,*48
$GPGRS,001602.00,1,1.4,-0.6,-0.2,0.2,0.5,-0.2,0.2,0.6,0.2,-0.8,-0.8,-1.3*4B
$GPGSV,6,1,21,02,87,163,50,28,20,093,41,04,16,198,39,31,11,120,39*74
$GPGSV,6,2,21,08,15,182,39,32,30,049,44,17,32,308,45,03,55,267,48*7D
$GPGSV,6,3,21,21,64,132,45,19,08,326,37,10,01,071,37,14,04,273,37*7D
$GPGSV,6,4,21,36,35,170,44,58,13,245,37,40,24,132,35,34,31,208,41*7B
$GPGSV,6,5,21,49,34,195,43,57,10,109,35,41,07,108,34,61,03,257,37*78
$GPGSV,6,6,21*7A
$GLGSV,2,1,08,69,87,205,52,83,21,139,37,70,20,220,37,85,34,322,49*6C
$GLGSV,2,2,08,68,38,038,49,84,87,077,40,77,07,020,37,76,06,338,43*60
$GAGSV,3,1,10,11,80,093,43,09,34,186,44,12,26,116,38,19,24,044,36*6E
$GAGSV,3,2,10,36,45,304,45,06,53,164,47,10,50,113,46,04,63,113,47*6E
$GAGSV,3,3,10,30,07,329,36,02,10,281,37*6C
$GBGSV,5,1,18,20,67,222,52,35,16,315,42,57,15,090,,22,15,219,*61
$GBGSV,5,2,18,05,24,128,38,19,18,229,44,30,39,163,47,06,26,073,39*6C
$GBGSV,5,3,18,09,25,088,39,39,26,058,43,16,26,069,41,48,45,227,*67
$GBGSV,5,4,18,32,51,055,49,29,67,266,51,13,05,077,37,31,00,102,*65
$GBGSV,5,5,18,02,08,105,33,60,10,109,39*69
$GPGGA,001602.00,,,,,0,00,,,M,,M,,*4D
$PTNL,GGK,001602.00,010125,4742.1601245,N,01618.1004042,E,1,40,0.7,EHT751.3506,M*42
$GPGGQ,001602.00,010125,4742.1601245,N,01618.1004042,E,1,40,0.802,708.1441,M*3D
$GPGFA,001602.00,3.747,5.013,0.394,0.339,24.677,0.611,,VVV*37
$GPLLK,001602.00,010125,,M,,M,1,40,0.8,,M*02
$GNGMP,001602.00,,,,,DAAA,40,0.4,,,,*53
$GPGMP,001602.00,,,,,,10,,,,2.2,136*7D
$GLGMP,001602.00,,,,,,08,,,,,*72
$GAGMP,001602.00,,,,,,10,,,,,*76
$GBGMP,001602.00,,,,,,12,,,,,*77
$PSSN,SNC,[0,260180000,2347]*49
$GPZDA,001607.00,01,01,2025,,*63
$GPDTM,W84,,00.0000000,N,00.0000000,E,00.0000000,W84*5F
$PSSN,TFM,001607.00,,,,*6F
$GPRMC,001607.00,A,4742.1601242,N,01618.1004014,E,0.0,,010125,5.1,E,D*14
$GPGLL,4742.1601242,N,01618.1004014,E,001607.00,A,D*65
$GPGGA,001607.00,4742.1601242,N,01618.1004014,E,2,40,0.4,708.1417,M,43.2066,M,2.0,0136*47
$GNGNS,001607.00,4742.1601242,N,01618.1004014,E,DAAA,40,0.4,708.1417,43.2066,,*5D
$GPGNS,001607.00,,,,,,10,,,,2.0,136*7A
$GLGNS,001607.00,,,,,,08,,,,,*77
$GAGNS,001607.00,,,,,,10,,,,,*73
$GBGNS,001607.00,,,,,,12,,,,,*72
$GPLLQ,001607.00,010125,,M,,M,1,40,0.797,,M*1C
$GPVTG,,T,,M,0.01,N,0.01,K,D*26
$GPHDT,,T*1B
$GPTHS,,V*0E
$GPROT,,V*08
$PSSN,HRP,001607.00,010125,,,,,,,00,0,,*61
$PTNL,AVR,001607.00,,Yaw,,Tilt,,,,0,,00*37
$GPGSA,A,3,02,03,04,08,17,19,21,28,31,32,,,0.7,0.4,0.6*3E
$GPGSA,A,3,68,69,70,76,77,83,84,85,,,,,0.7,0.4,0.6*3A
$GPGSA,A,3,02,04,06,09,10,11,12,19,30,36,,,0.7,0.4,0.6*32
$GPGSA,A,3,05,06,09,16,19,20,29,30,32,35,39,60,0.7,0.4,0.6*33
$GPGST,001607.00,1.341,0.390,0.339,22.850,0.383,0.348,0.606*69
$GPGBS,001607.00,2.182,1.788,3.773,08,0.0001,-0.805,0.970*77
$GPGRS,001607.00,1,-0.2,-0.1,0.7,-0.8,-0.3,0.8,0.2,0.7,-0.4,-0.1,,*49
$GPGRS,001607.00,1,5.0,0.4,0.9,-2.2,-3.3,-2.0,-0.8,2.1,,,,*4F
$GPGRS,001607.00,1,0.1,-0.1,0.2,0.2,0.4,-0.3,-0.3,-0.5,-0.3,0.1,,*60
$GPGRS,001607.00,1,1.0,-0.5,-0.0,0.6,-0.2,-0.2,0.2,0.3,0.1,-1.1,-0.9,-1.2*6B
$GPGSV,6,1,21,02,87,163,50,28,20,093,40,04,16,198,40,31,11,120,39*7B
$GPGSV,6,2,21,08,15,182,39,32,30,049,44,17,32,308,44,03,55,267,48*7C
$GPGSV,6,3,21,21,64,132,45,19,08,326,38,10,01,071,36,14,04,273,36*72
$GPGSV,6,4,21,36,35,170,45,58,13,245,37,40,24,132,35,34,31,208,42*79
$GPGSV,6,5,21,49,34,195,43,57,10,109,36,41,07,108,34,61,03,257,37*7B
$GPGSV,6,6,21*7A
$GLGSV,2,1,08,69,88,205,52,83,21,139,36,70,20,220,37,85,34,322,49*62
$GLGSV,2,2,08,68,38,038,50,84,87,079,41,77,07,020,37,76,06,338,44*60
$GAGSV,3,1,10,11,80,093,44,09,34,186,44,12,26,116,38,19,24,044,36*69
$GAGSV,3,2,10,36,45,304,45,06,53,164,47,10,50,113,46,04,63,113,47*6E
$GAGSV,3,3,10,30,07,329,37,02,10,280,37*6C
$GBGSV,5,1,18,20,67,222,52,35,16,315,42,57,15,090,,22,15,219,*61
$GBGSV,5,2,18,05,24,128,38,19,18,229,43,30,39,163,47,06,26,073,39*6B
$GBGSV,5,3,18,09,25,088,39,39,26,058,43,16,26,069,41,48,45,227,*67
$GBGSV,5,4,18,32,51,055,49,29,67,266,51,13,05,077,37,31,00,102,*65
$GBGSV,5,5,18,02,08,105,33,60,10,109,39*69
$GPGGA,001607.00,,,,,0,00,,,M,,M,,*48
$PTNL,GGK,001607.00,010125,4742.1601242,N,01618.1004014,E,1,40,0.7,EHT751.3482,M*4E
$GPGGQ,001607.00,010125,4742.1601242,N,01618.1004014,E,1,40,0.797,708.1417,M*3C
$GPGFA,001607.00,3.713,4.970,0.390,0.339,22.850,0.606,,VVV*31
$GPLLK,001607.00,010125,,M,,M,1,40,0.8,,M*07
$GNGMP,001607.00,,,,,DAAA,40,0.4,,,,*56
$GPGMP,001607.00,,,,,,10,,,,2.0,136*7A
$GLGMP,001607.00,,,,,,08,,,,,*77
$GAGMP,001607.00,,,,,,10,,,,,*73
$GBGMP,001607.00,,,,,,12,,,,,*72
$PSSN,SNC,[0,260185000,2347]*4C
$GPZDA,001612.00,01,01,2025,,*67
$GPDTM,W84,,00.0000000,N,00.0000000,E,00.0000000,W84*5F
$PSSN,TFM,001612.00,,,,*6B
$GPRMC,001612.00,A,4742.1601253,N,01618.1003992,E,0.0,,010125,5.1,E,D*10
$GPGLL,4742.1601253,N,01618.1003992,E,001612.00,A,D*61
$GPGGA,001612.00,4742.1601253,N,01618.1003992,E,2,40,0.4,708.1392,M,43.2066,M,3.0,0136*48
$GNGNS,001612.00,4742.1601253,N,01618.1003992,E,DAAA,40,0.4,708.1392,43.2066,,*53
$GPGNS,001612.00,,,,,,10,,,,3.0,136*7F
$GLGNS,001612.00,,,,,,08,,,,,*73
$GAGNS,001612.00,,,,,,10,,,,,*77
$GBGNS,001612.00,,,,,,12,,,,,*76
$GPLLQ,001612.00,010125,,M,,M,1,40,0.805,,M*1C
$GPVTG,,T,,M,0.01,N,0.01,K,D*26
$GPHDT,,T*1B
$GPTHS,,V*0E
$GPROT,,V*08
$PSSN,HRP,001612.00,010125,,,,,,,00,0,,*65
$PTNL,AVR,001612.00,,Yaw,,Tilt,,,,0,,00*33
$GPGSA,A,3,02,03,04,08,17,19,21,28,31,32,,,0.7,0.4,0.6*3E
$GPGSA,A,3,68,69,70,76,77,83,84,85,,,,,0.7,0.4,0.6*3A
$GPGSA,A,3,02,04,06,09,10,11,12,19,30,36,,,0.7,0.4,0.6*32
$GPGSA,A,3,05,06,09,16,19,20,29,30,32,35,39,60,0.7,0.4,0.6*33
$GPGST,001612.00,1.577,0.391,0.343,20.883,0.385,0.349,0.615*6B
$GPGBS,001612.00,2.202,1.792,3.847,04,0.0001,0.977,0.958*54
$GPGRS,001612.00,1,-0.2,-0.1,1.0,-0.5,-0.1,0.2,0.2,0.8,-0.1,-0.5,,*40
$GPGRS,001612.00,1,4.9,0.5,1.2,-3.4,-4.2,-3.7,-1.0,1.4,,,,*40
$GPGRS,001612.00,1,0.1,-0.2,0.1,0.3,0.5,-0.4,-0.2,-0.7,-0.3,0.0,,*61
$GPGRS,001612.00,1,1.6,-0.1,0.4,0.2,-0.2,-0.2,0.0,0.4,0.1,-1.2,-0.9,-1.6*42
$GPGSV,6,1,21,02,87,163,50,28,20,093,40,04,16,198,40,31,11,120,39*7B
$GPGSV,6,2,21,08,15,182,39,32,30,049,44,17,32,308,44,03,55,267,48*7C
$GPGSV,6,3,21,21,64,132,45,19,08,326,39,10,01,071,36,14,04,273,36*73
$GPGSV,6,4,21,36,35,170,45,58,13,245,37,40,24,132,35,34,31,208,41*7A
$GPGSV,6,5,21,49,34,195,43,57,10,109,35,41,07,108,33,61,03,257,37*7F
$GPGSV,6,6,21*7A
$GLGSV,2,1,08,69,88,205,52,83,21,139,35,70,20,220,37,85,34,322,49*61
$GLGSV,2,2,08,68,38,038,50,84,87,079,40,77,07,020,37,76,06,338,43*66
$GAGSV,3,1,10,11,80,093,44,09,34,186,44,12,26,116,38,19,24,044,36*69
$GAGSV,3,2,10,36,45,304,45,06,53,164,47,10,50,113,46,04,63,113,47*6E
$GAGSV,3,3,10,30,07,329,36,02,10,280,37*6D
$GBGSV,5,1,18,20,67,222,52,35,16,315,42,57,15,090,,22,15,219,*61
$GBGSV,5,2,18,05,24,128,38,19,18,229,43,30,39,163,47,06,26,073,39*6B
$GBGSV,5,3,18,09,25,088,39,39,26,058,42,16,26,069,41,48,45,227,*66
$GBGSV,5,4,18,32,51,055,49,29,67,266,51,13,05,077,37,31,00,102,*65
$GBGSV,5,5,18,02,08,105,33,60,10,109,39*69
$GPGGA,001612.00,,,,,0,00,,,M,,M,,*4C
$PTNL,GGK,001612.00,010125,4742.1601253,N,01618.1003992,E,1,40,0.7,EHT751.3458,M*4D
$GPGGQ,001612.00,010125,4742.1601253,N,01618.1003992,E,1,40,0.805,708.1392,M*36
$GPGFA,001612.00,3.717,5.042,0.391,0.343,20.883,0.615,,VVV*3A
$GPLLK,001612.00,010125,,M,,M,1,40,0.8,,M*03
$GNGMP,001612.00,,,,,DAAA,40,0.4,,,,*52
$GPGMP,001612.00,,,,,,10,,,,3.0,136*7F
$GLGMP,001612.00,,,,,,08,,,,,*73
$GAGMP,001612.00,,,,,,10,,,,,*77
$GBGMP,001612.00,,,,,,12,,,,,*76
$PSSN,SNC,[0,260190000,2347]*48
$GPZDA,001617.00,01,01,2025,,*62
$GPDTM,W84,,00.0000000,N,00.0000000,E,00.0000000,W84*5F
$PSSN,TFM,001617.00,,,,*6E
$GPRMC,001617.00,A,4742.1601271,N,01618.1003970,E,0.0,,010125,5.1,E,D*19
$GPGLL,4742.1601271,N,01618.1003970,E,001617.00,A,D*68
$GPGGA,001617.00,4742.1601271,N,01618.1003970,E,2,40,0.4,708.1405,M,43.2066,M,2.8,0136*41
$GNGNS,001617.00,4742.1601271,N,01618.1003970,E,DAAA,40,0.4,708.1405,43.2066,,*53
$GPGNS,001617.00,,,,,,10,,,,2.8,136*73
$GLGNS,001617.00,,,,,,08,,,,,*76
$GAGNS,001617.00,,,,,,10,,,,,*72
$GBGNS,001617.00,,,,,,12,,,,,*73
$GPLLQ,001617.00,010125,,M,,M,1,40,0.811,,M*1C
$GPVTG,,T,,M,0.00,N,0.01,K,D*27
$GPHDT,,T*1B
$GPTHS,,V*0E
$GPROT,,V*08
$PSSN,HRP,001617.00,010125,,,,,,,00,0,,*60
$PTNL,AVR,001617.00,,Yaw,,Tilt,,,,0,,00*36
$GPGSA,A,3,02,03,04,08,17,19,21,28,31,32,,,0.7,0.4,0.6*3E
$GPGSA,A,3,68,69,70,76,77,83,84,85,,,,,0.7,0.4,0.6*3A
$GPGSA,A,3,02,04,06,09,10,11,12,19,30,36,,,0.7,0.4,0.6*32
$GPGSA,A,3,05,06,09,16,19,20,29,30,32,35,39,60,0.7,0.4,0.6*33
$GPGST,001617.00,1.599,0.394,0.343,23.445,0.387,0.352,0.620*60
$GPGBS,001617.00,2.186,1.762,3.665,68,0.0001,4.691,6.150*50
$GPGRS,001617.00,1,-0.3,0.1,0.7,-0.5,-0.2,-0.2,0.3,0.8,-0.6,-0.1,,*43
$GPGRS,001617.00,1,4.7,0.5,0.7,-3.7,-4.7,-3.6,-0.7,1.4,,,,*4E
$GPGRS,001617.00,1,0.0,-0.1,0.3,0.6,0.5,-0.3,-0.0,-0.2,-0.5,-0.2,,*48
$GPGRS,001617.00,1,1.7,0.5,1.0,-0.3,0.4,-0.0,0.2,0.3,0.0,-1.0,-0.7,-1.4*65
$GPGSV,6,1,21,02,86,162,50,28,20,093,41,04,16,198,40,31,11,120,39*7A
$GPGSV,6,2,21,08,15,182,39,32,30,049,44,17,32,308,44,03,55,267,48*7C
$GPGSV,6,3,21,21,64,132,45,19,08,326,38,10,01,071,35,14,04,272,36*70
$GPGSV,6,4,21,36,35,170,45,58,13,245,37,40,24,132,35,34,31,208,42*79
$GPGSV,6,5,21,49,34,195,43,57,10,109,36,41,07,108,34,61,03,257,37*7B
$GPGSV,6,6,21*7A
$GLGSV,2,1,08,69,88,205,52,83,21,139,36,70,20,220,36,85,34,322,49*63
$GLGSV,2,2,08,68,38,038,50,84,87,081,40,77,07,020,36,76,06,338,42*61
$GAGSV,3,1,10,11,80,093,44,09,34,186,44,12,26,116,39,19,24,044,37*69
$GAGSV,3,2,10,36,45,304,45,06,53,164,48,10,50,113,46,04,63,113,47*61
$GAGSV,3,3,10,30,07,329,37,02,10,280,37*6C
$GBGSV,5,1,18,20,68,222,52,35,17,315,42,57,15,090,,22,15,219,*6F
$GBGSV,5,2,18,05,24,128,38,19,18,229,44,30,39,163,48,06,26,073,39*63
$GBGSV,5,3,18,09,25,088,39,39,26,058,42,16,26,069,41,48,45,227,*66
$GBGSV,5,4,18,32,51,055,49,29,67,265,51,13,05,077,38,31,00,102,*69
$GBGSV,5,5,18,02,08,105,34,60,10,109,39*6E
$GPGGA,001617.00,,,,,0,00,,,M,,M,,*49
$PTNL,GGK,001617.00,010125,4742.1601271,N,01618.1003970,E,1,40,0.7,EHT751.3470,M*4E
$GPGGQ,001617.00,010125,4742.1601271,N,01618.1003970,E,1,40,0.811,708.1405,M*33
$GPGFA,001617.00,3.750,5.081,0.394,0.343,23.445,0.620,,VVV*35
$GPLLK,001617.00,010125,,M,,M,1,40,0.8,,M*06
$GNGMP,001617.00,,,,,DAAA,40,0.4,,,,*57
$GPGMP,001617.00,,,,,,10,,,,2.8,136*73
$GLGMP,001617.00,,,,,,08,,,,,*76
$GAGMP,001617.00,,,,,,10,,,,,*72
$GBGMP,001617.00,,,,,,12,,,,,*73
$PSSN,SNC,[0,260195000,2347]*4D
$GPZDA,001622.00,01,01,2025,,*64
$GPDTM,W84,,00.0000000,N,00.0000000,E,00.0000000,W84*5F
$PSSN,TFM,001622.00,,,,*68
$GPRMC,001622.00,A,4742.1601279,N,01618.1003960,E,0.0,,010125,5.1,E,D*16
$GPGLL,4742.1601279,N,01618.1003960,E,001622.00,A,D*67
$GPGGA,001622.00,4742.1601279,N,01618.1003960,E,2,40,0.4,708.1433,M,43.2066,M,2.2,0136*41
$GNGNS,001622.00,4742.1601279,N,01618.1003960,E,DAAA,40,0.4,708.1433,43.2066,,*59
$GPGNS,001622.00,,,,,,10,,,,2.2,136*7F
$GLGNS,001622.00,,,,,,08,,,,,*70
$GAGNS,001622.00,,,,,,10,,,,,*74
$GBGNS,001622.00,,,,,,12,,,,,*75
$GPLLQ,001622.00,010125,,M,,M,1,40,0.802,,M*18
$GPVTG,,T,,M,0.00,N,0.01,K,D*27
$GPHDT,,T*1B
$GPTHS,,V*0E
$GPROT,,V*08
$PSSN,HRP,001622.00,010125,,,,,,,00,0,,*66
$PTNL,AVR,001622.00,,Yaw,,Tilt,,,,0,,00*30
$GPGSA,A,3,02,03,04,08,17,19,21,28,31,32,,,0.7,0.4,0.6*3E
$GPGSA,A,3,68,69,70,76,77,83,84,85,,,,,0.7,0.4,0.6*3A
$GPGSA,A,3,02,04,06,09,10,11,12,19,30,36,,,0.7,0.4,0.6*32
$GPGSA,A,3,05,06,09,16,19,20,29,30,32,35,39,60,0.7,0.4,0.6*33
$GPGST,001622.00,1.498,0.394,0.338,24.934,0.385,0.349,0.612*6F
$GPGBS,001622.00,2.156,1.812,3.715,04,0.0001,0.750,0.934*5B
$GPGRS,001622.00,1,-0.3,-0.1,0.7,-0.7,0.1,-0.1,0.1,0.8,0.0,-0.2,,*6D
$GPGRS,001622.00,1,4.8,0.5,0.8,-3.1,-4.9,-2.4,-0.1,1.6,,,,*47
$GPGRS,001622.00,1,0.1,-0.2,0.0,0.5,0.4,-0.5,-0.2,-0.8,-0.4,-0.5,,*45
$GPGRS,001622.00,1,1.3,0.6,0.4,-0.4,-0.3,-0.1,0.1,0.1,-0.1,-0.7,-0.7,-1.3*61
$GPGSV,6,1,21,02,86,162,50,28,20,093,41,04,16,198,40,31,11,120,39*7A
$GPGSV,6,2,21,08,15,182,39,32,30,049,44,17,32,308,45,03,55,267,48*7D
$GPGSV,6,3,21,21,64,132,45,19,08,326,38,10,01,071,36,14,04,272,36*73
$GPGSV,6,4,21,36,35,170,45,58,13,245,38,40,24,132,36,34,31,208,42*75
$GPGSV,6,5,21,49,34,195,43,57,10,109,36,41,07,108,34,61,03,257,37*7B
$GPGSV,6,6,21*7A
$GLGSV,2,1,08,69,88,206,52,83,21,139,37,70,20,220,36,85,34,322,49*61
$GLGSV,2,2,08,68,38,038,50,84,87,082,40,77,07,020,36,76,06,338,42*62
$GAGSV,3,1,10,11,80,093,44,09,34,186,44,12,26,116,38,19,24,044,37*68
