$GPZDA,055942.00,01,01,2025,,*6C
$GPDTM,W84,,00.0000000,N,00.0000000,E,00.0000000,W84*5F
$PSSN,TFM,055942.00,,,,*60
$GPRMC,055942.00,A,4742.1601229,N,01618.1000895,E,0.0,,010125,5.1,E,D*13
$GPGLL,4742.1601229,N,01618.1000895,E,055942.00,A,D*62
$GPGGA,055942.00,4742.1601229,N,01618.1000895,E,2,41,0.4,707.9968,M,43.2066,M,3.4,0136*46
$GNGNS,055942.00,4742.1601229,N,01618.1000895,E,DAAA,41,0.4,707.9968,43.2066,,*59
$GPGNS,055942.00,,,,,,11,,,,3.4,136*71
$GLGNS,055942.00,,,,,,09,,,,,*79
$GAGNS,055942.00,,,,,,09,,,,,*74
$GBGNS,055942.00,,,,,,12,,,,,*7D
$GPLLQ,055942.00,010125,,M,,M,1,41,0.759,,M*10
$GPVTG,,T,,M,0.00,N,0.01,K,D*27
$GPHDT,,T*1B
$GPTHS,,V*0E
$GPROT,,V*08
$PSSN,HRP,055942.00,010125,,,,,,,00,0,,*6E
$PTNL,AVR,055942.00,,Yaw,,Tilt,,,,0,,00*38
$GPGSA,A,3,04,05,06,07,09,11,13,14,16,20,30,,0.7,0.4,0.5*3C
$GPGSA,A,3,65,71,72,73,74,75,81,87,88,,,,0.7,0.4,0.5*37
$GPGSA,A,3,03,05,09,13,15,24,25,31,34,,,,0.7,0.4,0.5*39
$GPGSA,A,3,02,05,06,09,11,12,16,19,22,34,36,60,0.7,0.4,0.5*34
$GPGST,055942.00,1.786,0.407,0.288,349.795,0.403,0.292,0.573*5B
$GPGBS,055942.00,2.238,1.862,2.786,72,0.0001,5.710,6.039*56
$GPGRS,055942.00,1,0.4,-0.2,-0.7,-0.1,0.3,0.0,0.6,-0.6,-0.2,-0.2,0.3,*6F
$GPGRS,055942.00,1,-2.8,-1.1,5.7,4.2,2.3,-2.0,1.6,-4.2,-2.0,,,*4C
$GPGRS,055942.00,1,-0.3,0.4,0.9,0.6,0.2,0.1,-0.8,-0.7,0.5,,,*43
$GPGRS,055942.00,1,-0.6,0.9,0.3,0.6,1.5,-0.9,0.8,-0.6,-0.5,-1.2,0.1,-2.1*4C
$GPGSV,5,1,20,07,73,076,49,06,13,211,39,05,29,311,45,04,11,090,39*77
$GPGSV,5,2,20,13,13,272,40,11,29,245,45,30,64,211,50,09,38,088,45*73
$GPGSV,5,3,20,20,58,284,48,16,08,029,37,14,08,170,37,36,35,170,45*7B
$GPGSV,5,4,20,58,13,245,37,40,24,133,37,34,31,208,43,49,34,195,45*7B
$GPGSV,5,5,20,57,07,111,37,41,07,108,35,61,03,257,38*49
$GLGSV,3,1,11,72,67,346,50,87,10,246,43,65,16,303,42,75,14,184,43*61
$GLGSV,3,2,11,88,21,303,46,71,46,094,50,73,50,055,49,74,57,144,48*69
$GLGSV,3,3,11,81,08,354,42,70,02,112,,80,04,023,38*51
$GAGSV,3,1,11,05,72,059,49,13,12,331,39,25,14,159,40,09,20,086,42*69
$GAGSV,3,2,11,31,24,049,42,16,28,138,,34,25,221,43,24,36,108,45*6C
$GAGSV,3,3,11,15,35,280,44,03,48,283,47,08,00,273,*5B
$GBGSV,6,1,24,22,87,046,52,50,12,300,,26,22,183,,05,22,129,38*6F
$GBGSV,6,2,24,09,24,053,39,58,27,046,,19,33,118,47,45,30,189,*61
$GBGSV,6,3,24,46,32,051,,36,62,124,51,21,83,021,,02,06,108,35*6D
$GBGSV,6,4,24,06,10,053,36,28,02,343,,34,07,290,40,11,10,313,39*62
$GBGSV,6,5,24,40,03,076,,43,04,333,,12,06,263,37,16,07,052,38*62
$GBGSV,6,6,24,48,07,119,,07,02,110,,10,01,116,,60,07,111,40*68
$GPGGA,055942.00,,,,,0,00,,,M,,M,,*47
$PTNL,GGK,055942.00,010125,4742.1601229,N,01618.1000895,E,1,41,0.7,EHT751.2033,M*47
$GPGGQ,055942.00,010125,4742.1601229,N,01618.1000895,E,1,41,0.759,707.9968,M*3A
$GPGFA,055942.00,3.866,4.695,0.407,0.288,349.795,0.573,,VVV*0C
$GPLLK,055942.00,010125,,M,,M,1,41,0.7,,M*06
$GNGMP,055942.00,,,,,DAAA,41,0.4,,,,*58
$GPGMP,055942.00,,,,,,11,,,,3.4,136*71
$GLGMP,055942.00,,,,,,09,,,,,*79
$GAGMP,055942.00,,,,,,09,,,,,*74
$GBGMP,055942.00,,,,,,12,,,,,*7D
$PSSN,SNC,[0,280800000,2347]*46
$GPZDA,055947.00,01,01,2025,,*69
$GPDTM,W84,,00.0000000,N,00.0000000,E,00.0000000,W84*5F
$PSSN,TFM,055947.00,,,,*65
$GPRMC,055947.00,A,4742.1601213,N,01618.1000907,E,0.0,,010125,5.1,E,D*15
$GPGLL,4742.1601213,N,01618.1000907,E,055947.00,A,D*64
$GPGGA,055947.00,4742.1601213,N,01618.1000907,E,2,41,0.4,707.9951,M,43.2066,M,1.5,0136*49
$GNGNS,055947.00,4742.1601213,N,01618.1000907,E,DAAA,41,0.4,707.9951,43.2066,,*55
$GPGNS,055947.00,,,,,,11,,,,1.5,136*77
$GLGNS,055947.00,,,,,,09,,,,,*7C
$GAGNS,055947.00,,,,,,09,,,,,*71
$GBGNS,055947.00,,,,,,12,,,,,*78
$GPLLQ,055947.00,010125,,M,,M,1,41,0.769,,M*16
$GPVTG,,T,,M,0.00,N,0.00,K,D*26
$GPHDT,,T*1B
$GPTHS,,V*0E
$GPROT,,V*08
$PSSN,HRP,055947.00,010125,,,,,,,00,0,,*6B
$PTNL,AVR,055947.00,,Yaw,,Tilt,,,,0,,00*3D
$GPGSA,A,3,04,05,06,07,09,11,13,14,16,20,30,,0.7,0.4,0.5*3C
$GPGSA,A,3,65,71,72,73,74,75,81,87,88,,,,0.7,0.4,0.5*37
$GPGSA,A,3,03,05,09,13,15,24,25,31,34,,,,0.7,0.4,0.5*39
$GPGSA,A,3,02,05,06,09,11,12,16,19,22,34,36,60,0.7,0.4,0.5*34
$GPGST,055947.00,1.946,0.405,0.295,349.645,0.402,0.300,0.584*5D
$GPGBS,055947.00,2.278,2.257,3.119,13,0.0001,1.103,1.046*51
$GPGRS,055947.00,1,-0.2,-0.0,-0.5,-0.3,0.1,0.4,1.1,-0.8,0.2,-0.2,0.2,*61
$GPGRS,055947.00,1,-2.7,-0.9,5.6,3.8,2.6,-2.3,2.9,-5.9,-1.7,,,*47
$GPGRS,055947.00,1,-0.5,0.4,0.7,0.2,-0.1,0.5,-0.7,-0.5,0.5,,,*6D
$GPGRS,055947.00,1,-0.0,0.7,0.7,0.8,1.6,0.4,0.9,-0.8,-0.5,-0.7,0.1,-2.1*63
$GPGSV,5,1,20,07,73,076,49,06,13,211,39,05,29,311,45,04,11,090,39*77
$GPGSV,5,2,20,13,13,272,40,11,29,245,46,30,64,211,51,09,38,088,45*71
$GPGSV,5,3,20,20,58,284,48,16,08,029,37,14,08,170,37,36,35,170,45*7B
$GPGSV,5,4,20,58,13,245,37,40,24,133,37,34,31,208,44,49,34,195,45*7C
$GPGSV,5,5,20,57,07,111,37,41,07,108,35,61,03,257,38*49
$GLGSV,3,1,11,72,67,346,51,87,10,246,42,65,16,303,42,75,14,184,43*61
$GLGSV,3,2,11,88,21,303,46,71,46,094,50,73,50,055,49,74,57,143,48*6E
$GLGSV,3,3,11,81,08,354,43,70,02,112,20,80,04,023,39*53
$GAGSV,3,1,11,05,72,059,49,13,12,331,39,25,14,159,40,09,20,086,42*69
$GAGSV,3,2,11,31,24,049,42,16,28,138,,34,25,221,43,24,36,108,45*6C
$GAGSV,3,3,11,15,35,280,44,03,48,283,47,08,00,273,*5B
$GBGSV,6,1,24,22,87,047,52,50,12,300,,26,22,183,,05,22,129,38*6E
$GBGSV,6,2,24,09,24,053,39,58,26,046,,19,33,118,47,45,30,189,*60
$GBGSV,6,3,24,46,32,051,,36,62,124,51,21,83,022,,02,06,108,35*6E
$GBGSV,6,4,24,06,10,053,36,28,02,343,,34,06,290,40,11,10,313,39*63
$GBGSV,6,5,24,40,03,076,,43,04,333,,12,06,263,36,16,07,052,38*63
$GBGSV,6,6,24,48,07,119,,07,02,110,,10,01,116,,60,07,111,40*68
$GPGGA,055947.00,,,,,0,00,,,M,,M,,*42
$PTNL,GGK,055947.00,010125,4742.1601213,N,01618.1000907,E,1,41,0.7,EHT751.2016,M*46
$GPGGQ,055947.00,010125,4742.1601213,N,01618.1000907,E,1,41,0.769,707.9951,M*35
$GPGFA,055947.00,3.848,4.788,0.405,0.295,349.645,0.584,,VVV*02
$GPLLK,055947.00,010125,,M,,M,1,41,0.7,,M*03
$GNGMP,055947.00,,,,,DAAA,41,0.4,,,,*5D
$GPGMP,055947.00,,,,,,11,,,,1.5,136*77
$GLGMP,055947.00,,,,,,09,,,,,*7C
$GAGMP,055947.00,,,,,,09,,,,,*71
$GBGMP,055947.00,,,,,,12,,,,,*78
$PSSN,SNC,[0,280805000,2347]*43
$GPZDA,055952.00,01,01,2025,,*6D
$GPDTM,W84,,00.0000000,N,00.0000000,E,00.0000000,W84*5F
$PSSN,TFM,055952.00,,,,*61
$GPRMC,055952.00,A,4742.1601198,N,01618.1000950,E,0.0,,010125,5.1,E,D*13
$GPGLL,4742.1601198,N,01618.1000950,E,055952.00,A,D*62
$GPGGA,055952.00,4742.1601198,N,01618.1000950,E,2,41,0.4,707.9945,M,43.2066,M,2.1,0136*4D
$GNGNS,055952.00,4742.1601198,N,01618.1000950,E,DAAA,41,0.4,707.9945,43.2066,,*56
$GPGNS,055952.00,,,,,,11,,,,2.1,136*74
$GLGNS,055952.00,,,,,,09,,,,,*78
$GAGNS,055952.00,,,,,,09,,,,,*75
$GBGNS,055952.00,,,,,,12,,,,,*7C
$GPLLQ,055952.00,010125,,M,,M,1,41,0.780,,M*15
$GPVTG,,T,,M,0.00,N,0.01,K,D*27
$GPHDT,,T*1B
$GPTHS,,V*0E
$GPROT,,V*08
$PSSN,HRP,055952.00,010125,,,,,,,00,0,,*6F
$PTNL,AVR,055952.00,,Yaw,,Tilt,,,,0,,00*39
$GPGSA,A,3,04,05,06,07,09,11,13,14,16,20,30,,0.7,0.4,0.5*3C
$GPGSA,A,3,65,71,72,73,74,75,81,87,88,,,,0.7,0.4,0.5*37
$GPGSA,A,3,03,05,09,13,15,24,25,31,34,,,,0.7,0.4,0.5*39
$GPGSA,A,3,02,05,06,09,11,12,16,19,22,34,36,60,0.7,0.4,0.5*34
$GPGST,055952.00,2.062,0.400,0.304,348.725,0.397,0.309,0.596*5E
$GPGBS,055952.00,2.275,2.285,3.039,87,0.0001,-6.748,6.292*76
$GPGRS,055952.00,1,0.4,-0.1,-0.8,-0.2,-0.2,-0.0,1.0,-0.1,-0.6,-0.1,0.4,*60
$GPGRS,055952.00,1,-3.1,-1.1,5.7,4.0,3.2,-2.1,1.7,-6.7,-1.5,,,*46
$GPGRS,055952.00,1,-0.3,0.4,0.8,0.2,0.1,0.5,-0.6,-0.6,0.5,,,*4F
$GPGRS,055952.00,1,-0.0,0.7,1.2,0.7,2.2,-1.2,0.8,-0.8,-0.6,-1.2,0.6,-2.0*41
$GPGSV,5,1,20,07,73,076,49,06,13,211,39,05,29,311,45,04,11,090,39*77
$GPGSV,5,2,20,13,13,272,40,11,29,245,45,09,38,088,45,30,64,211,50*73
$GPGSV,5,3,20,20,58,284,48,16,08,029,37,14,08,170,37,36,35,170,45*7B
$GPGSV,5,4,20,58,13,245,37,40,24,133,37,34,31,208,44,49,34,195,45*7C
$GPGSV,5,5,20,57,07,111,37,41,07,108,35,61,03,257,38*49
$GLGSV,3,1,11,72,67,346,51,87,10,246,42,65,16,303,42,75,14,184,43*61
$GLGSV,3,2,11,88,21,303,47,71,46,094,50,73,50,055,49,74,57,143,48*6F
$GLGSV,3,3,11,81,08,354,43,70,02,112,22,80,04,023,39*51
$GAGSV,3,1,11,05,72,059,49,13,12,331,39,25,14,159,41,09,20,086,42*68
$GAGSV,3,2,11,31,24,049,42,16,28,138,,34,25,221,43,24,36,108,45*6C
$GAGSV,3,3,11,15,35,280,44,03,48,283,47,08,00,273,*5B
$GBGSV,6,1,24,22,87,047,52,50,12,300,,26,22,183,,05,22,129,38*6E
$GBGSV,6,2,24,09,24,053,40,58,26,046,,19,33,118,47,45,30,189,*6E
$GBGSV,6,3,24,46,32,051,,36,62,124,51,21,83,022,,02,06,108,35*6E
$GBGSV,6,4,24,06,10,053,37,28,02,343,,34,06,290,40,11,10,313,40*6C
$GBGSV,6,5,24,40,03,076,,43,04,333,,12,06,263,37,16,07,052,38*62
$GBGSV,6,6,24,48,07,119,,07,02,110,,10,01,116,,60,07,111,40*68
$GPGGA,055952.00,,,,,0,00,,,M,,M,,*46
$PTNL,GGK,055952.00,010125,4742.1601198,N,01618.1000950,E,1,41,0.7,EHT751.2010,M*46
$GPGGQ,055952.00,010125,4742.1601198,N,01618.1000950,E,1,41,0.780,707.9945,M*31
$GPGFA,055952.00,3.806,4.885,0.400,0.304,348.725,0.596,,VVV*07
$GPLLK,055952.00,010125,,M,,M,1,41,0.7,,M*07
$GNGMP,055952.00,,,,,DAAA,41,0.4,,,,*59
$GPGMP,055952.00,,,,,,11,,,,2.1,136*74
$GLGMP,055952.00,,,,,,09,,,,,*78
$GAGMP,055952.00,,,,,,09,,,,,*75
$GBGMP,055952.00,,,,,,12,,,,,*7C
$PSSN,SNC,[0,280810000,2347]*47
$GPZDA,055957.00,01,01,2025,,*68
$GPDTM,W84,,00.0000000,N,00.0000000,E,00.0000000,W84*5F
$PSSN,TFM,055957.00,,,,*64
$GPRMC,055957.00,A,4742.1601178,N,01618.1000952,E,0.0,,010125,5.1,E,D*1A
$GPGLL,4742.1601178,N,01618.1000952,E,055957.00,A,D*6B
$GPGGA,055957.00,4742.1601178,N,01618.1000952,E,2,41,0.4,707.9927,M,43.2066,M,3.1,0136*41
$GNGNS,055957.00,4742.1601178,N,01618.1000952,E,DAAA,41,0.4,707.9927,43.2066,,*5B
$GPGNS,055957.00,,,,,,11,,,,3.1,136*70
$GLGNS,055957.00,,,,,,09,,,,,*7D
$GAGNS,055957.00,,,,,,09,,,,,*70
$GBGNS,055957.00,,,,,,12,,,,,*79
$GPLLQ,055957.00,010125,,M,,M,1,41,0.786,,M*16
$GPVTG,,T,,M,0.00,N,0.00,K,D*26
$GPHDT,,T*1B
$GPTHS,,V*0E
$GPROT,,V*08
$PSSN,HRP,055957.00,010125,,,,,,,00,0,,*6A
$PTNL,AVR,055957.00,,Yaw,,Tilt,,,,0,,00*3C
$GPGSA,A,3,04,05,06,07,09,11,13,14,16,20,30,,0.7,0.4,0.5*3C
$GPGSA,A,3,65,71,72,73,74,75,81,87,88,,,,0.7,0.4,0.5*37
$GPGSA,A,3,03,05,09,13,15,24,25,31,34,,,,0.7,0.4,0.5*39
$GPGSA,A,3,02,05,06,09,11,12,16,19,22,34,36,60,0.7,0.4,0.5*34
$GPGST,055957.00,1.926,0.403,0.309,347.957,0.400,0.314,0.600*52
$GPGBS,055957.00,2.300,2.317,3.090,13,0.0001,1.410,1.063*5B
$GPGRS,055957.00,1,-0.1,-0.1,-0.4,-0.2,0.2,-0.5,1.4,-0.0,0.2,-0.2,0.3,*41
$GPGRS,055957.00,1,-2.8,-0.9,5.6,3.7,2.7,-1.4,1.4,-6.2,-1.9,,,*4B
$GPGRS,055957.00,1,-0.3,0.4,0.7,0.7,0.4,0.5,-0.7,-0.4,0.6,,,*45
$GPGRS,055957.00,1,-0.0,1.1,1.0,0.6,2.4,0.2,0.6,-0.6,-0.4,-0.4,0.6,-2.1*6E
$GPGSV,5,1,20,07,73,076,49,06,13,211,40,05,29,311,44,04,11,090,38*79
$GPGSV,5,2,20,13,13,272,40,11,29,245,44,09,38,088,45,30,64,211,50*72
$GPGSV,5,3,20,20,58,284,48,16,08,029,36,14,08,170,37,36,35,170,45*7A
$GPGSV,5,4,20,58,13,245,37,40,24,133,37,34,31,208,44,49,34,195,45*7C
$GPGSV,5,5,20,57,07,111,37,41,07,108,35,61,03,257,38*49
$GLGSV,3,1,11,72,67,346,51,87,10,246,41,65,16,304,42,75,14,184,43*65
$GLGSV,3,2,11,88,21,303,46,71,46,094,50,73,50,055,49,74,57,143,48*6E
$GLGSV,3,3,11,81,08,354,42,70,02,112,21,80,04,023,38*52
$GAGSV,3,1,11,05,72,060,49,13,12,331,39,25,14,159,41,09,20,086,42*62
$GAGSV,3,2,11,31,24,049,42,16,28,138,,34,25,221,43,24,36,108,45*6C
$GAGSV,3,3,11,15,35,280,44,03,48,283,46,08,00,273,*5A
$GBGSV,6,1,24,22,87,048,52,50,12,300,,26,22,183,,05,22,129,38*61
$GBGSV,6,2,24,09,24,053,39,58,26,046,,19,33,118,47,45,30,189,*60
$GBGSV,6,3,24,46,31,051,,36,62,124,51,21,83,022,,02,06,108,35*6D
$GBGSV,6,4,24,06,10,053,37,28,02,343,,34,06,290,39,11,10,313,40*62
$GBGSV,6,5,24,40,03,076,,43,04,333,,12,06,263,38,16,07,052,38*6D
$GBGSV,6,6,24,48,07,119,,07,02,110,,10,01,116,,60,07,111,40*68
$GPGGA,055957.00,,,,,0,00,,,M,,M,,*43
$PTNL,GGK,055957.00,010125,4742.1601178,N,01618.1000952,E,1,41,0.7,EHT751.1992,M*4F
$GPGGQ,055957.00,010125,4742.1601178,N,01618.1000952,E,1,41,0.786,707.9927,M*3A
$GPGFA,055957.00,3.834,4.916,0.403,0.309,347.957,0.600,,VVV*0E
$GPLLK,055957.00,010125,,M,,M,1,41,0.7,,M*02
$GNGMP,055957.00,,,,,DAAA,41,0.4,,,,*5C
$GPGMP,055957.00,,,,,,11,,,,3.1,136*70
$GLGMP,055957.00,,,,,,09,,,,,*7D
$GAGMP,055957.00,,,,,,09,,,,,*70
$GBGMP,055957.00,,,,,,12,,,,,*79
$PSSN,SNC,[0,280815000,2347]*42
$GPZDA,060002.00,01,01,2025,,*67
$GPDTM,W84,,00.0000000,N,00.0000000,E,00.0000000,W84*5F
$PSSN,TFM,060002.00,,,,*6B
$GPRMC,060002.00,A,4742.1601169,N,01618.1000931,E,0.0,,010125,5.1,E,D*10
$GPGLL,4742.1601169,N,01618.1000931,E,060002.00,A,D*61
$GPGGA,060002.00,4742.1601169,N,01618.1000931,E,2,41,0.4,707.9937,M,43.2066,M,3.3,0136*48
$GNGNS,060002.00,4742.1601169,N,01618.1000931,E,DAAA,41,0.4,707.9937,43.2066,,*50
$GPGNS,060002.00,,,,,,11,,,,3.3,136*7D
$GLGNS,060002.00,,,,,,09,,,,,*72
$GAGNS,060002.00,,,,,,09,,,,,*7F
$GBGNS,060002.00,,,,,,12,,,,,*76
$GPLLQ,060002.00,010125,,M,,M,1,41,0.794,,M*1A
$GPVTG,,T,,M,0.01,N,0.01,K,D*26
$GPHDT,,T*1B
$GPTHS,,V*0E
$GPROT,,V*08
$PSSN,HRP,060002.00,010125,,,,,,,00,0,,*65
$PTNL,AVR,060002.00,,Yaw,,Tilt,,,,0,,00*33
$GPGSA,A,3,04,05,06,07,09,11,13,14,16,20,30,,0.7,0.4,0.5*3C
$GPGSA,A,3,65,71,72,73,74,75,81,87,88,,,,0.7,0.4,0.5*37
$GPGSA,A,3,03,05,09,13,15,24,25,31,34,,,,0.7,0.4,0.5*39
$GPGSA,A,3,02,05,06,09,11,12,16,19,22,34,36,60,0.7,0.4,0.5*34
$GPGST,060002.00,1.946,0.407,0.313,348.173,0.404,0.317,0.606*54
$GPGBS,060002.00,2.242,2.314,3.147,87,0.0001,-6.026,6.293*77
$GPGRS,060002.00,1,-0.7,-0.2,-0.5,-0.3,0.2,-0.5,0.9,0.2,0.6,0.0,0.4,*44
$GPGRS,060002.00,1,-3.3,-0.8,5.4,3.9,2.1,-1.9,0.5,-6.0,-2.1,,,*41
$GPGRS,060002.00,1,-0.3,0.2,0.5,0.7,0.1,0.3,-0.6,-0.4,0.4,,,*4E
$GPGRS,060002.00,1,-0.4,1.3,0.5,0.7,3.0,1.7,-0.1,-0.8,-0.5,-0.9,0.6,-1.9*40
$GPGSV,5,1,20,07,73,076,49,06,13,211,40,05,29,311,44,04,11,090,38*79
$GPGSV,5,2,20,13,13,272,41,11,29,245,45,09,38,088,45,30,64,211,50*72
$GPGSV,5,3,20,20,58,284,48,16,07,029,37,14,08,170,38,36,35,170,45*7B
$GPGSV,5,4,20,58,13,245,37,40,24,133,37,34,31,208,43,49,34,195,45*7B
$GPGSV,5,5,20,57,07,111,37,41,07,108,35,61,03,257,38*49
$GLGSV,3,1,11,72,67,346,50,87,10,246,42,65,16,304,41,75,14,184,43*64
$GLGSV,3,2,11,88,21,303,46,71,46,094,50,73,50,055,49,74,57,143,48*6E
$GLGSV,3,3,11,81,08,353,41,70,02,112,22,80,04,023,39*54
$GAGSV,3,1,11,05,72,060,49,13,12,331,39,25,14,159,41,09,20,086,42*62
$GAGSV,3,2,11,31,24,049,42,16,28,138,,34,25,221,42,24,36,108,45*6D
$GAGSV,3,3,11,15,35,280,44,03,48,283,47,08,00,273,*5B
$GBGSV,6,1,24,22,87,049,52,50,12,300,,26,22,183,,05,22,129,38*60
$GBGSV,6,2,24,09,24,053,40,58,26,046,,19,33,118,47,45,30,189,*6E
$GBGSV,6,3,24,46,31,051,,36,62,124,52,21,83,022,,02,06,108,35*6E
$GBGSV,6,4,24,06,10,053,37,28,02,343,,34,06,290,39,11,10,313,40*62
$GBGSV,6,5,24,40,03,076,,43,04,333,,12,06,263,38,16,07,052,37*62
$GBGSV,6,6,24,48,07,119,,07,02,110,,10,01,116,,60,07,111,40*68
$GPGGA,060002.00,,,,,0,00,,,M,,M,,*4C
$PTNL,GGK,060002.00,010125,4742.1601169,N,01618.1000931,E,1,41,0.7,EHT751.2003,M*47
$GPGGQ,060002.00,010125,4742.1601169,N,01618.1000931,E,1,41,0.794,707.9937,M*32
$GPGFA,060002.00,3.871,4.967,0.407,0.313,348.173,0.606,,VVV*0E
$GPLLK,060002.00,010125,,M,,M,1,41,0.7,,M*0D
$GNGMP,060002.00,,,,,DAAA,41,0.4,,,,*53
$GPGMP,060002.00,,,,,,11,,,,3.3,136*7D
$GLGMP,060002.00,,,,,,09,,,,,*72
$GAGMP,060002.00,,,,,,09,,,,,*7F
$GBGMP,060002.00,,,,,,12,,,,,*76
$PSSN,SNC,[0,280820000,2347]*44
$GPZDA,060007.00,01,01,2025,,*62
$GPDTM,W84,,00.0000000,N,00.0000000,E,00.0000000,W84*5F
$PSSN,TFM,060007.00,,,,*6E
$GPRMC,060007.00,A,4742.1601158,N,01618.1000935,E,0.0,,010125,5.1,E,D*13
$GPGLL,4742.1601158,N,01618.1000935,E,060007.00,A,D*62
$GPGGA,060007.00,4742.1601158,N,01618.1000935,E,2,41,0.4,707.9922,M,43.2066,M,1.5,0136*4B
$GNGNS,060007.00,4742.1601158,N,01618.1000935,E,DAAA,41,0.4,707.9922,43.2066,,*57
$GPGNS,060007.00,,,,,,11,,,,1.5,136*7C
$GLGNS,060007.00,,,,,,09,,,,,*77
$GAGNS,060007.00,,,,,,09,,,,,*7A
$GBGNS,060007.00,,,,,,12,,,,,*73
$GPLLQ,060007.00,010125,,M,,M,1,41,0.788,,M*12
$GPVTG,,T,,M,0.00,N,0.00,K,D*26
$GPHDT,,T*1B
$GPTHS,,V*0E
$GPROT,,V*08
$PSSN,HRP,060007.00,010125,,,,,,,00,0,,*60
$PTNL,AVR,060007.00,,Yaw,,Tilt,,,,0,,00*36
$GPGSA,A,3,04,05,06,07,09,11,13,14,16,20,30,,0.7,0.4,0.5*3C
$GPGSA,A,3,65,71,72,73,74,75,81,87,88,,,,0.7,0.4,0.5*37
$GPGSA,A,3,03,05,09,13,15,24,25,31,34,,,,0.7,0.4,0.5*39
$GPGSA,A,3,02,05,06,09,11,12,16,19,22,34,36,60,0.7,0.4,0.5*34
$GPGST,060007.00,1.936,0.405,0.309,348.678,0.401,0.314,0.601*52
$GPGBS,060007.00,2.279,2.256,3.119,13,0.0001,1.224,1.041*5B
$GPGRS,060007.00,1,-0.3,0.0,-0.3,-0.3,0.3,-0.1,1.2,0.2,-0.5,-0.1,0.0,*65
$GPGRS,060007.00,1,-3.1,-0.7,5.4,4.6,2.3,-1.2,-0.5,-5.7,-1.9,,,*6A
$GPGRS,060007.00,1,-0.3,0.3,0.5,0.4,0.0,0.3,-0.5,-0.8,0.6,,,*45
$GPGRS,060007.00,1,-0.6,1.1,1.1,1.0,3.0,1.0,-0.0,-0.8,-0.4,-0.9,0.5,-2.1*49
$GPGSV,5,1,20,07,73,076,49,06,13,211,40,05,29,311,44,04,11,090,38*79
$GPGSV,5,2,20,13,13,273,40,11,29,245,44,09,38,088,45,30,64,211,50*73
$GPGSV,5,3,20,20,58,283,48,16,07,029,37,14,08,170,38,36,35,170,45*7C
$GPGSV,5,4,20,58,13,245,37,40,24,133,37,34,31,208,44,49,34,195,45*7C
$GPGSV,5,5,20,57,07,111,38,41,07,108,36,61,03,257,38*45
$GLGSV,3,1,11,72,67,346,51,87,10,246,42,65,16,304,42,75,14,184,44*61
$GLGSV,3,2,11,88,21,303,46,71,46,094,50,73,50,055,49,74,57,143,49*6F
$GLGSV,3,3,11,81,08,353,41,70,02,112,21,80,04,023,39*57
$GAGSV,3,1,11,05,72,060,49,13,12,331,39,25,14,159,41,09,20,086,42*62
$GAGSV,3,2,11,31,24,049,42,16,28,138,,34,25,221,43,24,36,108,45*6C
$GAGSV,3,3,11,15,35,280,45,03,48,283,47,08,00,273,*5A
$GBGSV,6,1,24,22,87,050,52,50,13,300,,26,22,183,,05,22,129,38*69
$GBGSV,6,2,24,09,24,053,39,58,26,046,,19,33,118,47,45,30,189,*60
$GBGSV,6,3,24,46,31,051,,36,63,124,52,21,83,023,,02,06,108,35*6E
$GBGSV,6,4,24,06,10,053,36,28,02,343,,34,06,290,40,11,10,313,40*6D
$GBGSV,6,5,24,40,03,076,,43,04,332,,12,06,263,37,16,07,052,38*63
$GBGSV,6,6,24,48,07,119,,07,02,110,,10,01,116,,60,07,111,40*68
$GPGGA,060007.00,,,,,0,00,,,M,,M,,*49
$PTNL,GGK,060007.00,010125,4742.1601158,N,01618.1000935,E,1,41,0.7,EHT751.1987,M*42
$GPGGQ,060007.00,010125,4742.1601158,N,01618.1000935,E,1,41,0.788,707.9922,M*38
$GPGFA,060007.00,3.848,4.932,0.405,0.309,348.678,0.601,,VVV*03
$GPLLK,060007.00,010125,,M,,M,1,41,0.7,,M*08
$GNGMP,060007.00,,,,,DAAA,41,0.4,,,,*56
$GPGMP,060007.00,,,,,,11,,,,1.5,136*7C
$GLGMP,060007.00,,,,,,09,,,,,*77
$GAGMP,060007.00,,,,,,09,,,,,*7A
$GBGMP,060007.00,,,,,,12,,,,,*73
$PSSN,SNC,[0,280825000,2347]*41
$GPZDA,060012.00,01,01,2025,,*66
$GPDTM,W84,,00.0000000,N,00.0000000,E,00.0000000,W84*5F
$PSSN,TFM,060012.00,,,,*6A
$GPRMC,060012.00,A,4742.1601163,N,01618.1000939,E,0.0,,010125,5.1,E,D*13
$GPGLL,4742.1601163,N,01618.1000939,E,060012.00,A,D*62
$GPGGA,060012.00,4742.1601163,N,01618.1000939,E,2,41,0.4,707.9964,M,43.2066,M,2.1,0136*4E
$GNGNS,060012.00,4742.1601163,N,01618.1000939,E,DAAA,41,0.4,707.9964,43.2066,,*55
$GPGNS,060012.00,,,,,,11,,,,2.1,136*7F
$GLGNS,060012.00,,,,,,09,,,,,*73
$GAGNS,060012.00,,,,,,09,,,,,*7E
$GBGNS,060012.00,,,,,,12,,,,,*77
$GPLLQ,060012.00,010125,,M,,M,1,41,0.779,,M*18
$GPVTG,,T,,M,0.01,N,0.01,K,D*26
$GPHDT,,T*1B
$GPTHS,,V*0E
$GPROT,,V*08
$PSSN,HRP,060012.00,010125,,,,,,,00,0,,*64
$PTNL,AVR,060012.00,,Yaw,,Tilt,,,,0,,00*32
$GPGSA,A,3,04,05,06,07,09,11,13,14,16,20,30,,0.7,0.4,0.5*3C
$GPGSA,A,3,65,71,72,73,74,75,81,87,88,,,,0.7,0.4,0.5*37
$GPGSA,A,3,03,05,09,13,15,24,25,31,34,,,,0.7,0.4,0.5*39
$GPGSA,A,3,02,05,06,09,11,12,16,19,22,34,36,60,0.7,0.4,0.5*34
$GPGST,060012.00,2.116,0.400,0.304,348.894,0.397,0.308,0.595*50
$GPGBS,060012.00,2.276,2.284,3.038,72,0.0001,7.091,6.039*58
$GPGRS,060012.00,1,-0.3,-0.0,-0.7,-0.2,0.2,-0.2,1.1,0.2,0.1,-0.1,0.1,*60
$GPGRS,060012.00,1,-2.6,0.2,7.1,4.3,2.8,-1.4,-0.2,-6.8,-1.3,,,*4E
$GPGRS,060012.00,1,-0.3,0.3,0.5,-0.1,0.2,0.4,-0.5,-0.6,0.6,,,*62
$GPGRS,060012.00,1,-0.4,0.8,0.4,0.2,2.9,0.8,0.8,-0.5,-0.4,-0.3,0.0,-2.1*66
$GPGSV,5,1,20,07,73,076,49,06,13,211,39,05,29,311,44,04,11,090,38*77
$GPGSV,5,2,20,13,13,273,41,11,29,245,44,09,38,088,45,30,64,211,50*72
$GPGSV,5,3,20,20,58,283,48,16,07,029,37,14,08,170,38,36,35,170,45*7C
$GPGSV,5,4,20,58,13,245,37,40,24,133,37,34,31,208,44,49,34,195,45*7C
$GPGSV,5,5,20,57,07,111,37,41,07,108,35,61,03,257,38*49
$GLGSV,3,1,11,72,67,346,51,87,10,246,41,65,16,304,41,75,14,184,44*61
$GLGSV,3,2,11,88,21,303,46,71,46,094,50,73,50,055,49,74,57,143,49*6F
$GLGSV,3,3,11,81,08,353,41,70,02,112,21,80,04,023,39*57
$GAGSV,3,1,11,05,72,060,49,13,12,331,39,25,14,159,41,09,20,086,42*62
$GAGSV,3,2,11,31,24,049,42,16,28,138,,34,25,221,43,24,36,108,45*6C
$GAGSV,3,3,11,15,35,280,44,03,48,283,47,08,00,273,*5B
$GBGSV,6,1,24,22,87,050,52,50,13,300,,26,22,183,,05,22,129,38*69
$GBGSV,6,2,24,58,26,046,,09,24,053,39,19,33,118,48,45,30,189,*6F
$GBGSV,6,3,24,46,31,051,,36,63,124,52,21,83,023,,02,06,108,35*6E
$GBGSV,6,4,24,06,10,053,36,28,02,343,,34,06,290,40,11,10,313,40*6D
$GBGSV,6,5,24,40,03,076,,43,04,332,,12,06,263,37,16,07,052,38*63
$GBGSV,6,6,24,48,07,119,,07,02,110,,10,01,116,,60,07,111,40*68
$GPGGA,060012.00,,,,,0,00,,,M,,M,,*4D
$PTNL,GGK,060012.00,010125,4742.1601163,N,01618.1000939,E,1,41,0.7,EHT751.2030,M*44
$GPGGQ,060012.00,010125,4742.1601163,N,01618.1000939,E,1,41,0.779,707.9964,M*34
$GPGFA,060012.00,3.806,4.879,0.400,0.304,348.894,0.595,,VVV*09
$GPLLK,060012.00,010125,,M,,M,1,41,0.7,,M*0C
$GNGMP,060012.00,,,,,DAAA,41,0.4,,,,*52
$GPGMP,060012.00,,,,,,11,,,,2.1,136*7F
$GLGMP,060012.00,,,,,,09,,,,,*73
$GAGMP,060012.00,,,,,,09,,,,,*7E
$GBGMP,060012.00,,,,,,12,,,,,*77
$PSSN,SNC,[0,280830000,2347]*45
$GPZDA,060017.00,01,01,2025,,*63
$GPDTM,W84,,00.0000000,N,00.0000000,E,00.0000000,W84*5F
$PSSN,TFM,060017.00,,,,*6F
$GPRMC,060017.00,A,4742.1601143,N,01618.1000911,E,0.0,,010125,5.1,E,D*1E
$GPGLL,4742.1601143,N,01618.1000911,E,060017.00,A,D*6F
$GPGGA,060017.00,4742.1601143,N,01618.1000911,E,2,41,0.4,707.9951,M,43.2066,M,3.1,0136*44
$GNGNS,060017.00,4742.1601143,N,01618.1000911,E,DAAA,41,0.4,707.9951,43.2066,,*5E
$GPGNS,060017.00,,,,,,11,,,,3.1,136*7B
$GLGNS,060017.00,,,,,,09,,,,,*76
$GAGNS,060017.00,,,,,,09,,,,,*7B
$GBGNS,060017.00,,,,,,12,,,,,*72
$GPLLQ,060017.00,010125,,M,,M,1,41,0.785,,M*1E
$GPVTG,,T,,M,0.00,N,0.01,K,D*27
$GPHDT,,T*1B
$GPTHS,,V*0E
$GPROT,,V*08
$PSSN,HRP,060017.00,010125,,,,,,,00,0,,*61
$PTNL,AVR,060017.00,,Yaw,,Tilt,,,,0,,00*37
$GPGSA,A,3,04,05,06,07,09,11,13,14,16,20,30,,0.7,0.4,0.5*3C
$GPGSA,A,3,65,71,72,73,74,75,81,87,88,,,,0.7,0.4,0.5*37
$GPGSA,A,3,03,05,09,13,15,24,25,31,34,,,,0.7,0.4,0.5*39
$GPGSA,A,3,02,05,06,09,11,12,16,19,22,34,36,60,0.7,0.4,0.5*34
$GPGST,060017.00,1.998,0.403,0.309,348.070,0.400,0.313,0.599*5B
$GPGBS,060017.00,2.301,2.315,3.092,72,0.0001,6.760,6.039*5D
$GPGRS,060017.00,1,-0.7,-0.1,-0.6,-0.1,0.2,-0.3,0.8,0.2,0.1,-0.2,0.4,*6D
$GPGRS,060017.00,1,-2.3,0.2,6.8,4.0,2.5,-1.5,0.7,-5.8,-1.7,,,*66
$GPGRS,060017.00,1,-0.3,0.3,0.3,-0.3,0.3,0.5,-0.4,-0.5,0.4,,,*63
$GPGRS,060017.00,1,0.0,0.6,0.3,0.2,3.7,-0.1,0.4,0.1,-0.9,-0.7,-0.3,-2.1*6A
$GPGSV,5,1,20,07,73,076,49,06,13,211,39,05,29,311,44,04,11,090,38*77
$GPGSV,5,2,20,13,13,273,40,11,29,245,44,09,38,088,45,30,64,211,50*73
$GPGSV,5,3,20,20,58,283,48,16,07,029,38,14,08,170,38,36,35,170,45*73
$GPGSV,5,4,20,58,13,245,37,40,24,133,37,34,31,208,44,49,34,195,45*7C
$GPGSV,5,5,20,57,07,111,38,41,07,108,36,61,03,257,38*45
$GLGSV,3,1,11,72,67,346,51,71,46,094,50,75,14,184,44,65,16,304,42*65
$GLGSV,3,2,11,88,21,303,46,73,50,055,50,74,58,143,48,80,04,023,39*62
$GLGSV,3,3,11,81,08,353,41,87,10,246,42,70,02,112,22*5B
$GAGSV,3,1,11,05,72,060,49,13,12,331,38,25,14,159,41,09,20,086,41*60
$GAGSV,3,2,11,31,24,049,42,16,28,138,,34,25,221,43,24,36,108,45*6C
$GAGSV,3,3,11,15,35,280,45,03,48,283,47,08,00,273,*5A
$GBGSV,6,1,24,22,87,051,52,50,13,300,,26,22,183,,05,22,129,38*68
$GBGSV,6,2,24,58,26,046,,09,24,053,39,19,33,118,48,45,31,189,*6E
$GBGSV,6,3,24,46,31,051,,36,63,123,51,21,83,023,,02,06,108,35*6A
$GBGSV,6,4,24,06,09,053,36,28,02,343,,34,06,290,40,11,10,313,40*65
$GBGSV,6,5,24,40,03,076,,43,04,332,,12,06,263,37,16,07,052,38*63
$GBGSV,6,6,24,48,07,119,,07,02,110,,10,01,116,,60,07,111,41*69
$GPGGA,060017.00,,,,,0,00,,,M,,M,,*48
$PTNL,GGK,060017.00,010125,4742.1601143,N,01618.1000911,E,1,41,0.7,EHT751.2016,M*4D
$GPGGQ,060017.00,010125,4742.1601143,N,01618.1000911,E,1,41,0.785,707.9951,M*3C
$GPGFA,060017.00,3.835,4.911,0.403,0.309,348.070,0.599,,VVV*03
$GPLLK,060017.00,010125,,M,,M,1,41,0.7,,M*09
$GNGMP,060017.00,,,,,DAAA,41,0.4,,,,*57
$GPGMP,060017.00,,,,,,11,,,,3.1,136*7B
$GLGMP,060017.00,,,,,,09,,,,,*76
$GAGMP,060017.00,,,,,,09,,,,,*7B
$GBGMP,060017.00,,,,,,12,,,,,*72
$PSSN,SNC,[0,280835000,2347]*40
$GPZDA,060022.00,01,01,2025,,*65
$GPDTM,W84,,00.0000000,N,00.0000000,E,00.0000000,W84*5F
$PSSN,TFM,060022.00,,,,*69
$GPRMC,060022.00,A,4742.1601138,N,01618.1000891,E,0.0,,010125,5.1,E,D*1D
$GPGLL,4742.1601138,N,01618.1000891,E,060022.00,A,D*6C
$GPGGA,060022.00,4742.1601138,N,01618.1000891,E,2,41,0.4,707.9901,M,43.2066,M,3.3,0136*40
$GNGNS,060022.00,4742.1601138,N,01618.1000891,E,DAAA,41,0.4,707.9901,43.2066,,*58
$GPGNS,060022.00,,,,,,11,,,,3.3,136*7F
$GLGNS,060022.00,,,,,,09,,,,,*70
$GAGNS,060022.00,,,,,,09,,,,,*7D
$GBGNS,060022.00,,,,,,12,,,,,*74
$GPLLQ,060022.00,010125,,M,,M,1,41,0.794,,M*18
$GPVTG,,T,,M,0.00,N,0.00,K,D*26
$GPHDT,,T*1B
$GPTHS,,V*0E
$GPROT,,V*08
$PSSN,HRP,060022.00,010125,,,,,,,00,0,,*67
$PTNL,AVR,060022.00,,Yaw,,Tilt,,,,0,,00*31
$GPGSA,A,3,04,05,06,07,09,11,13,14,16,20,30,,0.7,0.4,0.5*3C
$GPGSA,A,3,65,71,72,73,74,75,81,87,88,,,,0.7,0.4,0.5*37
$GPGSA,A,3,03,05,09,13,15,24,25,31,34,,,,0.7,0.4,0.5*39
$GPGSA,A,3,02,05,06,09,11,12,16,19,22,34,36,60,0.7,0.4,0.5*34
$GPGST,060022.00,1.973,0.407,0.313,348.262,0.404,0.317,0.605*50
$GPGBS,060022.00,2.244,2.314,3.149,72,0.0001,6.849,6.039*59
$GPGRS,060022.00,1,-0.6,-0.1,-0.1,-0.2,0.4,-0.0,0.5,-0.1,-0.2,-0.2,0.0,*62
$GPGRS,060022.00,1,-1.5,0.6,6.8,4.2,2.5,-1.8,1.7,-4.2,-2.3,,,*63
$GPGRS,060022.00,1,-0.4,0.3,0.5,-0.1,0.1,0.4,-0.2,-0.4,0.5,,,*63
$GPGRS,060022.00,1,-0.1,1.2,0.3,-0.1,4.0,-2.2,0.7,0.0,-0.7,-0.8,-0.1,-2.1*6B
$GPGSV,5,1,20,07,73,075,49,06,13,211,39,05,29,311,44,04,11,090,38*74
$GPGSV,5,2,20,13,13,273,40,11,29,245,45,09,38,088,45,30,64,211,50*72
$GPGSV,5,3,20,20,58,283,48,16,07,029,38,14,08,170,38,36,35,170,45*73
$GPGSV,5,4,20,58,13,245,37,40,24,133,37,34,31,208,44,49,34,195,45*7C
$GPGSV,5,5,20,57,07,111,38,41,07,108,35,61,03,257,39*47
$GLGSV,3,1,11,72,68,347,51,71,45,094,50,75,14,184,44,65,16,304,42*68
$GLGSV,3,2,11,88,21,303,45,73,50,055,49,74,58,143,48,80,04,023,40*67
$GLGSV,3,3,11,81,08,353,42,87,10,246,43,70,02,112,*59
$GAGSV,3,1,11,05,72,060,49,13,12,331,38,25,14,159,41,09,20,086,41*60
$GAGSV,3,2,11,31,24,049,42,16,28,138,,34,24,221,43,24,36,108,45*6D
$GAGSV,3,3,11,15,35,280,44,03,48,283,47,08,00,273,*5B
$GBGSV,6,1,24,22,87,052,52,50,13,300,,26,22,183,,05,22,129,38*6B
$GBGSV,6,2,24,58,26,046,,09,24,053,39,19,33,118,47,45,31,189,*61
$GBGSV,6,3,24,46,31,051,,36,63,123,52,21,83,024,,02,06,108,35*6E
$GBGSV,6,4,24,06,09,053,36,28,02,343,,34,06,290,40,11,10,313,40*65
$GBGSV,6,5,24,40,03,076,,43,04,332,,12,06,263,36,16,07,052,38*62
$GBGSV,6,6,24,48,07,119,,07,02,110,,10,01,116,,60,07,111,41*69
$GPGGA,060022.00,,,,,0,00,,,M,,M,,*4E
$PTNL,GGK,060022.00,010125,4742.1601138,N,01618.1000891,E,1,41,0.7,EHT751.1966,M*43
$GPGGQ,060022.00,010125,4742.1601138,N,01618.1000891,E,1,41,0.794,707.9901,M*3A
$GPGFA,060022.00,3.872,4.962,0.407,0.313,348.262,0.605,,VVV*0A
$GPLLK,060022.00,010125,,M,,M,1,41,0.7,,M*0F
$GNGMP,060022.00,,,,,DAAA,41,0.4,,,,*51
$GPGMP,060022.00,,,,,,11,,,,3.3,136*7F
$GLGMP,060022.00,,,,,,09,,,,,*70
$GAGMP,060022.00,,,,,,09,,,,,*7D
$GBGMP,060022.00,,,,,,12,,,,,*74
$PSSN,SNC,[0,280840000,2347]*42
$GPZDA,060027.00,01,01,2025,,*60
$GPDTM,W84,,00.0000000,N,00.0000000,E,00.0000000,W84*5F
$PSSN,TFM,060027.00,,,,*6C
$GPRMC,060027.00,A,4742.1601148,N,01618.1000863,E,0.0,,010125,5.1,E,D*12
$GPGLL,4742.1601148,N,01618.1000863,E,060027.00,A,D*63
$GPGGA,060027.00,4742.1601148,N,01618.1000863,E,2,41,0.4,707.9922,M,43.2066,M,1.5,0136*4A
$GNGNS,060027.00,4742.1601148,N,01618.1000863,E,DAAA,41,0.4,707.9922,43.2066,,*56
$GPGNS,060027.00,,,,,,11,,,,1.5,136*7E
$GLGNS,060027.00,,,,,,09,,,,,*75
$GAGNS,060027.00,,,,,,09,,,,,*78
$GBGNS,060027.00,,,,,,12,,,,,*71
$GPLLQ,060027.00,010125,,M,,M,1,41,0.788,,M*10
$GPVTG,,T,,M,0.00,N,0.01,K,D*27
$GPHDT,,T*1B
$GPTHS,,V*0E
$GPROT,,V*08
$PSSN,HRP,060027.00,010125,,,,,,,00,0,,*62
$PTNL,AVR,060027.00,,Yaw,,Tilt,,,,0,,00*34
$GPGSA,A,3,04,05,06,07,09,11,13,14,16,20,30,,0.7,0.4,0.5*3C
$GPGSA,A,3,65,71,72,73,74,75,81,87,88,,,,0.7,0.4,0.5*37
$GPGSA,A,3,03,05,09,13,15,24,25,31,34,,,,0.7,0.4,0.5*39
$GPGSA,A,3,02,05,06,09,11,12,16,19,22,34,36,60,0.7,0.4,0.5*34
$GPGST,060027.00,2.010,0.405,0.309,348.776,0.402,0.314,0.601*52
$GPGBS,060027.00,2.282,2.256,3.122,72,0.0001,6.686,6.039*51
$GPGRS,060027.00,1,-1.1,0.1,-0.0,-0.2,0.3,0.0,0.6,-0.1,-0.6,-0.3,0.3,*62
$GPGRS,060027.00,1,-2.1,0.4,6.7,3.7,2.5,-1.4,1.6,-5.9,-2.5,,,*6F
$GPGRS,060027.00,1,-0.4,0.4,0.7,0.5,-0.2,0.3,-0.3,-0.4,0.7,,,*60
$GPGRS,060027.00,1,-0.3,1.0,0.5,-0.6,1.9,-2.9,0.7,-0.4,-0.6,-0.8,0.2,-1.8*64
$GPGSV,5,1,20,07,73,075,49,06,13,211,39,05,29,311,44,04,11,090,39*75
$GPGSV,5,2,20,13,13,273,41,11,29,245,45,09,38,088,45,30,64,211,50*73
$GPGSV,5,3,20,20,58,283,48,16,07,029,37,14,08,170,38,36,35,170,45*7C
$GPGSV,5,4,20,58,13,245,37,40,24,133,37,34,31,208,44,49,34,195,45*7C
$GPGSV,5,5,20,57,07,111,37,41,07,108,36,61,03,257,39*4B
$GLGSV,3,1,11,72,68,347,51,71,45,094,50,75,14,184,44,65,16,304,43*69
$GLGSV,3,2,11,88,21,303,46,73,50,055,49,74,58,143,48,80,04,023,40*64
$GLGSV,3,3,11,81,08,353,41,87,10,246,42,70,02,112,21*58
$GAGSV,3,1,11,05,72,060,49,13,12,331,39,25,14,159,41,09,20,086,41*61
$GAGSV,3,2,11,31,24,049,42,16,28,138,,34,24,221,43,24,36,108,45*6D
$GAGSV,3,3,11,15,35,280,44,03,48,283,46,08,00,273,*5A
$GBGSV,6,1,24,22,87,052,52,50,13,300,,26,22,183,,05,22,129,38*6B
$GBGSV,6,2,24,58,26,046,,09,24,053,39,19,33,118,47,45,31,189,*61
$GBGSV,6,3,24,46,31,051,,36,63,123,52,21,83,024,,02,06,108,35*6E
$GBGSV,6,4,24,06,09,053,36,28,02,342,,34,06,289,40,11,10,313,39*62
$GBGSV,6,5,24,40,03,076,,43,04,332,,12,06,263,36,16,07,052,38*62
$GBGSV,6,6,24,48,07,119,,07,02,110,,10,01,116,,60,07,111,41*69
$GPGGA,060027.00,,,,,0,00,,,M,,M,,*4B
$PTNL,GGK,060027.00,010125,4742.1601148,N,01618.1000863,E,1,41,0.7,EHT751.1988,M*4C
$GPGGQ,060027.00,010125,4742.1601148,N,01618.1000863,E,1,41,0.788,707.9922,M*39
$GPGFA,060027.00,3.850,4.929,0.405,0.309,348.776,0.601,,VVV*0D
$GPLLK,060027.00,010125,,M,,M,1,41,0.7,,M*0A
$GNGMP,060027.00,,,,,DAAA,41,0.4,,,,*54
$GPGMP,060027.00,,,,,,11,,,,1.5,136*7E
$GLGMP,060027.00,,,,,,09,,,,,*75
$GAGMP,060027.00,,,,,,09,,,,,*78
$GBGMP,060027.00,,,,,,12,,,,,*71
$PSSN,SNC,[0,280845000,2347]*47
$GPZDA,060032.00,01,01,2025,,*64
$GPDTM,W84,,00.0000000,N,00.0000000,E,00.0000000,W84*5F
$PSSN,TFM,060032.00,,,,*68
$GPRMC,060032.00,A,4742.1601152,N,01618.1000858,E,0.0,,010125,5.1,E,D*15
$GPGLL,4742.1601152,N,01618.1000858,E,060032.00,A,D*64
$GPGGA,060032.00,4742.1601152,N,01618.1000858,E,2,41,0.4,707.9922,M,43.2066,M,2.1,0136*4A
$GNGNS,060032.00,4742.1601152,N,01618.1000858,E,DAAA,41,0.4,707.9922,43.2066,,*51
$GPGNS,060032.00,,,,,,11,,,,2.1,136*7D
$GLGNS,060032.00,,,,,,09,,,,,*71
$GAGNS,060032.00,,,,,,09,,,,,*7C
$GBGNS,060032.00,,,,,,12,,,,,*75
$GPLLQ,060032.00,010125,,M,,M,1,41,0.779,,M*1A
$GPVTG,,T,,M,0.00,N,0.00,K,D*26
$GPHDT,,T*1B
$GPTHS,,V*0E
$GPROT,,V*08
$PSSN,HRP,060032.00,010125,,,,,,,00,0,,*66
$PTNL,AVR,060032.00,,Yaw,,Tilt,,,,0,,00*30
$GPGSA,A,3,04,05,06,07,09,11,13,14,16,20,30,,0.7,0.4,0.5*3C
$GPGSA,A,3,65,71,72,73,74,75,81,87,88,,,,0.7,0.4,0.5*37
$GPGSA,A,3,03,05,09,13,15,24,25,31,34,,,,0.7,0.4,0.5*39
$GPGSA,A,3,02,05,06,09,11,12,16,19,22,34,36,60,0.7,0.4,0.5*34
$GPGST,060032.00,2.010,0.401,0.304,349.093,0.398,0.308,0.595*55
$GPGBS,060032.00,2.279,2.285,3.042,72,0.0001,6.546,6.039*57
$GPGRS,060032.00,1,-0.3,0.2,-0.3,-0.1,0.3,-0.2,1.0,-0.2,-0.9,-0.3,0.2,*43
$GPGRS,060032.00,1,-1.8,0.2,6.5,4.1,2.9,-2.0,0.5,-6.5,-1.3,,,*67
$GPGRS,060032.00,1,-0.3,0.4,0.7,0.7,-0.1,0.3,-0.2,-1.0,0.5,,,*64
$GPGRS,060032.00,1,-1.0,1.1,1.0,-0.6,1.0,-0.5,0.6,-0.3,-0.7,-1.2,-0.0,-2.3*4B
$GPGSV,5,1,20,07,73,075,49,06,13,211,38,05,29,311,44,04,11,090,39*74
$GPGSV,5,2,20,13,13,273,40,11,29,245,45,09,38,088,45,30,64,211,50*72
$GPGSV,5,3,20,20,58,283,48,16,07,029,36,14,08,170,38,36,35,170,45*7D
$GPGSV,5,4,20,58,13,245,37,40,24,133,37,34,31,208,44,49,34,195,45*7C
$GPGSV,5,5,20,57,07,111,38,41,07,108,35,61,03,257,38*46
$GLGSV,3,1,11,72,68,347,51,71,45,094,49,75,15,184,43,65,16,304,42*66
$GLGSV,3,2,11,88,21,302,46,73,50,055,49,74,58,143,48,80,04,023,40*65
$GLGSV,3,3,11,81,08,353,40,87,10,246,42,70,02,112,20*58
$GAGSV,3,1,11,05,72,060,49,13,12,331,39,25,14,159,41,09,20,087,40*61
$GAGSV,3,2,11,31,24,049,42,16,28,138,,34,24,221,42,24,36,108,45*6C
$GAGSV,3,3,11,15,35,280,44,03,48,283,46,08,00,273,*5A
$GBGSV,6,1,24,22,87,053,52,50,13,300,,26,22,183,,05,22,129,38*6A
$GBGSV,6,2,24,58,26,046,,09,24,053,39,19,33,118,47,45,31,189,*61
$GBGSV,6,3,24,46,31,051,,36,63,123,52,21,83,024,,02,06,108,35*6E
$GBGSV,6,4,24,06,09,053,36,28,02,342,,34,06,289,40,11,10,313,39*62
$GBGSV,6,5,24,40,03,076,,43,04,332,,12,06,263,37,16,07,052,38*63
$GBGSV,6,6,24,48,07,119,,07,02,110,,10,01,116,,60,07,111,40*68
$GPGGA,060032.00,,,,,0,00,,,M,,M,,*4F
$PTNL,GGK,060032.00,010125,4742.1601152,N,01618.1000858,E,1,41,0.7,EHT751.1987,M*44
$GPGGQ,060032.00,010125,4742.1601152,N,01618.1000858,E,1,41,0.779,707.9922,M*30
$GPGFA,060032.00,3.810,4.880,0.401,0.304,349.093,0.595,,VVV*05
$GPLLK,060032.00,010125,,M,,M,1,41,0.7,,M*0E
$GNGMP,060032.00,,,,,DAAA,41,0.4,,,,*50
$GPGMP,060032.00,,,,,,11,,,,2.1,136*7D
$GLGMP,060032.00,,,,,,09,,,,,*71
$GAGMP,060032.00,,,,,,09,,,,,*7C
$GBGMP,060032.00,,,,,,12,,,,,*75
$PSSN,SNC,[0,280850000,2347]*43
$GPZDA,060037.00,01,01,2025,,*61
$GPDTM,W84,,00.0000000,N,00.0000000,E,00.0000000,W84*5F
$PSSN,TFM,060037.00,,,,*6D
$GPRMC,060037.00,A,4742.1601160,N,01618.1000855,E,0.0,,010125,5.1,E,D*1C
$GPGLL,4742.1601160,N,01618.1000855,E,060037.00,A,D*6D
$GPGGA,060037.00,4742.1601160,N,01618.1000855,E,2,41,0.4,707.9900,M,43.2066,M,3.1,0136*42
$GNGNS,060037.00,4742.1601160,N,01618.1000855,E,DAAA,41,0.4,707.9900,43.2066,,*58
$GPGNS,060037.00,,,,,,11,,,,3.1,136*79
$GLGNS,060037.00,,,,,,09,,,,,*74
$GAGNS,060037.00,,,,,,09,,,,,*79
$GBGNS,060037.00,,,,,,12,,,,,*70
$GPLLQ,060037.00,010125,,M,,M,1,41,0.789,,M*10
$GPVTG,,T,,M,0.00,N,0.00,K,D*26
$GPHDT,,T*1B
$GPTHS,,V*0E
$GPROT,,V*08
$PSSN,HRP,060037.00,010125,,,,,,,00,0,,*63
$PTNL,AVR,060037.00,,Yaw,,Tilt,,,,0,,00*35
$GPGSA,A,3,04,05,06,07,09,11,13,14,16,20,30,,0.7,0.4,0.5*3C
$GPGSA,A,3,65,71,72,73,74,75,81,87,88,,,,0.7,0.4,0.5*37
$GPGSA,A,3,03,05,09,13,15,24,25,31,34,,,,0.7,0.4,0.5*39
$GPGSA,A,3,02,05,06,09,11,12,16,19,22,34,36,60,0.7,0.4,0.5*34
$GPGST,060037.00,1.972,0.405,0.311,347.866,0.401,0.316,0.601*54
$GPGBS,060037.00,2.326,2.335,3.118,72,0.0001,6.508,6.039*57
$GPGRS,060037.00,1,-0.4,-0.1,-0.1,-0.0,0.3,-0.6,0.7,-0.3,-0.6,-0.1,0.2,*62
$GPGRS,060037.00,1,-2.5,-0.0,6.5,4.0,2.3,-2.1,1.0,-5.9,-1.6,,,*47
$GPGRS,060037.00,1,-0.5,0.4,0.9,0.5,0.1,0.5,-0.8,-0.9,0.2,,,*45
$GPGRS,060037.00,1,-0.2,1.3,0.4,0.1,1.8,1.0,0.6,-0.4,-0.6,-0.7,-0.2,-2.6*44
$GPGSV,5,1,20,07,73,075,49,06,12,211,38,05,29,311,44,04,11,090,38*74
$GPGSV,5,2,20,13,13,273,40,11,29,245,45,09,38,088,44,30,64,211,50*73
$GPGSV,5,3,20,20,58,283,48,16,07,029,37,14,08,170,38,36,35,170,45*7C
$GPGSV,5,4,20,58,13,245,37,40,24,133,37,34,31,208,44,49,34,195,45*7C
$GPGSV,5,5,20,57,07,111,38,41,07,108,35,61,03,257,38*46
$GLGSV,3,1,11,72,68,347,51,71,45,094,50,75,15,184,43,65,16,304,43*6F
$GLGSV,3,2,11,88,21,302,46,73,50,055,49,74,58,143,48,80,04,023,40*65
$GLGSV,3,3,11,81,08,353,42,87,10,246,42,70,02,112,19*50
$GAGSV,3,1,11,05,72,060,49,13,12,331,38,25,15,159,40,09,20,087,41*61
$GAGSV,3,2,11,31,24,049,41,16,28,138,,34,24,221,42,24,36,108,45*6F
$GAGSV,3,3,11,15,35,280,44,03,48,283,46,08,00,273,*5A
$GBGSV,6,1,24,22,87,054,52,50,13,300,,26,23,183,,05,22,129,38*6C
$GBGSV,6,2,24,58,26,046,,09,24,053,39,19,32,118,47,45,31,189,*60
$GBGSV,6,3,24,46,31,051,,36,63,123,52,21,83,025,,02,06,108,35*6F
$GBGSV,6,4,24,06,09,053,36,28,02,342,,34,06,289,41,11,10,313,39*63
$GBGSV,6,5,24,40,03,076,,43,04,332,,12,06,263,38,16,07,052,38*6C
$GBGSV,6,6,24,48,07,119,,07,02,110,,10,01,116,,60,07,111,40*68
$GPGGA,060037.00,,,,,0,00,,,M,,M,,*4A
$PTNL,GGK,060037.00,010125,4742.1601160,N,01618.1000855,E,1,41,0.7,EHT751.1966,M*42
$GPGGQ,060037.00,010125,4742.1601160,N,01618.1000855,E,1,41,0.789,707.9900,M*36
$GPGFA,060037.00,3.852,4.930,0.405,0.311,347.866,0.601,,VVV*0E
$GPLLK,060037.00,010125,,M,,M,1,41,0.7,,M*0B
$GNGMP,060037.00,,,,,DAAA,41,0.4,,,,*55
$GPGMP,060037.00,,,,,,11,,,,3.1,136*79
$GLGMP,060037.00,,,,,,09,,,,,*74
$GAGMP,060037.00,,,,,,09,,,,,*79
$GBGMP,060037.00,,,,,,12,,,,,*70
$PSSN,SNC,[0,280855000,2347]*46
$GPZDA,060042.00,01,01,2025,,*63
$GPDTM,W84,,00.0000000,N,00.0000000,E,00.0000000,W84*5F
$PSSN,TFM,060042.00,,,,*6F
$GPRMC,060042.00,A,4742.1601152,N,01618.1000830,E,0.0,,010125,5.1,E,D*1C
$GPGLL,4742.1601152,N,01618.1000830,E,060042.00,A,D*6D
$GPGGA,060042.00,4742.1601152,N,01618.1000830,E,2,41,0.4,707.9900,M,43.2066,M,3.3,0136*40
$GNGNS,060042.00,4742.1601152,N,01618.1000830,E,DAAA,41,0.4,707.9900,43.2066,,*58
$GPGNS,060042.00,,,,,,11,,,,3.3,136*79
$GLGNS,060042.00,,,,,,09,,,,,*76
$GAGNS,060042.00,,,,,,09,,,,,*7B
$GBGNS,060042.00,,,,,,12,,,,,*72
$GPLLQ,060042.00,010125,,M,,M,1,41,0.800,,M*1C
$GPVTG,,T,,M,0.00,N,0.00,K,D*26
$GPHDT,,T*1B
$GPTHS,,V*0E
$GPROT,,V*08
$PSSN,HRP,060042.00,010125,,,,,,,00,0,,*61
$PTNL,AVR,060042.00,,Yaw,,Tilt,,,,0,,00*37
$GPGSA,A,3,04,05,06,07,09,11,13,14,16,20,30,,0.7,0.4,0.5*3C
$GPGSA,A,3,65,71,72,73,74,75,81,87,88,,,,0.7,0.4,0.5*37
$GPGSA,A,3,03,05,09,13,15,24,25,31,34,,,,0.7,0.4,0.5*39
$GPGSA,A,3,02,05,06,09,11,12,16,19,22,34,36,60,0.7,0.4,0.5*34
$GPGST,060042.00,2.029,0.411,0.315,347.771,0.407,0.320,0.609*51
$GPGBS,060042.00,2.271,2.334,3.171,13,0.0001,1.325,1.069*53
$GPGRS,060042.00,1,-0.7,0.1,-0.0,-0.2,0.2,-0.3,1.3,-0.1,-0.2,-0.3,0.1,*4B
$GPGRS,060042.00,1,-1.7,0.2,6.7,4.1,2.4,-2.8,2.9,-5.7,-1.1,,,*65
$GPGRS,060042.00,1,-0.3,0.4,0.8,0.3,0.0,0.2,-0.8,-0.7,0.5,,,*49
$GPGRS,060042.00,1,-0.1,0.6,-0.4,0.0,2.3,1.1,0.4,-0.6,-0.5,-0.2,0.2,-2.5*4C
$GPGSV,5,1,20,07,73,075,49,06,12,211,39,05,29,311,43,04,11,090,38*72
$GPGSV,5,2,20,13,13,273,40,11,29,245,45,09,38,088,44,30,64,211,50*73
$GPGSV,5,3,20,20,58,283,48,16,07,029,36,14,08,170,38,36,35,170,45*7D
$GPGSV,5,4,20,58,13,245,37,40,24,133,37,34,31,208,44,49,34,195,45*7C
$GPGSV,5,5,20,57,07,111,38,41,07,108,35,61,03,257,39*47
$GLGSV,3,1,11,72,68,347,51,71,45,094,50,75,15,184,44,65,16,304,43*68
$GLGSV,3,2,11,88,21,302,47,73,50,055,49,74,58,143,48,80,04,023,40*64
$GLGSV,3,3,11,81,08,353,42,87,10,246,42,70,02,112,*58
$GAGSV,3,1,11,05,72,060,49,13,12,331,38,25,15,159,40,09,20,087,41*61
$GAGSV,3,2,11,31,24,049,41,16,28,138,,34,24,221,43,24,36,108,45*6E
$GAGSV,3,3,11,15,35,280,44,03,48,283,46,08,01,273,*5B
$GBGSV,6,1,24,22,87,054,52,50,13,300,,26,23,183,,05,22,129,38*6C
$GBGSV,6,2,24,58,26,046,,09,24,053,39,19,32,118,47,45,31,189,*60
$GBGSV,6,3,24,46,31,051,,36,63,123,52,21,83,025,,02,06,108,35*6F
$GBGSV,6,4,24,06,09,053,36,28,02,342,,34,06,289,40,11,10,313,39*62
$GBGSV,6,5,24,40,03,076,,43,04,332,,12,06,263,38,16,07,052,38*6C
$GBGSV,6,6,24,48,07,119,,07,02,110,,10,01,116,,60,07,111,40*68
$GPGGA,060042.00,,,,,0,00,,,M,,M,,*48
$PTNL,GGK,060042.00,010125,4742.1601152,N,01618.1000830,E,1,41,0.7,EHT751.1966,M*42
$GPGGQ,060042.00,010125,4742.1601152,N,01618.1000830,E,1,41,0.800,707.9900,M*38
$GPGFA,060042.00,3.908,4.995,0.411,0.315,347.771,0.609,,VVV*0D
$GPLLK,060042.00,010125,,M,,M,1,41,0.7,,M*09
$GNGMP,060042.00,,,,,DAAA,41,0.4,,,,*57
$GPGMP,060042.00,,,,,,11,,,,3.3,136*79
$GLGMP,060042.00,,,,,,09,,,,,*76
$GAGMP,060042.00,,,,,,09,,,,,*7B
$GBGMP,060042.00,,,,,,12,,,,,*72
$PSSN,SNC,[0,280860000,2347]*40
$GPZDA,060047.00,01,01,2025,,*66
$GPDTM,W84,,00.0000000,N,00.0000000,E,00.0000000,W84*5F
$PSSN,TFM,060047.00,,,,*6A
$GPRMC,060047.00,A,4742.1601144,N,01618.1000848,E,0.0,,010125,5.1,E,D*11
$GPGLL,4742.1601144,N,01618.1000848,E,060047.00,A,D*60
$GPGGA,060047.00,4742.1601144,N,01618.1000848,E,2,41,0.4,707.9926,M,43.2066,M,4.3,0136*4E
$GNGNS,060047.00,4742.1601144,N,01618.1000848,E,DAAA,41,0.4,707.9926,43.2066,,*51
$GPGNS,060047.00,,,,,,11,,,,4.3,136*7B
$GLGNS,060047.00,,,,,,09,,,,,*73
$GAGNS,060047.00,,,,,,09,,,,,*7E
$GBGNS,060047.00,,,,,,12,,,,,*77
$GPLLQ,060047.00,010125,,M,,M,1,41,0.807,,M*1E
$GPVTG,,T,,M,0.00,N,0.01,K,D*27
$GPHDT,,T*1B
$GPTHS,,V*0E
$GPROT,,V*08
$PSSN,HRP,060047.00,010125,,,,,,,00,0,,*64
$PTNL,AVR,060047.00,,Yaw,,Tilt,,,,0,,00*32
$GPGSA,A,3,04,05,06,07,09,11,13,14,16,20,30,,0.7,0.4,0.5*3C
$GPGSA,A,3,65,71,72,73,74,75,81,87,88,,,,0.7,0.4,0.5*37
$GPGSA,A,3,03,05,09,13,15,24,25,31,34,,,,0.7,0.4,0.5*39
$GPGSA,A,3,02,05,06,09,11,12,16,19,22,34,36,60,0.7,0.4,0.5*34
$GPGST,060047.00,1.964,0.415,0.319,347.911,0.411,0.324,0.614*58
$GPGBS,060047.00,2.293,2.369,3.237,72,0.0001,6.465,6.039*52
$GPGRS,060047.00,1,-0.5,0.1,-0.1,-0.4,0.5,-0.1,1.0,-0.1,-0.7,-0.4,0.2,*4C
$GPGRS,060047.00,1,-2.0,-0.1,6.5,3.9,2.5,-1.4,1.9,-6.4,-1.2,,,*49
$GPGRS,060047.00,1,-0.3,0.3,0.8,-0.1,-0.2,0.1,-0.7,-0.6,0.3,,,*40
$GPGRS,060047.00,1,-1.0,1.0,-0.4,0.3,1.8,0.5,0.3,-0.4,-0.7,-0.6,0.3,-2.3*44
$GPGSV,5,1,20,07,73,075,49,06,12,211,39,05,29,311,44,04,11,090,38*75
$GPGSV,5,2,20,13,13,273,40,11,29,245,45,09,38,088,45,30,64,211,50*72
$GPGSV,5,3,20,20,58,283,48,16,07,029,36,14,08,170,39,36,35,170,45*7C
$GPGSV,5,4,20,58,13,245,37,40,24,133,37,34,31,208,44,49,34,195,45*7C
$GPGSV,5,5,20,57,07,111,38,41,07,108,36,61,03,257,39*44
$GLGSV,3,1,11,72,68,347,51,71,45,094,50,75,15,184,45,65,16,304,43*69
$GLGSV,3,2,11,88,21,302,46,73,50,055,49,74,58,143,48,80,04,023,40*65
$GLGSV,3,3,11,81,08,353,41,87,10,246,42,70,02,113,*5A
$GAGSV,3,1,11,05,72,060,49,13,12,331,38,25,15,159,40,09,20,087,41*61
$GAGSV,3,2,11,31,24,049,42,16,28,138,,34,24,221,43,24,36,108,45*6D
$GAGSV,3,3,11,15,35,280,44,03,48,283,46,08,01,273,*5B
$GBGSV,6,1,24,22,87,055,52,05,22,129,38,26,23,183,,50,13,300,*6D
$GBGSV,6,2,24,58,26,045,,09,24,053,39,19,32,118,47,45,31,189,*63
$GBGSV,6,3,24,46,31,051,,36,63,123,52,21,83,025,,02,06,108,36*6C
$GBGSV,6,4,24,06,09,053,36,28,02,342,,34,06,289,40,11,10,312,39*63
$GBGSV,6,5,24,40,03,076,,43,04,332,,12,06,263,38,16,07,052,38*6C
$GBGSV,6,6,24,48,07,119,,07,02,110,,10,01,116,,60,07,111,40*68
$GPGGA,060047.00,,,,,0,00,,,M,,M,,*4D
$PTNL,GGK,060047.00,010125,4742.1601144,N,01618.1000848,E,1,41,0.7,EHT751.1992,M*44
$GPGGQ,060047.00,010125,4742.1601144,N,01618.1000848,E,1,41,0.807,707.9926,M*36
$GPGFA,060047.00,3.942,5.034,0.415,0.319,347.911,0.614,,VVV*09
$GPLLK,060047.00,010125,,M,,M,1,41,0.7,,M*0C
$GNGMP,060047.00,,,,,DAAA,41,0.4,,,,*52
$GPGMP,060047.00,,,,,,11,,,,4.3,136*7B
$GLGMP,060047.00,,,,,,09,,,,,*73
$GAGMP,060047.00,,,,,,09,,,,,*7E
$GBGMP,060047.00,,,,,,12,,,,,*77
$PSSN,SNC,[0,280865000,2347]*45
$GPZDA,060052.00,01,01,2025,,*62
$GPDTM,W84,,00.0000000,N,00.0000000,E,00.0000000,W84*5F
$PSSN,TFM,060052.00,,,,*6E
$GPRMC,060052.00,A,4742.1601131,N,01618.1000831,E,0.0,,010125,5.1,E,D*19
$GPGLL,4742.1601131,N,01618.1000831,E,060052.00,A,D*68
$GPGGA,060052.00,4742.1601131,N,01618.1000831,E,2,41,0.4,707.9938,M,43.2066,M,1.7,0136*48
$GNGNS,060052.00,4742.1601131,N,01618.1000831,E,DAAA,41,0.4,707.9938,43.2066,,*56
$GPGNS,060052.00,,,,,,11,,,,1.7,136*7E
$GLGNS,060052.00,,,,,,09,,,,,*77
$GAGNS,060052.00,,,,,,09,,,,,*7A
$GBGNS,060052.00,,,,,,12,,,,,*73
$GPLLQ,060052.00,010125,,M,,M,1,41,0.797,,M*1C
$GPVTG,,T,,M,0.00,N,0.00,K,D*26
$GPHDT,,T*1B
$GPTHS,,V*0E
$GPROT,,V*08
$PSSN,HRP,060052.00,010125,,,,,,,00,0,,*60
$PTNL,AVR,060052.00,,Yaw,,Tilt,,,,0,,00*36
$GPGSA,A,3,04,05,06,07,09,11,13,14,16,20,30,,0.7,0.4,0.5*3C
$GPGSA,A,3,65,71,72,73,74,75,81,87,88,,,,0.7,0.4,0.5*37
$GPGSA,A,3,03,05,09,13,15,24,25,31,34,,,,0.7,0.4,0.5*39
$GPGSA,A,3,02,05,06,09,11,12,16,19,22,34,36,60,0.7,0.4,0.5*34
$GPGST,060052.00,1.972,0.410,0.313,348.320,0.406,0.317,0.608*58
$GPGBS,060052.00,2.326,2.284,3.149,72,0.0001,6.348,6.039*59
$GPGRS,060052.00,1,0.0,0.3,-0.8,-0.3,0.4,-0.1,0.7,-0.2,-0.2,-0.1,0.3,*69
$GPGRS,060052.00,1,-2.5,-0.1,6.3,3.9,2.5,-0.5,-0.2,-6.2,-2.3,,,*6D
$GPGRS,060052.00,1,-0.4,0.2,0.4,0.4,-0.1,0.1,-0.6,-0.8,0.4,,,*6D
$GPGRS,060052.00,1,-1.2,1.1,0.2,0.6,1.9,1.0,0.2,-0.3,-0.8,-1.3,-0.1,-2.5*4C
$GPGSV,5,1,20,07,73,075,49,06,12,211,40,05,29,311,44,04,11,090,38*7B
$GPGSV,5,2,20,13,13,273,40,11,29,245,45,09,38,088,45,30,64,211,50*72
$GPGSV,5,3,20,20,58,283,48,16,07,029,37,14,08,170,39,36,35,170,45*7D
$GPGSV,5,4,20,58,13,245,37,40,24,133,37,34,31,208,44,49,34,195,45*7C
$GPGSV,5,5,20,57,07,111,38,41,07,108,36,61,03,257,39*44
$GLGSV,3,1,11,72,68,347,51,71,45,094,50,75,15,184,45,65,16,304,42*68
$GLGSV,3,2,11,88,21,302,46,73,49,055,49,74,58,143,48,80,04,023,40*6D
$GLGSV,3,3,11,81,08,353,41,87,10,246,42,70,02,113,*5A
$GAGSV,3,1,11,05,72,060,48,13,12,331,38,25,15,159,40,09,20,087,41*60
$GAGSV,3,2,11,31,24,049,41,16,28,138,,34,24,221,43,24,36,108,45*6E
$GAGSV,3,3,11,15,35,280,44,03,49,283,46,08,01,273,*5A
$GBGSV,6,1,24,22,87,056,52,05,22,129,38,26,23,183,,50,13,300,*6E
$GBGSV,6,2,24,58,26,045,,09,24,053,40,19,32,118,47,45,31,189,*6D
$GBGSV,6,3,24,46,31,051,,36,63,123,52,21,83,026,,02,06,108,35*6C
$GBGSV,6,4,24,06,09,053,36,28,02,342,,34,06,289,40,11,10,312,39*63
$GBGSV,6,5,24,40,03,076,,43,04,332,,12,06,263,37,16,07,052,38*63
$GBGSV,6,6,24,48,07,119,,07,02,110,,10,01,116,,60,07,111,41*69
$GPGGA,060052.00,,,,,0,00,,,M,,M,,*49
$PTNL,GGK,060052.00,010125,4742.1601131,N,01618.1000831,E,1,41,0.7,EHT751.2003,M*4E
$GPGGQ,060052.00,010125,4742.1601131,N,01618.1000831,E,1,41,0.797,707.9938,M*37
$GPGFA,060052.00,3.895,4.985,0.410,0.313,348.320,0.608,,VVV*01
$GPLLK,060052.00,010125,,M,,M,1,41,0.7,,M*08
$GNGMP,060052.00,,,,,DAAA,41,0.4,,,,*56
$GPGMP,060052.00,,,,,,11,,,,1.7,136*7E
$GLGMP,060052.00,,,,,,09,,,,,*77
$GAGMP,060052.00,,,,,,09,,,,,*7A
$GBGMP,060052.00,,,,,,12,,,,,*73
$PSSN,SNC,[0,280870000,2347]*41
$GPZDA,060057.00,01,01,2025,,*67
$GPDTM,W84,,00.0000000,N,00.0000000,E,00.0000000,W84*5F
$PSSN,TFM,060057.00,,,,*6B
$GPRMC,060057.00,A,4742.1601098,N,01618.1000821,E,0.0,,010125,5.1,E,D*1F
$GPGLL,4742.1601098,N,01618.1000821,E,060057.00,A,D*6E
$GPGGA,060057.00,4742.1601098,N,01618.1000821,E,2,41,0.4,707.9923,M,43.2066,M,2.3,0136*43
$GNGNS,060057.00,4742.1601098,N,01618.1000821,E,DAAA,41,0.4,707.9923,43.2066,,*5A
$GPGNS,060057.00,,,,,,11,,,,2.3,136*7C
$GLGNS,060057.00,,,,,,09,,,,,*72
$GAGNS,060057.00,,,,,,09,,,,,*7F
$GBGNS,060057.00,,,,,,12,,,,,*76
$GPLLQ,060057.00,010125,,M,,M,1,41,0.788,,M*17
$GPVTG,,T,,M,0.00,N,0.00,K,D*26
$GPHDT,,T*1B
$GPTHS,,V*0E
$GPROT,,V*08
$PSSN,HRP,060057.00,010125,,,,,,,00,0,,*65
$PTNL,AVR,060057.00,,Yaw,,Tilt,,,,0,,00*33
$GPGSA,A,3,04,05,06,07,09,11,13,14,16,20,30,,0.7,0.4,0.5*3C
$GPGSA,A,3,65,71,72,73,74,75,81,87,88,,,,0.7,0.4,0.5*37
$GPGSA,A,3,03,05,09,13,15,24,25,31,34,,,,0.7,0.4,0.5*39
$GPGSA,A,3,02,05,06,09,11,12,16,19,22,34,36,60,0.7,0.4,0.5*34
$GPGST,060057.00,1.941,0.405,0.308,348.402,0.402,0.312,0.601*5C
$GPGBS,060057.00,2.326,2.313,3.066,72,0.0001,6.612,6.039*55
$GPGRS,060057.00,1,-0.7,0.4,-0.5,-0.2,0.5,-0.3,0.9,-0.4,0.3,-0.3,0.2,*69
$GPGRS,060057.00,1,-2.9,-0.1,6.6,3.6,2.4,-0.8,0.1,-5.5,-2.1,,,*4A
$GPGRS,060057.00,1,-0.4,0.1,0.3,0.6,-0.3,-0.2,-0.7,-1.1,0.7,,,*48
$GPGRS,060057.00,1,-1.0,0.9,-0.1,0.1,1.9,-0.1,0.4,-0.4,-0.7,-1.6,-0.5,-2.6*4A
$GPGSV,5,1,20,07,73,075,49,06,12,211,40,05,29,311,44,04,11,090,38*7B
$GPGSV,5,2,20,13,13,273,41,11,29,244,45,09,38,088,45,30,64,211,50*72
$GPGSV,5,3,20,20,58,283,48,16,07,029,37,14,08,170,39,36,35,170,45*7D
$GPGSV,5,4,20,58,13,245,37,40,24,133,37,34,31,208,44,49,34,195,45*7C
$GPGSV,5,5,20,57,07,111,38,41,07,108,35,61,03,257,38*46
$GLGSV,3,1,11,72,68,347,51,71,45,094,50,75,15,184,45,65,16,304,42*68
$GLGSV,3,2,11,88,21,302,46,73,49,054,50,74,58,143,49,80,04,023,41*64
$GLGSV,3,3,11,81,08,353,42,87,10,246,43,70,02,113,*58
$GAGSV,3,1,11,05,72,060,49,13,12,331,38,25,15,159,41,09,20,087,40*61
$GAGSV,3,2,11,31,24,049,41,16,28,138,,34,24,221,42,24,36,108,45*6F
$GAGSV,3,3,11,15,35,280,44,03,49,283,46,08,01,273,*5A
$GBGSV,6,1,24,22,87,056,52,05,22,129,38,26,23,183,,50,13,300,*6E
$GBGSV,6,2,24,58,26,045,,09,24,053,40,19,32,118,47,45,31,189,*6D
$GBGSV,6,3,24,46,31,051,,36,63,123,51,21,83,026,,02,06,108,35*6F
$GBGSV,6,4,24,06,09,053,36,28,02,342,,34,06,289,40,11,10,312,39*63
$GBGSV,6,5,24,40,03,076,,43,04,332,,12,06,263,37,16,07,052,38*63
$GBGSV,6,6,24,48,07,119,,07,02,110,,10,01,116,,60,07,111,40*68
$GPGGA,060057.00,,,,,0,00,,,M,,M,,*4C
$PTNL,GGK,060057.00,010125,4742.1601098,N,01618.1000821,E,1,41,0.7,EHT751.1988,M*41
$GPGGQ,060057.00,010125,4742.1601098,N,01618.1000821,E,1,41,0.788,707.9923,M*35
$GPGFA,060057.00,3.853,4.932,0.405,0.308,348.402,0.601,,VVV*02
$GPLLK,060057.00,010125,,M,,M,1,41,0.7,,M*0D
$GNGMP,060057.00,,,,,DAAA,41,0.4,,,,*53
$GPGMP,060057.00,,,,,,11,,,,2.3,136*7C
$GLGMP,060057.00,,,,,,09,,,,,*72
$GAGMP,060057.00,,,,,,09,,,,,*7F
$GBGMP,060057.00,,,,,,12,,,,,*76
$PSSN,SNC,[0,280875000,2347]*44
$GPZDA,060102.00,01,01,2025,,*66
$GPDTM,W84,,00.0000000,N,00.0000000,E,00.0000000,W84*5F
$PSSN,TFM,060102.00,,,,*6A
$GPRMC,060102.00,A,4742.1601085,N,01618.1000830,E,0.0,,010125,5.1,E,D*12
$GPGLL,4742.1601085,N,01618.1000830,E,060102.00,A,D*63
$GPGGA,060102.00,4742.1601085,N,01618.1000830,E,2,41,0.4,707.9923,M,43.2066,M,2.5,0136*48
$GNGNS,060102.00,4742.1601085,N,01618.1000830,E,DAAA,41,0.4,707.9923,43.2066,,*57
$GPGNS,060102.00,,,,,,11,,,,2.5,136*7B
$GLGNS,060102.00,,,,,,09,,,,,*73
$GAGNS,060102.00,,,,,,09,,,,,*7E
$GBGNS,060102.00,,,,,,12,,,,,*77
$GPLLQ,060102.00,010125,,M,,M,1,41,0.795,,M*1A
$GPVTG,,T,,M,0.00,N,0.01,K,D*27
$GPHDT,,T*1B
$GPTHS,,V*0E
$GPROT,,V*08
$PSSN,HRP,060102.00,010125,,,,,,,00,0,,*64
$PTNL,AVR,060102.00,,Yaw,,Tilt,,,,0,,00*32
$GPGSA,A,3,04,05,06,07,09,11,13,14,16,20,30,,0.7,0.4,0.5*3C
$GPGSA,A,3,65,71,72,73,74,75,81,87,88,,,,0.7,0.4,0.5*37
$GPGSA,A,3,03,05,09,13,15,24,25,31,34,,,,0.7,0.4,0.5*39
$GPGSA,A,3,02,05,06,09,11,12,16,19,22,34,36,60,0.7,0.4,0.5*34
$GPGST,060102.00,2.026,0.407,0.322,346.720,0.403,0.327,0.603*54
$GPGBS,060102.00,2.273,2.284,3.182,72,0.0001,6.452,6.039*57
$GPGRS,060102.00,1,-0.4,0.2,-0.4,-0.1,0.1,0.0,0.9,-0.3,-0.7,-0.2,0.3,*6B
$GPGRS,060102.00,1,-2.8,-0.1,6.5,4.1,2.6,-1.1,2.4,-5.3,-2.4,,,*47
$GPGRS,060102.00,1,-0.6,0.3,0.5,0.4,-0.1,-0.2,-0.7,-0.9,0.7,,,*46
$GPGRS,060102.00,1,-0.0,1.2,-0.0,-0.0,3.2,-0.0,0.4,-0.6,-0.7,-1.3,-0.2,-2.4*67
$GPGSV,5,1,20,07,73,075,49,05,29,311,44,06,12,211,40,04,11,090,38*7B
$GPGSV,5,2,20,13,13,273,40,11,29,244,45,09,37,089,45,30,64,211,50*7D
$GPGSV,5,3,20,20,58,283,48,16,07,029,36,14,08,170,39,36,35,170,45*7C
$GPGSV,5,4,20,58,13,245,37,40,24,133,37,34,31,208,44,49,34,195,45*7C
$GPGSV,5,5,20,57,07,111,38,41,07,108,36,61,03,257,39*44
$GLGSV,3,1,11,72,68,347,51,71,45,094,50,75,15,184,44,65,16,304,42*69
$GLGSV,3,2,11,88,21,302,45,73,49,054,49,74,58,143,48,80,04,023,40*6F
$GLGSV,3,3,11,81,08,353,43,87,10,246,41,70,02,113,*5B
$GAGSV,3,1,11,05,72,060,49,13,12,331,38,25,15,159,41,09,20,087,40*61
$GAGSV,3,2,11,31,24,049,42,16,28,138,,34,24,221,42,24,36,108,45*6C
$GAGSV,3,3,11,15,35,280,44,03,49,283,46,08,01,273,*5A
$GBGSV,6,1,24,22,87,057,53,05,22,129,38,26,23,183,,50,13,300,*6E
$GBGSV,6,2,24,58,26,045,,09,24,053,40,19,32,118,47,45,31,189,*6D
$GBGSV,6,3,24,46,31,051,,36,63,123,52,21,83,026,,02,06,108,35*6C
$GBGSV,6,4,24,06,09,053,36,28,02,342,,34,06,289,40,11,10,312,40*6D
$GBGSV,6,5,24,40,04,076,,43,04,332,,12,06,263,37,16,07,052,38*64
$GBGSV,6,6,24,48,07,120,,07,02,110,,10,01,116,,60,07,111,40*62
$GPGGA,060102.00,,,,,0,00,,,M,,M,,*4D
$PTNL,GGK,060102.00,010125,4742.1601085,N,01618.1000830,E,1,41,0.7,EHT751.1989,M*4D
$GPGGQ,060102.00,010125,4742.1601085,N,01618.1000830,E,1,41,0.795,707.9923,M*34
$GPGFA,060102.00,3.867,4.941,0.407,0.322,346.720,0.603,,VVV*05
$GPLLK,060102.00,010125,,M,,M,1,41,0.7,,M*0C
$GNGMP,060102.00,,,,,DAAA,41,0.4,,,,*52
$GPGMP,060102.00,,,,,,11,,,,2.5,136*7B
$GLGMP,060102.00,,,,,,09,,,,,*73
$GAGMP,060102.00,,,,,,09,,,,,*7E
$GBGMP,060102.00,,,,,,12,,,,,*77
$PSSN,SNC,[0,280880000,2347]*4E
$GPZDA,060107.00,01,01,2025,,*63
$GPDTM,W84,,00.0000000,N,00.0000000,E,00.0000000,W84*5F
$PSSN,TFM,060107.00,,,,*6F
$GPRMC,060107.00,A,4742.1601051,N,01618.1000837,E,0.0,,010125,5.1,E,D*19
$GPGLL,4742.1601051,N,01618.1000837,E,060107.00,A,D*68
$GPGGA,060107.00,4742.1601051,N,01618.1000837,E,2,41,0.4,707.9892,M,43.2066,M,3.5,0136*49
$GNGNS,060107.00,4742.1601051,N,01618.1000837,E,DAAA,41,0.4,707.9892,43.2066,,*57
$GPGNS,060107.00,,,,,,11,,,,3.5,136*7F
$GLGNS,060107.00,,,,,,09,,,,,*76
$GAGNS,060107.00,,,,,,09,,,,,*7B
$GBGNS,060107.00,,,,,,12,,,,,*72
$GPLLQ,060107.00,010125,,M,,M,1,41,0.801,,M*1D
$GPVTG,,T,,M,0.00,N,0.01,K,D*27
$GPHDT,,T*1B
$GPTHS,,V*0E
$GPROT,,V*08
$PSSN,HRP,060107.00,010125,,,,,,,00,0,,*61
$PTNL,AVR,060107.00,,Yaw,,Tilt,,,,0,,00*37
$GPGSA,A,3,04,05,06,07,09,11,13,14,16,20,30,,0.7,0.4,0.5*3C
$GPGSA,A,3,65,71,72,73,74,75,81,87,88,,,,0.7,0.4,0.5*37
$GPGSA,A,3,03,05,09,13,15,24,25,31,34,,,,0.7,0.4,0.5*39
$GPGSA,A,3,02,05,06,09,11,12,16,19,22,34,36,60,0.7,0.4,0.5*34
$GPGST,060107.00,2.138,0.410,0.325,347.026,0.406,0.330,0.607*59
$GPGBS,060107.00,2.294,2.315,3.239,72,0.0001,6.712,6.039*56
$GPGRS,060107.00,1,-0.9,-0.0,-0.5,-0.1,0.4,-0.1,0.6,-0.8,-0.1,-0.3,0.3,*67
$GPGRS,060107.00,1,-2.3,0.6,6.7,4.1,2.7,-1.4,2.6,-6.7,-1.6,,,*61
$GPGRS,060107.00,1,-0.3,0.4,1.0,0.4,0.1,0.3,-0.7,-0.5,0.6,,,*49
$GPGRS,060107.00,1,-0.3,1.0,0.2,0.3,3.2,0.5,0.6,-0.5,-0.6,-0.2,0.3,-2.2*60
$GPGSV,5,1,20,07,73,075,49,05,29,311,44,06,12,211,40,04,10,090,38*7A
$GPGSV,5,2,20,13,13,273,41,11,29,244,45,09,37,089,45,30,64,211,50*7C
$GPGSV,5,3,20,20,58,283,47,16,07,029,36,14,09,170,39,36,35,170,45*72
$GPGSV,5,4,20,58,13,245,37,40,24,133,37,34,31,208,43,49,34,195,45*7B
$GPGSV,5,5,20,57,07,111,38,41,07,108,35,61,03,257,38*46
$GLGSV,3,1,11,72,68,347,51,71,45,095,50,75,15,184,43,65,16,304,42*6F
$GLGSV,3,2,11,88,21,302,46,73,49,054,49,74,58,143,48,80,04,023,40*6C
$GLGSV,3,3,11,81,08,353,43,87,10,246,42,70,02,113,*58
$GAGSV,3,1,11,05,72,060,49,13,12,331,38,25,15,159,41,09,20,087,41*60
$GAGSV,3,2,11,31,24,049,42,16,28,138,,34,24,221,42,24,36,108,45*6C
$GAGSV,3,3,11,15,35,280,44,03,49,283,46,08,01,273,*5A
$GBGSV,6,1,24,22,87,058,53,05,22,129,38,26,23,183,,50,13,301,*60
$GBGSV,6,2,24,58,26,045,,09,24,053,39,19,32,118,47,45,31,189,*63
$GBGSV,6,3,24,46,31,051,,36,63,123,52,21,83,026,,02,06,108,35*6C
$GBGSV,6,4,24,06,09,053,36,28,02,342,,34,06,289,40,11,10,312,39*63
$GBGSV,6,5,24,40,04,076,,43,04,332,,12,06,263,37,16,07,052,38*64
$GBGSV,6,6,24,48,07,120,,07,02,110,,10,01,116,,60,07,111,40*62
$GPGGA,060107.00,,,,,0,00,,,M,,M,,*48
$PTNL,GGK,060107.00,010125,4742.1601051,N,01618.1000837,E,1,41,0.7,EHT751.1958,M*4A
$GPGGQ,060107.00,010125,4742.1601051,N,01618.1000837,E,1,41,0.801,707.9892,M*36
$GPGFA,060107.00,3.898,4.976,0.410,0.325,347.026,0.607,,VVV*01
$GPLLK,060107.00,010125,,M,,M,1,41,0.7,,M*09
$GNGMP,060107.00,,,,,DAAA,41,0.4,,,,*57
$GPGMP,060107.00,,,,,,11,,,,3.5,136*7F
$GLGMP,060107.00,,,,,,09,,,,,*76
$GAGMP,060107.00,,,,,,09,,,,,*7B
$GBGMP,060107.00,,,,,,12,,,,,*72
$PSSN,SNC,[0,280885000,2347]*4B
$GPZDA,060112.00,01,01,2025,,*67
$GPDTM,W84,,00.0000000,N,00.0000000,E,00.0000000,W84*5F
$PSSN,TFM,060112.00,,,,*6B
$GPRMC,060112.00,A,4742.1601048,N,01618.1000818,E,0.0,,010125,5.1,E,D*18
$GPGLL,4742.1601048,N,01618.1000818,E,060112.00,A,D*69
$GPGGA,060112.00,4742.1601048,N,01618.1000818,E,2,40,0.4,707.9908,M,43.2066,M,1.7,0136*4B
$GNGNS,060112.00,4742.1601048,N,01618.1000818,E,DAAA,40,0.4,707.9908,43.2066,,*55
$GPGNS,060112.00,,,,,,11,,,,1.7,136*7B
$GLGNS,060112.00,,,,,,09,,,,,*72
$GAGNS,060112.00,,,,,,09,,,,,*7F
$GBGNS,060112.00,,,,,,11,,,,,*75
$GPLLQ,060112.00,010125,,M,,M,1,40,0.807,,M*1E
$GPVTG,,T,,M,0.00,N,0.01,K,D*27
$GPHDT,,T*1B
$GPTHS,,V*0E
$GPROT,,V*08
$PSSN,HRP,060112.00,010125,,,,,,,00,0,,*65
$PTNL,AVR,060112.00,,Yaw,,Tilt,,,,0,,00*33
$GPGSA,A,3,04,05,06,07,09,11,13,14,16,20,30,,0.7,0.4,0.5*3C
$GPGSA,A,3,65,71,72,73,74,75,81,87,88,,,,0.7,0.4,0.5*37
$GPGSA,A,3,03,05,09,13,15,24,25,31,34,,,,0.7,0.4,0.5*39
$GPGSA,A,3,05,06,09,11,12,16,19,22,34,36,60,,0.7,0.4,0.5*36
$GPGST,060112.00,2.068,0.413,0.324,346.715,0.409,0.330,0.612*56
$GPGBS,060112.00,2.354,2.285,3.234,72,0.0001,6.167,6.039*5E
$GPGRS,060112.00,1,-1.0,-0.2,-0.5,-0.4,0.5,-0.2,0.8,0.3,-0.3,-0.1,0.3,*46
$GPGRS,060112.00,1,-3.1,0.2,6.2,4.2,2.4,-1.9,3.1,-5.9,-1.4,,,*63
$GPGRS,060112.00,1,-0.5,0.1,1.0,0.6,-0.1,0.4,-0.8,-0.9,0.7,,,*64
$GPGRS,060112.00,1,1.1,0.2,0.3,2.1,-0.1,0.7,-0.5,-0.8,0.1,0.3,-2.5,*68
$GPGSV,5,1,20,07,72,075,49,05,29,311,44,06,12,211,40,04,10,090,37*74
$GPGSV,5,2,20,13,13,273,41,11,29,244,44,09,37,089,45,30,64,211,50*7D
$GPGSV,5,3,20,20,58,283,48,16,07,029,36,14,09,170,39,36,35,170,45*7D
$GPGSV,5,4,20,58,13,245,37,40,24,133,37,34,31,208,44,49,34,195,45*7C
$GPGSV,5,5,20,57,07,111,38,41,07,108,35,61,03,257,38*46
$GLGSV,3,1,11,72,68,347,51,71,45,095,50,75,15,184,43,65,16,304,42*6F
$GLGSV,3,2,11,88,21,302,46,73,49,054,50,74,58,143,48,80,04,023,40*64
$GLGSV,3,3,11,81,08,353,44,87,10,246,42,70,02,113,*5F
$GAGSV,3,1,11,05,72,060,49,13,12,331,38,25,15,159,41,09,20,087,41*60
$GAGSV,3,2,11,31,24,049,41,16,28,138,,34,24,221,42,24,36,108,45*6F
$GAGSV,3,3,11,15,35,280,44,03,49,283,46,08,01,273,*5A
$GBGSV,6,1,24,22,87,058,52,05,22,129,38,26,23,183,,50,13,301,*61
$GBGSV,6,2,24,58,26,045,,09,24,053,39,19,32,118,47,45,31,189,*63
$GBGSV,6,3,24,46,31,051,,36,63,123,52,21,83,027,,02,06,108,35*6D
$GBGSV,6,4,24,06,09,053,36,28,02,342,,34,06,289,41,11,10,312,40*6C
$GBGSV,6,5,24,40,04,076,,43,04,332,,12,06,263,36,16,07,052,39*64
$GBGSV,6,6,24,48,07,120,,07,02,110,,10,01,116,,60,07,111,41*63
$GPGGA,060112.00,,,,,0,00,,,M,,M,,*4C
$PTNL,GGK,060112.00,010125,4742.1601048,N,01618.1000818,E,1,40,0.7,EHT751.1974,M*44
$GPGGQ,060112.00,010125,4742.1601048,N,01618.1000818,E,1,40,0.807,707.9908,M*32
$GPGFA,060112.00,3.929,5.019,0.413,0.324,346.715,0.612,,VVV*0F
$GPLLK,060112.00,010125,,M,,M,1,40,0.7,,M*0C
$GNGMP,060112.00,,,,,DAAA,40,0.4,,,,*52
$GPGMP,060112.00,,,,,,11,,,,1.7,136*7B
$GLGMP,060112.00,,,,,,09,,,,,*72
$GAGMP,060112.00,,,,,,09,,,,,*7F
$GBGMP,060112.00,,,,,,11,,,,,*75
$PSSN,SNC,[0,280890000,2347]*4F
$GPZDA,060117.00,01,01,2025,,*62
$GPDTM,W84,,00.0000000,N,00.0000000,E,00.0000000,W84*5F
$PSSN,TFM,060117.00,,,,*6E
$GPRMC,060117.00,A,4742.1601036,N,01618.1000829,E,0.0,,010125,5.1,E,D*16
$GPGLL,4742.1601036,N,01618.1000829,E,060117.00,A,D*67
$GPGGA,060117.00,4742.1601036,N,01618.1000829,E,2,40,0.4,707.9898,M,43.2066,M,2.3,0136*4A
$GNGNS,060117.00,4742.1601036,N,01618.1000829,E,DAAA,40,0.4,707.9898,43.2066,,*53
$GPGNS,060117.00,,,,,,11,,,,2.3,136*79
$GLGNS,060117.00,,,,,,09,,,,,*77
$GAGNS,060117.00,,,,,,09,,,,,*7A
$GBGNS,060117.00,,,,,,11,,,,,*70
$GPLLQ,060117.00,010125,,M,,M,1,40,0.804,,M*18
$GPVTG,,T,,M,0.00,N,0.01,K,D*27
$GPHDT,,T*1B
$GPTHS,,V*0E
$GPROT,,V*08
$PSSN,HRP,060117.00,010125,,,,,,,00,0,,*60
$PTNL,AVR,060117.00,,Yaw,,Tilt,,,,0,,00*36
$GPGSA,A,3,04,05,06,07,09,11,13,14,16,20,30,,0.7,0.4,0.5*3C
$GPGSA,A,3,65,71,72,73,74,75,81,87,88,,,,0.7,0.4,0.5*37
$GPGSA,A,3,03,05,09,13,15,24,25,31,34,,,,0.7,0.4,0.5*39
$GPGSA,A,3,05,06,09,11,12,16,19,22,34,36,60,,0.7,0.4,0.5*36
$GPGST,060117.00,2.105,0.411,0.322,348.237,0.408,0.326,0.611*53
$GPGBS,060117.00,2.396,2.340,3.134,72,0.0001,6.135,6.039*59
$GPGRS,060117.00,1,-0.3,-0.1,-0.4,-0.3,0.4,-0.3,1.0,0.1,0.1,-0.1,0.2,*61
$GPGRS,060117.00,1,-2.1,-0.4,6.1,4.2,2.6,-2.2,3.2,-6.0,-0.9,,,*40
$GPGRS,060117.00,1,-0.5,0.2,0.9,0.8,-0.1,0.3,-0.7,-1.0,0.7,,,*64
$GPGRS,060117.00,1,1.2,-0.1,0.2,2.7,-2.3,1.7,-0.7,-0.9,-0.0,0.1,-2.1,*6F
$GPGSV,5,1,20,07,72,075,49,05,29,311,44,06,12,211,39,04,10,090,36*7B
$GPGSV,5,2,20,13,13,273,41,11,29,244,44,09,37,089,45,30,64,211,50*7D
$GPGSV,5,3,20,20,58,283,48,16,07,029,36,14,09,170,40,36,35,170,45*73
$GPGSV,5,4,20,58,13,245,37,40,24,133,37,34,31,208,44,49,34,195,45*7C
$GPGSV,5,5,20,57,07,111,38,41,07,108,35,61,03,257,38*46
$GLGSV,3,1,11,72,68,348,51,71,45,095,50,75,15,184,43,65,16,304,43*61
$GLGSV,3,2,11,88,21,302,46,73,49,054,49,74,58,143,48,80,03,023,40*6B
$GLGSV,3,3,11,81,08,353,43,87,10,246,42,70,02,113,*58
$GAGSV,3,1,11,05,72,061,49,13,12,331,38,25,15,159,41,09,20,087,41*61
$GAGSV,3,2,11,31,24,049,41,16,28,138,,34,24,221,42,24,36,108,45*6F
$GAGSV,3,3,11,15,35,280,44,03,49,283,46,08,01,273,*5A
$GBGSV,6,1,24,22,87,059,52,05,22,129,38,26,23,183,,50,13,301,*60
$GBGSV,6,2,24,58,26,045,,09,24,053,39,19,32,118,47,45,31,189,*63
$GBGSV,6,3,24,46,31,051,,36,63,123,52,21,83,027,,02,06,108,35*6D
$GBGSV,6,4,24,06,09,053,36,28,02,342,,34,06,289,40,11,10,312,39*63
$GBGSV,6,5,24,40,04,076,,43,04,332,,12,06,263,37,16,07,052,39*65
$GBGSV,6,6,24,48,07,120,,07,02,110,,10,01,116,,60,07,111,40*62
$GPGGA,060117.00,,,,,0,00,,,M,,M,,*49
