$GPZDA,024442.00,01,01,2025,,*67
$GPDTM,W84,,00.0000000,N,00.0000000,E,00.0000000,W84*5F
$PSSN,TFM,024442.00,,,,*6B
$GPRMC,024442.00,A,4742.1602455,N,01618.1004285,E,0.0,,010125,5.1,E,D*19
$GPGLL,4742.1602455,N,01618.1004285,E,024442.00,A,D*68
$GPGGA,024442.00,4742.1602455,N,01618.1004285,E,2,39,0.4,707.9580,M,43.2066,M,2.8,0136*44
$GNGNS,024442.00,4742.1602455,N,01618.1004285,E,DAAA,39,0.4,707.9580,43.2066,,*56
$GPGNS,024442.00,,,,,,11,,,,2.8,136*77
$GLGNS,024442.00,,,,,,08,,,,,*73
$GAGNS,024442.00,,,,,,07,,,,,*71
$GBGNS,024442.00,,,,,,13,,,,,*77
$GPLLQ,024442.00,010125,,M,,M,1,39,0.849,,M*1A
$GPVTG,,T,,M,0.00,N,0.00,K,D*26
$GPHDT,,T*1B
$GPTHS,,V*0E
$GPROT,,V*08
$PSSN,HRP,024442.00,010125,,,,,,,00,0,,*65
$PTNL,AVR,024442.00,,Yaw,,Tilt,,,,0,,00*33
$GPGSA,A,3,02,03,04,06,09,11,17,19,26,28,31,,0.8,0.4,0.6*30
$GPGSA,A,3,69,70,71,78,79,80,85,86,,,,,0.8,0.4,0.6*3C
$GPGSA,A,3,04,05,06,09,11,34,36,,,,,,0.8,0.4,0.6*34
$GPGSA,A,3,05,06,09,16,19,20,22,29,35,37,39,44,0.8,0.4,0.6*3C
$GPGSA,A,3,60,,,,,,,,,,,,0.8,0.4,0.6*3E
$GPGST,024442.00,1.109,0.419,0.318,347.818,0.415,0.323,0.666*59
$GPGBS,024442.00,2.931,1.731,4.271,06,0.0001,-0.601,0.750*79
$GPGRS,024442.00,1,-0.0,-0.2,-0.1,-0.6,0.2,1.6,-0.2,-0.0,0.5,0.0,0.4,*67
$GPGRS,024442.00,1,-1.1,-0.7,2.2,-2.3,0.9,-1.2,2.5,-1.0,,,,*6D
$GPGRS,024442.00,1,-0.1,0.1,0.2,0.1,-0.0,-0.4,0.1,,,,,*4F
$GPGRS,024442.00,1,2.3,0.8,1.6,1.1,-0.5,-1.4,0.3,-0.9,-0.7,0.1,-0.8,-0.3*43
$GPGRS,024442.00,1,-0.7,,,,,,,,,,,*4E
$GPGSV,6,1,23,04,87,192,49,19,25,267,44,02,17,162,42,17,18,239,42*79
$GPGSV,6,2,23,01,21,155,,31,28,052,44,06,40,308,45,03,57,088,48*75
$GPGSV,6,3,23,09,56,236,49,11,06,320,39,21,01,156,,26,05,078,37*7A
$GPGSV,6,4,23,28,09,034,37,07,07,184,,36,35,170,45,58,13,245,38*74
$GPGSV,6,5,23,40,24,132,36,34,31,208,43,49,34,195,45,57,09,110,37*7D
$GPGSV,6,6,23,41,07,108,35,61,03,257,38*7A
$GLGSV,3,1,10,70,70,349,42,69,18,059,44,80,15,110,45,87,10,337,*60
$GLGSV,3,2,10,79,23,055,47,71,38,267,50,85,48,208,51,86,49,305,51*6C
$GLGSV,3,3,10,84,05,174,22,78,06,008,43*69
$GAGSV,3,1,11,09,82,077,48,11,26,155,38,04,30,055,42,18,19,267,*68
$GAGSV,3,2,11,34,43,308,46,05,40,230,45,06,57,059,47,36,70,201,48*67
$GAGSV,3,3,11,23,02,065,,10,01,149,,21,02,018,32*5D
$GBGSV,5,1,19,48,73,048,,46,16,133,,29,19,195,43,22,19,265,44*67
$GBGSV,5,2,19,05,23,128,39,39,22,040,41,44,23,312,43,21,19,255,*65
$GBGSV,5,3,19,16,30,047,42,37,25,078,44,06,31,050,41,09,41,063,43*62
$GBGSV,5,4,19,35,42,260,48,20,52,066,50,19,71,291,51,12,08,331,*60
$GBGSV,5,5,19,02,07,106,34,58,10,123,,60,09,110,40*51
$GPGGA,024442.00,,,,,0,00,,,M,,M,,*4C
$PTNL,GGK,024442.00,010125,4742.1602455,N,01618.1004285,E,1,39,0.8,EHT751.1646,M*4A
$GPGGQ,024442.00,010125,4742.1602455,N,01618.1004285,E,1,39,0.849,707.9580,M*3B
$GPGFA,024442.00,3.987,5.464,0.419,0.318,347.818,0.666,,VVV*00
$GPLLK,024442.00,010125,,M,,M,1,39,0.8,,M*0D
$GNGMP,024442.00,,,,,DAAA,39,0.4,,,,*5C
$GPGMP,024442.00,,,,,,11,,,,2.8,136*77
$GLGMP,024442.00,,,,,,08,,,,,*73
$GAGMP,024442.00,,,,,,07,,,,,*71
$GBGMP,024442.00,,,,,,13,,,,,*77
$PSSN,SNC,[0,269100000,2347]*48
$GPZDA,024447.00,01,01,2025,,*62
$GPDTM,W84,,00.0000000,N,00.0000000,E,00.0000000,W84*5F
$PSSN,TFM,024447.00,,,,*6E
$GPRMC,024447.00,A,4742.1602456,N,01618.1004300,E,0.0,,010125,5.1,E,D*13
$GPGLL,4742.1602456,N,01618.1004300,E,024447.00,A,D*62
$GPGGA,024447.00,4742.1602456,N,01618.1004300,E,2,39,0.4,707.9581,M,43.2066,M,3.0,0136*46
$GNGNS,024447.00,4742.1602456,N,01618.1004300,E,DAAA,39,0.4,707.9581,43.2066,,*5D
$GPGNS,024447.00,,,,,,11,,,,3.0,136*7B
$GLGNS,024447.00,,,,,,08,,,,,*76
$GAGNS,024447.00,,,,,,07,,,,,*74
$GBGNS,024447.00,,,,,,13,,,,,*72
$GPLLQ,024447.00,010125,,M,,M,1,39,0.861,,M*15
$GPVTG,,T,,M,0.00,N,0.01,K,D*27
$GPHDT,,T*1B
$GPTHS,,V*0E
$GPROT,,V*08
$PSSN,HRP,024447.00,010125,,,,,,,00,0,,*60
$PTNL,AVR,024447.00,,Yaw,,Tilt,,,,0,,00*36
$GPGSA,A,3,02,03,04,06,09,11,17,19,26,28,31,,0.8,0.4,0.6*30
$GPGSA,A,3,69,70,71,78,79,80,85,86,,,,,0.8,0.4,0.6*3C
$GPGSA,A,3,04,05,06,09,11,34,36,,,,,,0.8,0.4,0.6*34
$GPGSA,A,3,05,06,09,16,19,20,22,29,35,37,39,44,0.8,0.4,0.6*3C
$GPGSA,A,3,60,,,,,,,,,,,,0.8,0.4,0.6*3E
$GPGST,024447.00,1.088,0.425,0.320,347.202,0.420,0.326,0.677*52
$GPGBS,024447.00,2.937,1.715,4.336,11,0.0001,1.177,2.031*50
$GPGRS,024447.00,1,-0.3,-0.0,-0.2,-0.4,0.3,1.2,0.1,0.4,0.1,0.3,0.2,*61
$GPGRS,024447.00,1,-0.5,-0.7,1.7,-2.4,0.8,-1.2,2.7,-1.7,,,,*68
$GPGRS,024447.00,1,0.2,0.2,0.2,-0.1,-0.3,-0.6,-0.1,,,,,*66
$GPGRS,024447.00,1,2.1,1.0,1.3,0.8,-0.5,-1.3,0.3,-1.0,-0.5,0.1,-0.8,-0.2*4C
$GPGRS,024447.00,1,-1.2,,,,,,,,,,,*4F
$GPGSV,6,1,23,04,87,191,50,19,25,267,44,02,17,162,42,17,18,239,42*72
$GPGSV,6,2,23,01,21,155,,31,28,052,45,06,40,308,45,03,57,088,48*74
$GPGSV,6,3,23,09,56,236,49,11,06,320,38,21,01,156,,26,05,078,37*7B
$GPGSV,6,4,23,28,09,034,38,07,07,184,,36,35,170,44,58,13,245,38*7A
$GPGSV,6,5,23,40,24,132,36,34,31,208,43,49,34,195,45,57,09,110,37*7D
$GPGSV,6,6,23,41,07,108,35,61,03,257,38*7A
$GLGSV,3,1,10,70,70,349,42,69,18,059,44,80,15,109,45,87,10,337,*68
$GLGSV,3,2,10,79,23,055,47,71,38,267,50,85,48,208,52,86,49,305,51*6F
$GLGSV,3,3,10,84,05,174,23,78,06,008,43*68
$GAGSV,3,1,11,09,82,076,49,11,26,155,38,04,30,055,42,18,19,267,*68
$GAGSV,3,2,11,34,43,308,46,05,40,230,45,06,57,059,47,36,70,201,48*67
$GAGSV,3,3,11,23,02,065,,10,01,149,,21,02,018,32*5D
$GBGSV,5,1,19,48,73,048,,46,16,133,,29,19,195,43,22,19,265,44*67
$GBGSV,5,2,19,05,23,128,39,39,22,040,41,44,23,312,43,21,19,255,*65
$GBGSV,5,3,19,16,30,047,42,37,25,078,44,06,31,050,41,09,41,063,43*62
$GBGSV,5,4,19,35,42,260,48,20,52,066,50,19,71,291,51,12,08,330,*61
$GBGSV,5,5,19,02,07,106,34,58,10,123,,60,09,110,40*51
$GPGGA,024447.00,,,,,0,00,,,M,,M,,*49
$PTNL,GGK,024447.00,010125,4742.1602456,N,01618.1004300,E,1,39,0.8,EHT751.1646,M*40
$GPGGQ,024447.00,010125,4742.1602456,N,01618.1004300,E,1,39,0.861,707.9581,M*3A
$GPGFA,024447.00,4.041,5.549,0.425,0.320,347.202,0.677,,VVV*0A
$GPLLK,024447.00,010125,,M,,M,1,39,0.8,,M*08
$GNGMP,024447.00,,,,,DAAA,39,0.4,,,,*59
$GPGMP,024447.00,,,,,,11,,,,3.0,136*7B
$GLGMP,024447.00,,,,,,08,,,,,*76
$GAGMP,024447.00,,,,,,07,,,,,*74
$GBGMP,024447.00,,,,,,13,,,,,*72
$PSSN,SNC,[0,269105000,2347]*4D
$GPZDA,024452.00,01,01,2025,,*66
$GPDTM,W84,,00.0000000,N,00.0000000,E,00.0000000,W84*5F
$PSSN,TFM,024452.00,,,,*6A
$GPRMC,024452.00,A,4742.1602452,N,01618.1004287,E,0.0,,010125,5.1,E,D*1D
$GPGLL,4742.1602452,N,01618.1004287,E,024452.00,A,D*6C
$GPGGA,024452.00,4742.1602452,N,01618.1004287,E,2,39,0.4,707.9587,M,43.2066,M,1.6,0136*4A
$GNGNS,024452.00,4742.1602452,N,01618.1004287,E,DAAA,39,0.4,707.9587,43.2066,,*55
$GPGNS,024452.00,,,,,,11,,,,1.6,136*7B
$GLGNS,024452.00,,,,,,08,,,,,*72
$GAGNS,024452.00,,,,,,07,,,,,*70
$GBGNS,024452.00,,,,,,13,,,,,*76
$GPLLQ,024452.00,010125,,M,,M,1,39,0.853,,M*10
$GPVTG,,T,,M,0.00,N,0.00,K,D*26
$GPHDT,,T*1B
$GPTHS,,V*0E
$GPROT,,V*08
$PSSN,HRP,024452.00,010125,,,,,,,00,0,,*64
$PTNL,AVR,024452.00,,Yaw,,Tilt,,,,0,,00*32
$GPGSA,A,3,02,03,04,06,09,11,17,19,26,28,31,,0.8,0.4,0.6*30
$GPGSA,A,3,69,70,71,78,79,80,85,86,,,,,0.8,0.4,0.6*3C
$GPGSA,A,3,04,05,06,09,11,34,36,,,,,,0.8,0.4,0.6*34
$GPGSA,A,3,05,06,09,16,19,20,22,29,35,37,39,44,0.8,0.4,0.6*3C
$GPGSA,A,3,60,,,,,,,,,,,,0.8,0.4,0.6*3E
$GPGST,024452.00,1.032,0.422,0.318,347.945,0.418,0.323,0.670*5A
$GPGBS,024452.00,2.830,1.758,4.172,19,0.0001,0.447,0.823*5F
$GPGRS,024452.00,1,-0.5,0.1,-0.1,-0.4,0.1,0.6,-0.1,0.4,-0.4,0.6,0.0,*49
$GPGRS,024452.00,1,-0.3,-0.5,1.5,-2.6,1.2,-0.7,2.8,-1.6,,,,*69
$GPGRS,024452.00,1,0.4,-0.1,0.1,-0.1,-0.2,-0.5,-0.0,,,,,*4A
$GPGRS,024452.00,1,1.9,0.7,0.8,0.4,-0.5,-1.3,0.3,-0.5,-0.6,-0.0,-0.8,0.7*40
$GPGRS,024452.00,1,-1.3,,,,,,,,,,,*4A
$GPGSV,6,1,23,04,87,191,49,19,25,267,43,02,17,162,41,17,18,239,42*7E
$GPGSV,6,2,23,01,21,155,,31,28,052,44,06,40,308,45,03,57,088,48*75
$GPGSV,6,3,23,09,56,236,49,11,06,320,39,21,01,156,,26,05,078,37*7A
$GPGSV,6,4,23,28,09,034,37,07,07,184,,36,35,170,44,58,13,245,38*75
$GPGSV,6,5,23,40,24,132,36,34,31,208,43,49,34,195,45,57,09,110,37*7D
$GPGSV,6,6,23,41,07,108,35,61,03,257,38*7A
$GLGSV,3,1,10,70,70,349,42,69,18,059,45,80,15,109,45,87,10,337,*69
$GLGSV,3,2,10,79,23,055,48,71,38,267,50,85,48,208,51,86,49,305,51*63
$GLGSV,3,3,10,84,05,174,25,78,06,008,43*6E
$GAGSV,3,1,11,09,82,076,48,11,25,155,38,04,30,055,42,18,19,267,*6A
$GAGSV,3,2,11,34,43,308,45,05,40,230,45,06,57,059,47,36,70,201,48*64
$GAGSV,3,3,11,23,02,065,,10,01,149,,21,02,018,31*5E
$GBGSV,5,1,19,48,73,048,,46,16,133,,58,10,123,,39,21,040,41*63
$GBGSV,5,2,19,29,19,195,44,22,19,265,44,44,23,312,44,21,19,255,*6B
$GBGSV,5,3,19,05,23,128,39,16,30,047,42,06,31,050,41,37,25,078,44*69
$GBGSV,5,4,19,09,41,063,43,35,42,260,48,20,52,066,50,19,71,291,51*64
$GBGSV,5,5,19,02,07,106,34,12,08,330,,60,09,110,40*56
$GPGGA,024452.00,,,,,0,00,,,M,,M,,*4D
$PTNL,GGK,024452.00,010125,4742.1602452,N,01618.1004287,E,1,39,0.8,EHT751.1653,M*4A
$GPGGQ,024452.00,010125,4742.1602452,N,01618.1004287,E,1,39,0.853,707.9587,M*33
$GPGFA,024452.00,4.015,5.495,0.422,0.318,347.945,0.670,,VVV*0C
$GPLLK,024452.00,010125,,M,,M,1,39,0.8,,M*0C
$GNGMP,024452.00,,,,,DAAA,39,0.4,,,,*5D
$GPGMP,024452.00,,,,,,11,,,,1.6,136*7B
$GLGMP,024452.00,,,,,,08,,,,,*72
$GAGMP,024452.00,,,,,,07,,,,,*70
$GBGMP,024452.00,,,,,,13,,,,,*76
$PSSN,SNC,[0,269110000,2347]*49
$GPZDA,024457.00,01,01,2025,,*63
$GPDTM,W84,,00.0000000,N,00.0000000,E,00.0000000,W84*5F
$PSSN,TFM,024457.00,,,,*6F
$GPRMC,024457.00,A,4742.1602442,N,01618.1004308,E,0.0,,010125,5.1,E,D*1F
$GPGLL,4742.1602442,N,01618.1004308,E,024457.00,A,D*6E
$GPGGA,024457.00,4742.1602442,N,01618.1004308,E,2,39,0.4,707.9603,M,43.2066,M,2.6,0136*44
$GNGNS,024457.00,4742.1602442,N,01618.1004308,E,DAAA,39,0.4,707.9603,43.2066,,*58
$GPGNS,024457.00,,,,,,11,,,,2.6,136*7D
$GLGNS,024457.00,,,,,,08,,,,,*77
$GAGNS,024457.00,,,,,,07,,,,,*75
$GBGNS,024457.00,,,,,,13,,,,,*73
$GPLLQ,024457.00,010125,,M,,M,1,39,0.841,,M*16
$GPVTG,,T,,M,0.00,N,0.01,K,D*27
$GPHDT,,T*1B
$GPTHS,,V*0E
$GPROT,,V*08
$PSSN,HRP,024457.00,010125,,,,,,,00,0,,*61
$PTNL,AVR,024457.00,,Yaw,,Tilt,,,,0,,00*37
$GPGSA,A,3,02,03,04,06,09,11,17,19,26,28,31,,0.8,0.4,0.6*30
$GPGSA,A,3,69,70,71,78,79,80,85,86,,,,,0.8,0.4,0.6*3C
$GPGSA,A,3,04,05,06,09,11,34,36,,,,,,0.8,0.4,0.6*34
$GPGSA,A,3,05,06,09,16,19,20,22,29,35,37,39,44,0.8,0.4,0.6*3C
$GPGSA,A,3,60,,,,,,,,,,,,0.8,0.4,0.6*3E
$GPGST,024457.00,1.167,0.416,0.316,349.205,0.413,0.320,0.659*55
$GPGBS,024457.00,2.864,1.774,4.220,04,0.0001,-0.317,0.601*7C
$GPGRS,024457.00,1,-0.4,0.3,-0.3,-0.3,0.1,1.0,-0.1,0.3,-0.6,0.6,-0.1,*64
$GPGRS,024457.00,1,0.1,-0.9,2.4,-2.4,2.1,-0.6,2.9,-1.8,,,,*41
$GPGRS,024457.00,1,0.3,-0.1,0.1,0.2,-0.3,-0.3,-0.1,,,,,*60
$GPGRS,024457.00,1,2.6,0.6,0.7,0.4,-0.3,-1.3,0.5,0.0,-0.6,0.2,-0.6,0.4*4D
$GPGRS,024457.00,1,-1.1,,,,,,,,,,,*4D
$GPGSV,6,1,23,04,87,191,49,19,25,267,43,02,17,162,41,17,18,239,43*7F
$GPGSV,6,2,23,01,21,155,,31,28,052,44,06,40,308,45,03,57,088,49*74
$GPGSV,6,3,23,09,56,236,49,11,06,320,38,21,01,156,,26,05,078,37*7B
$GPGSV,6,4,23,28,09,034,37,07,07,184,,36,35,170,44,58,13,245,38*75
$GPGSV,6,5,23,40,24,132,36,34,31,208,43,49,34,195,44,57,09,110,37*7C
$GPGSV,6,6,23,41,07,108,35,61,03,257,37*75
$GLGSV,3,1,10,70,70,349,42,69,18,059,44,80,15,109,46,87,10,337,*6B
$GLGSV,3,2,10,79,23,055,47,71,38,267,50,85,48,208,52,86,49,305,51*6F
$GLGSV,3,3,10,84,05,174,25,78,06,008,43*6E
$GAGSV,3,1,11,09,82,076,48,11,25,155,37,04,30,055,43,18,19,267,*64
$GAGSV,3,2,11,34,43,308,45,05,40,230,45,06,57,059,47,36,70,201,48*64
$GAGSV,3,3,11,23,02,065,,10,01,149,,21,02,018,30*5F
$GBGSV,5,1,19,48,73,048,,46,16,133,,58,10,123,,39,21,040,41*63
$GBGSV,5,2,19,29,19,195,43,22,19,265,44,44,23,312,44,21,19,255,*6C
$GBGSV,5,3,19,05,23,128,39,16,30,046,42,06,31,050,41,37,25,078,44*68
$GBGSV,5,4,19,09,41,063,43,35,42,260,48,20,52,066,50,19,71,291,51*64
$GBGSV,5,5,19,02,07,106,34,12,08,330,,60,09,110,40*56
$GPGGA,024457.00,,,,,0,00,,,M,,M,,*48
$PTNL,GGK,024457.00,010125,4742.1602442,N,01618.1004308,E,1,39,0.8,EHT751.1668,M*40
$GPGGQ,024457.00,010125,4742.1602442,N,01618.1004308,E,1,39,0.841,707.9603,M*3D
$GPGFA,024457.00,3.959,5.404,0.416,0.316,349.205,0.659,,VVV*04
$GPLLK,024457.00,010125,,M,,M,1,39,0.8,,M*09
$GNGMP,024457.00,,,,,DAAA,39,0.4,,,,*58
$GPGMP,024457.00,,,,,,11,,,,2.6,136*7D
$GLGMP,024457.00,,,,,,08,,,,,*77
$GAGMP,024457.00,,,,,,07,,,,,*75
$GBGMP,024457.00,,,,,,13,,,,,*73
$PSSN,SNC,[0,269115000,2347]*4C
$GPZDA,024502.00,01,01,2025,,*62
$GPDTM,W84,,00.0000000,N,00.0000000,E,00.0000000,W84*5F
$PSSN,TFM,024502.00,,,,*6E
$GPRMC,024502.00,A,4742.1602436,N,01618.1004300,E,0.0,,010125,5.1,E,D*15
$GPGLL,4742.1602436,N,01618.1004300,E,024502.00,A,D*64
$GPGGA,024502.00,4742.1602436,N,01618.1004300,E,2,39,0.4,707.9654,M,43.2066,M,2.8,0136*42
$GNGNS,024502.00,4742.1602436,N,01618.1004300,E,DAAA,39,0.4,707.9654,43.2066,,*50
$GPGNS,024502.00,,,,,,11,,,,2.8,136*72
$GLGNS,024502.00,,,,,,08,,,,,*76
$GAGNS,024502.00,,,,,,07,,,,,*74
$GBGNS,024502.00,,,,,,13,,,,,*72
$GPLLQ,024502.00,010125,,M,,M,1,39,0.852,,M*15
$GPVTG,,T,,M,0.00,N,0.00,K,D*26
$GPHDT,,T*1B
$GPTHS,,V*0E
$GPROT,,V*08
$PSSN,HRP,024502.00,010125,,,,,,,00,0,,*60
$PTNL,AVR,024502.00,,Yaw,,Tilt,,,,0,,00*36
$GPGSA,A,3,02,03,04,06,09,11,17,19,26,28,31,,0.8,0.4,0.6*30
$GPGSA,A,3,69,70,71,78,79,80,85,86,,,,,0.8,0.4,0.6*3C
$GPGSA,A,3,04,05,06,09,11,34,36,,,,,,0.8,0.4,0.6*34
$GPGSA,A,3,05,06,09,16,19,20,22,29,35,37,39,44,0.8,0.4,0.6*3C
$GPGSA,A,3,60,,,,,,,,,,,,0.8,0.4,0.6*3E
$GPGST,024502.00,1.206,0.421,0.319,348.438,0.418,0.324,0.668*5F
$GPGBS,024502.00,2.922,1.747,4.274,11,0.0001,1.199,2.014*53
$GPGRS,024502.00,1,-0.2,0.2,-0.3,-0.3,0.2,1.2,-0.1,0.4,-0.8,0.7,-0.2,*68
$GPGRS,024502.00,1,-0.9,-0.9,2.5,-2.5,1.3,-0.7,3.0,-1.6,,,,*63
$GPGRS,024502.00,1,0.1,-0.0,0.0,0.2,-0.3,-0.1,0.0,,,,,*4D
$GPGRS,024502.00,1,3.0,0.5,0.7,0.6,-0.4,-1.5,0.3,-0.4,-0.6,0.1,-1.0,-0.5*4C
$GPGRS,024502.00,1,-1.0,,,,,,,,,,,*4D
$GPGSV,6,1,23,04,87,190,49,19,25,267,44,02,16,162,41,17,18,239,43*78
$GPGSV,6,2,23,01,21,155,,31,28,052,44,06,40,307,45,03,57,088,48*7A
$GPGSV,6,3,23,09,56,236,49,11,06,320,38,21,01,156,,26,05,078,37*7B
$GPGSV,6,4,23,28,09,034,38,07,07,184,,36,35,170,45,58,13,245,38*7B
$GPGSV,6,5,23,40,24,132,36,34,31,208,43,49,34,195,45,57,09,110,37*7D
$GPGSV,6,6,23,41,07,108,35,61,03,257,38*7A
$GLGSV,3,1,10,70,70,349,42,69,18,059,45,80,15,109,46,87,10,337,*6A
$GLGSV,3,2,10,79,23,055,47,71,38,267,50,85,48,208,52,86,49,305,51*6F
$GLGSV,3,3,10,84,05,174,25,78,06,008,43*6E
$GAGSV,3,1,11,09,82,076,48,11,25,155,38,04,30,055,42,18,19,267,*6A
$GAGSV,3,2,11,34,43,308,45,05,40,230,44,06,57,059,47,36,70,201,48*65
$GAGSV,3,3,11,23,02,065,,10,01,149,,21,02,018,30*5F
$GBGSV,5,1,19,48,73,048,,46,16,133,,29,19,195,44,58,10,123,*65
$GBGSV,5,2,19,39,21,040,42,22,19,265,44,44,23,312,44,21,19,255,*6E
$GBGSV,5,3,19,05,23,128,39,16,30,046,42,06,31,050,41,37,25,077,44*67
$GBGSV,5,4,19,09,41,063,43,35,42,260,48,20,52,066,50,19,71,292,51*67
$GBGSV,5,5,19,02,07,106,34,12,08,330,,60,09,110,40*56
$GPGGA,024502.00,,,,,0,00,,,M,,M,,*49
$PTNL,GGK,024502.00,010125,4742.1602436,N,01618.1004300,E,1,39,0.8,EHT751.1720,M*47
$GPGGQ,024502.00,010125,4742.1602436,N,01618.1004300,E,1,39,0.852,707.9654,M*37
$GPGFA,024502.00,4.005,5.479,0.421,0.319,348.438,0.668,,VVV*08
$GPLLK,024502.00,010125,,M,,M,1,39,0.8,,M*08
$GNGMP,024502.00,,,,,DAAA,39,0.4,,,,*59
$GPGMP,024502.00,,,,,,11,,,,2.8,136*72
$GLGMP,024502.00,,,,,,08,,,,,*76
$GAGMP,024502.00,,,,,,07,,,,,*74
$GBGMP,024502.00,,,,,,13,,,,,*72
$PSSN,SNC,[0,269120000,2347]*4A
$GPZDA,024507.00,01,01,2025,,*67
$GPDTM,W84,,00.0000000,N,00.0000000,E,00.0000000,W84*5F
$PSSN,TFM,024507.00,,,,*6B
$GPRMC,024507.00,A,4742.1602413,N,01618.1004318,E,0.0,,010125,5.1,E,D*1E
$GPGLL,4742.1602413,N,01618.1004318,E,024507.00,A,D*6F
$GPGGA,024507.00,4742.1602413,N,01618.1004318,E,2,39,0.4,707.9630,M,43.2066,M,3.0,0136*42
$GNGNS,024507.00,4742.1602413,N,01618.1004318,E,DAAA,39,0.4,707.9630,43.2066,,*59
$GPGNS,024507.00,,,,,,11,,,,3.0,136*7E
$GLGNS,024507.00,,,,,,08,,,,,*73
$GAGNS,024507.00,,,,,,07,,,,,*71
$GBGNS,024507.00,,,,,,13,,,,,*77
$GPLLQ,024507.00,010125,,M,,M,1,39,0.860,,M*11
$GPVTG,,T,,M,0.00,N,0.01,K,D*27
$GPHDT,,T*1B
$GPTHS,,V*0E
$GPROT,,V*08
$PSSN,HRP,024507.00,010125,,,,,,,00,0,,*65
$PTNL,AVR,024507.00,,Yaw,,Tilt,,,,0,,00*33
$GPGSA,A,3,02,03,04,06,09,11,17,19,26,28,31,,0.8,0.4,0.6*30
$GPGSA,A,3,69,70,71,78,79,80,85,86,,,,,0.8,0.4,0.6*3C
$GPGSA,A,3,04,05,06,09,11,34,36,,,,,,0.8,0.4,0.6*34
$GPGSA,A,3,05,06,09,16,19,20,22,29,35,37,39,44,0.8,0.4,0.6*3C
$GPGSA,A,3,60,,,,,,,,,,,,0.8,0.4,0.6*3E
$GPGST,024507.00,1.072,0.425,0.320,347.283,0.421,0.326,0.675*58
$GPGBS,024507.00,2.933,1.725,4.318,85,0.0001,2.259,6.058*54
$GPGRS,024507.00,1,-0.3,-0.1,-0.2,-0.2,0.2,0.3,0.0,0.2,-0.8,0.1,0.0,*41
$GPGRS,024507.00,1,-1.0,-1.6,2.0,-2.4,1.0,-0.9,2.3,-1.7,,,,*6A
$GPGRS,024507.00,1,-0.2,0.1,0.2,-0.0,-0.0,-0.3,0.0,,,,,*66
$GPGRS,024507.00,1,2.4,0.4,0.7,0.4,-0.5,-1.5,-0.3,-0.5,-0.8,-0.0,-1.0,-0.4*41
$GPGRS,024507.00,1,-1.2,,,,,,,,,,,*4A
$GPGSV,6,1,23,04,87,190,49,19,25,267,44,02,16,162,41,17,18,239,43*78
$GPGSV,6,2,23,01,21,155,,31,28,052,44,06,40,307,45,03,57,088,48*7A
$GPGSV,6,3,23,09,56,237,49,11,06,320,39,21,01,156,,26,05,078,36*7A
$GPGSV,6,4,23,28,09,034,38,07,07,184,,36,35,170,44,58,13,245,37*75
$GPGSV,6,5,23,40,24,132,36,34,31,208,43,49,34,195,44,57,09,110,37*7C
$GPGSV,6,6,23,41,07,108,34,61,03,257,38*7B
$GLGSV,3,1,10,70,70,350,41,69,18,059,45,80,16,109,45,87,10,337,*61
$GLGSV,3,2,10,79,23,055,47,71,38,267,50,85,48,208,51,86,49,305,51*6C
$GLGSV,3,3,10,84,05,174,21,78,06,008,43*6A
$GAGSV,3,1,11,09,82,076,48,11,25,155,38,04,30,055,42,18,19,267,*6A
$GAGSV,3,2,11,34,43,308,45,05,40,230,45,06,57,059,47,36,70,201,48*64
$GAGSV,3,3,11,23,02,065,,10,01,149,,21,02,018,30*5F
$GBGSV,5,1,19,48,73,048,,46,16,133,,29,19,195,44,58,10,123,*65
$GBGSV,5,2,19,39,21,040,42,22,19,265,44,44,23,312,44,21,19,255,*6E
$GBGSV,5,3,19,05,23,128,39,16,30,046,43,06,31,050,41,37,25,077,44*66
$GBGSV,5,4,19,09,41,063,43,35,42,260,48,20,51,066,50,19,71,292,51*64
$GBGSV,5,5,19,02,07,106,34,12,08,330,,60,09,110,40*56
$GPGGA,024507.00,,,,,0,00,,,M,,M,,*4C
$PTNL,GGK,024507.00,010125,4742.1602413,N,01618.1004318,E,1,39,0.8,EHT751.1696,M*40
$GPGGQ,024507.00,010125,4742.1602413,N,01618.1004318,E,1,39,0.860,707.9630,M*3F
$GPGFA,024507.00,4.045,5.538,0.425,0.320,347.283,0.675,,VVV*06
$GPLLK,024507.00,010125,,M,,M,1,39,0.8,,M*0D
$GNGMP,024507.00,,,,,DAAA,39,0.4,,,,*5C
$GPGMP,024507.00,,,,,,11,,,,3.0,136*7E
$GLGMP,024507.00,,,,,,08,,,,,*73
$GAGMP,024507.00,,,,,,07,,,,,*71
$GBGMP,024507.00,,,,,,13,,,,,*77
$PSSN,SNC,[0,269125000,2347]*4F
$GPZDA,024512.00,01,01,2025,,*63
$GPDTM,W84,,00.0000000,N,00.0000000,E,00.0000000,W84*5F
$PSSN,TFM,024512.00,,,,*6F
$GPRMC,024512.00,A,4742.1602418,N,01618.1004338,E,0.0,,010125,5.1,E,D*13
$GPGLL,4742.1602418,N,01618.1004338,E,024512.00,A,D*62
$GPGGA,024512.00,4742.1602418,N,01618.1004338,E,2,39,0.4,707.9678,M,43.2066,M,1.6,0136*47
$GNGNS,024512.00,4742.1602418,N,01618.1004338,E,DAAA,39,0.4,707.9678,43.2066,,*58
$GPGNS,024512.00,,,,,,11,,,,1.6,136*7E
$GLGNS,024512.00,,,,,,08,,,,,*77
$GAGNS,024512.00,,,,,,07,,,,,*75
$GBGNS,024512.00,,,,,,13,,,,,*73
$GPLLQ,024512.00,010125,,M,,M,1,39,0.853,,M*15
$GPVTG,,T,,M,0.00,N,0.01,K,D*27
$GPHDT,,T*1B
$GPTHS,,V*0E
$GPROT,,V*08
$PSSN,HRP,024512.00,010125,,,,,,,00,0,,*61
$PTNL,AVR,024512.00,,Yaw,,Tilt,,,,0,,00*37
$GPGSA,A,3,02,03,04,06,09,11,17,19,26,28,31,,0.8,0.4,0.6*30
$GPGSA,A,3,69,70,71,78,79,80,85,86,,,,,0.8,0.4,0.6*3C
$GPGSA,A,3,04,05,06,09,11,34,36,,,,,,0.8,0.4,0.6*34
$GPGSA,A,3,05,06,09,16,19,20,22,29,35,37,39,44,0.8,0.4,0.6*3C
$GPGSA,A,3,60,,,,,,,,,,,,0.8,0.4,0.6*3E
$GPGST,024512.00,1.144,0.423,0.318,348.016,0.419,0.323,0.669*57
$GPGBS,024512.00,2.827,1.767,4.155,06,0.0001,-0.479,0.722*75
$GPGRS,024512.00,1,-0.3,0.2,-0.0,-0.5,0.1,1.0,-0.2,0.3,-1.3,0.7,0.1,*4C
$GPGRS,024512.00,1,-0.6,-1.5,2.0,-2.2,0.5,-1.0,3.0,-1.5,,,,*60
$GPGRS,024512.00,1,-0.1,0.2,0.1,0.3,-0.0,0.1,0.1,,,,,*61
$GPGRS,024512.00,1,2.5,0.6,1.0,0.9,-0.4,-1.4,0.2,-0.1,-0.8,0.5,-1.1,-0.2*4A
$GPGRS,024512.00,1,-1.2,,,,,,,,,,,*4E
$GPGSV,6,1,23,04,87,189,49,19,25,267,44,02,16,162,40,17,18,238,42*71
$GPGSV,6,2,23,01,21,155,,31,28,052,44,06,40,307,45,03,57,088,48*7A
$GPGSV,6,3,23,09,56,237,49,11,06,320,39,21,01,156,,26,05,078,36*7A
$GPGSV,6,4,23,28,09,034,39,07,07,184,,36,35,170,45,58,13,245,37*75
$GPGSV,6,5,23,40,24,132,36,34,31,208,43,49,34,195,45,57,09,110,37*7D
$GPGSV,6,6,23,41,07,108,35,61,03,257,38*7A
$GLGSV,3,1,10,70,70,350,42,69,18,059,45,80,16,109,46,87,10,337,*61
$GLGSV,3,2,10,79,23,055,47,71,38,267,50,85,48,208,52,86,49,305,51*6F
$GLGSV,3,3,10,84,05,174,20,78,06,008,44*6C
$GAGSV,3,1,11,09,82,076,48,11,25,155,38,04,30,055,42,18,19,267,*6A
$GAGSV,3,2,11,34,43,308,45,05,40,230,45,06,57,059,47,36,70,201,48*64
$GAGSV,3,3,11,23,02,065,,10,01,149,,21,02,018,31*5E
$GBGSV,5,1,19,48,73,048,,46,16,133,,29,19,195,43,58,10,123,*62
$GBGSV,5,2,19,39,21,040,42,22,19,265,44,44,23,312,44,21,19,255,*6E
$GBGSV,5,3,19,05,23,128,39,16,30,046,43,06,31,050,41,37,25,077,44*66
$GBGSV,5,4,19,09,41,063,43,35,42,260,48,20,51,066,50,19,71,292,51*64
$GBGSV,5,5,19,02,07,106,34,12,08,330,,60,09,110,40*56
$GPGGA,024512.00,,,,,0,00,,,M,,M,,*48
$PTNL,GGK,024512.00,010125,4742.1602418,N,01618.1004338,E,1,39,0.8,EHT751.1744,M*43
$GPGGQ,024512.00,010125,4742.1602418,N,01618.1004338,E,1,39,0.853,707.9678,M*3E
$GPGFA,024512.00,4.019,5.485,0.423,0.318,348.016,0.669,,VVV*0D
$GPLLK,024512.00,010125,,M,,M,1,39,0.8,,M*09
$GNGMP,024512.00,,,,,DAAA,39,0.4,,,,*58
$GPGMP,024512.00,,,,,,11,,,,1.6,136*7E
$GLGMP,024512.00,,,,,,08,,,,,*77
$GAGMP,024512.00,,,,,,07,,,,,*75
$GBGMP,024512.00,,,,,,13,,,,,*73
$PSSN,SNC,[0,269130000,2347]*4B
$GPZDA,024517.00,01,01,2025,,*66
$GPDTM,W84,,00.0000000,N,00.0000000,E,00.0000000,W84*5F
$PSSN,TFM,024517.00,,,,*6A
$GPRMC,024517.00,A,4742.1602400,N,01618.1004318,E,0.0,,010125,5.1,E,D*1D
$GPGLL,4742.1602400,N,01618.1004318,E,024517.00,A,D*6C
$GPGGA,024517.00,4742.1602400,N,01618.1004318,E,2,39,0.4,707.9633,M,43.2066,M,2.6,0136*45
$GNGNS,024517.00,4742.1602400,N,01618.1004318,E,DAAA,39,0.4,707.9633,43.2066,,*59
$GPGNS,024517.00,,,,,,11,,,,2.6,136*78
$GLGNS,024517.00,,,,,,08,,,,,*72
$GAGNS,024517.00,,,,,,07,,,,,*70
$GBGNS,024517.00,,,,,,13,,,,,*76
$GPLLQ,024517.00,010125,,M,,M,1,39,0.840,,M*12
$GPVTG,,T,,M,0.01,N,0.01,K,D*26
$GPHDT,,T*1B
$GPTHS,,V*0E
$GPROT,,V*08
$PSSN,HRP,024517.00,010125,,,,,,,00,0,,*64
$PTNL,AVR,024517.00,,Yaw,,Tilt,,,,0,,00*32
$GPGSA,A,3,02,03,04,06,09,11,17,19,26,28,31,,0.8,0.4,0.6*30
$GPGSA,A,3,69,70,71,78,79,80,85,86,,,,,0.8,0.4,0.6*3C
$GPGSA,A,3,04,05,06,09,11,34,36,,,,,,0.8,0.4,0.6*34
$GPGSA,A,3,05,06,09,16,19,20,22,29,35,37,39,44,0.8,0.4,0.6*3C
$GPGSA,A,3,60,,,,,,,,,,,,0.8,0.4,0.6*3E
$GPGST,024517.00,1.098,0.417,0.316,349.270,0.414,0.320,0.658*54
$GPGBS,024517.00,2.861,1.783,4.202,11,0.0001,1.118,1.998*5F
$GPGRS,024517.00,1,-0.4,0.0,-0.0,-0.4,0.2,1.1,-0.5,0.4,-0.3,0.2,0.3,*49
$GPGRS,024517.00,1,-0.4,-0.9,1.9,-2.1,0.4,-0.6,3.1,-1.7,,,,*66
$GPGRS,024517.00,1,-0.3,-0.0,-0.1,0.1,-0.0,0.0,0.1,,,,,*67
$GPGRS,024517.00,1,2.5,0.9,0.9,1.2,-0.3,-1.3,0.4,-0.4,-0.9,0.6,-1.1,-0.2*43
$GPGRS,024517.00,1,-0.9,,,,,,,,,,,*41
$GPGSV,6,1,23,04,87,189,49,19,25,267,43,02,16,162,40,17,18,238,42*76
$GPGSV,6,2,23,01,21,155,,31,28,052,44,06,40,307,45,03,57,088,48*7A
$GPGSV,6,3,23,09,56,237,49,11,06,320,38,21,01,156,,26,05,078,36*7B
$GPGSV,6,4,23,28,09,034,38,07,07,184,,36,35,170,44,58,13,245,38*7A
$GPGSV,6,5,23,40,24,132,36,34,31,208,43,49,34,195,44,57,09,110,37*7C
$GPGSV,6,6,23,41,07,108,34,61,03,257,37*74
$GLGSV,3,1,10,70,70,350,42,69,17,059,45,80,16,109,45,87,10,337,*6D
$GLGSV,3,2,10,79,23,055,47,71,38,267,50,85,48,207,52,86,49,305,51*60
$GLGSV,3,3,10,84,05,174,20,78,06,007,43*64
$GAGSV,3,1,11,09,82,076,48,11,25,156,39,04,30,055,42,18,19,266,*69
$GAGSV,3,2,11,34,43,308,45,05,40,230,45,06,57,059,47,36,70,201,48*64
$GAGSV,3,3,11,23,02,065,,10,01,149,,21,02,018,31*5E
$GBGSV,5,1,19,48,73,048,,46,16,133,,29,19,195,43,58,10,123,*62
$GBGSV,5,2,19,39,21,040,42,22,19,265,44,44,23,312,44,21,19,255,*6E
$GBGSV,5,3,19,05,23,128,39,16,30,046,43,06,31,050,41,37,25,077,44*66
$GBGSV,5,4,19,09,41,063,43,35,42,260,48,20,51,066,51,19,71,292,51*65
$GBGSV,5,5,19,02,07,106,34,12,08,330,,60,09,110,40*56
$GPGGA,024517.00,,,,,0,00,,,M,,M,,*4D
$PTNL,GGK,024517.00,010125,4742.1602400,N,01618.1004318,E,1,39,0.8,EHT751.1698,M*4D
$GPGGQ,024517.00,010125,4742.1602400,N,01618.1004318,E,1,39,0.840,707.9633,M*3D
$GPGFA,024517.00,3.964,5.394,0.417,0.316,349.270,0.658,,VVV*03
$GPLLK,024517.00,010125,,M,,M,1,39,0.8,,M*0C
$GNGMP,024517.00,,,,,DAAA,39,0.4,,,,*5D
$GPGMP,024517.00,,,,,,11,,,,2.6,136*78
$GLGMP,024517.00,,,,,,08,,,,,*72
$GAGMP,024517.00,,,,,,07,,,,,*70
$GBGMP,024517.00,,,,,,13,,,,,*76
$PSSN,SNC,[0,269135000,2347]*4E
$GPZDA,024522.00,01,01,2025,,*60
$GPDTM,W84,,00.0000000,N,00.0000000,E,00.0000000,W84*5F
$PSSN,TFM,024522.00,,,,*6C
$GPRMC,024522.00,A,4742.1602390,N,01618.1004307,E,0.0,,010125,5.1,E,D*1B
$GPGLL,4742.1602390,N,01618.1004307,E,024522.00,A,D*6A
$GPGGA,024522.00,4742.1602390,N,01618.1004307,E,2,39,0.4,707.9623,M,43.2066,M,2.8,0136*4C
$GNGNS,024522.00,4742.1602390,N,01618.1004307,E,DAAA,39,0.4,707.9623,43.2066,,*5E
$GPGNS,024522.00,,,,,,11,,,,2.8,136*70
$GLGNS,024522.00,,,,,,08,,,,,*74
$GAGNS,024522.00,,,,,,07,,,,,*76
$GBGNS,024522.00,,,,,,13,,,,,*70
$GPLLQ,024522.00,010125,,M,,M,1,39,0.851,,M*14
$GPVTG,,T,,M,0.00,N,0.01,K,D*27
$GPHDT,,T*1B
$GPTHS,,V*0E
$GPROT,,V*08
$PSSN,HRP,024522.00,010125,,,,,,,00,0,,*62
$PTNL,AVR,024522.00,,Yaw,,Tilt,,,,0,,00*34
$GPGSA,A,3,02,03,04,06,09,11,17,19,26,28,31,,0.8,0.4,0.6*30
$GPGSA,A,3,69,70,71,78,79,80,85,86,,,,,0.8,0.4,0.6*3C
$GPGSA,A,3,04,05,06,09,11,34,36,,,,,,0.8,0.4,0.6*34
$GPGSA,A,3,05,06,09,16,19,20,22,29,35,37,39,44,0.8,0.4,0.6*3C
$GPGSA,A,3,60,,,,,,,,,,,,0.8,0.4,0.6*3E
$GPGST,024522.00,1.064,0.421,0.319,348.478,0.418,0.324,0.666*51
$GPGBS,024522.00,2.920,1.754,4.250,11,0.0001,1.687,1.999*50
$GPGRS,024522.00,1,-0.2,0.3,0.0,-0.4,0.1,1.7,-0.5,0.3,-0.2,0.2,-0.0,*4A
$GPGRS,024522.00,1,-1.0,0.2,1.4,-2.2,0.8,-0.8,3.0,-1.2,,,,*4B
$GPGRS,024522.00,1,0.1,-0.0,0.2,0.1,0.1,0.1,0.1,,,,,*4D
$GPGRS,024522.00,1,2.2,0.5,0.8,1.2,-0.3,-1.2,0.3,-0.3,-0.5,0.6,-1.5,0.1*68
$GPGRS,024522.00,1,-0.9,,,,,,,,,,,*47
$GPGSV,6,1,23,04,87,188,49,19,25,266,43,02,16,163,41,17,18,238,43*77
$GPGSV,6,2,23,01,21,155,,31,28,052,45,06,40,307,45,03,57,088,48*7B
$GPGSV,6,3,23,09,56,237,49,11,06,320,38,21,01,156,,26,05,078,37*7A
$GPGSV,6,4,23,28,09,034,38,07,07,184,,36,35,170,44,58,13,245,37*75
$GPGSV,6,5,23,40,24,132,36,34,31,208,43,49,34,195,44,57,09,110,37*7C
$GPGSV,6,6,23,41,07,108,34,61,03,257,37*74
$GLGSV,3,1,10,70,70,350,42,69,17,059,45,80,16,109,45,87,11,337,*6C
$GLGSV,3,2,10,79,23,055,47,71,38,267,50,85,48,207,52,86,49,305,51*60
$GLGSV,3,3,10,84,05,174,21,78,06,007,43*65
$GAGSV,3,1,11,09,82,075,48,11,25,156,38,04,30,055,42,18,19,266,*6B
$GAGSV,3,2,11,34,43,308,45,05,40,230,45,06,57,059,46,36,70,201,48*65
$GAGSV,3,3,11,23,02,065,,10,01,149,,21,02,018,31*5E
$GBGSV,5,1,19,48,73,048,,46,16,133,,29,19,195,43,58,10,123,*62
$GBGSV,5,2,19,39,21,040,42,22,19,265,44,44,23,312,44,21,19,255,*6E
$GBGSV,5,3,19,05,23,128,39,16,30,046,43,06,31,050,41,37,25,077,44*66
$GBGSV,5,4,19,09,41,063,43,35,42,260,48,20,51,066,51,19,71,292,51*65
$GBGSV,5,5,19,02,07,106,34,12,08,330,,60,09,110,40*56
$GPGGA,024522.00,,,,,0,00,,,M,,M,,*4B
$PTNL,GGK,024522.00,010125,4742.1602390,N,01618.1004307,E,1,39,0.8,EHT751.1688,M*4A
$GPGGQ,024522.00,010125,4742.1602390,N,01618.1004307,E,1,39,0.851,707.9623,M*3A
$GPGFA,024522.00,4.005,5.465,0.421,0.319,348.478,0.666,,VVV*0D
$GPLLK,024522.00,010125,,M,,M,1,39,0.8,,M*0A
$GNGMP,024522.00,,,,,DAAA,39,0.4,,,,*5B
$GPGMP,024522.00,,,,,,11,,,,2.8,136*70
$GLGMP,024522.00,,,,,,08,,,,,*74
$GAGMP,024522.00,,,,,,07,,,,,*76
$GBGMP,024522.00,,,,,,13,,,,,*70
$PSSN,SNC,[0,269140000,2347]*4C
$GPZDA,024527.00,01,01,2025,,*65
$GPDTM,W84,,00.0000000,N,00.0000000,E,00.0000000,W84*5F
$PSSN,TFM,024527.00,,,,*69
$GPRMC,024527.00,A,4742.1602391,N,01618.1004273,E,0.0,,010125,5.1,E,D*1D
$GPGLL,4742.1602391,N,01618.1004273,E,024527.00,A,D*6C
$GPGGA,024527.00,4742.1602391,N,01618.1004273,E,2,39,0.4,707.9644,M,43.2066,M,3.0,0136*42
$GNGNS,024527.00,4742.1602391,N,01618.1004273,E,DAAA,39,0.4,707.9644,43.2066,,*59
$GPGNS,024527.00,,,,,,11,,,,3.0,136*7C
$GLGNS,024527.00,,,,,,08,,,,,*71
$GAGNS,024527.00,,,,,,07,,,,,*73
$GBGNS,024527.00,,,,,,13,,,,,*75
$GPLLQ,024527.00,010125,,M,,M,1,39,0.858,,M*18
$GPVTG,,T,,M,0.00,N,0.00,K,D*26
$GPHDT,,T*1B
$GPTHS,,V*0E
$GPROT,,V*08
$PSSN,HRP,024527.00,010125,,,,,,,00,0,,*67
$PTNL,AVR,024527.00,,Yaw,,Tilt,,,,0,,00*31
$GPGSA,A,3,02,03,04,06,09,11,17,19,26,28,31,,0.8,0.4,0.6*30
$GPGSA,A,3,69,70,71,78,79,80,85,86,,,,,0.8,0.4,0.6*3C
$GPGSA,A,3,04,05,06,09,11,34,36,,,,,,0.8,0.4,0.6*34
$GPGSA,A,3,05,06,09,16,19,20,22,29,35,37,39,44,0.8,0.4,0.6*3C
$GPGSA,A,3,60,,,,,,,,,,,,0.8,0.4,0.6*3E
$GPGST,024527.00,1.179,0.425,0.320,347.229,0.421,0.326,0.673*56
$GPGBS,024527.00,2.931,1.733,4.294,06,0.0001,-0.721,0.765*77
$GPGRS,024527.00,1,0.4,0.0,-0.1,-0.7,0.1,1.2,0.2,-0.1,-0.6,0.5,0.3,*65
$GPGRS,024527.00,1,-1.0,-0.7,1.5,-3.3,0.7,-0.8,2.7,-1.5,,,,*69
$GPGRS,024527.00,1,-0.1,0.2,0.0,0.1,-0.3,-0.2,-0.1,,,,,*64
$GPGRS,024527.00,1,2.6,0.8,0.4,1.1,-0.5,-1.4,0.2,-0.8,-0.6,0.9,-1.5,0.2*6E
$GPGRS,024527.00,1,-1.1,,,,,,,,,,,*4B
$GPGSV,6,1,23,04,87,188,49,19,25,266,43,02,16,163,42,17,18,238,42*75
$GPGSV,6,2,23,01,21,155,,31,28,052,44,06,40,307,45,03,57,088,48*7A
$GPGSV,6,3,23,09,57,237,49,11,06,320,37,21,01,156,,26,05,078,37*74
$GPGSV,6,4,23,28,09,034,38,07,07,184,,36,35,170,45,58,13,245,38*7B
$GPGSV,6,5,23,40,24,132,36,34,31,208,43,49,34,195,44,57,09,110,37*7C
$GPGSV,6,6,23,41,07,108,35,61,03,257,38*7A
$GLGSV,3,1,10,70,70,350,42,69,17,059,45,80,16,109,46,87,11,337,*6F
$GLGSV,3,2,10,79,23,055,46,71,38,267,50,85,48,207,51,86,49,305,52*61
$GLGSV,3,3,10,84,05,174,,78,06,007,42*67
$GAGSV,3,1,11,09,82,075,48,11,25,156,38,04,30,055,42,18,19,266,*6B
$GAGSV,3,2,11,34,43,308,45,05,40,230,45,06,57,059,47,36,70,201,48*64
$GAGSV,3,3,11,23,02,065,,10,01,149,,21,02,018,31*5E
$GBGSV,5,1,19,48,73,048,,46,16,133,,29,19,195,43,58,10,123,*62
$GBGSV,5,2,19,39,21,040,42,22,19,265,44,44,23,312,44,21,19,255,*6E
$GBGSV,5,3,19,05,23,128,39,16,30,046,43,06,31,050,41,37,25,077,45*67
$GBGSV,5,4,19,09,41,063,43,35,42,260,48,20,51,066,51,19,71,292,51*65
$GBGSV,5,5,19,02,07,106,34,12,08,330,,60,09,110,40*56
$GPGGA,024527.00,,,,,0,00,,,M,,M,,*4E
$PTNL,GGK,024527.00,010125,4742.1602391,N,01618.1004273,E,1,39,0.8,EHT751.1710,M*4C
$GPGGQ,024527.00,010125,4742.1602391,N,01618.1004273,E,1,39,0.858,707.9644,M*34
$GPGFA,024527.00,4.044,5.520,0.425,0.320,347.229,0.673,,VVV*0A
$GPLLK,024527.00,010125,,M,,M,1,39,0.8,,M*0F
$GNGMP,024527.00,,,,,DAAA,39,0.4,,,,*5E
$GPGMP,024527.00,,,,,,11,,,,3.0,136*7C
$GLGMP,024527.00,,,,,,08,,,,,*71
$GAGMP,024527.00,,,,,,07,,,,,*73
$GBGMP,024527.00,,,,,,13,,,,,*75
$PSSN,SNC,[0,269145000,2347]*49
$GPZDA,024532.00,01,01,2025,,*61
$GPDTM,W84,,00.0000000,N,00.0000000,E,00.0000000,W84*5F
$PSSN,TFM,024532.00,,,,*6D
$GPRMC,024532.00,A,4742.1602440,N,01618.1004287,E,0.0,,010125,5.1,E,D*19
$GPGLL,4742.1602440,N,01618.1004287,E,024532.00,A,D*68
$GPGGA,024532.00,4742.1602440,N,01618.1004287,E,2,39,0.4,707.9690,M,43.2066,M,1.6,0136*4B
$GNGNS,024532.00,4742.1602440,N,01618.1004287,E,DAAA,39,0.4,707.9690,43.2066,,*54
$GPGNS,024532.00,,,,,,11,,,,1.6,136*7C
$GLGNS,024532.00,,,,,,08,,,,,*75
$GAGNS,024532.00,,,,,,07,,,,,*77
$GBGNS,024532.00,,,,,,13,,,,,*71
$GPLLQ,024532.00,010125,,M,,M,1,39,0.851,,M*15
$GPVTG,,T,,M,0.00,N,0.01,K,D*27
$GPHDT,,T*1B
$GPTHS,,V*0E
$GPROT,,V*08
$PSSN,HRP,024532.00,010125,,,,,,,00,0,,*63
$PTNL,AVR,024532.00,,Yaw,,Tilt,,,,0,,00*35
$GPGSA,A,3,02,03,04,06,09,11,17,19,26,28,31,,0.8,0.4,0.6*30
$GPGSA,A,3,69,70,71,78,79,80,85,86,,,,,0.8,0.4,0.6*3C
$GPGSA,A,3,04,05,06,09,11,34,36,,,,,,0.8,0.4,0.6*34
$GPGSA,A,3,05,06,09,16,19,20,22,29,35,37,39,44,0.8,0.4,0.6*3C
$GPGSA,A,3,60,,,,,,,,,,,,0.8,0.4,0.6*3E
$GPGST,024532.00,1.222,0.423,0.318,347.991,0.419,0.323,0.667*51
$GPGBS,024532.00,2.824,1.774,4.132,11,0.0001,1.066,1.981*51
$GPGRS,024532.00,1,0.3,-0.0,0.0,-0.3,-0.0,1.1,0.0,0.3,-0.7,-0.4,-0.2,*60
$GPGRS,024532.00,1,-0.9,-1.4,2.2,-3.1,1.0,-0.8,2.8,-1.6,,,,*6B
$GPGRS,024532.00,1,-0.0,0.0,0.0,0.1,-0.2,-0.1,0.0,,,,,*4D
$GPGRS,024532.00,1,3.0,0.7,0.4,0.8,-0.5,-1.2,0.5,-0.6,-0.5,0.7,-1.3,-0.2*43
$GPGRS,024532.00,1,-1.2,,,,,,,,,,,*4C
$GPGSV,6,1,23,04,88,187,49,19,25,266,43,02,16,163,42,17,18,238,42*75
$GPGSV,6,2,23,01,21,155,,31,28,052,43,06,40,307,45,03,57,088,48*7D
$GPGSV,6,3,23,09,57,237,49,11,06,320,37,21,01,156,,26,05,078,37*74
$GPGSV,6,4,23,28,09,034,38,07,07,184,,36,35,170,45,58,13,245,38*7B
$GPGSV,6,5,23,40,24,132,36,34,31,208,43,49,34,195,44,57,09,110,37*7C
$GPGSV,6,6,23,41,07,108,35,61,03,257,38*7A
$GLGSV,3,1,10,70,70,350,42,69,17,059,45,80,16,109,45,87,11,337,*6C
$GLGSV,3,2,10,79,23,055,47,71,38,267,50,85,48,207,52,86,49,305,52*63
$GLGSV,3,3,10,84,05,174,,78,06,007,42*67
$GAGSV,3,1,11,09,82,075,48,11,25,156,38,04,30,055,42,18,19,266,*6B
$GAGSV,3,2,11,34,43,308,45,05,40,230,45,06,57,059,47,36,70,201,48*64
$GAGSV,3,3,11,23,02,065,,10,00,149,,21,02,018,32*5C
$GBGSV,5,1,19,48,73,049,,46,16,133,,29,19,195,43,58,10,123,*63
$GBGSV,5,2,19,39,21,040,42,22,19,265,44,44,23,312,44,21,19,255,*6E
$GBGSV,5,3,19,05,23,128,39,16,30,046,43,06,31,050,41,37,25,077,44*66
$GBGSV,5,4,19,09,41,063,43,35,42,259,48,20,51,066,51,19,71,292,51*6F
$GBGSV,5,5,19,02,07,106,34,12,08,330,,60,09,110,40*56
$GPGGA,024532.00,,,,,0,00,,,M,,M,,*4A
$PTNL,GGK,024532.00,010125,4742.1602440,N,01618.1004287,E,1,39,0.8,EHT751.1755,M*49
$GPGGQ,024532.00,010125,4742.1602440,N,01618.1004287,E,1,39,0.851,707.9690,M*30
$GPGFA,024532.00,4.018,5.467,0.423,0.318,347.991,0.667,,VVV*05
$GPLLK,024532.00,010125,,M,,M,1,39,0.8,,M*0B
$GNGMP,024532.00,,,,,DAAA,39,0.4,,,,*5A
$GPGMP,024532.00,,,,,,11,,,,1.6,136*7C
$GLGMP,024532.00,,,,,,08,,,,,*75
$GAGMP,024532.00,,,,,,07,,,,,*77
$GBGMP,024532.00,,,,,,13,,,,,*71
$PSSN,SNC,[0,269150000,2347]*4D
$GPZDA,024537.00,01,01,2025,,*64
$GPDTM,W84,,00.0000000,N,00.0000000,E,00.0000000,W84*5F
$PSSN,TFM,024537.00,,,,*68
$GPRMC,024537.00,A,4742.1602430,N,01618.1004271,E,0.0,,010125,5.1,E,D*12
$GPGLL,4742.1602430,N,01618.1004271,E,024537.00,A,D*63
$GPGGA,024537.00,4742.1602430,N,01618.1004271,E,2,39,0.4,707.9686,M,43.2066,M,2.6,0136*44
$GNGNS,024537.00,4742.1602430,N,01618.1004271,E,DAAA,39,0.4,707.9686,43.2066,,*58
$GPGNS,024537.00,,,,,,11,,,,2.6,136*7A
$GLGNS,024537.00,,,,,,08,,,,,*70
$GAGNS,024537.00,,,,,,07,,,,,*72
$GBGNS,024537.00,,,,,,13,,,,,*74
$GPLLQ,024537.00,010125,,M,,M,1,39,0.838,,M*1F
$GPVTG,,T,,M,0.00,N,0.01,K,D*27
$GPHDT,,T*1B
$GPTHS,,V*0E
$GPROT,,V*08
$PSSN,HRP,024537.00,010125,,,,,,,00,0,,*66
$PTNL,AVR,024537.00,,Yaw,,Tilt,,,,0,,00*30
$GPGSA,A,3,02,03,04,06,09,11,17,19,26,28,31,,0.8,0.4,0.6*30
$GPGSA,A,3,69,70,71,78,79,80,85,86,,,,,0.8,0.4,0.6*3C
$GPGSA,A,3,04,05,06,09,11,34,36,,,,,,0.8,0.4,0.6*34
$GPGSA,A,3,05,06,09,16,19,20,22,29,35,37,39,44,0.8,0.4,0.6*3C
$GPGSA,A,3,60,,,,,,,,,,,,0.8,0.4,0.6*3E
$GPGST,024537.00,1.259,0.417,0.316,349.261,0.414,0.320,0.655*54
$GPGBS,024537.00,2.858,1.789,4.178,11,0.0001,1.399,1.983*52
$GPGRS,024537.00,1,-0.2,0.2,-0.0,-0.1,0.0,1.4,0.1,-0.3,-0.4,-0.6,0.1,*62
$GPGRS,024537.00,1,-0.9,-0.9,2.1,-3.5,1.3,-0.7,3.1,-1.7,,,,*60
$GPGRS,024537.00,1,-0.1,-0.2,0.2,0.1,-0.4,-0.3,0.0,,,,,*60
$GPGRS,024537.00,1,2.6,0.5,0.7,0.8,-0.3,-1.3,0.4,-0.1,-0.6,0.2,-1.3,-0.4*41
$GPGRS,024537.00,1,-1.5,,,,,,,,,,,*4E
$GPGSV,6,1,23,04,88,187,49,19,25,266,43,02,16,163,42,17,18,238,42*75
$GPGSV,6,2,23,01,21,155,,31,28,052,44,06,40,307,45,03,57,088,48*7A
$GPGSV,6,3,23,09,57,237,49,11,06,320,38,21,01,156,,26,05,078,37*7B
$GPGSV,6,4,23,28,09,034,38,07,07,184,,36,35,170,45,58,13,245,38*7B
$GPGSV,6,5,23,40,24,132,36,34,31,208,43,49,34,195,44,57,09,110,38*73
$GPGSV,6,6,23,41,07,108,35,61,03,257,38*7A
$GLGSV,3,1,10,70,70,350,42,69,17,059,45,80,16,109,46,87,11,337,*6F
$GLGSV,3,2,10,79,23,055,47,71,38,267,50,85,47,207,52,86,49,305,52*6C
$GLGSV,3,3,10,84,05,174,,78,06,007,41*64
$GAGSV,3,1,11,09,82,075,48,11,25,156,38,04,30,055,42,18,19,266,*6B
$GAGSV,3,2,11,34,43,308,45,05,40,230,44,06,56,059,47,36,70,201,48*64
$GAGSV,3,3,11,23,02,064,,10,00,149,,21,02,018,32*5D
$GBGSV,5,1,19,48,73,049,,46,16,133,,29,19,195,43,58,10,123,*63
$GBGSV,5,2,19,39,21,040,42,22,19,265,44,44,23,312,44,21,19,255,*6E
$GBGSV,5,3,19,05,23,128,39,16,30,046,43,06,31,050,41,37,25,077,44*66
$GBGSV,5,4,19,09,41,063,43,35,42,259,48,20,51,066,50,19,71,292,51*6E
$GBGSV,5,5,19,02,07,106,34,12,08,330,,60,09,110,40*56
$GPGGA,024537.00,,,,,0,00,,,M,,M,,*4F
$PTNL,GGK,024537.00,010125,4742.1602430,N,01618.1004271,E,1,39,0.8,EHT751.1751,M*46
$GPGGQ,024537.00,010125,4742.1602430,N,01618.1004271,E,1,39,0.838,707.9686,M*33
$GPGFA,024537.00,3.961,5.375,0.417,0.316,349.261,0.655,,VVV*06
$GPLLK,024537.00,010125,,M,,M,1,39,0.8,,M*0E
$GNGMP,024537.00,,,,,DAAA,39,0.4,,,,*5F
$GPGMP,024537.00,,,,,,11,,,,2.6,136*7A
$GLGMP,024537.00,,,,,,08,,,,,*70
$GAGMP,024537.00,,,,,,07,,,,,*72
$GBGMP,024537.00,,,,,,13,,,,,*74
$PSSN,SNC,[0,269155000,2347]*48
$GPZDA,024542.00,01,01,2025,,*66
$GPDTM,W84,,00.0000000,N,00.0000000,E,00.0000000,W84*5F
$PSSN,TFM,024542.00,,,,*6A
$GPRMC,024542.00,A,4742.1602413,N,01618.1004254,E,0.0,,010125,5.1,E,D*16
$GPGLL,4742.1602413,N,01618.1004254,E,024542.00,A,D*67
$GPGGA,024542.00,4742.1602413,N,01618.1004254,E,2,39,0.4,707.9684,M,43.2066,M,2.8,0136*4C
$GNGNS,024542.00,4742.1602413,N,01618.1004254,E,DAAA,39,0.4,707.9684,43.2066,,*5E
$GPGNS,024542.00,,,,,,11,,,,2.8,136*76
$GLGNS,024542.00,,,,,,08,,,,,*72
$GAGNS,024542.00,,,,,,07,,,,,*70
$GBGNS,024542.00,,,,,,13,,,,,*76
$GPLLQ,024542.00,010125,,M,,M,1,39,0.849,,M*1B
$GPVTG,,T,,M,0.00,N,0.00,K,D*26
$GPHDT,,T*1B
$GPTHS,,V*0E
$GPROT,,V*08
$PSSN,HRP,024542.00,010125,,,,,,,00,0,,*64
$PTNL,AVR,024542.00,,Yaw,,Tilt,,,,0,,00*32
$GPGSA,A,3,02,03,04,06,09,11,17,19,26,28,31,,0.8,0.4,0.6*30
$GPGSA,A,3,69,70,71,78,79,80,85,86,,,,,0.8,0.4,0.6*3C
$GPGSA,A,3,04,05,06,09,11,34,36,,,,,,0.8,0.4,0.6*34
$GPGSA,A,3,05,06,09,16,19,20,22,29,35,37,39,44,0.8,0.4,0.6*3C
$GPGSA,A,3,60,,,,,,,,,,,,0.8,0.4,0.6*3E
$GPGST,024542.00,1.074,0.421,0.319,348.514,0.418,0.324,0.665*5E
$GPGBS,024542.00,2.916,1.763,4.234,11,0.0001,1.546,1.987*54
$GPGRS,024542.00,1,-0.7,0.3,-0.1,-0.2,0.0,1.5,-0.4,0.4,-0.0,-0.3,0.3,*66
$GPGRS,024542.00,1,-1.0,-0.9,1.6,-2.1,0.8,0.1,2.6,-1.3,,,,*48
$GPGRS,024542.00,1,-0.1,0.2,0.2,0.2,-0.4,0.0,0.2,,,,,*60
$GPGRS,024542.00,1,2.7,0.7,0.5,0.8,-0.4,-1.2,0.2,0.0,-0.7,0.6,-1.5,-0.1*68
$GPGRS,024542.00,1,-1.1,,,,,,,,,,,*48
$GPGSV,6,1,23,04,88,186,49,19,25,266,43,02,16,163,42,17,18,238,43*75
$GPGSV,6,2,23,01,21,155,,31,28,052,44,06,40,307,46,03,57,088,48*79
$GPGSV,6,3,23,09,57,237,49,11,06,320,39,21,01,156,,26,05,078,36*7B
$GPGSV,6,4,23,28,09,034,38,07,07,184,,36,35,170,45,58,13,245,38*7B
$GPGSV,6,5,23,40,24,132,36,34,31,208,44,49,34,195,45,57,09,110,38*75
$GPGSV,6,6,23,41,07,108,35,61,03,257,38*7A
$GLGSV,3,1,10,70,70,351,42,69,17,059,44,80,16,109,46,87,11,337,*6F
$GLGSV,3,2,10,79,23,055,47,71,38,267,50,85,47,207,52,86,49,304,52*6D
$GLGSV,3,3,10,84,05,174,,78,06,007,42*67
$GAGSV,3,1,11,09,82,075,48,11,25,156,37,04,30,055,42,18,19,266,*64
$GAGSV,3,2,11,34,43,308,45,05,40,230,45,06,56,059,47,36,70,200,48*64
$GAGSV,3,3,11,23,02,064,,10,00,149,,21,02,018,32*5D
$GBGSV,5,1,19,48,73,049,,46,16,133,,29,19,195,43,58,10,123,*63
$GBGSV,5,2,19,39,21,040,42,22,19,265,44,44,23,312,43,21,19,255,*69
$GBGSV,5,3,19,05,23,128,39,16,30,046,43,06,31,050,41,37,25,077,44*66
$GBGSV,5,4,19,09,41,063,43,35,42,259,48,20,51,066,51,19,71,292,51*6F
$GBGSV,5,5,19,02,07,106,34,12,08,330,,60,09,110,40*56
$GPGGA,024542.00,,,,,0,00,,,M,,M,,*4D
$PTNL,GGK,024542.00,010125,4742.1602413,N,01618.1004254,E,1,39,0.8,EHT751.1750,M*43
$GPGGQ,024542.00,010125,4742.1602413,N,01618.1004254,E,1,39,0.849,707.9684,M*33
$GPGFA,024542.00,4.006,5.450,0.421,0.319,348.514,0.665,,VVV*06
$GPLLK,024542.00,010125,,M,,M,1,39,0.8,,M*0C
$GNGMP,024542.00,,,,,DAAA,39,0.4,,,,*5D
$GPGMP,024542.00,,,,,,11,,,,2.8,136*76
$GLGMP,024542.00,,,,,,08,,,,,*72
$GAGMP,024542.00,,,,,,07,,,,,*70
$GBGMP,024542.00,,,,,,13,,,,,*76
$PSSN,SNC,[0,269160000,2347]*4E
$GPZDA,024547.00,01,01,2025,,*63
$GPDTM,W84,,00.0000000,N,00.0000000,E,00.0000000,W84*5F
$PSSN,TFM,024547.00,,,,*6F
$GPRMC,024547.00,A,4742.1602371,N,01618.1004286,E,0.0,,010125,5.1,E,D*1F
$GPGLL,4742.1602371,N,01618.1004286,E,024547.00,A,D*6E
$GPGGA,024547.00,4742.1602371,N,01618.1004286,E,2,39,0.4,707.9690,M,43.2066,M,3.0,0136*49
$GNGNS,024547.00,4742.1602371,N,01618.1004286,E,DAAA,39,0.4,707.9690,43.2066,,*52
$GPGNS,024547.00,,,,,,11,,,,3.0,136*7A
$GLGNS,024547.00,,,,,,08,,,,,*77
$GAGNS,024547.00,,,,,,07,,,,,*75
$GBGNS,024547.00,,,,,,13,,,,,*73
$GPLLQ,024547.00,010125,,M,,M,1,39,0.858,,M*1E
$GPVTG,,T,,M,0.00,N,0.00,K,D*26
$GPHDT,,T*1B
$GPTHS,,V*0E
$GPROT,,V*08
$PSSN,HRP,024547.00,010125,,,,,,,00,0,,*61
$PTNL,AVR,024547.00,,Yaw,,Tilt,,,,0,,00*37
$GPGSA,A,3,02,03,04,06,09,11,17,19,26,28,31,,0.8,0.4,0.6*30
$GPGSA,A,3,69,70,71,78,79,80,85,86,,,,,0.8,0.4,0.6*3C
$GPGSA,A,3,04,05,06,09,11,34,36,,,,,,0.8,0.4,0.6*34
$GPGSA,A,3,05,06,09,16,19,20,22,29,35,37,39,44,0.8,0.4,0.6*3C
$GPGSA,A,3,60,,,,,,,,,,,,0.8,0.4,0.6*3E
$GPGST,024547.00,1.139,0.426,0.320,347.328,0.421,0.326,0.672*56
$GPGBS,024547.00,2.927,1.743,4.277,11,0.0001,1.842,1.990*59
$GPGRS,024547.00,1,-0.7,0.1,-0.1,-0.1,-0.1,1.8,-0.1,0.4,-1.0,0.0,0.2,*68
$GPGRS,024547.00,1,-0.9,-0.7,1.5,-2.6,0.9,-0.8,2.3,-1.5,,,,*69
$GPGRS,024547.00,1,-0.3,-0.1,0.2,0.1,-0.1,-0.0,-0.2,,,,,*4F
$GPGRS,024547.00,1,2.8,0.8,0.9,0.8,-0.6,-1.3,0.6,-0.5,-0.9,0.6,-1.3,-0.1*46
$GPGRS,024547.00,1,-1.1,,,,,,,,,,,*4D
$GPGSV,6,1,23,04,88,186,49,19,25,266,44,02,16,163,41,17,18,238,42*70
$GPGSV,6,2,23,01,21,155,,31,28,052,44,06,40,307,46,03,57,088,48*79
$GPGSV,6,3,23,09,57,237,49,11,06,320,39,21,01,156,,26,05,078,36*7B
$GPGSV,6,4,23,28,09,034,38,07,07,184,,36,35,170,44,58,13,245,38*7A
$GPGSV,6,5,23,40,24,132,36,34,31,208,43,49,34,195,45,57,09,110,37*7D
$GPGSV,6,6,23,41,07,108,35,61,03,257,38*7A
$GLGSV,3,1,10,70,70,351,42,69,17,059,45,80,16,109,46,87,11,337,*6E
$GLGSV,3,2,10,79,23,055,47,71,38,267,50,85,47,207,51,86,49,304,51*6D
$GLGSV,3,3,10,84,05,174,,78,06,007,42*67
$GAGSV,3,1,11,09,82,075,48,11,25,156,38,04,30,055,42,18,19,266,*6B
$GAGSV,3,2,11,34,43,308,45,05,40,230,45,06,56,059,47,36,70,200,48*64
$GAGSV,3,3,11,23,02,064,,10,00,149,,21,02,018,31*5E
$GBGSV,5,1,19,48,73,049,,46,16,133,,29,19,195,42,58,10,123,*62
$GBGSV,5,2,19,39,21,040,42,22,19,265,44,44,23,312,43,21,19,255,*69
$GBGSV,5,3,19,05,23,128,39,16,30,046,42,06,31,050,40,37,25,077,44*66
$GBGSV,5,4,19,09,41,063,42,35,42,259,48,20,51,066,50,19,71,292,51*6F
$GBGSV,5,5,19,02,07,106,33,12,08,330,,60,09,110,40*51
$GPGGA,024547.00,,,,,0,00,,,M,,M,,*48
$PTNL,GGK,024547.00,010125,4742.1602371,N,01618.1004286,E,1,39,0.8,EHT751.1756,M*4C
$GPGGQ,024547.00,010125,4742.1602371,N,01618.1004286,E,1,39,0.858,707.9690,M*3F
$GPGFA,024547.00,4.048,5.511,0.426,0.320,347.328,0.672,,VVV*00
$GPLLK,024547.00,010125,,M,,M,1,39,0.8,,M*09
$GNGMP,024547.00,,,,,DAAA,39,0.4,,,,*58
$GPGMP,024547.00,,,,,,11,,,,3.0,136*7A
$GLGMP,024547.00,,,,,,08,,,,,*77
$GAGMP,024547.00,,,,,,07,,,,,*75
$GBGMP,024547.00,,,,,,13,,,,,*73
$PSSN,SNC,[0,269165000,2347]*4B
$GPZDA,024552.00,01,01,2025,,*67
$GPDTM,W84,,00.0000000,N,00.0000000,E,00.0000000,W84*5F
$PSSN,TFM,024552.00,,,,*6B
$GPRMC,024552.00,A,4742.1602340,N,01618.1004290,E,0.0,,010125,5.1,E,D*1E
$GPGLL,4742.1602340,N,01618.1004290,E,024552.00,A,D*6F
$GPGGA,024552.00,4742.1602340,N,01618.1004290,E,2,39,0.4,707.9699,M,43.2066,M,1.6,0136*45
$GNGNS,024552.00,4742.1602340,N,01618.1004290,E,DAAA,39,0.4,707.9699,43.2066,,*5A
$GPGNS,024552.00,,,,,,11,,,,1.6,136*7A
$GLGNS,024552.00,,,,,,08,,,,,*73
$GAGNS,024552.00,,,,,,07,,,,,*71
$GBGNS,024552.00,,,,,,13,,,,,*77
$GPLLQ,024552.00,010125,,M,,M,1,39,0.850,,M*12
$GPVTG,,T,,M,0.00,N,0.01,K,D*27
$GPHDT,,T*1B
$GPTHS,,V*0E
$GPROT,,V*08
$PSSN,HRP,024552.00,010125,,,,,,,00,0,,*65
$PTNL,AVR,024552.00,,Yaw,,Tilt,,,,0,,00*33
$GPGSA,A,3,02,03,04,06,09,11,17,19,26,28,31,,0.8,0.4,0.6*30
$GPGSA,A,3,69,70,71,78,79,80,85,86,,,,,0.8,0.4,0.6*3C
$GPGSA,A,3,04,05,06,09,11,34,36,,,,,,0.8,0.4,0.6*34
$GPGSA,A,3,05,06,09,16,19,20,22,29,35,37,39,44,0.8,0.4,0.6*3C
$GPGSA,A,3,60,,,,,,,,,,,,0.8,0.4,0.6*3E
$GPGST,024552.00,1.313,0.423,0.318,348.066,0.419,0.323,0.666*5B
$GPGBS,024552.00,2.821,1.783,4.115,02,0.0001,-0.932,0.929*7A
$GPGRS,024552.00,1,-0.9,0.2,-0.1,-0.3,0.2,1.8,-0.3,0.4,-1.5,0.0,0.4,*4C
$GPGRS,024552.00,1,-0.3,-0.8,2.2,-3.6,0.9,-0.8,2.8,-1.9,,,,*6A
$GPGRS,024552.00,1,-0.2,-0.2,0.2,-0.1,-0.0,-0.3,-0.2,,,,,*66
$GPGRS,024552.00,1,3.0,0.7,0.8,0.7,-0.8,-1.5,0.5,-0.5,-0.6,0.4,-1.2,0.1*60
$GPGRS,024552.00,1,-0.9,,,,,,,,,,,*40
$GPGSV,6,1,23,04,88,185,49,19,25,266,44,02,16,163,41,17,18,238,42*73
$GPGSV,6,2,23,01,21,155,,31,28,052,44,06,40,307,45,03,57,089,48*7B
$GPGSV,6,3,23,09,57,237,49,11,06,320,38,21,01,156,,26,05,078,36*7A
$GPGSV,6,4,23,28,09,034,38,07,07,184,,36,35,170,45,58,13,245,38*7B
$GPGSV,6,5,23,40,24,132,36,34,31,208,43,49,34,195,45,57,09,110,37*7D
$GPGSV,6,6,23,41,07,108,35,61,03,257,38*7A
$GLGSV,3,1,10,70,70,351,42,69,17,059,45,80,16,109,45,87,11,337,*6D
$GLGSV,3,2,10,79,23,055,47,71,38,267,50,85,47,207,51,86,49,304,52*6E
$GLGSV,3,3,10,84,05,174,,78,06,007,42*67
$GAGSV,3,1,11,09,82,074,48,11,25,156,38,04,30,055,42,18,19,266,*6A
$GAGSV,3,2,11,34,43,308,45,05,40,230,45,06,56,059,47,36,69,200,48*6C
$GAGSV,3,3,11,23,03,064,,10,00,149,,21,02,018,32*5C
$GBGSV,5,1,19,48,73,049,,46,16,133,,29,19,195,43,58,10,123,*63
$GBGSV,5,2,19,39,21,040,42,22,19,265,44,44,23,312,43,21,19,255,*69
$GBGSV,5,3,19,05,23,128,39,16,30,046,42,06,31,050,40,37,25,077,44*66
$GBGSV,5,4,19,09,41,063,42,35,42,259,48,20,51,066,50,19,71,292,51*6F
$GBGSV,5,5,19,02,07,106,34,12,08,330,,60,09,110,40*56
$GPGGA,024552.00,,,,,0,00,,,M,,M,,*4C
$PTNL,GGK,024552.00,010125,4742.1602340,N,01618.1004290,E,1,39,0.8,EHT751.1765,M*4D
$GPGGQ,024552.00,010125,4742.1602340,N,01618.1004290,E,1,39,0.850,707.9699,M*3F
$GPGFA,024552.00,4.023,5.457,0.423,0.318,348.066,0.666,,VVV*07
$GPLLK,024552.00,010125,,M,,M,1,39,0.8,,M*0D
$GNGMP,024552.00,,,,,DAAA,39,0.4,,,,*5C
$GPGMP,024552.00,,,,,,11,,,,1.6,136*7A
$GLGMP,024552.00,,,,,,08,,,,,*73
$GAGMP,024552.00,,,,,,07,,,,,*71
$GBGMP,024552.00,,,,,,13,,,,,*77
$PSSN,SNC,[0,269170000,2347]*4F
$GPZDA,024557.00,01,01,2025,,*62
$GPDTM,W84,,00.0000000,N,00.0000000,E,00.0000000,W84*5F
$PSSN,TFM,024557.00,,,,*6E
$GPRMC,024557.00,A,4742.1602317,N,01618.1004312,E,0.0,,010125,5.1,E,D*12
$GPGLL,4742.1602317,N,01618.1004312,E,024557.00,A,D*63
$GPGGA,024557.00,4742.1602317,N,01618.1004312,E,2,39,0.4,707.9684,M,43.2066,M,2.6,0136*46
$GNGNS,024557.00,4742.1602317,N,01618.1004312,E,DAAA,39,0.4,707.9684,43.2066,,*5A
$GPGNS,024557.00,,,,,,11,,,,2.6,136*7C
$GLGNS,024557.00,,,,,,08,,,,,*76
$GAGNS,024557.00,,,,,,07,,,,,*74
$GBGNS,024557.00,,,,,,13,,,,,*72
$GPLLQ,024557.00,010125,,M,,M,1,39,0.838,,M*19
$GPVTG,,T,,M,0.01,N,0.01,K,D*26
$GPHDT,,T*1B
$GPTHS,,V*0E
$GPROT,,V*08
$PSSN,HRP,024557.00,010125,,,,,,,00,0,,*60
$PTNL,AVR,024557.00,,Yaw,,Tilt,,,,0,,00*36
$GPGSA,A,3,02,03,04,06,09,11,17,19,26,28,31,,0.8,0.4,0.6*30
$GPGSA,A,3,69,70,71,78,79,80,85,86,,,,,0.8,0.4,0.6*3C
$GPGSA,A,3,04,05,06,09,11,34,36,,,,,,0.8,0.4,0.6*34
$GPGSA,A,3,05,06,09,16,19,20,22,29,35,37,39,44,0.8,0.4,0.6*3C
$GPGSA,A,3,60,,,,,,,,,,,,0.8,0.4,0.6*3E
$GPGST,024557.00,1.170,0.417,0.316,349.340,0.414,0.320,0.654*59
$GPGBS,024557.00,2.856,1.799,4.162,06,0.0001,-0.690,0.733*72
$GPGRS,024557.00,1,-0.7,0.2,-0.1,-0.7,0.3,1.1,-0.0,0.2,-1.0,0.1,0.4,*4A
$GPGRS,024557.00,1,-0.4,-0.8,2.0,-2.2,1.1,-1.1,3.3,-1.5,,,,*68
$GPGRS,024557.00,1,-0.3,-0.1,0.1,0.2,-0.1,-0.3,-0.1,,,,,*4E
$GPGRS,024557.00,1,2.6,0.5,1.0,0.7,-0.6,-1.4,0.2,-0.4,-0.5,0.9,-1.3,-0.0*43
$GPGRS,024557.00,1,-1.1,,,,,,,,,,,*4C
$GPGSV,6,1,23,04,88,185,50,19,25,266,44,02,16,163,41,17,18,238,42*7B
$GPGSV,6,2,23,01,21,155,,31,28,052,44,06,40,307,44,03,57,089,48*7A
$GPGSV,6,3,23,09,57,237,49,11,06,320,38,21,01,156,,26,05,078,36*7A
$GPGSV,6,4,23,28,09,034,38,07,07,184,,36,35,170,45,58,13,245,38*7B
$GPGSV,6,5,23,40,24,132,36,34,31,208,43,49,34,195,45,57,09,110,38*72
$GPGSV,6,6,23,41,07,108,35,61,03,257,38*7A
$GLGSV,3,1,10,70,70,351,42,69,17,059,46,80,16,109,45,87,11,337,*6E
$GLGSV,3,2,10,79,23,055,47,71,38,267,50,85,47,207,52,86,49,304,52*6D
$GLGSV,3,3,10,84,05,174,,78,06,007,42*67
$GAGSV,3,1,11,09,82,074,48,11,25,156,39,04,30,055,42,18,19,266,*6B
$GAGSV,3,2,11,34,43,308,45,05,40,230,45,06,56,059,47,36,69,200,48*6C
$GAGSV,3,3,11,23,03,064,,10,00,149,,21,02,018,33*5D
$GBGSV,5,1,19,48,73,049,,46,16,133,,29,19,195,43,58,10,123,*63
$GBGSV,5,2,19,39,21,040,42,22,19,265,44,44,23,312,43,21,19,255,*69
$GBGSV,5,3,19,05,23,128,39,16,30,046,42,06,31,050,40,37,25,077,44*66
$GBGSV,5,4,19,09,41,063,42,35,42,259,48,20,51,066,50,19,71,292,51*6F
$GBGSV,5,5,19,02,07,106,34,12,08,330,,60,09,110,40*56
$GPGGA,024557.00,,,,,0,00,,,M,,M,,*49
$PTNL,GGK,024557.00,010125,4742.1602317,N,01618.1004312,E,1,39,0.8,EHT751.1749,M*4F
$GPGGQ,024557.00,010125,4742.1602317,N,01618.1004312,E,1,39,0.838,707.9684,M*31
$GPGFA,024557.00,3.968,5.366,0.417,0.316,349.340,0.654,,VVV*08
$GPLLK,024557.00,010125,,M,,M,1,39,0.8,,M*08
$GNGMP,024557.00,,,,,DAAA,39,0.4,,,,*59
$GPGMP,024557.00,,,,,,11,,,,2.6,136*7C
$GLGMP,024557.00,,,,,,08,,,,,*76
$GAGMP,024557.00,,,,,,07,,,,,*74
$GBGMP,024557.00,,,,,,13,,,,,*72
$PSSN,SNC,[0,269175000,2347]*4A
$GPZDA,024602.00,01,01,2025,,*61
$GPDTM,W84,,00.0000000,N,00.0000000,E,00.0000000,W84*5F
$PSSN,TFM,024602.00,,,,*6D
$GPRMC,024602.00,A,4742.1602312,N,01618.1004288,E,0.0,,010125,5.1,E,D*16
$GPGLL,4742.1602312,N,01618.1004288,E,024602.00,A,D*67
$GPGGA,024602.00,4742.1602312,N,01618.1004288,E,2,39,0.4,707.9706,M,43.2066,M,2.8,0136*47
$GNGNS,024602.00,4742.1602312,N,01618.1004288,E,DAAA,39,0.4,707.9706,43.2066,,*55
$GPGNS,024602.00,,,,,,11,,,,2.8,136*71
$GLGNS,024602.00,,,,,,08,,,,,*75
$GAGNS,024602.00,,,,,,07,,,,,*77
$GBGNS,024602.00,,,,,,13,,,,,*71
$GPLLQ,024602.00,010125,,M,,M,1,39,0.849,,M*1C
$GPVTG,,T,,M,0.00,N,0.01,K,D*27
$GPHDT,,T*1B
$GPTHS,,V*0E
$GPROT,,V*08
$PSSN,HRP,024602.00,010125,,,,,,,00,0,,*63
$PTNL,AVR,024602.00,,Yaw,,Tilt,,,,0,,00*35
$GPGSA,A,3,02,03,04,06,09,11,17,19,26,28,31,,0.8,0.4,0.6*30
$GPGSA,A,3,69,70,71,78,79,80,85,86,,,,,0.8,0.4,0.6*3C
$GPGSA,A,3,04,05,06,09,11,34,36,,,,,,0.8,0.4,0.6*34
$GPGSA,A,3,05,06,09,16,19,20,22,29,35,37,39,44,0.8,0.4,0.6*3C
$GPGSA,A,3,60,,,,,,,,,,,,0.8,0.4,0.6*3E
$GPGST,024602.00,1.101,0.422,0.319,348.613,0.418,0.324,0.663*5B
$GPGBS,024602.00,2.913,1.774,4.217,11,0.0001,1.226,1.973*5B
$GPGRS,024602.00,1,-0.2,0.3,-0.2,-0.4,0.1,1.2,-0.0,-0.0,-0.8,0.8,0.2,*65
$GPGRS,024602.00,1,-0.3,-0.2,2.2,-1.7,1.1,-0.9,2.7,-1.7,,,,*6C
$GPGRS,024602.00,1,0.1,-0.1,0.2,0.2,-0.0,-0.5,0.2,,,,,*48
$GPGRS,024602.00,1,2.9,0.9,0.8,0.8,-0.4,-1.1,0.2,-0.4,-0.4,0.5,-1.3,0.1*63
$GPGRS,024602.00,1,-0.8,,,,,,,,,,,*47
$GPGSV,6,1,23,04,88,184,50,19,25,266,43,02,16,163,41,17,18,238,42*7D
$GPGSV,6,2,23,01,21,155,,31,28,052,44,06,40,307,45,03,57,089,49*7A
$GPGSV,6,3,23,09,57,237,48,11,06,320,39,21,01,156,,26,05,078,36*7A
$GPGSV,6,4,23,28,09,034,38,07,07,184,,36,35,170,45,58,13,245,38*7B
$GPGSV,6,5,23,40,24,132,36,34,31,208,43,49,34,195,44,57,09,110,37*7C
$GPGSV,6,6,23,41,07,108,35,61,03,257,38*7A
$GLGSV,3,1,10,70,70,351,42,69,17,059,45,80,16,109,46,87,11,337,*6E
$GLGSV,3,2,10,79,23,055,46,71,38,267,50,85,47,207,51,86,49,304,51*6C
$GLGSV,3,3,10,84,05,174,,78,06,007,43*66
$GAGSV,3,1,11,09,82,074,48,11,25,156,39,04,30,055,42,18,19,266,*6B
$GAGSV,3,2,11,34,43,308,45,05,40,230,45,06,56,059,47,36,69,200,48*6C
$GAGSV,3,3,11,23,03,064,,10,00,149,,21,02,018,33*5D
$GBGSV,5,1,19,48,73,049,,46,16,133,,29,19,195,43,58,10,123,*63
$GBGSV,5,2,19,39,21,040,42,22,19,265,44,44,24,312,43,21,20,255,*64
$GBGSV,5,3,19,05,23,128,39,16,30,046,42,06,31,050,40,37,25,077,44*66
$GBGSV,5,4,19,09,41,063,42,35,42,259,48,20,51,066,50,19,71,293,51*6E
$GBGSV,5,5,19,02,07,106,33,12,08,330,,60,09,110,40*51
$GPGGA,024602.00,,,,,0,00,,,M,,M,,*4A
$PTNL,GGK,024602.00,010125,4742.1602312,N,01618.1004288,E,1,39,0.8,EHT751.1772,M*43
$GPGGQ,024602.00,010125,4742.1602312,N,01618.1004288,E,1,39,0.849,707.9706,M*38
$GPGFA,024602.00,4.011,5.440,0.422,0.319,348.613,0.663,,VVV*07
$GPLLK,024602.00,010125,,M,,M,1,39,0.8,,M*0B
$GNGMP,024602.00,,,,,DAAA,39,0.4,,,,*5A
$GPGMP,024602.00,,,,,,11,,,,2.8,136*71
$GLGMP,024602.00,,,,,,08,,,,,*75
$GAGMP,024602.00,,,,,,07,,,,,*77
$GBGMP,024602.00,,,,,,13,,,,,*71
$PSSN,SNC,[0,269180000,2347]*40
$GPZDA,024607.00,01,01,2025,,*64
$GPDTM,W84,,00.0000000,N,00.0000000,E,00.0000000,W84*5F
$PSSN,TFM,024607.00,,,,*68
$GPRMC,024607.00,A,4742.1602285,N,01618.1004261,E,0.0,,010125,5.1,E,D*1B
$GPGLL,4742.1602285,N,01618.1004261,E,024607.00,A,D*6A
$GPGGA,024607.00,4742.1602285,N,01618.1004261,E,2,39,0.4,707.9711,M,43.2066,M,3.0,0136*45
$GNGNS,024607.00,4742.1602285,N,01618.1004261,E,DAAA,39,0.4,707.9711,43.2066,,*5E
$GPGNS,024607.00,,,,,,11,,,,3.0,136*7D
$GLGNS,024607.00,,,,,,08,,,,,*70
$GAGNS,024607.00,,,,,,07,,,,,*72
$GBGNS,024607.00,,,,,,13,,,,,*74
$GPLLQ,024607.00,010125,,M,,M,1,39,0.857,,M*16
$GPVTG,,T,,M,0.00,N,0.00,K,D*26
$GPHDT,,T*1B
$GPTHS,,V*0E
$GPROT,,V*08
$PSSN,HRP,024607.00,010125,,,,,,,00,0,,*66
$PTNL,AVR,024607.00,,Yaw,,Tilt,,,,0,,00*30
$GPGSA,A,3,02,03,04,06,09,11,17,19,26,28,31,,0.8,0.4,0.6*30
$GPGSA,A,3,69,70,71,78,79,80,85,86,,,,,0.8,0.4,0.6*3C
$GPGSA,A,3,04,05,06,09,11,34,36,,,,,,0.8,0.4,0.6*34
$GPGSA,A,3,05,06,09,16,19,20,22,29,35,37,39,44,0.8,0.4,0.6*3C
$GPGSA,A,3,60,,,,,,,,,,,,0.8,0.4,0.6*3E
$GPGST,024607.00,1.113,0.426,0.321,347.415,0.422,0.326,0.671*51
$GPGBS,024607.00,2.924,1.752,4.260,06,0.0001,0.409,0.763*5C
$GPGRS,024607.00,1,0.3,0.1,-0.3,0.4,0.0,0.7,-0.2,-0.3,-0.5,-0.0,0.1,*4D
$GPGRS,024607.00,1,-1.0,-0.6,1.9,-2.6,0.7,-0.6,2.4,-2.2,,,,*68
$GPGRS,024607.00,1,0.0,0.2,0.2,0.0,-0.4,-0.4,0.1,,,,,*66
$GPGRS,024607.00,1,2.9,0.4,0.7,0.6,-0.6,-1.2,0.2,-0.6,-0.7,0.2,-1.3,-0.2*43
$GPGRS,024607.00,1,-1.0,,,,,,,,,,,*4B
$GPGSV,6,1,23,04,88,183,50,19,25,266,43,02,16,163,42,17,18,238,42*79
$GPGSV,6,2,23,01,21,155,,31,28,052,44,06,40,307,45,03,57,089,49*7A
$GPGSV,6,3,23,09,57,237,49,11,06,320,39,21,01,156,,26,06,078,37*79
$GPGSV,6,4,23,28,09,034,38,07,07,184,,36,35,170,44,58,13,245,38*7A
$GPGSV,6,5,23,40,24,132,36,34,31,208,43,49,34,195,44,57,09,110,37*7C
$GPGSV,6,6,23,41,07,108,35,61,03,257,38*7A
$GLGSV,3,1,10,70,70,351,42,69,17,059,44,80,16,109,46,87,11,337,*6F
$GLGSV,3,2,10,79,23,055,46,71,38,267,50,85,47,207,51,86,49,304,51*6C
$GLGSV,3,3,10,84,05,174,,78,06,007,42*67
$GAGSV,3,1,11,09,82,074,48,11,25,156,38,04,30,055,43,18,19,266,*6B
$GAGSV,3,2,11,34,43,308,45,05,40,230,45,06,56,059,47,36,69,200,48*6C
$GAGSV,3,3,11,23,03,064,,10,00,149,,21,02,018,32*5C
$GBGSV,5,1,19,48,73,049,,46,16,133,,29,19,195,43,58,10,123,*63
$GBGSV,5,2,19,39,21,040,42,22,19,265,44,44,24,312,43,21,20,255,*64
$GBGSV,5,3,19,05,23,128,39,16,30,046,42,06,31,050,40,37,25,077,44*66
$GBGSV,5,4,19,09,41,063,43,35,42,259,48,20,51,066,50,19,71,293,51*6F
$GBGSV,5,5,19,02,07,106,34,12,08,330,,60,09,110,40*56
$GPGGA,024607.00,,,,,0,00,,,M,,M,,*4F
$PTNL,GGK,024607.00,010125,4742.1602285,N,01618.1004261,E,1,39,0.8,EHT751.1777,M*4B
$GPGGQ,024607.00,010125,4742.1602285,N,01618.1004261,E,1,39,0.857,707.9711,M*3C
$GPGFA,024607.00,4.052,5.500,0.426,0.321,347.415,0.671,,VVV*07
$GPLLK,024607.00,010125,,M,,M,1,39,0.8,,M*0E
$GNGMP,024607.00,,,,,DAAA,39,0.4,,,,*5F
$GPGMP,024607.00,,,,,,11,,,,3.0,136*7D
$GLGMP,024607.00,,,,,,08,,,,,*70
$GAGMP,024607.00,,,,,,07,,,,,*72
$GBGMP,024607.00,,,,,,13,,,,,*74
$PSSN,SNC,[0,269185000,2347]*45
$GPZDA,024612.00,01,01,2025,,*60
$GPDTM,W84,,00.0000000,N,00.0000000,E,00.0000000,W84*5F
$PSSN,TFM,024612.00,,,,*6C
$GPRMC,024612.00,A,4742.1602301,N,01618.1004265,E,0.0,,010125,5.1,E,D*16
$GPGLL,4742.1602301,N,01618.1004265,E,024612.00,A,D*67
$GPGGA,024612.00,4742.1602301,N,01618.1004265,E,2,39,0.4,707.9759,M,43.2066,M,1.6,0136*40
$GNGNS,024612.00,4742.1602301,N,01618.1004265,E,DAAA,39,0.4,707.9759,43.2066,,*5F
$GPGNS,024612.00,,,,,,11,,,,1.6,136*7D
$GLGNS,024612.00,,,,,,08,,,,,*74
$GAGNS,024612.00,,,,,,07,,,,,*76
$GBGNS,024612.00,,,,,,13,,,,,*70
$GPLLQ,024612.00,010125,,M,,M,1,39,0.850,,M*15
$GPVTG,,T,,M,0.00,N,0.01,K,D*27
$GPHDT,,T*1B
$GPTHS,,V*0E
$GPROT,,V*08
$PSSN,HRP,024612.00,010125,,,,,,,00,0,,*62
$PTNL,AVR,024612.00,,Yaw,,Tilt,,,,0,,00*34
$GPGSA,A,3,02,03,04,06,09,11,17,19,26,28,31,,0.8,0.4,0.6*30
$GPGSA,A,3,69,70,71,78,79,80,85,86,,,,,0.8,0.4,0.6*3C
$GPGSA,A,3,04,05,06,09,11,34,36,,,,,,0.8,0.4,0.6*34
$GPGSA,A,3,05,06,09,16,19,20,22,29,35,37,39,44,0.8,0.4,0.6*3C
$GPGSA,A,3,60,,,,,,,,,,,,0.8,0.4,0.6*3E
$GPGST,024612.00,1.197,0.423,0.318,348.149,0.420,0.323,0.664*56
$GPGBS,024612.00,2.818,1.792,4.098,04,0.0001,-0.371,0.585*72
$GPGRS,024612.00,1,0.1,-0.1,-0.4,-0.1,0.2,0.3,-0.1,0.4,-0.4,0.1,0.2,*48
$GPGRS,024612.00,1,-2.0,-0.7,1.8,-2.8,0.5,-0.9,3.1,-1.8,,,,*61
$GPGRS,024612.00,1,-0.2,-0.1,0.0,0.1,-0.4,-0.4,-0.1,,,,,*4D
$GPGRS,024612.00,1,2.6,0.7,0.9,0.6,-0.6,-1.4,-0.0,-1.1,-0.8,-0.1,-1.2,0.1*64
$GPGRS,024612.00,1,-1.1,,,,,,,,,,,*4E
$GPGSV,6,1,23,04,88,183,50,19,25,266,44,02,16,163,42,17,17,238,42*71
$GPGSV,6,2,23,01,21,155,,31,28,052,44,06,40,307,45,03,57,089,48*7B
$GPGSV,6,3,23,09,57,237,49,11,06,320,39,21,01,156,,26,06,078,37*79
$GPGSV,6,4,23,28,09,034,38,07,08,184,,36,35,170,44,58,13,245,38*75
$GPGSV,6,5,23,40,24,132,36,34,31,208,43,49,34,195,44,57,09,110,37*7C
$GPGSV,6,6,23,41,07,108,35,61,03,257,38*7A
$GLGSV,3,1,10,70,70,351,42,69,17,059,44,80,16,109,46,87,11,337,*6F
$GLGSV,3,2,10,79,23,055,46,71,38,267,50,85,47,207,52,86,49,304,51*6F
$GLGSV,3,3,10,84,05,174,,78,06,007,43*66
$GAGSV,3,1,11,09,82,074,48,11,25,156,37,04,30,055,42,18,19,266,*65
$GAGSV,3,2,11,34,43,308,45,05,40,230,45,06,56,059,47,36,69,200,48*6C
$GAGSV,3,3,11,23,03,064,,10,00,149,,21,02,018,32*5C
$GBGSV,5,1,19,48,73,049,,46,16,133,,29,19,195,43,58,10,123,*63
$GBGSV,5,2,19,39,21,040,42,22,19,265,44,44,24,312,43,21,20,255,*64
$GBGSV,5,3,19,05,23,128,39,16,30,046,42,06,31,050,40,37,25,077,44*66
$GBGSV,5,4,19,09,41,063,43,35,42,259,48,20,51,067,50,19,71,293,51*6E
$GBGSV,5,5,19,02,07,106,34,12,08,330,,60,09,110,40*56
$GPGGA,024612.00,,,,,0,00,,,M,,M,,*4B
$PTNL,GGK,024612.00,010125,4742.1602301,N,01618.1004265,E,1,39,0.8,EHT751.1824,M*4F
$GPGGQ,024612.00,010125,4742.1602301,N,01618.1004265,E,1,39,0.850,707.9759,M*3A
$GPGFA,024612.00,4.026,5.447,0.423,0.318,348.149,0.664,,VVV*0A
$GPLLK,024612.00,010125,,M,,M,1,39,0.8,,M*0A
$GNGMP,024612.00,,,,,DAAA,39,0.4,,,,*5B
$GPGMP,024612.00,,,,,,11,,,,1.6,136*7D
$GLGMP,024612.00,,,,,,08,,,,,*74
$GAGMP,024612.00,,,,,,07,,,,,*76
$GBGMP,024612.00,,,,,,13,,,,,*70
$PSSN,SNC,[0,269190000,2347]*41
$GPZDA,024617.00,01,01,2025,,*65
$GPDTM,W84,,00.0000000,N,00.0000000,E,00.0000000,W84*5F
$PSSN,TFM,024617.00,,,,*69
$GPRMC,024617.00,A,4742.1602271,N,01618.1004287,E,0.0,,010125,5.1,E,D*19
$GPGLL,4742.1602271,N,01618.1004287,E,024617.00,A,D*68
$GPGGA,024617.00,4742.1602271,N,01618.1004287,E,2,39,0.4,707.9778,M,43.2066,M,2.6,0136*4F
$GNGNS,024617.00,4742.1602271,N,01618.1004287,E,DAAA,39,0.4,707.9778,43.2066,,*53
$GPGNS,024617.00,,,,,,11,,,,2.6,136*7B
$GLGNS,024617.00,,,,,,08,,,,,*71
$GAGNS,024617.00,,,,,,07,,,,,*73
$GBGNS,024617.00,,,,,,13,,,,,*75
$GPLLQ,024617.00,010125,,M,,M,1,39,0.837,,M*11
$GPVTG,,T,,M,0.00,N,0.00,K,D*26
$GPHDT,,T*1B
$GPTHS,,V*0E
$GPROT,,V*08
$PSSN,HRP,024617.00,010125,,,,,,,00,0,,*67
$PTNL,AVR,024617.00,,Yaw,,Tilt,,,,0,,00*31
$GPGSA,A,3,02,03,04,06,09,11,17,19,26,28,31,,0.8,0.4,0.6*30
$GPGSA,A,3,69,70,71,78,79,80,85,86,,,,,0.8,0.4,0.6*3C
$GPGSA,A,3,04,05,06,09,11,34,36,,,,,,0.8,0.4,0.6*34
$GPGSA,A,3,05,06,09,16,19,20,22,29,35,37,39,44,0.8,0.4,0.6*3C
$GPGSA,A,3,60,,,,,,,,,,,,0.8,0.4,0.6*3E
$GPGST,024617.00,1.173,0.418,0.316,349.442,0.415,0.320,0.653*51
$GPGBS,024617.00,2.851,1.807,4.144,19,0.0001,0.453,0.840*5B
$GPGRS,024617.00,1,-0.1,0.1,-0.3,-0.1,-0.1,0.8,-0.2,0.5,-0.3,0.1,0.4,*6C
$GPGRS,024617.00,1,-1.8,-0.9,2.0,-2.5,1.5,-0.6,3.1,-1.4,,,,*65
$GPGRS,024617.00,1,-0.2,-0.1,0.1,0.2,-0.4,-0.3,-0.1,,,,,*4D
$GPGRS,024617.00,1,2.7,0.3,1.0,0.3,-0.5,-1.2,0.3,-1.2,-0.7,0.5,-1.3,-0.0*4A
$GPGRS,024617.00,1,-0.8,,,,,,,,,,,*43
$GPGSV,6,1,23,04,88,182,50,19,25,266,43,02,16,163,42,17,17,238,43*76
$GPGSV,6,2,23,01,20,155,,31,28,052,44,06,40,307,45,03,57,089,48*7A
$GPGSV,6,3,23,09,57,237,49,11,06,320,38,21,01,156,,26,06,078,36*79
$GPGSV,6,4,23,28,09,034,38,07,08,184,,36,35,170,44,58,13,245,38*75
$GPGSV,6,5,23,40,24,132,36,34,31,208,43,49,34,195,44,57,09,110,37*7C
$GPGSV,6,6,23,41,07,108,34,61,03,257,37*74
$GLGSV,3,1,10,70,70,351,42,69,17,059,43,80,16,109,46,87,11,337,*68
$GLGSV,3,2,10,79,23,055,47,71,39,267,51,85,47,207,51,86,49,304,52*6E
$GLGSV,3,3,10,84,05,174,23,78,06,007,42*66
$GAGSV,3,1,11,09,82,074,48,11,25,156,38,04,30,055,42,18,19,266,*6A
