$GPZDA,052942.00,01,01,2025,,*6B
$GPDTM,W84,,00.0000000,N,00.0000000,E,00.0000000,W84*5F
$PSSN,TFM,052942.00,,,,*67
$GPRMC,052942.00,A,4742.1603555,N,01618.1000379,E,0.0,,010125,5.1,E,D*13
$GPGLL,4742.1603555,N,01618.1000379,E,052942.00,A,D*62
$GPGGA,052942.00,4742.1603555,N,01618.1000379,E,2,37,0.4,708.1520,M,43.2066,M,2.4,0136*41
$GNGNS,052942.00,4742.1603555,N,01618.1000379,E,DAAA,37,0.4,708.1520,43.2066,,*5F
$GPGNS,052942.00,,,,,,09,,,,2.4,136*7E
$GLGNS,052942.00,,,,,,07,,,,,*70
$GAGNS,052942.00,,,,,,09,,,,,*73
$GBGNS,052942.00,,,,,,12,,,,,*7A
$GPLLQ,052942.00,010125,,M,,M,1,37,0.908,,M*1C
$GPVTG,,T,,M,0.00,N,0.01,K,D*27
$GPHDT,,T*1B
$GPTHS,,V*0E
$GPROT,,V*08
$PSSN,HRP,052942.00,010125,,,,,,,00,0,,*69
$PTNL,AVR,052942.00,,Yaw,,Tilt,,,,0,,00*3F
$GPGSA,A,3,04,05,06,07,09,11,16,20,30,,,,0.8,0.4,0.6*37
$GPGSA,A,3,71,72,73,74,80,87,88,,,,,,0.8,0.4,0.6*3B
$GPGSA,A,3,03,05,06,09,13,15,24,31,34,,,,0.8,0.4,0.6*34
$GPGSA,A,3,02,05,06,09,12,16,19,22,34,36,44,60,0.8,0.4,0.6*38
$GPGST,052942.00,2.085,0.430,0.273,341.627,0.417,0.292,0.751*5C
$GPGBS,052942.00,2.842,1.753,4.984,72,0.0001,6.182,6.047*56
$GPGRS,052942.00,1,0.8,0.2,-0.2,-0.0,-0.4,0.1,-0.6,0.2,0.2,,,*63
$GPGRS,052942.00,1,-1.0,6.2,3.8,2.0,-2.4,-5.4,-3.6,,,,,*66
$GPGRS,052942.00,1,0.2,0.3,-3.4,-0.1,-0.4,0.0,0.2,-0.5,0.0,,,*6C
$GPGRS,052942.00,1,0.0,1.3,0.9,0.8,0.7,-0.6,-0.6,-0.5,0.2,0.2,-0.9,-2.2*63
$GPGSV,5,1,19,07,77,129,50,16,14,039,39,05,16,312,42,06,25,217,43*79
$GPGSV,5,2,19,04,22,082,41,11,37,259,46,30,49,207,49,20,48,300,47*7D
$GPGSV,5,3,19,09,50,078,47,13,03,264,35,36,35,170,45,58,13,245,37*7C
$GPGSV,5,4,19,40,24,132,38,34,31,208,43,49,34,195,45,57,07,111,38*78
$GPGSV,5,5,19,41,07,108,35,61,03,257,38*73
$GLGSV,3,1,10,71,57,073,51,88,22,319,44,80,17,027,44,70,13,102,35*62
$GLGSV,3,2,10,74,41,154,46,87,23,256,45,72,56,321,51,73,55,081,50*65
$GLGSV,3,3,10,86,01,217,39,65,04,294,38*66
$GAGSV,4,1,13,05,79,025,49,24,27,118,43,16,17,143,,31,26,060,42*63
$GAGSV,4,2,13,09,29,079,43,34,36,228,45,15,36,294,44,03,39,274,45*6B
$GAGSV,4,3,13,23,01,018,,25,04,163,,13,05,337,37,06,07,083,37*69
$GAGSV,4,4,13,36,05,186,31*57
$GBGSV,6,1,22,22,77,321,52,16,11,048,38,34,11,300,41,06,13,049,37*67
$GBGSV,6,2,22,26,10,184,,12,14,273,40,11,10,324,,45,18,189,*6F
$GBGSV,6,3,22,48,17,112,,09,28,051,40,05,22,129,39,58,34,055,*6A
$GBGSV,6,4,22,46,40,061,,19,44,108,49,36,53,143,51,21,75,322,*67
$GBGSV,6,5,22,39,00,049,20,43,02,342,,44,06,250,41,50,03,295,*61
$GBGSV,6,6,22,02,06,107,35,60,07,111,40*6B
$GPGGA,052942.00,,,,,0,00,,,M,,M,,*40
$PTNL,GGK,052942.00,010125,4742.1603555,N,01618.1000379,E,1,37,0.8,EHT751.3586,M*43
$GPGGQ,052942.00,010125,4742.1603555,N,01618.1000379,E,1,37,0.908,708.1520,M*36
$GPGFA,052942.00,4.086,6.161,0.430,0.273,341.627,0.751,,VVV*06
$GPLLK,052942.00,010125,,M,,M,1,37,0.8,,M*0F
$GNGMP,052942.00,,,,,DAAA,37,0.4,,,,*5E
$GPGMP,052942.00,,,,,,09,,,,2.4,136*7E
$GLGMP,052942.00,,,,,,07,,,,,*70
$GAGMP,052942.00,,,,,,09,,,,,*73
$GBGMP,052942.00,,,,,,12,,,,,*7A
$PSSN,SNC,[0,279000000,2347]*48
$GPZDA,052947.00,01,01,2025,,*6E
$GPDTM,W84,,00.0000000,N,00.0000000,E,00.0000000,W84*5F
$PSSN,TFM,052947.00,,,,*62
$GPRMC,052947.00,A,4742.1603556,N,01618.1000352,E,0.0,,010125,5.1,E,D*1C
$GPGLL,4742.1603556,N,01618.1000352,E,052947.00,A,D*6D
$GPGGA,052947.00,4742.1603556,N,01618.1000352,E,2,36,0.5,708.1515,M,43.2066,M,3.0,0136*4D
$GNGNS,052947.00,4742.1603556,N,01618.1000352,E,DAAA,36,0.5,708.1515,43.2066,,*56
$GPGNS,052947.00,,,,,,09,,,,3.0,136*7E
$GLGNS,052947.00,,,,,,07,,,,,*75
$GAGNS,052947.00,,,,,,09,,,,,*76
$GBGNS,052947.00,,,,,,11,,,,,*7C
$GPLLQ,052947.00,010125,,M,,M,1,36,0.923,,M*11
$GPVTG,,T,,M,0.00,N,0.00,K,D*26
$GPHDT,,T*1B
$GPTHS,,V*0E
$GPROT,,V*08
$PSSN,HRP,052947.00,010125,,,,,,,00,0,,*6C
$PTNL,AVR,052947.00,,Yaw,,Tilt,,,,0,,00*3A
$GPGSA,A,3,04,05,06,07,09,11,16,20,30,,,,0.8,0.5,0.6*36
$GPGSA,A,3,71,72,73,74,80,87,88,,,,,,0.8,0.5,0.6*3A
$GPGSA,A,3,03,05,06,09,13,15,24,31,34,,,,0.8,0.5,0.6*35
$GPGSA,A,3,05,06,09,12,16,19,22,34,36,44,60,,0.8,0.5,0.6*3B
$GPGST,052947.00,2.000,0.436,0.277,341.130,0.422,0.298,0.766*5F
$GPGBS,052947.00,2.763,1.797,5.057,72,0.0001,5.632,6.047*5E
$GPGRS,052947.00,1,0.9,0.2,0.2,-0.0,-0.1,-0.3,-0.2,-0.3,0.1,,,*4B
$GPGRS,052947.00,1,-1.0,5.6,3.8,2.1,-2.9,-5.5,-2.4,,,,,*6A
$GPGRS,052947.00,1,0.1,0.2,-3.0,0.2,0.1,-0.1,0.1,-0.4,0.4,,,*43
$GPGRS,052947.00,1,1.3,0.6,0.8,0.3,0.4,-0.4,-0.6,0.4,0.0,-0.6,-2.3,*67
$GPGSV,5,1,19,07,77,129,50,16,14,039,39,05,16,312,42,06,25,217,42*78
$GPGSV,5,2,19,04,22,082,41,11,37,259,46,30,49,207,49,20,49,300,48*73
$GPGSV,5,3,19,09,50,078,48,13,03,264,36,36,35,170,45,58,13,245,37*70
$GPGSV,5,4,19,40,24,132,37,34,31,208,44,49,34,195,45,57,07,111,38*70
$GPGSV,5,5,19,41,07,108,35,61,03,257,38*73
$GLGSV,3,1,10,71,57,073,51,88,22,319,46,80,17,027,43,70,13,102,34*66
$GLGSV,3,2,10,74,41,154,46,87,23,256,45,72,56,321,51,73,55,081,50*65
$GLGSV,3,3,10,86,01,217,40,65,04,294,38*68
$GAGSV,4,1,13,05,79,025,49,24,27,118,43,16,17,143,,31,26,060,42*63
$GAGSV,4,2,13,09,29,079,43,34,36,227,45,15,36,294,44,03,39,274,45*64
$GAGSV,4,3,13,23,01,018,,25,04,163,,13,05,337,38,06,07,083,37*66
$GAGSV,4,4,13,36,04,186,31*56
$GBGSV,6,1,22,22,77,321,52,16,11,048,39,34,11,300,42,06,13,049,37*65
$GBGSV,6,2,22,26,10,184,,12,14,273,40,11,10,324,,45,18,189,*6F
$GBGSV,6,3,22,48,17,112,,09,28,051,40,05,22,129,39,58,34,055,*6A
$GBGSV,6,4,22,46,40,061,,19,44,108,49,36,53,143,51,21,75,322,*67
$GBGSV,6,5,22,39,00,049,22,43,02,342,,44,06,250,40,50,03,295,*62
$GBGSV,6,6,22,02,06,107,35,60,07,111,40*6B
$GPGGA,052947.00,,,,,0,00,,,M,,M,,*45
$PTNL,GGK,052947.00,010125,4742.1603556,N,01618.1000352,E,1,36,0.8,EHT751.3581,M*4A
$GPGGQ,052947.00,010125,4742.1603556,N,01618.1000352,E,1,36,0.923,708.1515,M*37
$GPGFA,052947.00,4.141,6.278,0.436,0.277,341.130,0.766,,VVV*05
$GPLLK,052947.00,010125,,M,,M,1,36,0.9,,M*0A
$GNGMP,052947.00,,,,,DAAA,36,0.5,,,,*5B
$GPGMP,052947.00,,,,,,09,,,,3.0,136*7E
$GLGMP,052947.00,,,,,,07,,,,,*75
$GAGMP,052947.00,,,,,,09,,,,,*76
$GBGMP,052947.00,,,,,,11,,,,,*7C
$PSSN,SNC,[0,279005000,2347]*4D
$GPZDA,052952.00,01,01,2025,,*6A
$GPDTM,W84,,00.0000000,N,00.0000000,E,00.0000000,W84*5F
$PSSN,TFM,052952.00,,,,*66
$GPRMC,052952.00,A,4742.1603563,N,01618.1000297,E,0.0,,010125,5.1,E,D*16
$GPGLL,4742.1603563,N,01618.1000297,E,052952.00,A,D*67
$GPGGA,052952.00,4742.1603563,N,01618.1000297,E,2,37,0.4,708.1570,M,43.2066,M,3.1,0136*45
$GNGNS,052952.00,4742.1603563,N,01618.1000297,E,DAAA,37,0.4,708.1570,43.2066,,*5F
$GPGNS,052952.00,,,,,,09,,,,3.1,136*7B
$GLGNS,052952.00,,,,,,07,,,,,*71
$GAGNS,052952.00,,,,,,09,,,,,*72
$GBGNS,052952.00,,,,,,12,,,,,*7B
$GPLLQ,052952.00,010125,,M,,M,1,37,0.932,,M*14
$GPVTG,,T,,M,0.01,N,0.01,K,D*26
$GPHDT,,T*1B
$GPTHS,,V*0E
$GPROT,,V*08
$PSSN,HRP,052952.00,010125,,,,,,,00,0,,*68
$PTNL,AVR,052952.00,,Yaw,,Tilt,,,,0,,00*3E
$GPGSA,A,3,04,05,06,07,09,11,16,20,30,,,,0.8,0.4,0.6*37
$GPGSA,A,3,71,72,73,74,80,87,88,,,,,,0.8,0.4,0.6*3B
$GPGSA,A,3,03,05,06,09,13,15,24,31,34,,,,0.8,0.4,0.6*34
$GPGSA,A,3,02,05,06,09,12,16,19,22,34,36,44,60,0.8,0.4,0.6*38
$GPGST,052952.00,2.006,0.434,0.280,340.917,0.420,0.301,0.776*59
$GPGBS,052952.00,2.752,1.760,4.995,72,0.0001,5.841,6.047*5C
$GPGRS,052952.00,1,0.8,0.3,-0.4,0.0,-0.1,-0.3,0.5,-0.1,0.1,,,*61
$GPGRS,052952.00,1,-1.3,5.8,3.7,2.2,-2.7,-5.9,-2.2,,,,,*6B
$GPGRS,052952.00,1,-0.2,0.4,-2.9,0.6,0.1,-0.0,0.1,-0.4,0.2,,,*64
$GPGRS,052952.00,1,-0.4,1.0,0.5,0.7,-0.8,0.4,-0.4,-0.4,0.1,-0.2,-0.9,-2.2*6B
$GPGSV,5,1,19,07,77,129,50,16,14,039,40,05,16,312,42,06,25,217,43*77
$GPGSV,5,2,19,04,22,082,42,11,37,259,46,30,49,207,48,20,49,300,48*71
$GPGSV,5,3,19,09,50,078,48,13,03,264,36,36,35,170,45,58,13,245,37*70
$GPGSV,5,4,19,40,24,132,37,34,31,208,43,49,34,195,45,57,07,111,38*77
$GPGSV,5,5,19,41,07,108,35,61,03,257,38*73
$GLGSV,3,1,10,71,56,073,51,88,22,319,47,80,17,027,44,70,13,102,34*61
$GLGSV,3,2,10,74,41,154,46,87,22,256,45,72,56,322,51,73,55,081,50*67
$GLGSV,3,3,10,86,01,217,41,65,04,294,39*68
$GAGSV,4,1,13,05,79,025,49,24,27,118,43,16,17,143,,31,26,060,42*63
$GAGSV,4,2,13,09,29,079,43,34,36,227,45,15,36,294,44,03,39,274,45*64
$GAGSV,4,3,13,23,01,018,,25,04,163,,13,05,337,37,06,06,083,37*68
$GAGSV,4,4,13,36,04,186,31*56
$GBGSV,6,1,22,22,77,321,52,16,11,048,39,34,11,300,41,06,13,049,37*66
$GBGSV,6,2,22,26,10,184,,12,14,273,39,11,10,324,,45,18,189,*61
$GBGSV,6,3,22,48,17,112,,09,28,051,40,05,22,129,39,58,34,055,*6A
$GBGSV,6,4,22,46,40,061,,19,44,108,48,36,54,143,51,21,75,322,*61
$GBGSV,6,5,22,39,00,049,23,43,02,342,,44,06,250,40,50,03,295,*63
$GBGSV,6,6,22,02,06,107,35,60,07,111,40*6B
$GPGGA,052952.00,,,,,0,00,,,M,,M,,*41
$PTNL,GGK,052952.00,010125,4742.1603563,N,01618.1000297,E,1,37,0.8,EHT751.3636,M*4E
$GPGGQ,052952.00,010125,4742.1603563,N,01618.1000297,E,1,37,0.932,708.1570,M*3F
$GPGFA,052952.00,4.123,6.363,0.434,0.280,340.917,0.776,,VVV*09
$GPLLK,052952.00,010125,,M,,M,1,37,0.8,,M*0E
$GNGMP,052952.00,,,,,DAAA,37,0.4,,,,*5F
$GPGMP,052952.00,,,,,,09,,,,3.1,136*7B
$GLGMP,052952.00,,,,,,07,,,,,*71
$GAGMP,052952.00,,,,,,09,,,,,*72
$GBGMP,052952.00,,,,,,12,,,,,*7B
$PSSN,SNC,[0,279010000,2347]*49
$GPZDA,052957.00,01,01,2025,,*6F
$GPDTM,W84,,00.0000000,N,00.0000000,E,00.0000000,W84*5F
$PSSN,TFM,052957.00,,,,*63
$GPRMC,052957.00,A,4742.1603542,N,01618.1000269,E,0.0,,010125,5.1,E,D*11
$GPGLL,4742.1603542,N,01618.1000269,E,052957.00,A,D*60
$GPGGA,052957.00,4742.1603542,N,01618.1000269,E,2,37,0.4,708.1615,M,43.2066,M,1.4,0136*45
$GNGNS,052957.00,4742.1603542,N,01618.1000269,E,DAAA,37,0.4,708.1615,43.2066,,*58
$GPGNS,052957.00,,,,,,09,,,,1.4,136*79
$GLGNS,052957.00,,,,,,07,,,,,*74
$GAGNS,052957.00,,,,,,09,,,,,*77
$GBGNS,052957.00,,,,,,12,,,,,*7E
$GPLLQ,052957.00,010125,,M,,M,1,37,0.920,,M*12
$GPVTG,,T,,M,0.00,N,0.00,K,D*26
$GPHDT,,T*1B
$GPTHS,,V*0E
$GPROT,,V*08
$PSSN,HRP,052957.00,010125,,,,,,,00,0,,*6D
$PTNL,AVR,052957.00,,Yaw,,Tilt,,,,0,,00*3B
$GPGSA,A,3,04,05,06,07,09,11,16,20,30,,,,0.8,0.4,0.6*37
$GPGSA,A,3,71,72,73,74,80,87,88,,,,,,0.8,0.4,0.6*3B
$GPGSA,A,3,03,05,06,09,13,15,24,31,34,,,,0.8,0.4,0.6*34
$GPGSA,A,3,02,05,06,09,12,16,19,22,34,36,44,60,0.8,0.4,0.6*38
$GPGST,052957.00,1.923,0.430,0.278,341.572,0.417,0.296,0.764*54
$GPGBS,052957.00,2.781,1.718,4.907,72,0.0001,6.057,6.047*5F
$GPGRS,052957.00,1,0.8,0.3,0.0,-0.3,-0.6,-0.1,0.3,0.1,0.2,,,*4E
$GPGRS,052957.00,1,-1.3,6.1,4.1,2.5,-1.8,-4.4,-2.5,,,,,*65
$GPGRS,052957.00,1,-0.3,0.3,-2.9,0.7,0.2,-0.0,-0.0,-0.4,0.1,,,*4A
$GPGRS,052957.00,1,-0.4,1.5,0.4,0.8,0.1,0.2,-0.6,-0.4,-0.5,-0.1,-1.1,-2.3*67
$GPGSV,5,1,19,07,77,129,51,16,14,039,39,05,16,312,42,06,25,217,43*78
$GPGSV,5,2,19,04,22,082,42,11,37,259,46,30,49,207,49,20,49,300,48*70
$GPGSV,5,3,19,09,50,078,47,13,03,264,36,36,35,170,45,58,13,245,37*7F
$GPGSV,5,4,19,40,24,132,37,34,31,208,44,49,34,195,45,57,07,111,38*70
$GPGSV,5,5,19,41,07,108,35,61,03,257,38*73
$GLGSV,3,1,10,71,56,073,51,88,22,319,46,80,17,027,44,70,13,102,35*61
$GLGSV,3,2,10,74,41,154,46,87,22,256,45,72,56,322,51,73,55,081,50*67
$GLGSV,3,3,10,86,01,217,41,65,04,294,37*66
$GAGSV,4,1,13,05,79,025,49,24,27,118,43,16,17,143,,31,26,060,42*63
$GAGSV,4,2,13,09,29,079,43,34,36,227,45,15,36,294,44,03,39,274,45*64
$GAGSV,4,3,13,23,01,018,,25,04,162,,13,05,337,38,06,06,083,37*66
$GAGSV,4,4,13,36,04,186,31*56
$GBGSV,6,1,22,22,77,321,52,16,11,048,39,34,11,300,41,06,13,049,36*67
$GBGSV,6,2,22,26,10,184,,12,14,273,39,11,10,324,,45,18,189,*61
$GBGSV,6,3,22,48,17,112,,09,28,051,40,05,22,129,39,58,34,055,*6A
$GBGSV,6,4,22,46,40,061,,19,44,108,48,36,54,143,51,21,75,322,*61
$GBGSV,6,5,22,39,00,049,23,43,02,342,,44,06,250,40,50,03,295,*63
$GBGSV,6,6,22,02,06,107,35,60,07,111,40*6B
$GPGGA,052957.00,,,,,0,00,,,M,,M,,*44
$PTNL,GGK,052957.00,010125,4742.1603542,N,01618.1000269,E,1,37,0.8,EHT751.3681,M*45
$GPGGQ,052957.00,010125,4742.1603542,N,01618.1000269,E,1,37,0.920,708.1615,M*3B
$GPGFA,052957.00,4.086,6.267,0.430,0.278,341.572,0.764,,VVV*09
$GPLLK,052957.00,010125,,M,,M,1,37,0.8,,M*0B
$GNGMP,052957.00,,,,,DAAA,37,0.4,,,,*5A
$GPGMP,052957.00,,,,,,09,,,,1.4,136*79
$GLGMP,052957.00,,,,,,07,,,,,*74
$GAGMP,052957.00,,,,,,09,,,,,*77
$GBGMP,052957.00,,,,,,12,,,,,*7E
$PSSN,SNC,[0,279015000,2347]*4C
$GPZDA,053002.00,01,01,2025,,*67
$GPDTM,W84,,00.0000000,N,00.0000000,E,00.0000000,W84*5F
$PSSN,TFM,053002.00,,,,*6B
$GPRMC,053002.00,A,4742.1603560,N,01618.1000270,E,0.0,,010125,5.1,E,D*11
$GPGLL,4742.1603560,N,01618.1000270,E,053002.00,A,D*60
$GPGGA,053002.00,4742.1603560,N,01618.1000270,E,2,37,0.4,708.1651,M,43.2066,M,2.4,0136*46
$GNGNS,053002.00,4742.1603560,N,01618.1000270,E,DAAA,37,0.4,708.1651,43.2066,,*58
$GPGNS,053002.00,,,,,,09,,,,2.4,136*72
$GLGNS,053002.00,,,,,,07,,,,,*7C
$GAGNS,053002.00,,,,,,09,,,,,*7F
$GBGNS,053002.00,,,,,,12,,,,,*76
$GPLLQ,053002.00,010125,,M,,M,1,37,0.906,,M*1E
$GPVTG,,T,,M,0.00,N,0.00,K,D*26
$GPHDT,,T*1B
$GPTHS,,V*0E
$GPROT,,V*08
$PSSN,HRP,053002.00,010125,,,,,,,00,0,,*65
$PTNL,AVR,053002.00,,Yaw,,Tilt,,,,0,,00*33
$GPGSA,A,3,04,05,06,07,09,11,16,20,30,,,,0.8,0.4,0.6*37
$GPGSA,A,3,71,72,73,74,80,87,88,,,,,,0.8,0.4,0.6*3B
$GPGSA,A,3,03,05,06,09,13,15,24,31,34,,,,0.8,0.4,0.6*34
$GPGSA,A,3,02,05,06,09,12,16,19,22,34,36,44,60,0.8,0.4,0.6*38
$GPGST,053002.00,2.009,0.430,0.273,341.698,0.417,0.292,0.749*59
$GPGBS,053002.00,2.844,1.749,4.972,09,0.0001,-0.667,0.627*73
$GPGRS,053002.00,1,0.7,0.2,0.0,0.0,-0.7,0.0,-0.1,0.0,0.3,,,*64
$GPGRS,053002.00,1,-1.6,5.9,3.7,2.0,-2.9,-5.1,-2.9,,,,,*6D
$GPGRS,053002.00,1,-0.3,0.5,-3.2,0.6,0.0,0.2,0.0,-0.3,0.1,,,*48
$GPGRS,053002.00,1,-0.5,1.9,-0.0,0.9,0.5,0.5,-0.4,-0.3,-0.2,0.2,-0.9,-2.3*6C
$GPGSV,5,1,19,07,77,128,50,16,14,039,39,05,16,312,42,06,25,217,44*7F
$GPGSV,5,2,19,04,21,082,43,11,37,259,46,30,49,207,49,20,49,300,48*72
$GPGSV,5,3,19,09,50,078,47,13,03,264,37,36,35,170,45,58,13,245,37*7E
$GPGSV,5,4,19,40,24,132,37,34,31,208,44,49,34,195,45,57,07,111,38*70
$GPGSV,5,5,19,41,07,108,35,61,03,257,39*72
$GLGSV,3,1,10,71,56,073,51,88,22,319,45,80,17,027,44,70,13,102,35*62
$GLGSV,3,2,10,74,41,154,46,87,22,256,45,72,56,322,51,73,55,081,50*67
$GLGSV,3,3,10,86,01,217,40,65,04,295,39*68
$GAGSV,4,1,13,05,79,025,49,24,27,118,43,16,17,143,,31,26,060,42*63
$GAGSV,4,2,13,09,28,079,43,34,35,227,45,15,36,294,44,03,39,274,45*66
$GAGSV,4,3,13,23,01,018,,25,04,162,,13,05,337,37,06,06,083,37*69
$GAGSV,4,4,13,36,04,186,31*56
$GBGSV,6,1,22,22,77,321,52,16,11,048,39,34,11,300,41,06,13,049,36*67
$GBGSV,6,2,22,26,10,184,,12,14,273,40,11,10,324,,45,18,189,*6F
$GBGSV,6,3,22,48,17,112,,09,28,051,40,05,22,129,39,58,34,055,*6A
$GBGSV,6,4,22,46,40,060,,19,43,108,49,36,54,143,51,21,75,322,*66
$GBGSV,6,5,22,39,00,049,24,43,02,342,,44,06,250,41,50,03,295,*65
$GBGSV,6,6,22,02,06,107,35,60,07,111,40*6B
$GPGGA,053002.00,,,,,0,00,,,M,,M,,*4C
$PTNL,GGK,053002.00,010125,4742.1603560,N,01618.1000270,E,1,37,0.8,EHT751.3717,M*4B
$GPGGQ,053002.00,010125,4742.1603560,N,01618.1000270,E,1,37,0.906,708.1651,M*3F
$GPGFA,053002.00,4.085,6.145,0.430,0.273,341.698,0.749,,VVV*02
$GPLLK,053002.00,010125,,M,,M,1,37,0.8,,M*03
$GNGMP,053002.00,,,,,DAAA,37,0.4,,,,*52
$GPGMP,053002.00,,,,,,09,,,,2.4,136*72
$GLGMP,053002.00,,,,,,07,,,,,*7C
$GAGMP,053002.00,,,,,,09,,,,,*7F
$GBGMP,053002.00,,,,,,12,,,,,*76
$PSSN,SNC,[0,279020000,2347]*4A
$GPZDA,053007.00,01,01,2025,,*62
$GPDTM,W84,,00.0000000,N,00.0000000,E,00.0000000,W84*5F
$PSSN,TFM,053007.00,,,,*6E
$GPRMC,053007.00,A,4742.1603580,N,01618.1000288,E,0.0,,010125,5.1,E,D*1D
$GPGLL,4742.1603580,N,01618.1000288,E,053007.00,A,D*6C
$GPGGA,053007.00,4742.1603580,N,01618.1000288,E,2,37,0.4,708.1680,M,43.2066,M,3.0,0136*43
$GNGNS,053007.00,4742.1603580,N,01618.1000288,E,DAAA,37,0.4,708.1680,43.2066,,*58
$GPGNS,053007.00,,,,,,09,,,,3.0,136*72
$GLGNS,053007.00,,,,,,07,,,,,*79
$GAGNS,053007.00,,,,,,09,,,,,*7A
$GBGNS,053007.00,,,,,,12,,,,,*73
$GPLLQ,053007.00,010125,,M,,M,1,37,0.921,,M*1E
$GPVTG,,T,,M,0.00,N,0.01,K,D*27
$GPHDT,,T*1B
$GPTHS,,V*0E
$GPROT,,V*08
$PSSN,HRP,053007.00,010125,,,,,,,00,0,,*60
$PTNL,AVR,053007.00,,Yaw,,Tilt,,,,0,,00*36
$GPGSA,A,3,04,05,06,07,09,11,16,20,30,,,,0.8,0.4,0.6*37
$GPGSA,A,3,71,72,73,74,80,87,88,,,,,,0.8,0.4,0.6*3B
$GPGSA,A,3,03,05,06,09,13,15,24,31,34,,,,0.8,0.4,0.6*34
$GPGSA,A,3,02,05,06,09,12,16,19,22,34,36,44,60,0.8,0.4,0.6*38
$GPGST,053007.00,1.994,0.435,0.277,341.243,0.422,0.297,0.763*5A
$GPGBS,053007.00,2.760,1.786,5.034,72,0.0001,5.689,6.047*54
$GPGRS,053007.00,1,0.6,0.3,0.3,-0.1,-0.5,-0.1,-0.4,-0.1,0.3,,,*49
$GPGRS,053007.00,1,-1.3,5.7,3.5,2.2,-2.8,-5.5,-3.0,,,,,*6E
$GPGRS,053007.00,1,0.0,0.5,-2.8,0.6,0.1,0.0,0.4,-0.1,0.4,,,*68
$GPGRS,053007.00,1,-0.7,1.6,-0.2,1.3,0.2,0.7,-0.4,-0.4,-0.5,0.3,-0.8,-2.2*69
$GPGSV,5,1,19,07,77,128,50,16,14,039,40,05,16,312,42,06,25,217,43*76
$GPGSV,5,2,19,04,21,082,43,11,37,259,46,30,49,207,49,20,49,300,48*72
$GPGSV,5,3,19,09,50,078,47,13,03,264,36,36,35,170,45,58,13,245,37*7F
$GPGSV,5,4,19,40,24,132,38,34,31,208,44,49,34,195,45,57,07,111,38*7F
$GPGSV,5,5,19,41,07,108,35,61,03,257,39*72
$GLGSV,3,1,10,71,56,073,51,88,22,319,45,80,17,027,44,70,13,102,34*63
$GLGSV,3,2,10,74,41,154,47,87,22,256,45,72,56,322,51,73,55,081,50*66
$GLGSV,3,3,10,86,01,217,40,65,04,295,37*66
$GAGSV,4,1,13,05,79,026,49,24,27,118,43,16,17,143,,31,26,060,42*60
$GAGSV,4,2,13,09,28,079,44,34,35,227,45,15,36,294,44,03,39,274,45*61
$GAGSV,4,3,13,23,01,018,,25,04,162,,13,05,337,37,06,06,083,37*69
$GAGSV,4,4,13,36,04,186,30*57
$GBGSV,6,1,22,22,77,321,52,16,11,048,39,34,11,300,41,06,13,049,36*67
$GBGSV,6,2,22,26,10,184,,12,14,273,40,11,10,324,,45,18,189,*6F
$GBGSV,6,3,22,48,17,112,,09,28,051,40,05,22,129,39,58,34,055,*6A
$GBGSV,6,4,22,46,40,060,,19,43,108,49,36,54,143,51,21,75,322,*66
$GBGSV,6,5,22,39,00,049,22,43,02,342,,44,06,250,41,50,03,295,*63
$GBGSV,6,6,22,02,06,107,35,60,07,111,40*6B
$GPGGA,053007.00,,,,,0,00,,,M,,M,,*49
$PTNL,GGK,053007.00,010125,4742.1603580,N,01618.1000288,E,1,37,0.8,EHT751.3745,M*40
$GPGGQ,053007.00,010125,4742.1603580,N,01618.1000288,E,1,37,0.921,708.1680,M*3A
$GPGFA,053007.00,4.137,6.257,0.435,0.277,341.243,0.763,,VVV*04
$GPLLK,053007.00,010125,,M,,M,1,37,0.8,,M*06
$GNGMP,053007.00,,,,,DAAA,37,0.4,,,,*57
$GPGMP,053007.00,,,,,,09,,,,3.0,136*72
$GLGMP,053007.00,,,,,,07,,,,,*79
$GAGMP,053007.00,,,,,,09,,,,,*7A
$GBGMP,053007.00,,,,,,12,,,,,*73
$PSSN,SNC,[0,279025000,2347]*4F
$GPZDA,053012.00,01,01,2025,,*66
$GPDTM,W84,,00.0000000,N,00.0000000,E,00.0000000,W84*5F
$PSSN,TFM,053012.00,,,,*6A
$GPRMC,053012.00,A,4742.1603596,N,01618.1000290,E,0.0,,010125,5.1,E,D*17
$GPGLL,4742.1603596,N,01618.1000290,E,053012.00,A,D*66
$GPGGA,053012.00,4742.1603596,N,01618.1000290,E,2,37,0.4,708.1727,M,43.2066,M,3.1,0136*44
$GNGNS,053012.00,4742.1603596,N,01618.1000290,E,DAAA,37,0.4,708.1727,43.2066,,*5E
$GPGNS,053012.00,,,,,,09,,,,3.1,136*77
$GLGNS,053012.00,,,,,,07,,,,,*7D
$GAGNS,053012.00,,,,,,09,,,,,*7E
$GBGNS,053012.00,,,,,,12,,,,,*77
$GPLLQ,053012.00,010125,,M,,M,1,37,0.931,,M*1B
$GPVTG,,T,,M,0.01,N,0.01,K,D*26
$GPHDT,,T*1B
$GPTHS,,V*0E
$GPROT,,V*08
$PSSN,HRP,053012.00,010125,,,,,,,00,0,,*64
$PTNL,AVR,053012.00,,Yaw,,Tilt,,,,0,,00*32
$GPGSA,A,3,04,05,06,07,09,11,16,20,30,,,,0.8,0.4,0.6*37
$GPGSA,A,3,71,72,73,74,80,87,88,,,,,,0.8,0.4,0.6*3B
$GPGSA,A,3,03,05,06,09,13,15,24,31,34,,,,0.8,0.4,0.6*34
$GPGSA,A,3,02,05,06,09,12,16,19,22,34,36,44,60,0.8,0.4,0.6*38
$GPGST,053012.00,2.037,0.434,0.281,340.976,0.420,0.301,0.774*53
$GPGBS,053012.00,2.755,1.756,4.982,72,0.0001,5.982,6.047*5A
$GPGRS,053012.00,1,0.5,0.3,-0.3,-0.2,-0.3,-0.0,0.1,-0.2,0.4,,,*4B
$GPGRS,053012.00,1,-0.7,6.0,3.5,1.8,-2.6,-6.0,-2.8,,,,,*63
$GPGRS,053012.00,1,-0.1,0.3,-2.9,0.3,0.1,-0.1,0.2,-0.5,0.3,,,*6B
$GPGRS,053012.00,1,-0.9,1.5,-0.2,1.1,0.5,1.0,-0.4,-0.6,-0.6,-0.2,-1.1,-2.1*45
$GPGSV,5,1,19,07,77,128,50,16,14,039,39,05,17,312,43,06,25,217,43*78
$GPGSV,5,2,19,04,21,082,43,11,37,259,46,30,49,207,49,20,49,300,47*7D
$GPGSV,5,3,19,09,50,078,47,13,03,264,36,36,35,170,45,58,13,245,37*7F
$GPGSV,5,4,19,40,24,132,37,34,31,208,44,49,34,195,45,57,07,111,38*70
$GPGSV,5,5,19,41,07,108,35,61,03,257,39*72
$GLGSV,3,1,10,71,56,073,51,88,22,319,46,80,17,027,44,70,13,102,33*67
$GLGSV,3,2,10,74,41,154,46,87,22,256,44,72,56,322,51,73,55,081,50*66
$GLGSV,3,3,10,86,01,217,40,65,04,295,37*66
$GAGSV,4,1,13,05,79,026,49,24,27,118,43,16,17,143,,31,26,060,42*60
$GAGSV,4,2,13,09,28,079,43,34,35,227,46,15,36,294,44,03,39,274,45*65
$GAGSV,4,3,13,23,01,017,,25,04,162,,13,05,337,36,06,06,083,37*67
$GAGSV,4,4,13,36,04,186,31*56
$GBGSV,6,1,22,22,77,321,52,16,11,048,39,34,11,300,41,06,13,049,36*67
$GBGSV,6,2,22,26,10,184,,12,14,273,40,11,10,324,,45,18,189,*6F
$GBGSV,6,3,22,48,17,112,,09,28,051,40,05,22,129,39,58,34,055,*6A
$GBGSV,6,4,22,46,40,060,,19,43,108,49,36,54,143,51,21,75,323,*67
$GBGSV,6,5,22,39,00,049,22,43,02,342,,44,06,250,41,50,03,295,*63
$GBGSV,6,6,22,02,06,107,35,60,07,111,40*6B
$GPGGA,053012.00,,,,,0,00,,,M,,M,,*4D
$PTNL,GGK,053012.00,010125,4742.1603596,N,01618.1000290,E,1,37,0.8,EHT751.3793,M*41
$GPGGQ,053012.00,010125,4742.1603596,N,01618.1000290,E,1,37,0.931,708.1727,M*3D
$GPGFA,053012.00,4.123,6.348,0.434,0.281,340.976,0.774,,VVV*08
$GPLLK,053012.00,010125,,M,,M,1,37,0.8,,M*02
$GNGMP,053012.00,,,,,DAAA,37,0.4,,,,*53
$GPGMP,053012.00,,,,,,09,,,,3.1,136*77
$GLGMP,053012.00,,,,,,07,,,,,*7D
$GAGMP,053012.00,,,,,,09,,,,,*7E
$GBGMP,053012.00,,,,,,12,,,,,*77
$PSSN,SNC,[0,279030000,2347]*4B
$GPZDA,053017.00,01,01,2025,,*63
$GPDTM,W84,,00.0000000,N,00.0000000,E,00.0000000,W84*5F
$PSSN,TFM,053017.00,,,,*6F
$GPRMC,053017.00,A,4742.1603588,N,01618.1000277,E,0.0,,010125,5.1,E,D*14
$GPGLL,4742.1603588,N,01618.1000277,E,053017.00,A,D*65
$GPGGA,053017.00,4742.1603588,N,01618.1000277,E,2,37,0.4,708.1699,M,43.2066,M,1.4,0136*44
$GNGNS,053017.00,4742.1603588,N,01618.1000277,E,DAAA,37,0.4,708.1699,43.2066,,*59
$GPGNS,053017.00,,,,,,09,,,,1.4,136*75
$GLGNS,053017.00,,,,,,07,,,,,*78
$GAGNS,053017.00,,,,,,09,,,,,*7B
$GBGNS,053017.00,,,,,,12,,,,,*72
$GPLLQ,053017.00,010125,,M,,M,1,37,0.918,,M*15
$GPVTG,,T,,M,0.00,N,0.00,K,D*26
$GPHDT,,T*1B
$GPTHS,,V*0E
$GPROT,,V*08
$PSSN,HRP,053017.00,010125,,,,,,,00,0,,*61
$PTNL,AVR,053017.00,,Yaw,,Tilt,,,,0,,00*37
$GPGSA,A,3,04,05,06,07,09,11,16,20,30,,,,0.8,0.4,0.6*37
$GPGSA,A,3,71,72,73,74,80,87,88,,,,,,0.8,0.4,0.6*3B
$GPGSA,A,3,03,05,06,09,13,15,24,31,34,,,,0.8,0.4,0.6*34
$GPGSA,A,3,02,05,06,09,12,16,19,22,34,36,44,60,0.8,0.4,0.6*38
$GPGST,053017.00,2.055,0.430,0.278,341.645,0.417,0.296,0.762*52
$GPGBS,053017.00,2.784,1.714,4.896,72,0.0001,6.243,6.047*54
$GPGRS,053017.00,1,0.3,0.4,-0.6,-0.0,-0.3,-0.1,0.5,-0.1,0.3,,,*49
$GPGRS,053017.00,1,-0.9,6.2,4.1,1.9,-2.2,-6.1,-1.8,,,,,*6E
$GPGRS,053017.00,1,0.1,0.4,-3.3,0.2,0.2,0.2,0.1,-0.3,0.0,,,*65
$GPGRS,053017.00,1,-0.4,1.3,-0.3,1.1,0.5,1.0,-0.3,-0.5,-0.2,-0.0,-0.8,-2.1*40
$GPGSV,5,1,19,07,77,128,50,16,14,039,39,05,17,312,43,06,25,217,43*78
$GPGSV,5,2,19,04,21,082,42,11,37,259,46,30,49,207,49,20,49,300,47*7C
$GPGSV,5,3,19,09,50,078,48,13,03,265,35,36,35,170,45,58,13,245,37*72
$GPGSV,5,4,19,40,24,132,37,34,31,208,44,49,34,195,45,57,07,111,38*70
$GPGSV,5,5,19,41,07,108,35,61,03,257,39*72
$GLGSV,3,1,10,71,56,073,51,88,22,319,46,80,17,027,45,70,13,102,33*66
$GLGSV,3,2,10,74,41,154,47,87,22,256,45,72,56,322,50,73,55,081,50*67
$GLGSV,3,3,10,86,01,217,40,65,05,295,38*68
$GAGSV,4,1,13,05,79,026,49,24,28,118,43,16,17,143,,31,26,060,42*6F
$GAGSV,4,2,13,09,28,079,43,34,35,227,46,15,36,294,44,03,40,274,45*6B
$GAGSV,4,3,13,23,01,017,,25,04,162,,13,05,337,37,06,06,083,37*66
$GAGSV,4,4,13,36,04,186,31*56
$GBGSV,6,1,22,22,77,321,52,16,11,048,39,34,11,300,42,06,13,049,37*65
$GBGSV,6,2,22,26,10,184,,12,14,273,40,11,10,324,,45,18,189,*6F
$GBGSV,6,3,22,48,17,112,,09,28,051,40,05,22,129,39,58,34,055,*6A
$GBGSV,6,4,22,46,40,060,,19,43,108,49,36,54,143,51,21,75,323,*67
$GBGSV,6,5,22,39,00,049,22,43,02,342,,44,06,250,42,50,03,295,*60
$GBGSV,6,6,22,02,06,107,35,60,07,111,40*6B
$GPGGA,053017.00,,,,,0,00,,,M,,M,,*48
$PTNL,GGK,053017.00,010125,4742.1603588,N,01618.1000277,E,1,37,0.8,EHT751.3765,M*4B
$GPGGQ,053017.00,010125,4742.1603588,N,01618.1000277,E,1,37,0.918,708.1699,M*31
$GPGFA,053017.00,4.087,6.252,0.430,0.278,341.645,0.762,,VVV*03
$GPLLK,053017.00,010125,,M,,M,1,37,0.8,,M*07
$GNGMP,053017.00,,,,,DAAA,37,0.4,,,,*56
$GPGMP,053017.00,,,,,,09,,,,1.4,136*75
$GLGMP,053017.00,,,,,,07,,,,,*78
$GAGMP,053017.00,,,,,,09,,,,,*7B
$GBGMP,053017.00,,,,,,12,,,,,*72
$PSSN,SNC,[0,279035000,2347]*4E
$GPZDA,053022.00,01,01,2025,,*65
$GPDTM,W84,,00.0000000,N,00.0000000,E,00.0000000,W84*5F
$PSSN,TFM,053022.00,,,,*69
$GPRMC,053022.00,A,4742.1603577,N,01618.1000272,E,0.0,,010125,5.1,E,D*17
$GPGLL,4742.1603577,N,01618.1000272,E,053022.00,A,D*66
$GPGGA,053022.00,4742.1603577,N,01618.1000272,E,2,37,0.4,708.1749,M,43.2066,M,2.4,0136*48
$GNGNS,053022.00,4742.1603577,N,01618.1000272,E,DAAA,37,0.4,708.1749,43.2066,,*56
$GPGNS,053022.00,,,,,,09,,,,2.4,136*70
$GLGNS,053022.00,,,,,,07,,,,,*7E
$GAGNS,053022.00,,,,,,09,,,,,*7D
$GBGNS,053022.00,,,,,,12,,,,,*74
$GPLLQ,053022.00,010125,,M,,M,1,37,0.905,,M*1F
$GPVTG,,T,,M,0.00,N,0.01,K,D*27
$GPHDT,,T*1B
$GPTHS,,V*0E
$GPROT,,V*08
$PSSN,HRP,053022.00,010125,,,,,,,00,0,,*67
$PTNL,AVR,053022.00,,Yaw,,Tilt,,,,0,,00*31
$GPGSA,A,3,04,05,06,07,09,11,16,20,30,,,,0.8,0.4,0.6*37
$GPGSA,A,3,71,72,73,74,80,87,88,,,,,,0.8,0.4,0.6*3B
$GPGSA,A,3,03,05,06,09,13,15,24,31,34,,,,0.8,0.4,0.6*34
$GPGSA,A,3,02,05,06,09,12,16,19,22,34,36,44,60,0.8,0.4,0.6*38
$GPGST,053022.00,1.931,0.430,0.273,341.760,0.417,0.292,0.748*5D
$GPGBS,053022.00,2.847,1.745,4.962,72,0.0001,5.694,6.047*51
$GPGRS,053022.00,1,0.0,-0.1,-0.3,0.0,-0.4,0.2,0.1,0.2,0.2,,,*4E
$GPGRS,053022.00,1,-0.5,5.7,3.5,2.2,-2.3,-5.5,-2.8,,,,,*6C
$GPGRS,053022.00,1,0.0,0.5,-3.0,0.4,0.4,0.5,0.2,-0.1,0.2,,,*64
$GPGRS,053022.00,1,-0.2,1.7,-0.0,0.6,0.6,0.5,-0.6,-0.3,0.1,0.3,-0.3,-2.1*4E
$GPGSV,5,1,19,07,78,128,50,16,14,039,39,05,17,312,42,06,25,217,43*76
$GPGSV,5,2,19,04,21,082,42,11,37,259,46,30,49,208,49,20,49,300,47*73
$GPGSV,5,3,19,09,49,078,47,13,03,265,36,36,35,170,45,58,13,245,37*76
$GPGSV,5,4,19,40,24,132,37,34,31,208,44,49,34,195,45,57,07,111,38*70
$GPGSV,5,5,19,41,07,108,35,61,03,257,38*73
$GLGSV,3,1,10,71,56,073,51,88,22,319,46,80,17,027,44,70,13,102,33*67
$GLGSV,3,2,10,74,41,154,47,87,22,256,45,72,56,322,51,73,55,080,50*67
$GLGSV,3,3,10,86,01,217,41,65,05,295,37*66
$GAGSV,4,1,13,05,79,026,49,24,28,118,43,16,18,143,,31,26,060,42*60
$GAGSV,4,2,13,09,28,079,43,34,35,227,46,15,36,294,44,03,40,274,45*6B
$GAGSV,4,3,13,23,01,017,,25,04,162,,13,05,337,37,06,06,083,37*66
$GAGSV,4,4,13,36,04,186,30*57
$GBGSV,6,1,22,22,78,321,52,16,11,048,39,34,11,300,41,06,13,049,37*69
$GBGSV,6,2,22,11,10,324,,26,10,184,,12,14,273,40,45,18,189,*6F
$GBGSV,6,3,22,48,17,112,,09,28,051,40,05,22,129,39,58,34,055,*6A
$GBGSV,6,4,22,46,40,060,,19,43,108,49,36,54,143,51,21,75,323,*67
$GBGSV,6,5,22,39,00,049,22,43,02,342,,44,06,250,41,50,03,295,*63
$GBGSV,6,6,22,02,06,107,35,60,07,111,40*6B
$GPGGA,053022.00,,,,,0,00,,,M,,M,,*4E
$PTNL,GGK,053022.00,010125,4742.1603577,N,01618.1000272,E,1,37,0.8,EHT751.3815,M*40
$GPGGQ,053022.00,010125,4742.1603577,N,01618.1000272,E,1,37,0.905,708.1749,M*32
$GPGFA,053022.00,4.087,6.133,0.430,0.273,341.760,0.748,,VVV*04
$GPLLK,053022.00,010125,,M,,M,1,37,0.8,,M*01
$GNGMP,053022.00,,,,,DAAA,37,0.4,,,,*50
$GPGMP,053022.00,,,,,,09,,,,2.4,136*70
$GLGMP,053022.00,,,,,,07,,,,,*7E
$GAGMP,053022.00,,,,,,09,,,,,*7D
$GBGMP,053022.00,,,,,,12,,,,,*74
$PSSN,SNC,[0,279040000,2347]*4C
$GPZDA,053027.00,01,01,2025,,*60
$GPDTM,W84,,00.0000000,N,00.0000000,E,00.0000000,W84*5F
$PSSN,TFM,053027.00,,,,*6C
$GPRMC,053027.00,A,4742.1603558,N,01618.1000299,E,0.0,,010125,5.1,E,D*1A
$GPGLL,4742.1603558,N,01618.1000299,E,053027.00,A,D*6B
$GPGGA,053027.00,4742.1603558,N,01618.1000299,E,2,37,0.4,708.1675,M,43.2066,M,3.0,0136*4E
$GNGNS,053027.00,4742.1603558,N,01618.1000299,E,DAAA,37,0.4,708.1675,43.2066,,*55
$GPGNS,053027.00,,,,,,09,,,,3.0,136*70
$GLGNS,053027.00,,,,,,07,,,,,*7B
$GAGNS,053027.00,,,,,,09,,,,,*78
$GBGNS,053027.00,,,,,,12,,,,,*71
$GPLLQ,053027.00,010125,,M,,M,1,37,0.919,,M*17
$GPVTG,,T,,M,0.00,N,0.01,K,D*27
$GPHDT,,T*1B
$GPTHS,,V*0E
$GPROT,,V*08
$PSSN,HRP,053027.00,010125,,,,,,,00,0,,*62
$PTNL,AVR,053027.00,,Yaw,,Tilt,,,,0,,00*34
$GPGSA,A,3,04,05,06,07,09,11,16,20,30,,,,0.8,0.4,0.6*37
$GPGSA,A,3,71,72,73,74,80,87,88,,,,,,0.8,0.4,0.6*3B
$GPGSA,A,3,03,05,06,09,13,15,24,31,34,,,,0.8,0.4,0.6*34
$GPGSA,A,3,02,05,06,09,12,16,19,22,34,36,44,60,0.8,0.4,0.6*38
$GPGST,053027.00,1.961,0.435,0.277,341.239,0.421,0.297,0.761*5E
$GPGBS,053027.00,2.763,1.773,5.012,72,0.0001,6.332,6.047*5D
$GPGRS,053027.00,1,-0.2,0.0,-0.2,-0.0,-0.1,-0.0,-0.2,0.2,0.2,,,*60
$GPGRS,053027.00,1,-1.0,6.3,3.3,1.9,-2.5,-5.3,-2.6,,,,,*6A
$GPGRS,053027.00,1,0.4,0.4,-2.9,0.7,-0.2,0.4,0.4,-0.1,0.2,,,*43
$GPGRS,053027.00,1,-0.2,1.7,0.3,0.7,-0.0,1.1,-0.5,-0.3,-0.2,0.4,0.1,-1.9*44
$GPGSV,5,1,19,07,78,128,50,16,14,039,39,05,17,312,43,06,25,217,43*77
$GPGSV,5,2,19,04,21,082,41,11,37,259,45,30,50,208,49,20,49,300,47*7B
$GPGSV,5,3,19,09,49,078,47,13,03,265,36,36,35,170,45,58,13,245,37*76
$GPGSV,5,4,19,40,24,132,38,34,31,208,44,49,34,195,45,57,07,111,38*7F
$GPGSV,5,5,19,41,07,108,35,61,03,257,39*72
$GLGSV,3,1,10,71,56,073,51,88,22,319,46,80,17,027,44,70,13,102,33*67
$GLGSV,3,2,10,74,41,154,46,87,22,256,45,72,56,322,51,73,55,080,50*66
$GLGSV,3,3,10,86,01,217,40,65,05,295,39*69
$GAGSV,4,1,13,05,79,026,49,24,28,118,43,16,18,143,,31,26,060,42*60
$GAGSV,4,2,13,09,28,079,43,34,35,227,46,15,36,294,44,03,40,274,46*68
$GAGSV,4,3,13,23,01,017,,25,04,162,,13,05,337,37,06,06,083,37*66
$GAGSV,4,4,13,36,04,186,30*57
$GBGSV,6,1,22,22,78,321,52,16,11,048,39,34,11,300,41,06,13,049,37*69
$GBGSV,6,2,22,11,10,324,,26,10,184,,12,14,272,40,45,18,189,*6E
$GBGSV,6,3,22,48,17,112,,09,28,051,40,05,22,129,39,58,34,055,*6A
$GBGSV,6,4,22,46,40,060,,19,43,108,49,36,54,143,51,21,76,323,*64
$GBGSV,6,5,22,39,00,049,22,43,02,342,,44,06,250,40,50,03,295,*62
$GBGSV,6,6,22,02,06,107,35,60,07,111,40*6B
$GPGGA,053027.00,,,,,0,00,,,M,,M,,*4B
$PTNL,GGK,053027.00,010125,4742.1603558,N,01618.1000299,E,1,37,0.8,EHT751.3741,M*43
$GPGGQ,053027.00,010125,4742.1603558,N,01618.1000299,E,1,37,0.919,708.1675,M*3C
$GPGFA,053027.00,4.135,6.237,0.435,0.277,341.239,0.761,,VVV*0D
$GPLLK,053027.00,010125,,M,,M,1,37,0.8,,M*04
$GNGMP,053027.00,,,,,DAAA,37,0.4,,,,*55
$GPGMP,053027.00,,,,,,09,,,,3.0,136*70
$GLGMP,053027.00,,,,,,07,,,,,*7B
$GAGMP,053027.00,,,,,,09,,,,,*78
$GBGMP,053027.00,,,,,,12,,,,,*71
$PSSN,SNC,[0,279045000,2347]*49
$GPZDA,053032.00,01,01,2025,,*64
$GPDTM,W84,,00.0000000,N,00.0000000,E,00.0000000,W84*5F
$PSSN,TFM,053032.00,,,,*68
$GPRMC,053032.00,A,4742.1603546,N,01618.1000307,E,0.0,,010125,5.1,E,D*17
$GPGLL,4742.1603546,N,01618.1000307,E,053032.00,A,D*66
$GPGGA,053032.00,4742.1603546,N,01618.1000307,E,2,37,0.4,708.1668,M,43.2066,M,3.1,0136*4E
$GNGNS,053032.00,4742.1603546,N,01618.1000307,E,DAAA,37,0.4,708.1668,43.2066,,*54
$GPGNS,053032.00,,,,,,09,,,,3.1,136*75
$GLGNS,053032.00,,,,,,07,,,,,*7F
$GAGNS,053032.00,,,,,,09,,,,,*7C
$GBGNS,053032.00,,,,,,12,,,,,*75
$GPLLQ,053032.00,010125,,M,,M,1,37,0.928,,M*11
$GPVTG,,T,,M,0.00,N,0.01,K,D*27
$GPHDT,,T*1B
$GPTHS,,V*0E
$GPROT,,V*08
$PSSN,HRP,053032.00,010125,,,,,,,00,0,,*66
$PTNL,AVR,053032.00,,Yaw,,Tilt,,,,0,,00*30
$GPGSA,A,3,04,05,06,07,09,11,16,20,30,,,,0.8,0.4,0.6*37
$GPGSA,A,3,71,72,73,74,80,87,88,,,,,,0.8,0.4,0.6*3B
$GPGSA,A,3,03,05,06,09,13,15,24,31,34,,,,0.8,0.4,0.6*34
$GPGSA,A,3,02,05,06,09,12,16,19,22,34,36,44,60,0.8,0.4,0.6*38
$GPGST,053032.00,2.160,0.434,0.280,340.888,0.420,0.300,0.771*57
$GPGBS,053032.00,2.759,1.743,4.958,72,0.0001,6.481,6.047*5A
$GPGRS,053032.00,1,-0.2,0.6,-0.1,0.1,-0.1,-0.5,0.6,0.0,0.1,,,*60
$GPGRS,053032.00,1,-1.1,6.5,3.7,1.9,-2.7,-6.6,-2.9,,,,,*66
$GPGRS,053032.00,1,0.2,0.2,-3.1,0.6,0.2,0.2,0.2,-0.5,0.0,,,*64
$GPGRS,053032.00,1,0.0,1.4,-0.0,0.7,0.7,1.3,-0.3,-0.3,-0.4,0.0,-0.4,-2.0*4C
$GPGSV,5,1,19,07,78,127,50,16,14,039,39,05,17,312,42,06,25,217,43*79
$GPGSV,5,2,19,04,21,082,42,11,37,259,46,30,50,208,49,20,49,300,47*7B
$GPGSV,5,3,19,09,49,078,47,13,03,265,36,36,35,170,45,58,13,245,37*76
$GPGSV,5,4,19,40,24,132,37,34,31,208,44,49,34,195,45,57,07,111,38*70
$GPGSV,5,5,19,41,07,108,36,61,03,257,39*71
$GLGSV,3,1,10,71,56,073,51,88,22,318,46,80,17,027,43,70,13,102,34*66
$GLGSV,3,2,10,74,41,154,46,87,22,256,45,72,56,322,51,73,55,080,50*66
$GLGSV,3,3,10,86,01,217,40,65,05,295,39*69
$GAGSV,4,1,13,05,79,026,49,24,28,118,44,16,18,143,,31,26,060,42*67
$GAGSV,4,2,13,09,28,079,44,34,35,227,45,15,36,294,44,03,40,274,46*6C
$GAGSV,4,3,13,23,01,017,,25,04,162,,13,05,337,37,06,06,083,37*66
$GAGSV,4,4,13,36,04,186,31*56
$GBGSV,6,1,22,22,78,321,52,16,11,048,39,34,11,300,41,06,13,049,37*69
$GBGSV,6,2,22,11,10,323,,26,10,184,,12,14,272,40,45,18,189,*69
$GBGSV,6,3,22,48,17,112,,09,27,051,40,05,22,129,39,58,34,055,*65
$GBGSV,6,4,22,46,40,060,,19,43,108,49,36,54,143,51,21,76,323,*64
$GBGSV,6,5,22,39,00,049,23,43,02,342,,44,06,250,39,50,03,295,*6D
$GBGSV,6,6,22,02,06,107,35,60,07,111,40*6B
$GPGGA,053032.00,,,,,0,00,,,M,,M,,*4F
$PTNL,GGK,053032.00,010125,4742.1603546,N,01618.1000307,E,1,37,0.8,EHT751.3734,M*4C
$GPGGQ,053032.00,010125,4742.1603546,N,01618.1000307,E,1,37,0.928,708.1668,M*3F
$GPGFA,053032.00,4.122,6.321,0.434,0.280,340.888,0.771,,VVV*00
$GPLLK,053032.00,010125,,M,,M,1,37,0.8,,M*00
$GNGMP,053032.00,,,,,DAAA,37,0.4,,,,*51
$GPGMP,053032.00,,,,,,09,,,,3.1,136*75
$GLGMP,053032.00,,,,,,07,,,,,*7F
$GAGMP,053032.00,,,,,,09,,,,,*7C
$GBGMP,053032.00,,,,,,12,,,,,*75
$PSSN,SNC,[0,279050000,2347]*4D
$GPZDA,053037.00,01,01,2025,,*61
$GPDTM,W84,,00.0000000,N,00.0000000,E,00.0000000,W84*5F
$PSSN,TFM,053037.00,,,,*6D
$GPRMC,053037.00,A,4742.1603509,N,01618.1000303,E,0.0,,010125,5.1,E,D*1D
$GPGLL,4742.1603509,N,01618.1000303,E,053037.00,A,D*6C
$GPGGA,053037.00,4742.1603509,N,01618.1000303,E,2,37,0.4,708.1654,M,43.2066,M,1.4,0136*4C
$GNGNS,053037.00,4742.1603509,N,01618.1000303,E,DAAA,37,0.4,708.1654,43.2066,,*51
$GPGNS,053037.00,,,,,,09,,,,1.4,136*77
$GLGNS,053037.00,,,,,,07,,,,,*7A
$GAGNS,053037.00,,,,,,09,,,,,*79
$GBGNS,053037.00,,,,,,12,,,,,*70
$GPLLQ,053037.00,010125,,M,,M,1,37,0.915,,M*1A
$GPVTG,,T,,M,0.01,N,0.02,K,D*25
$GPHDT,,T*1B
$GPTHS,,V*0E
$GPROT,,V*08
$PSSN,HRP,053037.00,010125,,,,,,,00,0,,*63
$PTNL,AVR,053037.00,,Yaw,,Tilt,,,,0,,00*35
$GPGSA,A,3,04,05,06,07,09,11,16,20,30,,,,0.8,0.4,0.6*37
$GPGSA,A,3,71,72,73,74,80,87,88,,,,,,0.8,0.4,0.6*3B
$GPGSA,A,3,03,05,06,09,13,15,24,31,34,,,,0.8,0.4,0.6*34
$GPGSA,A,3,02,05,06,09,12,16,19,22,34,36,44,60,0.8,0.4,0.6*38
$GPGST,053037.00,2.169,0.430,0.277,341.563,0.417,0.296,0.759*5E
$GPGBS,053037.00,2.786,1.702,4.875,87,0.0001,-6.410,6.159*77
$GPGRS,053037.00,1,0.0,0.3,-0.2,0.0,-0.2,-0.0,0.5,-0.1,0.1,,,*64
$GPGRS,053037.00,1,-0.7,6.1,3.9,1.9,-2.9,-6.4,-3.3,,,,,*69
$GPGRS,053037.00,1,-0.1,0.2,-3.1,0.3,-0.1,-0.2,-0.2,-0.3,-0.1,,,*4E
$GPGRS,053037.00,1,-0.2,1.5,0.4,0.8,1.4,1.0,-0.4,-0.3,-0.3,-0.3,-1.4,-2.2*6D
$GPGSV,5,1,19,07,78,127,50,16,14,039,39,05,17,312,42,06,25,217,42*78
$GPGSV,5,2,19,04,21,082,42,11,37,258,46,30,50,208,49,20,49,300,47*7A
$GPGSV,5,3,19,09,49,078,48,13,03,265,36,36,35,170,45,58,13,245,37*79
$GPGSV,5,4,19,40,24,132,37,34,31,208,44,49,34,195,45,57,07,111,38*70
$GPGSV,5,5,19,41,07,108,35,61,03,257,39*72
$GLGSV,3,1,10,71,56,073,51,88,22,318,46,80,17,027,44,70,13,102,34*61
$GLGSV,3,2,10,74,41,154,46,87,22,256,44,72,56,322,51,73,55,080,50*67
$GLGSV,3,3,10,86,01,217,40,65,05,295,39*69
$GAGSV,4,1,13,05,79,026,49,24,28,118,43,16,18,143,,31,26,060,42*60
$GAGSV,4,2,13,09,28,079,43,34,35,227,45,15,36,294,45,03,40,274,46*6A
$GAGSV,4,3,13,23,01,017,,25,04,162,,13,05,337,38,06,06,083,37*69
$GAGSV,4,4,13,36,04,186,31*56
$GBGSV,6,1,22,22,78,321,52,16,11,048,39,34,11,300,41,06,13,049,37*69
$GBGSV,6,2,22,11,10,323,,26,11,184,,12,14,272,40,45,18,189,*68
$GBGSV,6,3,22,48,17,112,,09,27,051,39,05,22,129,39,58,34,055,*6B
$GBGSV,6,4,22,46,40,060,,19,43,108,49,36,54,143,51,21,76,323,*64
$GBGSV,6,5,22,39,00,049,24,43,02,342,,44,06,250,39,50,03,295,*6A
$GBGSV,6,6,22,02,06,107,35,60,07,111,40*6B
$GPGGA,053037.00,,,,,0,00,,,M,,M,,*4A
$PTNL,GGK,053037.00,010125,4742.1603509,N,01618.1000303,E,1,37,0.8,EHT751.3720,M*43
$GPGGQ,053037.00,010125,4742.1603509,N,01618.1000303,E,1,37,0.915,708.1654,M*34
$GPGFA,053037.00,4.084,6.222,0.430,0.277,341.563,0.759,,VVV*05
$GPLLK,053037.00,010125,,M,,M,1,37,0.8,,M*05
$GNGMP,053037.00,,,,,DAAA,37,0.4,,,,*54
$GPGMP,053037.00,,,,,,09,,,,1.4,136*77
$GLGMP,053037.00,,,,,,07,,,,,*7A
$GAGMP,053037.00,,,,,,09,,,,,*79
$GBGMP,053037.00,,,,,,12,,,,,*70
$PSSN,SNC,[0,279055000,2347]*48
$GPZDA,053042.00,01,01,2025,,*63
$GPDTM,W84,,00.0000000,N,00.0000000,E,00.0000000,W84*5F
$PSSN,TFM,053042.00,,,,*6F
$GPRMC,053042.00,A,4742.1603524,N,01618.1000297,E,0.0,,010125,5.1,E,D*1C
$GPGLL,4742.1603524,N,01618.1000297,E,053042.00,A,D*6D
$GPGGA,053042.00,4742.1603524,N,01618.1000297,E,2,37,0.4,708.1663,M,43.2066,M,2.4,0136*4A
$GNGNS,053042.00,4742.1603524,N,01618.1000297,E,DAAA,37,0.4,708.1663,43.2066,,*54
$GPGNS,053042.00,,,,,,09,,,,2.4,136*76
$GLGNS,053042.00,,,,,,07,,,,,*78
$GAGNS,053042.00,,,,,,09,,,,,*7B
$GBGNS,053042.00,,,,,,12,,,,,*72
$GPLLQ,053042.00,010125,,M,,M,1,37,0.902,,M*1E
$GPVTG,,T,,M,0.00,N,0.01,K,D*27
$GPHDT,,T*1B
$GPTHS,,V*0E
$GPROT,,V*08
$PSSN,HRP,053042.00,010125,,,,,,,00,0,,*61
$PTNL,AVR,053042.00,,Yaw,,Tilt,,,,0,,00*37
$GPGSA,A,3,04,05,06,07,09,11,16,20,30,,,,0.8,0.4,0.6*37
$GPGSA,A,3,71,72,73,74,80,87,88,,,,,,0.8,0.4,0.6*3B
$GPGSA,A,3,03,05,06,09,13,15,24,31,34,,,,0.8,0.4,0.6*34
$GPGSA,A,3,02,05,06,09,12,16,19,22,34,36,44,60,0.8,0.4,0.6*38
$GPGST,053042.00,1.971,0.430,0.273,341.672,0.417,0.292,0.745*50
$GPGBS,053042.00,2.849,1.733,4.940,72,0.0001,5.825,6.047*5C
$GPGRS,053042.00,1,-0.1,0.1,-0.1,0.1,-0.5,-0.1,0.2,0.2,0.2,,,*66
$GPGRS,053042.00,1,-0.6,5.8,3.6,1.9,-2.3,-5.4,-2.7,,,,,*63
$GPGRS,053042.00,1,-0.3,0.2,-3.3,0.3,0.0,-0.4,-0.2,-0.3,0.3,,,*49
$GPGRS,053042.00,1,0.1,1.4,0.6,0.4,0.8,0.4,-0.4,-0.4,-0.0,-0.1,-1.2,-2.5*41
$GPGSV,5,1,19,07,78,127,50,16,14,039,40,05,17,312,41,06,25,217,43*74
$GPGSV,5,2,19,04,21,082,42,11,37,258,46,30,50,208,49,20,49,300,47*7A
$GPGSV,5,3,19,09,49,078,47,13,03,265,37,36,35,170,45,58,13,245,37*77
$GPGSV,5,4,19,40,24,132,37,34,31,208,44,49,34,195,45,57,07,111,38*70
$GPGSV,5,5,19,41,07,108,35,61,03,257,38*73
$GLGSV,3,1,10,71,56,073,51,88,22,318,46,80,17,027,45,70,13,102,34*60
$GLGSV,3,2,10,74,41,154,47,87,22,256,45,72,56,322,50,73,55,080,50*66
$GLGSV,3,3,10,86,01,217,39,65,05,295,38*66
$GAGSV,4,1,13,05,79,026,49,24,28,118,43,16,18,143,,31,26,060,42*60
$GAGSV,4,2,13,09,28,079,43,34,35,227,45,15,36,294,44,03,40,274,45*68
$GAGSV,4,3,13,23,01,017,,25,04,162,,13,05,337,37,06,06,083,37*66
$GAGSV,4,4,13,36,04,186,30*57
$GBGSV,6,1,22,22,78,321,52,16,11,048,39,34,11,300,41,06,13,049,37*69
$GBGSV,6,2,22,11,10,323,,26,11,184,,12,14,272,40,45,18,189,*68
$GBGSV,6,3,22,48,17,112,,09,27,051,40,05,22,129,39,58,34,055,*65
$GBGSV,6,4,22,46,40,060,,19,43,108,49,36,54,143,51,21,76,323,*64
$GBGSV,6,5,22,39,00,049,21,43,02,342,,44,06,250,41,50,03,295,*60
$GBGSV,6,6,22,02,06,107,35,60,07,111,40*6B
$GPGGA,053042.00,,,,,0,00,,,M,,M,,*48
$PTNL,GGK,053042.00,010125,4742.1603524,N,01618.1000297,E,1,37,0.8,EHT751.3729,M*4B
$GPGGQ,053042.00,010125,4742.1603524,N,01618.1000297,E,1,37,0.902,708.1663,M*37
$GPGFA,053042.00,4.084,6.105,0.430,0.273,341.672,0.745,,VVV*0B
$GPLLK,053042.00,010125,,M,,M,1,37,0.8,,M*07
$GNGMP,053042.00,,,,,DAAA,37,0.4,,,,*56
$GPGMP,053042.00,,,,,,09,,,,2.4,136*76
$GLGMP,053042.00,,,,,,07,,,,,*78
$GAGMP,053042.00,,,,,,09,,,,,*7B
$GBGMP,053042.00,,,,,,12,,,,,*72
$PSSN,SNC,[0,279060000,2347]*4E
$GPZDA,053047.00,01,01,2025,,*66
$GPDTM,W84,,00.0000000,N,00.0000000,E,00.0000000,W84*5F
$PSSN,TFM,053047.00,,,,*6A
$GPRMC,053047.00,A,4742.1603523,N,01618.1000320,E,0.0,,010125,5.1,E,D*13
$GPGLL,4742.1603523,N,01618.1000320,E,053047.00,A,D*62
$GPGGA,053047.00,4742.1603523,N,01618.1000320,E,2,37,0.4,708.1612,M,43.2066,M,3.0,0136*46
$GNGNS,053047.00,4742.1603523,N,01618.1000320,E,DAAA,37,0.4,708.1612,43.2066,,*5D
$GPGNS,053047.00,,,,,,09,,,,3.0,136*76
$GLGNS,053047.00,,,,,,07,,,,,*7D
$GAGNS,053047.00,,,,,,09,,,,,*7E
$GBGNS,053047.00,,,,,,12,,,,,*77
$GPLLQ,053047.00,010125,,M,,M,1,37,0.917,,M*1F
$GPVTG,,T,,M,0.01,N,0.01,K,D*26
$GPHDT,,T*1B
$GPTHS,,V*0E
$GPROT,,V*08
$PSSN,HRP,053047.00,010125,,,,,,,00,0,,*64
$PTNL,AVR,053047.00,,Yaw,,Tilt,,,,0,,00*32
$GPGSA,A,3,04,05,06,07,09,11,16,20,30,,,,0.8,0.4,0.6*37
$GPGSA,A,3,71,72,73,74,80,87,88,,,,,,0.8,0.4,0.6*3B
$GPGSA,A,3,03,05,06,09,13,15,24,31,34,,,,0.8,0.4,0.6*34
$GPGSA,A,3,02,05,06,09,12,16,19,22,34,36,44,60,0.8,0.4,0.6*38
$GPGST,053047.00,1.939,0.435,0.277,341.198,0.421,0.297,0.758*57
$GPGBS,053047.00,2.767,1.769,4.998,72,0.0001,5.969,6.047*59
$GPGRS,053047.00,1,0.1,-0.1,-0.2,0.1,-0.4,-0.0,-0.0,0.2,0.3,,,*4E
$GPGRS,053047.00,1,-1.2,6.0,3.5,2.1,-2.1,-5.2,-3.1,,,,,*63
$GPGRS,053047.00,1,-0.4,0.3,-3.2,0.5,-0.1,-0.2,-0.2,-0.4,0.6,,,*65
$GPGRS,053047.00,1,-0.0,1.4,0.3,0.3,0.3,-0.0,-0.3,-0.5,0.0,-0.0,-0.8,-1.9*66
$GPGSV,5,1,19,07,78,127,50,16,14,039,40,05,17,312,42,06,25,217,43*77
$GPGSV,5,2,19,04,21,082,41,11,37,258,46,30,50,208,49,20,49,300,47*79
$GPGSV,5,3,19,09,49,078,47,13,03,265,37,36,35,170,45,58,13,245,37*77
$GPGSV,5,4,19,40,24,132,37,34,31,208,44,49,34,195,45,57,07,111,38*70
$GPGSV,5,5,19,41,07,108,36,61,03,257,38*70
$GLGSV,3,1,11,71,56,073,51,88,22,318,45,80,17,027,44,70,13,102,34*63
$GLGSV,3,2,11,74,42,154,47,87,22,256,45,72,56,322,51,73,55,080,50*65
$GLGSV,3,3,11,86,01,217,40,65,05,295,40,75,00,184,*59
$GAGSV,4,1,13,05,79,027,49,24,28,118,43,16,18,143,,31,26,060,42*61
$GAGSV,4,2,13,09,28,079,43,34,35,227,45,15,36,293,44,03,40,274,45*6F
$GAGSV,4,3,13,23,01,017,,25,04,162,,13,05,337,38,06,06,083,37*69
$GAGSV,4,4,13,36,04,186,30*57
$GBGSV,6,1,22,22,78,321,52,16,11,048,39,34,11,300,42,06,13,049,37*6A
$GBGSV,6,2,22,11,10,323,,26,11,184,,12,14,272,39,45,18,189,*66
$GBGSV,6,3,22,48,17,112,,09,27,051,40,05,22,129,39,58,34,055,*65
$GBGSV,6,4,22,46,40,060,,19,43,108,49,36,54,143,51,21,76,323,*64
$GBGSV,6,5,22,39,00,049,23,43,02,342,,44,06,250,41,50,03,295,*62
$GBGSV,6,6,22,02,06,107,35,60,07,111,40*6B
$GPGGA,053047.00,,,,,0,00,,,M,,M,,*4D
$PTNL,GGK,053047.00,010125,4742.1603523,N,01618.1000320,E,1,37,0.8,EHT751.3678,M*41
$GPGGQ,053047.00,010125,4742.1603523,N,01618.1000320,E,1,37,0.917,708.1612,M*3A
$GPGFA,053047.00,4.136,6.216,0.435,0.277,341.198,0.758,,VVV*09
$GPLLK,053047.00,010125,,M,,M,1,37,0.8,,M*02
$GNGMP,053047.00,,,,,DAAA,37,0.4,,,,*53
$GPGMP,053047.00,,,,,,09,,,,3.0,136*76
$GLGMP,053047.00,,,,,,07,,,,,*7D
$GAGMP,053047.00,,,,,,09,,,,,*7E
$GBGMP,053047.00,,,,,,12,,,,,*77
$PSSN,SNC,[0,279065000,2347]*4B
$GPZDA,053052.00,01,01,2025,,*62
$GPDTM,W84,,00.0000000,N,00.0000000,E,00.0000000,W84*5F
$PSSN,TFM,053052.00,,,,*6E
$GPRMC,053052.00,A,4742.1603522,N,01618.1000311,E,0.0,,010125,5.1,E,D*14
$GPGLL,4742.1603522,N,01618.1000311,E,053052.00,A,D*65
$GPGGA,053052.00,4742.1603522,N,01618.1000311,E,2,37,0.4,708.1529,M,43.2066,M,3.1,0136*4B
$GNGNS,053052.00,4742.1603522,N,01618.1000311,E,DAAA,37,0.4,708.1529,43.2066,,*51
$GPGNS,053052.00,,,,,,09,,,,3.1,136*73
$GLGNS,053052.00,,,,,,07,,,,,*79
$GAGNS,053052.00,,,,,,09,,,,,*7A
$GBGNS,053052.00,,,,,,12,,,,,*73
$GPLLQ,053052.00,010125,,M,,M,1,37,0.926,,M*19
$GPVTG,,T,,M,0.00,N,0.00,K,D*26
$GPHDT,,T*1B
$GPTHS,,V*0E
$GPROT,,V*08
$PSSN,HRP,053052.00,010125,,,,,,,00,0,,*60
$PTNL,AVR,053052.00,,Yaw,,Tilt,,,,0,,00*36
$GPGSA,A,3,04,05,06,07,09,11,16,20,30,,,,0.8,0.4,0.6*37
$GPGSA,A,3,71,72,73,74,80,87,88,,,,,,0.8,0.4,0.6*3B
$GPGSA,A,3,03,05,06,09,13,15,24,31,34,,,,0.8,0.4,0.6*34
$GPGSA,A,3,02,05,06,09,12,16,19,22,34,36,44,60,0.8,0.4,0.6*38
$GPGST,053052.00,2.020,0.434,0.280,340.941,0.420,0.300,0.769*59
$GPGBS,053052.00,2.762,1.739,4.944,72,0.0001,6.274,6.047*58
$GPGRS,053052.00,1,0.1,-0.4,0.3,0.2,-0.2,-0.4,-0.1,0.2,0.1,,,*61
$GPGRS,053052.00,1,-0.7,6.3,3.8,2.0,-2.4,-5.3,-3.1,,,,,*68
$GPGRS,053052.00,1,-0.3,0.4,-3.2,0.8,-0.0,0.0,-0.1,-0.2,0.4,,,*45
$GPGRS,053052.00,1,-0.2,1.2,0.4,0.9,-0.6,0.7,-0.3,-0.5,-0.0,0.1,-0.8,-2.2*60
$GPGSV,5,1,19,07,78,127,50,16,14,039,40,05,17,312,41,06,25,217,43*74
$GPGSV,5,2,19,04,21,082,42,11,37,258,47,30,50,208,49,20,49,299,47*7A
$GPGSV,5,3,19,09,49,078,47,13,03,265,37,36,35,170,45,58,13,245,37*77
$GPGSV,5,4,19,40,24,132,37,34,31,208,44,49,34,195,45,57,07,111,37*7F
$GPGSV,5,5,19,41,07,108,35,61,03,257,39*72
$GLGSV,3,1,11,71,56,074,52,88,22,318,46,80,17,027,44,70,13,102,35*65
$GLGSV,3,2,11,74,42,154,47,87,22,256,45,72,56,322,51,73,55,080,51*64
$GLGSV,3,3,11,86,01,217,39,65,05,295,40,75,00,184,*57
$GAGSV,4,1,13,05,79,027,49,24,28,117,43,16,18,143,,31,26,060,41*6D
$GAGSV,4,2,13,09,28,079,43,34,35,227,45,15,36,293,44,03,40,274,45*6F
$GAGSV,4,3,13,23,01,017,,25,04,162,,13,05,337,37,06,06,083,37*66
$GAGSV,4,4,13,36,04,186,29*5F
$GBGSV,6,1,22,22,78,321,52,16,11,048,38,34,11,300,41,06,13,049,37*68
$GBGSV,6,2,22,11,10,323,,26,11,184,,12,14,272,40,45,18,189,*68
$GBGSV,6,3,22,48,17,112,,09,27,051,39,05,22,129,39,58,34,055,*6B
$GBGSV,6,4,22,46,40,060,,19,43,108,49,36,54,142,51,21,76,323,*65
$GBGSV,6,5,22,39,00,049,23,43,02,342,,44,06,250,41,50,03,295,*62
$GBGSV,6,6,22,02,06,107,35,60,07,111,40*6B
$GPGGA,053052.00,,,,,0,00,,,M,,M,,*49
$PTNL,GGK,053052.00,010125,4742.1603522,N,01618.1000311,E,1,37,0.8,EHT751.3594,M*47
$GPGGQ,053052.00,010125,4742.1603522,N,01618.1000311,E,1,37,0.926,708.1529,M*34
$GPGFA,053052.00,4.122,6.305,0.434,0.280,340.941,0.769,,VVV*0D
$GPLLK,053052.00,010125,,M,,M,1,37,0.8,,M*06
$GNGMP,053052.00,,,,,DAAA,37,0.4,,,,*57
$GPGMP,053052.00,,,,,,09,,,,3.1,136*73
$GLGMP,053052.00,,,,,,07,,,,,*79
$GAGMP,053052.00,,,,,,09,,,,,*7A
$GBGMP,053052.00,,,,,,12,,,,,*73
$PSSN,SNC,[0,279070000,2347]*4F
$GPZDA,053057.00,01,01,2025,,*67
$GPDTM,W84,,00.0000000,N,00.0000000,E,00.0000000,W84*5F
$PSSN,TFM,053057.00,,,,*6B
$GPRMC,053057.00,A,4742.1603526,N,01618.1000286,E,0.0,,010125,5.1,E,D*1A
$GPGLL,4742.1603526,N,01618.1000286,E,053057.00,A,D*6B
$GPGGA,053057.00,4742.1603526,N,01618.1000286,E,2,37,0.4,708.1513,M,43.2066,M,1.4,0136*4B
$GNGNS,053057.00,4742.1603526,N,01618.1000286,E,DAAA,37,0.4,708.1513,43.2066,,*56
$GPGNS,053057.00,,,,,,09,,,,1.4,136*71
$GLGNS,053057.00,,,,,,07,,,,,*7C
$GAGNS,053057.00,,,,,,09,,,,,*7F
$GBGNS,053057.00,,,,,,12,,,,,*76
$GPLLQ,053057.00,010125,,M,,M,1,37,0.914,,M*1D
$GPVTG,,T,,M,0.00,N,0.01,K,D*27
$GPHDT,,T*1B
$GPTHS,,V*0E
$GPROT,,V*08
$PSSN,HRP,053057.00,010125,,,,,,,00,0,,*65
$PTNL,AVR,053057.00,,Yaw,,Tilt,,,,0,,00*33
$GPGSA,A,3,04,05,06,07,09,11,16,20,30,,,,0.8,0.4,0.6*37
$GPGSA,A,3,71,72,73,74,80,87,88,,,,,,0.8,0.4,0.6*3B
$GPGSA,A,3,03,05,06,09,13,15,24,31,34,,,,0.8,0.4,0.6*34
$GPGSA,A,3,02,05,06,09,12,16,19,22,34,36,44,60,0.8,0.4,0.6*38
$GPGST,053057.00,2.084,0.430,0.277,341.584,0.417,0.296,0.757*5D
$GPGBS,053057.00,2.788,1.697,4.862,72,0.0001,6.348,6.047*57
$GPGRS,053057.00,1,0.4,-0.1,0.1,0.1,-0.1,-0.5,0.3,0.0,0.2,,,*49
$GPGRS,053057.00,1,-0.5,6.3,3.6,2.2,-2.9,-6.2,-1.9,,,,,*66
$GPGRS,053057.00,1,-0.2,0.5,-3.1,0.4,0.1,-0.2,-0.1,-0.6,0.2,,,*4E
$GPGRS,053057.00,1,-0.2,1.6,0.3,0.5,0.4,0.1,-0.3,-0.3,-0.5,0.0,-1.4,-2.2*4C
$GPGSV,5,1,19,07,78,126,50,16,14,039,40,05,17,312,41,06,25,217,43*75
$GPGSV,5,2,19,04,21,082,42,11,37,258,47,30,50,208,49,20,49,299,47*7A
$GPGSV,5,3,19,09,49,078,47,13,03,265,36,36,35,170,45,58,13,245,37*76
$GPGSV,5,4,19,40,24,132,37,34,31,208,44,49,34,195,45,57,07,111,37*7F
$GPGSV,5,5,19,41,07,108,35,61,03,257,38*73
$GLGSV,3,1,11,71,56,074,51,88,22,318,46,80,17,027,44,70,13,102,34*67
$GLGSV,3,2,11,74,42,154,46,87,22,256,44,72,56,322,51,73,55,080,50*65
$GLGSV,3,3,11,86,01,217,39,65,05,295,37,75,00,184,*57
$GAGSV,4,1,13,05,79,027,49,24,28,117,42,16,18,143,,31,26,060,42*6F
$GAGSV,4,2,13,09,28,079,43,34,35,227,45,15,36,293,44,03,40,274,45*6F
$GAGSV,4,3,13,23,01,017,,25,04,162,,13,05,337,37,06,06,083,37*66
$GAGSV,4,4,13,36,04,186,30*57
$GBGSV,6,1,22,22,78,322,52,16,11,048,38,34,11,300,41,06,13,049,37*6B
$GBGSV,6,2,22,11,10,323,,26,11,184,,12,14,272,40,45,18,189,*68
$GBGSV,6,3,22,48,17,112,,09,27,051,40,05,22,129,39,58,34,055,*65
$GBGSV,6,4,22,46,40,060,,19,43,108,49,36,54,142,51,21,76,323,*65
$GBGSV,6,5,22,39,00,049,23,43,02,342,,44,06,250,42,50,03,295,*61
$GBGSV,6,6,22,02,06,107,35,60,07,111,40*6B
$GPGGA,053057.00,,,,,0,00,,,M,,M,,*4C
$PTNL,GGK,053057.00,010125,4742.1603526,N,01618.1000286,E,1,37,0.8,EHT751.3578,M*4B
$GPGGQ,053057.00,010125,4742.1603526,N,01618.1000286,E,1,37,0.914,708.1513,M*32
$GPGFA,053057.00,4.085,6.207,0.430,0.277,341.584,0.757,,VVV*02
$GPLLK,053057.00,010125,,M,,M,1,37,0.8,,M*03
$GNGMP,053057.00,,,,,DAAA,37,0.4,,,,*52
$GPGMP,053057.00,,,,,,09,,,,1.4,136*71
$GLGMP,053057.00,,,,,,07,,,,,*7C
$GAGMP,053057.00,,,,,,09,,,,,*7F
$GBGMP,053057.00,,,,,,12,,,,,*76
$PSSN,SNC,[0,279075000,2347]*4A
$GPZDA,053102.00,01,01,2025,,*66
$GPDTM,W84,,00.0000000,N,00.0000000,E,00.0000000,W84*5F
$PSSN,TFM,053102.00,,,,*6A
$GPRMC,053102.00,A,4742.1603544,N,01618.1000255,E,0.0,,010125,5.1,E,D*11
$GPGLL,4742.1603544,N,01618.1000255,E,053102.00,A,D*60
$GPGGA,053102.00,4742.1603544,N,01618.1000255,E,2,37,0.4,708.1521,M,43.2066,M,2.4,0136*42
$GNGNS,053102.00,4742.1603544,N,01618.1000255,E,DAAA,37,0.4,708.1521,43.2066,,*5C
$GPGNS,053102.00,,,,,,09,,,,2.4,136*73
$GLGNS,053102.00,,,,,,07,,,,,*7D
$GAGNS,053102.00,,,,,,09,,,,,*7E
$GBGNS,053102.00,,,,,,12,,,,,*77
$GPLLQ,053102.00,010125,,M,,M,1,37,0.901,,M*18
$GPVTG,,T,,M,0.00,N,0.00,K,D*26
$GPHDT,,T*1B
$GPTHS,,V*0E
$GPROT,,V*08
$PSSN,HRP,053102.00,010125,,,,,,,00,0,,*64
$PTNL,AVR,053102.00,,Yaw,,Tilt,,,,0,,00*32
$GPGSA,A,3,04,05,06,07,09,11,16,20,30,,,,0.8,0.4,0.6*37
$GPGSA,A,3,71,72,73,74,80,87,88,,,,,,0.8,0.4,0.6*3B
$GPGSA,A,3,03,05,06,09,13,15,24,31,34,,,,0.8,0.4,0.6*34
$GPGSA,A,3,02,05,06,09,12,16,19,22,34,36,44,60,0.8,0.4,0.6*38
$GPGST,053102.00,2.153,0.430,0.273,341.701,0.417,0.292,0.743*5D
$GPGBS,053102.00,2.851,1.729,4.929,87,0.0001,-6.642,6.160*7B
$GPGRS,053102.00,1,0.3,0.3,-0.0,-0.0,-0.1,-0.7,-0.1,0.0,0.5,,,*4A
$GPGRS,053102.00,1,-1.0,6.1,3.6,1.6,-3.1,-6.6,-3.1,,,,,*61
$GPGRS,053102.00,1,-0.0,0.4,-3.0,0.3,0.3,-0.2,0.1,-0.2,0.4,,,*67
$GPGRS,053102.00,1,0.4,1.6,0.8,0.4,0.8,0.4,-0.3,-0.3,-0.6,0.1,-0.8,-2.3*6B
$GPGSV,5,1,19,07,78,126,50,16,14,039,40,05,17,312,41,06,25,217,43*75
$GPGSV,5,2,19,04,21,082,42,11,37,258,46,30,50,208,49,20,49,299,47*7B
$GPGSV,5,3,19,09,49,078,47,13,03,265,36,36,35,170,45,58,13,245,37*76
$GPGSV,5,4,19,40,24,132,37,34,31,208,44,49,34,195,45,57,07,111,37*7F
$GPGSV,5,5,19,41,07,108,35,61,03,257,38*73
$GLGSV,3,1,11,71,56,074,51,88,22,318,46,80,17,027,44,70,13,102,35*66
$GLGSV,3,2,11,74,42,154,47,87,22,256,44,72,56,322,51,73,55,080,50*64
$GLGSV,3,3,11,86,01,217,39,65,05,295,39,75,00,184,*59
$GAGSV,4,1,13,05,79,027,49,24,28,117,43,16,18,143,,31,26,060,42*6E
$GAGSV,4,2,13,09,28,079,43,34,35,227,45,15,36,293,44,03,40,274,45*6F
$GAGSV,4,3,13,23,01,017,,25,04,162,,13,05,337,38,06,06,083,37*69
$GAGSV,4,4,13,36,04,186,29*5F
$GBGSV,6,1,22,22,78,322,52,16,11,048,38,34,11,300,42,06,13,049,37*68
$GBGSV,6,2,22,11,10,323,,26,11,184,,12,14,272,40,45,18,189,*68
$GBGSV,6,3,22,48,17,112,,09,27,051,40,05,22,129,39,58,34,055,*65
$GBGSV,6,4,22,46,39,060,,19,43,108,49,36,54,142,51,21,76,323,*6B
$GBGSV,6,5,22,39,00,049,25,43,02,342,,44,06,250,41,50,03,295,*64
$GBGSV,6,6,22,02,06,107,35,60,07,111,40*6B
$GPGGA,053102.00,,,,,0,00,,,M,,M,,*4D
$PTNL,GGK,053102.00,010125,4742.1603544,N,01618.1000255,E,1,37,0.8,EHT751.3587,M*40
$GPGGQ,053102.00,010125,4742.1603544,N,01618.1000255,E,1,37,0.901,708.1521,M*3C
$GPGFA,053102.00,4.087,6.093,0.430,0.273,341.701,0.743,,VVV*00
$GPLLK,053102.00,010125,,M,,M,1,37,0.8,,M*02
$GNGMP,053102.00,,,,,DAAA,37,0.4,,,,*53
$GPGMP,053102.00,,,,,,09,,,,2.4,136*73
$GLGMP,053102.00,,,,,,07,,,,,*7D
$GAGMP,053102.00,,,,,,09,,,,,*7E
$GBGMP,053102.00,,,,,,12,,,,,*77
$PSSN,SNC,[0,279080000,2347]*40
$GPZDA,053107.00,01,01,2025,,*63
$GPDTM,W84,,00.0000000,N,00.0000000,E,00.0000000,W84*5F
$PSSN,TFM,053107.00,,,,*6F
$GPRMC,053107.00,A,4742.1603548,N,01618.1000222,E,0.0,,010125,5.1,E,D*18
$GPGLL,4742.1603548,N,01618.1000222,E,053107.00,A,D*69
$GPGGA,053107.00,4742.1603548,N,01618.1000222,E,2,37,0.4,708.1536,M,43.2066,M,3.0,0136*48
$GNGNS,053107.00,4742.1603548,N,01618.1000222,E,DAAA,37,0.4,708.1536,43.2066,,*53
$GPGNS,053107.00,,,,,,09,,,,3.0,136*73
$GLGNS,053107.00,,,,,,07,,,,,*78
$GAGNS,053107.00,,,,,,09,,,,,*7B
$GBGNS,053107.00,,,,,,12,,,,,*72
$GPLLQ,053107.00,010125,,M,,M,1,37,0.915,,M*18
$GPVTG,,T,,M,0.00,N,0.00,K,D*26
$GPHDT,,T*1B
$GPTHS,,V*0E
$GPROT,,V*08
$PSSN,HRP,053107.00,010125,,,,,,,00,0,,*61
$PTNL,AVR,053107.00,,Yaw,,Tilt,,,,0,,00*37
$GPGSA,A,3,04,05,06,07,09,11,16,20,30,,,,0.8,0.4,0.6*37
$GPGSA,A,3,71,72,73,74,80,87,88,,,,,,0.8,0.4,0.6*3B
$GPGSA,A,3,03,05,06,09,13,15,24,31,34,,,,0.8,0.4,0.6*34
$GPGSA,A,3,02,05,06,09,12,16,19,22,34,36,44,60,0.8,0.4,0.6*38
$GPGST,053107.00,2.073,0.435,0.277,341.267,0.421,0.297,0.756*5B
$GPGBS,053107.00,2.770,1.765,4.985,72,0.0001,6.349,6.047*51
$GPGRS,053107.00,1,0.4,0.2,-0.3,0.0,-0.1,-0.7,-0.0,0.2,0.5,,,*64
$GPGRS,053107.00,1,-0.9,6.3,3.2,2.3,-2.6,-6.1,-2.4,,,,,*69
$GPGRS,053107.00,1,0.0,0.3,-2.9,0.5,0.1,0.2,0.2,-0.2,0.2,,,*6C
$GPGRS,053107.00,1,0.3,1.5,1.4,0.7,1.3,0.6,-0.5,-0.4,-0.5,0.1,-0.5,-2.2*62
$GPGSV,5,1,19,07,78,126,50,16,14,039,40,05,17,312,41,06,24,217,43*74
$GPGSV,5,2,19,04,21,082,42,11,37,258,46,30,50,208,49,20,49,299,47*7B
$GPGSV,5,3,19,09,49,078,47,13,03,265,36,36,35,170,45,58,13,245,37*76
$GPGSV,5,4,19,40,24,132,37,34,31,208,44,49,34,195,45,57,07,111,38*70
$GPGSV,5,5,19,41,07,108,35,61,03,257,39*72
$GLGSV,3,1,11,72,56,322,51,80,16,027,43,70,13,102,35,87,22,256,45*64
$GLGSV,3,2,11,88,22,318,46,74,42,154,47,71,56,074,51,73,55,080,50*61
$GLGSV,3,3,11,86,01,217,39,65,05,295,38,75,00,184,*58
$GAGSV,4,1,13,05,79,027,49,24,28,117,43,16,18,143,,31,26,060,42*6E
$GAGSV,4,2,13,09,28,079,43,34,35,227,45,15,36,293,44,03,40,274,45*6F
$GAGSV,4,3,13,23,01,017,,25,05,162,,13,05,337,38,06,06,083,37*68
$GAGSV,4,4,13,36,04,186,29*5F
$GBGSV,6,1,22,22,78,322,52,16,11,048,38,34,11,300,41,06,13,049,38*64
$GBGSV,6,2,22,11,10,323,,26,11,184,,12,14,272,40,45,18,189,*68
$GBGSV,6,3,22,48,17,112,,09,27,051,40,05,22,129,39,58,34,055,*65
$GBGSV,6,4,22,46,39,060,,19,43,108,49,36,54,142,51,21,76,323,*6B
$GBGSV,6,5,22,39,00,049,23,43,02,342,,44,06,250,41,50,03,295,*62
$GBGSV,6,6,22,02,06,107,35,60,07,111,40*6B
$GPGGA,053107.00,,,,,0,00,,,M,,M,,*48
$PTNL,GGK,053107.00,010125,4742.1603548,N,01618.1000222,E,1,37,0.8,EHT751.3602,M*47
$GPGGQ,053107.00,010125,4742.1603548,N,01618.1000222,E,1,37,0.915,708.1536,M*36
$GPGFA,053107.00,4.136,6.201,0.435,0.277,341.267,0.756,,VVV*07
$GPLLK,053107.00,010125,,M,,M,1,37,0.8,,M*07
$GNGMP,053107.00,,,,,DAAA,37,0.4,,,,*56
$GPGMP,053107.00,,,,,,09,,,,3.0,136*73
$GLGMP,053107.00,,,,,,07,,,,,*78
$GAGMP,053107.00,,,,,,09,,,,,*7B
$GBGMP,053107.00,,,,,,12,,,,,*72
$PSSN,SNC,[0,279085000,2347]*45
$GPZDA,053112.00,01,01,2025,,*67
$GPDTM,W84,,00.0000000,N,00.0000000,E,00.0000000,W84*5F
$PSSN,TFM,053112.00,,,,*6B
$GPRMC,053112.00,A,4742.1603533,N,01618.1000225,E,0.0,,010125,5.1,E,D*17
$GPGLL,4742.1603533,N,01618.1000225,E,053112.00,A,D*66
$GPGGA,053112.00,4742.1603533,N,01618.1000225,E,2,37,0.4,708.1521,M,43.2066,M,3.1,0136*40
$GNGNS,053112.00,4742.1603533,N,01618.1000225,E,DAAA,37,0.4,708.1521,43.2066,,*5A
$GPGNS,053112.00,,,,,,09,,,,3.1,136*76
$GLGNS,053112.00,,,,,,07,,,,,*7C
$GAGNS,053112.00,,,,,,09,,,,,*7F
$GBGNS,053112.00,,,,,,12,,,,,*76
$GPLLQ,053112.00,010125,,M,,M,1,37,0.925,,M*1F
$GPVTG,,T,,M,0.00,N,0.01,K,D*27
$GPHDT,,T*1B
$GPTHS,,V*0E
$GPROT,,V*08
$PSSN,HRP,053112.00,010125,,,,,,,00,0,,*65
$PTNL,AVR,053112.00,,Yaw,,Tilt,,,,0,,00*33
$GPGSA,A,3,04,05,06,07,09,11,16,20,30,,,,0.8,0.4,0.6*37
$GPGSA,A,3,71,72,73,74,80,87,88,,,,,,0.8,0.4,0.6*3B
$GPGSA,A,3,03,05,06,09,13,15,24,31,34,,,,0.8,0.4,0.6*34
$GPGSA,A,3,02,05,06,09,12,16,19,22,34,36,44,60,0.8,0.4,0.6*38
$GPGST,053112.00,2.010,0.434,0.280,341.010,0.420,0.300,0.767*5D
$GPGBS,053112.00,2.764,1.736,4.930,72,0.0001,6.086,6.047*58
$GPGRS,053112.00,1,0.1,0.7,-0.3,-0.1,-0.2,-0.3,-0.7,0.2,0.2,,,*4B
$GPGRS,053112.00,1,-0.4,6.1,3.3,2.0,-2.6,-5.5,-3.4,,,,,*66
$GPGRS,053112.00,1,0.2,0.3,-2.6,0.6,0.4,0.2,0.2,-0.3,0.2,,,*62
$GPGRS,053112.00,1,0.2,1.6,1.3,0.2,1.0,0.5,-0.4,-0.3,-0.1,0.3,-0.8,-2.1*68
$GPGSV,5,1,19,07,78,126,50,16,14,039,40,05,17,312,41,06,24,217,42*75
$GPGSV,5,2,19,04,21,082,42,11,37,258,45,30,50,208,49,20,49,299,48*77
$GPGSV,5,3,19,09,49,078,47,13,03,265,36,36,35,170,45,58,13,245,37*76
$GPGSV,5,4,19,40,24,132,37,34,31,208,44,49,34,195,45,57,07,111,38*70
$GPGSV,5,5,19,41,07,108,35,61,03,257,39*72
$GLGSV,3,1,11,72,56,322,51,80,16,027,43,70,13,102,35,87,22,256,46*67
$GLGSV,3,2,11,88,22,318,46,74,42,154,47,71,56,074,51,73,55,080,50*61
$GLGSV,3,3,11,86,01,217,39,65,05,295,38,75,00,184,*58
$GAGSV,4,1,13,05,79,027,49,24,28,117,43,16,18,143,,31,26,060,42*6E
$GAGSV,4,2,13,09,28,079,43,34,35,227,45,15,36,293,44,03,40,274,45*6F
$GAGSV,4,3,13,23,01,017,,25,05,162,,13,05,337,38,06,06,083,38*67
$GAGSV,4,4,13,36,04,186,29*5F
$GBGSV,6,1,22,22,78,322,52,16,11,048,38,34,11,300,42,06,13,049,37*68
$GBGSV,6,2,22,11,10,323,,26,11,184,,12,14,272,41,45,18,189,*69
$GBGSV,6,3,22,48,17,112,,09,27,051,40,05,22,129,39,58,34,055,*65
$GBGSV,6,4,22,46,39,060,,19,43,108,49,36,54,142,51,21,76,323,*6B
$GBGSV,6,5,22,39,00,049,24,43,02,342,,44,06,250,40,50,03,295,*64
$GBGSV,6,6,22,02,06,107,36,60,07,111,40*68
$GPGGA,053112.00,,,,,0,00,,,M,,M,,*4C
$PTNL,GGK,053112.00,010125,4742.1603533,N,01618.1000225,E,1,37,0.8,EHT751.3587,M*46
$GPGGQ,053112.00,010125,4742.1603533,N,01618.1000225,E,1,37,0.925,708.1521,M*3C
$GPGFA,053112.00,4.122,6.289,0.434,0.280,341.010,0.767,,VVV*0F
$GPLLK,053112.00,010125,,M,,M,1,37,0.8,,M*03
$GNGMP,053112.00,,,,,DAAA,37,0.4,,,,*52
$GPGMP,053112.00,,,,,,09,,,,3.1,136*76
$GLGMP,053112.00,,,,,,07,,,,,*7C
$GAGMP,053112.00,,,,,,09,,,,,*7F
$GBGMP,053112.00,,,,,,12,,,,,*76
$PSSN,SNC,[0,279090000,2347]*41
$GPZDA,053117.00,01,01,2025,,*62
$GPDTM,W84,,00.0000000,N,00.0000000,E,00.0000000,W84*5F
$PSSN,TFM,053117.00,,,,*6E
$GPRMC,053117.00,A,4742.1603523,N,01618.1000268,E,0.0,,010125,5.1,E,D*1A
$GPGLL,4742.1603523,N,01618.1000268,E,053117.00,A,D*6B
$GPGGA,053117.00,4742.1603523,N,01618.1000268,E,2,37,0.4,708.1469,M,43.2066,M,1.4,0136*47
$GNGNS,053117.00,4742.1603523,N,01618.1000268,E,DAAA,37,0.4,708.1469,43.2066,,*5A
$GPGNS,053117.00,,,,,,09,,,,1.4,136*74
$GLGNS,053117.00,,,,,,07,,,,,*79
$GAGNS,053117.00,,,,,,09,,,,,*7A
$GBGNS,053117.00,,,,,,12,,,,,*73
$GPLLQ,053117.00,010125,,M,,M,1,37,0.912,,M*1E
$GPVTG,,T,,M,0.00,N,0.00,K,D*26
$GPHDT,,T*1B
$GPTHS,,V*0E
$GPROT,,V*08
$PSSN,HRP,053117.00,010125,,,,,,,00,0,,*60
$PTNL,AVR,053117.00,,Yaw,,Tilt,,,,0,,00*36
$GPGSA,A,3,04,05,06,07,09,11,16,20,30,,,,0.8,0.4,0.6*37
$GPGSA,A,3,71,72,73,74,80,87,88,,,,,,0.8,0.4,0.6*3B
$GPGSA,A,3,03,05,06,09,13,15,24,31,34,,,,0.8,0.4,0.6*34
$GPGSA,A,3,02,05,06,09,12,16,19,22,34,36,44,60,0.8,0.4,0.6*38
$GPGST,053117.00,2.038,0.430,0.277,341.638,0.417,0.296,0.755*59
$GPGBS,053117.00,2.790,1.694,4.850,72,0.0001,6.159,6.047*5B
$GPGRS,053117.00,1,-0.0,0.6,-0.2,0.1,-0.4,0.1,-0.8,0.3,0.1,,,*6B
$GPGRS,053117.00,1,-0.2,6.2,3.6,2.0,-2.7,-4.6,-3.8,,,,,*6C
$GPGRS,053117.00,1,-0.2,0.4,-3.0,0.4,-0.0,0.1,-0.0,-0.4,-0.0,,,*65
$GPGRS,053117.00,1,0.4,1.7,0.7,0.2,1.9,-0.5,-0.5,-0.3,0.1,0.1,-1.3,-2.5*6B
$GPGSV,5,1,19,07,78,126,50,16,14,039,40,05,17,312,42,06,24,217,43*77
$GPGSV,5,2,19,04,21,082,42,11,37,258,46,30,50,208,49,20,49,299,48*74
$GPGSV,5,3,19,09,49,078,47,13,03,265,36,36,35,170,45,58,13,245,37*76
$GPGSV,5,4,19,40,24,132,37,34,31,208,44,49,34,195,45,57,07,111,38*70
$GPGSV,5,5,19,41,07,108,35,61,03,257,38*73
$GLGSV,3,1,11,72,56,322,51,80,16,027,43,70,13,102,35,87,22,256,45*64
$GLGSV,3,2,11,88,22,318,45,74,42,154,47,71,56,074,51,73,55,080,50*62
$GLGSV,3,3,11,86,01,217,39,65,05,295,39,75,00,184,*59
$GAGSV,4,1,13,05,79,027,49,24,28,117,43,16,18,143,,31,26,060,42*6E
$GAGSV,4,2,13,09,28,079,43,34,35,227,45,15,36,293,44,03,40,274,45*6F
$GAGSV,4,3,13,23,01,017,,25,05,162,,13,05,337,37,06,06,083,38*68
$GAGSV,4,4,13,36,04,186,29*5F
$GBGSV,6,1,22,22,78,322,52,16,11,048,38,34,11,300,42,06,13,049,37*68
$GBGSV,6,2,22,11,10,323,,26,11,184,,12,14,272,40,45,18,189,*68
$GBGSV,6,3,22,48,17,112,,09,27,051,40,05,22,129,39,58,34,055,*65
$GBGSV,6,4,22,46,39,060,,19,43,108,49,36,54,142,51,21,76,324,*6C
$GBGSV,6,5,22,39,00,049,24,43,02,342,,44,06,250,40,50,03,295,*64
$GBGSV,6,6,22,02,06,107,35,60,07,111,40*6B
$GPGGA,053117.00,,,,,0,00,,,M,,M,,*49
$PTNL,GGK,053117.00,010125,4742.1603523,N,01618.1000268,E,1,37,0.8,EHT751.3534,M*43
$GPGGQ,053117.00,010125,4742.1603523,N,01618.1000268,E,1,37,0.912,708.1469,M*38
$GPGFA,053117.00,4.085,6.193,0.430,0.277,341.638,0.755,,VVV*0F
$GPLLK,053117.00,010125,,M,,M,1,37,0.8,,M*06
$GNGMP,053117.00,,,,,DAAA,37,0.4,,,,*57
$GPGMP,053117.00,,,,,,09,,,,1.4,136*74
$GLGMP,053117.00,,,,,,07,,,,,*79
$GAGMP,053117.00,,,,,,09,,,,,*7A
$GBGMP,053117.00,,,,,,12,,,,,*73
$PSSN,SNC,[0,279095000,2347]*44
$GPZDA,053122.00,01,01,2025,,*64
