$GPZDA,135942.00,01,01,2025,,*6B
$GPDTM,W84,,00.0000000,N,00.0000000,E,00.0000000,W84*5F
$PSSN,TFM,135942.00,,,,*67
$GPRMC,135942.00,A,4742.1601379,N,01618.1009691,E,0.0,,010125,5.1,E,D*13
$GPGLL,4742.1601379,N,01618.1009691,E,135942.00,A,D*62
$GPGGA,135942.00,4742.1601379,N,01618.1009691,E,2,38,0.4,708.1600,M,43.2065,M,1.9,0136*42
$GNGNS,135942.00,4742.1601379,N,01618.1009691,E,DAAA,38,0.4,708.1600,43.2065,,*52
$GPGNS,135942.00,,,,,,08,,,,1.9,136*71
$GLGNS,135942.00,,,,,,09,,,,,*7E
$GAGNS,135942.00,,,,,,08,,,,,*72
$GBGNS,135942.00,,,,,,13,,,,,*7B
$GPLLQ,135942.00,010125,,M,,M,1,38,1.426,,M*13
$GPVTG,,T,,M,0.00,N,0.00,K,D*26
$GPHDT,,T*1B
$GPTHS,,V*0E
$GPROT,,V*08
$PSSN,HRP,135942.00,010125,,,,,,,00,0,,*69
$PTNL,AVR,135942.00,,Yaw,,Tilt,,,,0,,00*3F
$GPGSA,A,3,06,11,12,24,25,28,29,32,,,,,0.7,0.4,0.6*33
$GPGSA,A,3,68,69,77,78,79,81,86,87,88,,,,0.7,0.4,0.6*3F
$GPGSA,A,3,02,07,15,27,29,30,34,36,,,,,0.7,0.4,0.6*39
$GPGSA,A,3,05,10,11,12,24,25,26,32,34,35,41,44,0.7,0.4,0.6*30
$GPGSA,A,3,60,,,,,,,,,,,,0.7,0.4,0.6*31
$GPGST,135942.00,2.057,0.579,0.439,358.953,0.579,0.439,1.227*58
$GPGBS,135942.00,3.415,2.461,7.434,77,0.0001,-6.091,6.294*7A
$GPGRS,135942.00,1,-0.5,0.5,0.1,-0.6,0.0,0.5,0.3,-0.4,,,,*6E
$GPGRS,135942.00,1,6.3,1.9,-6.1,-1.4,1.5,2.4,-2.1,-0.7,-0.1,,,*4D
$GPGRS,135942.00,1,0.2,0.0,-0.9,0.1,0.1,0.3,0.6,-0.1,,,,*49
$GPGRS,135942.00,1,1.5,0.8,3.7,-1.0,-0.5,0.2,1.0,-0.2,1.2,-1.1,-2.4,1.0*62
$GPGRS,135942.00,1,-2.0,,,,,,,,,,,*47
$GPGSV,5,1,19,25,69,299,50,06,25,048,42,24,27,156,42,32,29,270,45*78
$GPGSV,5,2,19,29,39,217,47,28,26,311,43,11,37,091,46,12,63,072,49*7A
$GPGSV,5,3,19,31,01,316,38,19,03,047,37,36,35,170,45,58,13,245,36*7A
$GPGSV,5,4,19,40,23,133,36,34,31,208,43,49,34,195,45,57,04,114,38*76
$GPGSV,5,5,19,41,07,108,35,61,03,257,38*73
$GLGSV,3,1,10,78,70,350,52,68,11,250,46,69,22,298,46,79,23,304,46*60
$GLGSV,3,2,10,87,46,047,48,77,35,102,43,88,52,153,51,86,05,022,41*6F
$GLGSV,3,3,10,70,05,358,31,81,07,187,42*6C
$GAGSV,3,1,09,30,78,041,49,15,10,163,39,02,27,085,43,29,31,289,43*6C
$GAGSV,3,2,09,07,27,228,43,34,36,116,46,36,29,054,43,27,41,281,45*69
$GAGSV,3,3,09,19,10,331,34*5E
$GBGSV,6,1,21,24,66,119,51,11,16,195,42,10,18,064,38,05,20,130,38*67
$GBGSV,6,2,21,35,25,047,44,26,16,121,43,56,25,053,,31,25,092,*64
$GBGSV,6,3,21,34,39,186,48,12,59,149,48,25,55,300,50,44,61,094,51*63
$GBGSV,6,4,21,20,09,328,,32,07,323,41,23,05,299,38,07,05,062,35*64
$GBGSV,6,5,21,38,07,075,,41,07,273,39,08,06,070,,02,04,108,33*6D
$GBGSV,6,6,21,60,09,110,39*5D
$GPGGA,135942.00,,,,,0,00,,,M,,M,,*40
$PTNL,GGK,135942.00,010125,4742.1601379,N,01618.1009691,E,1,38,0.7,EHT751.3665,M*4D
$GPGGQ,135942.00,010125,4742.1601379,N,01618.1009691,E,1,38,1.426,708.1600,M*38
$GPGFA,135942.00,5.508,10.059,0.579,0.439,358.953,1.227,,VVV*3C
$GPLLK,135942.00,010125,,M,,M,1,38,0.8,,M*00
$GNGMP,135942.00,,,,,DAAA,38,0.4,,,,*51
$GPGMP,135942.00,,,,,,08,,,,1.9,136*71
$GLGMP,135942.00,,,,,,09,,,,,*7E
$GAGMP,135942.00,,,,,,08,,,,,*72
$GBGMP,135942.00,,,,,,13,,,,,*7B
$PSSN,SNC,[0,309600000,2347]*48
$GPZDA,135947.00,01,01,2025,,*6E
$GPDTM,W84,,00.0000000,N,00.0000000,E,00.0000000,W84*5F
$PSSN,TFM,135947.00,,,,*62
$GPRMC,135947.00,A,4742.1601372,N,01618.1009708,E,0.0,,010125,5.1,E,D*1C
$GPGLL,4742.1601372,N,01618.1009708,E,135947.00,A,D*6D
$GPGGA,135947.00,4742.1601372,N,01618.1009708,E,2,39,0.4,708.1567,M,43.2065,M,2.9,0136*4D
$GNGNS,135947.00,4742.1601372,N,01618.1009708,E,DAAA,39,0.4,708.1567,43.2065,,*5E
$GPGNS,135947.00,,,,,,08,,,,2.9,136*77
$GLGNS,135947.00,,,,,,09,,,,,*7B
$GAGNS,135947.00,,,,,,08,,,,,*77
$GBGNS,135947.00,,,,,,14,,,,,*79
$GPLLQ,135947.00,010125,,M,,M,1,39,1.431,,M*11
$GPVTG,,T,,M,0.00,N,0.00,K,D*26
$GPHDT,,T*1B
$GPTHS,,V*0E
$GPROT,,V*08
$PSSN,HRP,135947.00,010125,,,,,,,00,0,,*6C
$PTNL,AVR,135947.00,,Yaw,,Tilt,,,,0,,00*3A
$GPGSA,A,3,06,11,12,24,25,28,29,32,,,,,0.7,0.4,0.6*33
$GPGSA,A,3,68,69,77,78,79,81,86,87,88,,,,0.7,0.4,0.6*3F
$GPGSA,A,3,02,07,15,27,29,30,34,36,,,,,0.7,0.4,0.6*39
$GPGSA,A,3,05,07,10,11,12,24,25,26,32,34,35,41,0.7,0.4,0.6*37
$GPGSA,A,3,44,60,,,,,,,,,,,0.7,0.4,0.6*31
$GPGST,135947.00,2.382,0.578,0.440,358.532,0.578,0.440,1.232*59
$GPGBS,135947.00,3.438,2.476,7.492,77,0.0001,-6.427,6.294*73
$GPGRS,135947.00,1,-0.8,0.5,0.3,-0.9,-0.3,0.4,0.6,-0.7,,,,*42
$GPGRS,135947.00,1,5.8,2.3,-6.4,-1.7,1.3,2.4,-2.2,-0.8,-0.0,,,*44
$GPGRS,135947.00,1,0.3,-0.1,-0.6,0.3,-0.2,0.3,0.7,-0.1,,,,*43
$GPGRS,135947.00,1,1.0,-7.4,1.6,2.8,-0.9,-0.3,0.3,1.3,-0.2,1.3,-1.3,-2.3*44
$GPGRS,135947.00,1,1.1,-1.8,,,,,,,,,,*67
$GPGSV,5,1,19,25,69,300,50,06,25,048,42,24,27,156,42,32,29,270,45*79
$GPGSV,5,2,19,29,39,217,47,28,26,311,43,11,37,091,46,12,63,072,49*7A
$GPGSV,5,3,19,31,01,316,37,19,03,047,37,36,35,170,45,58,13,245,36*75
$GPGSV,5,4,19,40,23,133,36,34,31,208,43,49,34,195,45,57,04,114,38*76
$GPGSV,5,5,19,41,07,108,35,61,03,257,38*73
$GLGSV,3,1,10,78,70,350,52,68,11,250,45,69,22,298,46,79,23,304,47*62
$GLGSV,3,2,10,87,46,047,48,77,35,102,43,88,52,153,52,86,05,022,41*6C
$GLGSV,3,3,10,70,05,358,31,81,07,187,42*6C
$GAGSV,3,1,09,30,78,041,49,15,10,163,39,02,27,085,43,29,31,289,44*6B
$GAGSV,3,2,09,07,27,228,43,34,36,116,46,36,29,054,43,27,42,281,46*69
$GAGSV,3,3,09,19,10,331,33*59
$GBGSV,6,1,21,24,66,119,51,11,17,195,41,10,18,064,38,05,20,130,38*65
$GBGSV,6,2,21,35,25,047,44,26,15,121,43,56,25,053,,31,25,092,*67
$GBGSV,6,3,21,34,39,186,48,12,59,149,48,25,55,300,50,44,61,094,51*63
$GBGSV,6,4,21,20,09,328,,32,07,323,40,23,05,299,39,07,05,062,35*64
$GBGSV,6,5,21,38,07,075,,41,07,273,39,08,06,070,,02,04,108,33*6D
$GBGSV,6,6,21,60,09,110,39*5D
$GPGGA,135947.00,,,,,0,00,,,M,,M,,*45
$PTNL,GGK,135947.00,010125,4742.1601372,N,01618.1009708,E,1,39,0.7,EHT751.3632,M*41
$GPGGQ,135947.00,010125,4742.1601372,N,01618.1009708,E,1,39,1.431,708.1567,M*32
$GPGFA,135947.00,5.498,10.106,0.578,0.440,358.532,1.232,,VVV*3A
$GPLLK,135947.00,010125,,M,,M,1,39,0.8,,M*04
$GNGMP,135947.00,,,,,DAAA,39,0.4,,,,*55
$GPGMP,135947.00,,,,,,08,,,,2.9,136*77
$GLGMP,135947.00,,,,,,09,,,,,*7B
$GAGMP,135947.00,,,,,,08,,,,,*77
$GBGMP,135947.00,,,,,,14,,,,,*79
$PSSN,SNC,[0,309605000,2347]*4D
$GPZDA,135952.00,01,01,2025,,*6A
$GPDTM,W84,,00.0000000,N,00.0000000,E,00.0000000,W84*5F
$PSSN,TFM,135952.00,,,,*66
$GPRMC,135952.00,A,4742.1601387,N,01618.1009724,E,0.0,,010125,5.1,E,D*1C
$GPGLL,4742.1601387,N,01618.1009724,E,135952.00,A,D*6D
$GPGGA,135952.00,4742.1601387,N,01618.1009724,E,2,39,0.4,708.1581,M,43.2065,M,2.9,0136*45
$GNGNS,135952.00,4742.1601387,N,01618.1009724,E,DAAA,39,0.4,708.1581,43.2065,,*56
$GPGNS,135952.00,,,,,,08,,,,2.9,136*73
$GLGNS,135952.00,,,,,,09,,,,,*7F
$GAGNS,135952.00,,,,,,08,,,,,*73
$GBGNS,135952.00,,,,,,14,,,,,*7D
$GPLLQ,135952.00,010125,,M,,M,1,39,1.434,,M*10
$GPVTG,,T,,M,0.01,N,0.01,K,D*26
$GPHDT,,T*1B
$GPTHS,,V*0E
$GPROT,,V*08
$PSSN,HRP,135952.00,010125,,,,,,,00,0,,*68
$PTNL,AVR,135952.00,,Yaw,,Tilt,,,,0,,00*3E
$GPGSA,A,3,06,11,12,24,25,28,29,32,,,,,0.7,0.4,0.6*33
$GPGSA,A,3,68,69,77,78,79,81,86,87,88,,,,0.7,0.4,0.6*3F
$GPGSA,A,3,02,07,15,27,29,30,34,36,,,,,0.7,0.4,0.6*39
$GPGSA,A,3,05,07,10,11,12,24,25,26,32,34,35,41,0.7,0.4,0.6*37
$GPGSA,A,3,44,60,,,,,,,,,,,0.7,0.4,0.6*31
$GPGST,135952.00,2.235,0.580,0.443,359.081,0.580,0.443,1.235*5B
$GPGBS,135952.00,3.443,2.466,7.499,77,0.0001,-5.736,6.294*71
$GPGRS,135952.00,1,-0.7,0.1,0.3,-0.3,-0.3,1.0,0.5,-0.3,,,,*45
$GPGRS,135952.00,1,4.3,2.6,-5.7,-1.3,2.3,2.6,-1.9,-0.7,0.3,,,*63
$GPGRS,135952.00,1,0.1,-0.2,-0.6,0.1,-0.2,0.1,0.6,-0.4,,,,*42
$GPGRS,135952.00,1,0.7,-7.9,1.4,1.8,-1.0,-0.5,0.3,1.5,-0.5,0.7,-1.2,-1.9*48
$GPGRS,135952.00,1,0.9,-1.9,,,,,,,,,,*6B
$GPGSV,5,1,19,25,69,300,50,06,25,048,41,24,27,156,42,32,29,270,46*79
$GPGSV,5,2,19,29,39,217,47,28,27,311,43,11,37,091,46,12,63,072,49*7B
$GPGSV,5,3,19,31,01,316,38,19,03,047,37,36,35,170,46,58,13,245,36*79
$GPGSV,5,4,19,40,23,133,36,34,31,208,43,49,34,195,45,57,04,114,38*76
$GPGSV,5,5,19,41,07,108,35,61,03,257,38*73
$GLGSV,3,1,10,78,70,350,52,68,11,250,45,69,22,298,47,79,23,304,47*63
$GLGSV,3,2,10,87,46,047,48,77,35,102,44,88,52,153,52,86,05,022,41*6B
$GLGSV,3,3,10,70,05,358,32,81,07,187,42*6F
$GAGSV,3,1,09,30,78,041,49,15,10,163,39,02,27,085,43,29,31,289,43*6C
$GAGSV,3,2,09,07,27,228,43,34,36,116,45,36,29,054,43,27,42,281,45*69
$GAGSV,3,3,09,19,10,331,34*5E
$GBGSV,6,1,21,24,66,119,51,11,17,195,41,10,18,064,39,05,20,130,38*64
$GBGSV,6,2,21,35,25,047,44,26,15,121,43,56,25,053,,31,25,092,*67
$GBGSV,6,3,21,34,39,186,48,12,59,149,48,25,55,300,50,44,61,093,51*64
$GBGSV,6,4,21,20,09,328,,32,07,323,40,23,05,299,38,07,05,062,35*65
$GBGSV,6,5,21,38,07,075,,41,06,273,39,08,06,070,,02,04,108,33*6C
$GBGSV,6,6,21,60,09,110,39*5D
$GPGGA,135952.00,,,,,0,00,,,M,,M,,*41
$PTNL,GGK,135952.00,010125,4742.1601387,N,01618.1009724,E,1,39,0.7,EHT751.3646,M*42
$GPGGQ,135952.00,010125,4742.1601387,N,01618.1009724,E,1,39,1.434,708.1581,M*3F
$GPGFA,135952.00,5.516,10.125,0.580,0.443,359.081,1.235,,VVV*37
$GPLLK,135952.00,010125,,M,,M,1,39,0.8,,M*00
$GNGMP,135952.00,,,,,DAAA,39,0.4,,,,*51
$GPGMP,135952.00,,,,,,08,,,,2.9,136*73
$GLGMP,135952.00,,,,,,09,,,,,*7F
$GAGMP,135952.00,,,,,,08,,,,,*73
$GBGMP,135952.00,,,,,,14,,,,,*7D
$PSSN,SNC,[0,309610000,2347]*49
$GPZDA,135957.00,01,01,2025,,*6F
$GPDTM,W84,,00.0000000,N,00.0000000,E,00.0000000,W84*5F
$PSSN,TFM,135957.00,,,,*63
$GPRMC,135957.00,A,4742.1601395,N,01618.1009783,E,0.0,,010125,5.1,E,D*17
$GPGLL,4742.1601395,N,01618.1009783,E,135957.00,A,D*66
$GPGGA,135957.00,4742.1601395,N,01618.1009783,E,2,39,0.4,708.1598,M,43.2065,M,2.4,0136*4B
$GNGNS,135957.00,4742.1601395,N,01618.1009783,E,DAAA,39,0.4,708.1598,43.2065,,*55
$GPGNS,135957.00,,,,,,08,,,,2.4,136*7B
$GLGNS,135957.00,,,,,,09,,,,,*7A
$GAGNS,135957.00,,,,,,08,,,,,*76
$GBGNS,135957.00,,,,,,14,,,,,*78
$GPLLQ,135957.00,010125,,M,,M,1,39,1.425,,M*15
$GPVTG,,T,,M,0.00,N,0.01,K,D*27
$GPHDT,,T*1B
$GPTHS,,V*0E
$GPROT,,V*08
$PSSN,HRP,135957.00,010125,,,,,,,00,0,,*6D
$PTNL,AVR,135957.00,,Yaw,,Tilt,,,,0,,00*3B
$GPGSA,A,3,06,11,12,24,25,28,29,32,,,,,0.7,0.4,0.6*33
$GPGSA,A,3,68,69,77,78,79,81,86,87,88,,,,0.7,0.4,0.6*3F
$GPGSA,A,3,02,07,15,27,29,30,34,36,,,,,0.7,0.4,0.6*39
$GPGSA,A,3,05,07,10,11,12,24,25,26,32,34,35,41,0.7,0.4,0.6*37
$GPGSA,A,3,44,60,,,,,,,,,,,0.7,0.4,0.6*31
$GPGST,135957.00,2.219,0.580,0.442,359.207,0.580,0.442,1.225*5D
$GPGBS,135957.00,3.487,2.451,7.317,77,0.0001,-5.511,6.295*7F
$GPGRS,135957.00,1,-0.8,-0.1,0.0,-0.4,-0.2,1.3,0.4,-0.1,,,,*67
$GPGRS,135957.00,1,4.8,2.2,-5.5,-1.3,2.1,2.7,-2.3,-0.4,-0.1,,,*4D
$GPGRS,135957.00,1,-0.0,-0.2,-0.9,0.1,0.1,0.1,0.6,0.1,,,,*62
$GPGRS,135957.00,1,0.8,-7.6,1.1,1.6,-0.6,-0.5,0.3,0.8,0.1,1.1,-1.1,-2.4*6E
$GPGRS,135957.00,1,0.8,-1.9,,,,,,,,,,*6F
$GPGSV,5,1,19,25,69,300,50,06,25,048,41,24,27,156,42,32,29,270,45*7A
$GPGSV,5,2,19,29,39,217,47,28,27,311,43,11,37,091,46,12,63,073,49*7A
$GPGSV,5,3,19,31,02,316,39,19,03,047,37,36,35,170,45,58,13,245,36*78
$GPGSV,5,4,19,40,23,133,36,34,31,208,43,49,34,195,45,57,04,114,38*76
$GPGSV,5,5,19,41,07,108,35,61,03,257,38*73
$GLGSV,3,1,10,78,70,350,53,68,11,250,45,69,22,298,48,79,23,304,47*6D
$GLGSV,3,2,10,87,45,047,48,77,35,102,44,88,52,153,52,86,05,022,41*68
$GLGSV,3,3,10,70,05,358,32,81,07,187,42*6F
$GAGSV,3,1,09,30,78,041,49,15,10,163,39,02,27,085,43,29,31,289,43*6C
$GAGSV,3,2,09,07,27,228,43,34,36,116,45,36,29,054,43,27,42,281,45*69
$GAGSV,3,3,09,19,10,331,34*5E
$GBGSV,6,1,21,24,66,119,51,11,17,195,41,10,18,064,38,05,20,130,38*65
$GBGSV,6,2,21,35,25,047,44,26,15,121,42,56,25,053,,31,25,092,*66
$GBGSV,6,3,21,34,39,186,48,12,59,149,48,25,55,300,50,44,61,093,51*64
$GBGSV,6,4,21,20,09,328,,32,07,323,40,23,05,299,38,07,05,062,35*65
$GBGSV,6,5,21,38,07,075,,41,06,273,39,08,06,070,,02,04,108,33*6C
$GBGSV,6,6,21,60,09,110,39*5D
$GPGGA,135957.00,,,,,0,00,,,M,,M,,*44
$PTNL,GGK,135957.00,010125,4742.1601395,N,01618.1009783,E,1,39,0.7,EHT751.3663,M*4E
$GPGGQ,135957.00,010125,4742.1601395,N,01618.1009783,E,1,39,1.425,708.1598,M*3C
$GPGFA,135957.00,5.512,10.045,0.580,0.442,359.207,1.225,,VVV*3D
$GPLLK,135957.00,010125,,M,,M,1,39,0.8,,M*05
$GNGMP,135957.00,,,,,DAAA,39,0.4,,,,*54
$GPGMP,135957.00,,,,,,08,,,,2.4,136*7B
$GLGMP,135957.00,,,,,,09,,,,,*7A
$GAGMP,135957.00,,,,,,08,,,,,*76
$GBGMP,135957.00,,,,,,14,,,,,*78
$PSSN,SNC,[0,309615000,2347]*4C
$GPZDA,140002.00,01,01,2025,,*64
$GPDTM,W84,,00.0000000,N,00.0000000,E,00.0000000,W84*5F
$PSSN,TFM,140002.00,,,,*68
$GPRMC,140002.00,A,4742.1601383,N,01618.1009819,E,0.0,,010125,5.1,E,D*17
$GPGLL,4742.1601383,N,01618.1009819,E,140002.00,A,D*66
$GPGGA,140002.00,4742.1601383,N,01618.1009819,E,2,39,0.4,708.1577,M,43.2065,M,1.9,0136*44
$GNGNS,140002.00,4742.1601383,N,01618.1009819,E,DAAA,39,0.4,708.1577,43.2065,,*54
$GPGNS,140002.00,,,,,,08,,,,1.9,136*7E
$GLGNS,140002.00,,,,,,09,,,,,*71
$GAGNS,140002.00,,,,,,08,,,,,*7D
$GBGNS,140002.00,,,,,,14,,,,,*73
$GPLLQ,140002.00,010125,,M,,M,1,39,1.423,,M*18
$GPVTG,,T,,M,0.00,N,0.01,K,D*27
$GPHDT,,T*1B
$GPTHS,,V*0E
$GPROT,,V*08
$PSSN,HRP,140002.00,010125,,,,,,,00,0,,*66
$PTNL,AVR,140002.00,,Yaw,,Tilt,,,,0,,00*30
$GPGSA,A,3,06,11,12,24,25,28,29,32,,,,,0.7,0.4,0.6*33
$GPGSA,A,3,68,69,77,78,79,81,86,87,88,,,,0.7,0.4,0.6*3F
$GPGSA,A,3,02,07,15,27,29,30,34,36,,,,,0.7,0.4,0.6*39
$GPGSA,A,3,05,07,10,11,12,24,25,26,32,34,35,41,0.7,0.4,0.6*37
$GPGSA,A,3,44,60,,,,,,,,,,,0.7,0.4,0.6*31
$GPGST,140002.00,2.213,0.579,0.439,358.642,0.579,0.439,1.224*59
$GPGBS,140002.00,3.414,2.456,7.422,77,0.0001,-6.475,6.295*78
$GPGRS,140002.00,1,-0.4,0.3,0.1,-0.4,-0.2,1.0,0.3,-0.8,,,,*43
$GPGRS,140002.00,1,4.0,2.1,-6.5,-1.2,1.7,2.8,-2.6,-0.6,0.0,,,*6E
$GPGRS,140002.00,1,0.3,-0.1,-1.0,0.5,0.1,0.1,0.9,0.1,,,,*47
$GPGRS,140002.00,1,1.2,-7.3,1.0,1.9,-0.5,-0.3,0.6,1.0,0.7,1.0,-1.3,-1.2*6C
$GPGRS,140002.00,1,0.8,-2.0,,,,,,,,,,*6E
$GPGSV,5,1,19,25,69,300,50,06,25,048,42,24,27,156,42,32,29,270,45*79
$GPGSV,5,2,19,29,39,217,47,28,27,311,43,11,37,091,46,12,63,073,49*7A
$GPGSV,5,3,19,31,02,316,38,19,03,047,37,36,35,170,45,58,13,245,36*79
$GPGSV,5,4,19,40,23,133,37,34,31,208,43,49,34,195,45,57,04,114,38*77
$GPGSV,5,5,19,41,07,108,35,61,03,257,38*73
$GLGSV,3,1,10,78,70,350,53,68,11,250,45,69,22,298,47,79,23,304,46*63
$GLGSV,3,2,10,87,45,047,48,77,35,102,43,88,52,153,52,86,05,022,41*6F
$GLGSV,3,3,10,70,05,358,34,81,07,187,42*69
$GAGSV,3,1,09,30,78,041,49,15,10,163,39,02,27,085,43,29,31,289,44*6B
$GAGSV,3,2,09,07,27,228,43,34,36,116,45,36,29,054,43,27,42,281,45*69
$GAGSV,3,3,09,19,10,331,34*5E
$GBGSV,6,1,21,24,66,120,51,11,17,195,41,10,18,064,38,05,20,130,38*6F
$GBGSV,6,2,21,35,25,047,44,26,15,121,42,56,25,053,,31,25,092,*66
$GBGSV,6,3,21,34,39,186,48,12,59,149,48,25,55,300,50,44,61,093,51*64
$GBGSV,6,4,21,20,09,328,,32,07,323,40,23,05,299,38,07,05,062,35*65
$GBGSV,6,5,21,38,07,075,,41,06,273,38,08,06,070,,02,04,108,33*6D
$GBGSV,6,6,21,60,09,110,39*5D
$GPGGA,140002.00,,,,,0,00,,,M,,M,,*4F
$PTNL,GGK,140002.00,010125,4742.1601383,N,01618.1009819,E,1,39,0.7,EHT751.3643,M*4C
$GPGGQ,140002.00,010125,4742.1601383,N,01618.1009819,E,1,39,1.423,708.1577,M*3B
$GPGFA,140002.00,5.502,10.035,0.579,0.439,358.642,1.224,,VVV*3F
$GPLLK,140002.00,010125,,M,,M,1,39,0.8,,M*0E
$GNGMP,140002.00,,,,,DAAA,39,0.4,,,,*5F
$GPGMP,140002.00,,,,,,08,,,,1.9,136*7E
$GLGMP,140002.00,,,,,,09,,,,,*71
$GAGMP,140002.00,,,,,,08,,,,,*7D
$GBGMP,140002.00,,,,,,14,,,,,*73
$PSSN,SNC,[0,309620000,2347]*4A
$GPZDA,140007.00,01,01,2025,,*61
$GPDTM,W84,,00.0000000,N,00.0000000,E,00.0000000,W84*5F
$PSSN,TFM,140007.00,,,,*6D
$GPRMC,140007.00,A,4742.1601382,N,01618.1009825,E,0.0,,010125,5.1,E,D*1C
$GPGLL,4742.1601382,N,01618.1009825,E,140007.00,A,D*6D
$GPGGA,140007.00,4742.1601382,N,01618.1009825,E,2,39,0.4,708.1595,M,43.2065,M,2.9,0136*40
$GNGNS,140007.00,4742.1601382,N,01618.1009825,E,DAAA,39,0.4,708.1595,43.2065,,*53
$GPGNS,140007.00,,,,,,08,,,,2.9,136*78
$GLGNS,140007.00,,,,,,09,,,,,*74
$GAGNS,140007.00,,,,,,08,,,,,*78
$GBGNS,140007.00,,,,,,14,,,,,*76
$GPLLQ,140007.00,010125,,M,,M,1,39,1.430,,M*1F
$GPVTG,,T,,M,0.00,N,0.00,K,D*26
$GPHDT,,T*1B
$GPTHS,,V*0E
$GPROT,,V*08
$PSSN,HRP,140007.00,010125,,,,,,,00,0,,*63
$PTNL,AVR,140007.00,,Yaw,,Tilt,,,,0,,00*35
$GPGSA,A,3,06,11,12,24,25,28,29,32,,,,,0.7,0.4,0.6*33
$GPGSA,A,3,68,69,77,78,79,81,86,87,88,,,,0.7,0.4,0.6*3F
$GPGSA,A,3,02,07,15,27,29,30,34,36,,,,,0.7,0.4,0.6*39
$GPGSA,A,3,05,07,10,11,12,24,25,26,32,34,35,41,0.7,0.4,0.6*37
$GPGSA,A,3,44,60,,,,,,,,,,,0.7,0.4,0.6*31
$GPGST,140007.00,2.079,0.578,0.440,358.359,0.578,0.440,1.231*59
$GPGBS,140007.00,3.437,2.475,7.503,77,0.0001,-6.030,6.296*79
$GPGRS,140007.00,1,-0.6,0.4,0.3,-0.4,-0.2,0.9,0.1,-0.6,,,,*45
$GPGRS,140007.00,1,3.3,1.7,-6.0,-1.3,1.3,2.5,-2.0,-0.6,0.2,,,*63
$GPGRS,140007.00,1,0.3,-0.2,-0.7,0.0,-0.3,0.1,1.0,0.3,,,,*67
$GPGRS,140007.00,1,1.3,-7.1,0.7,2.4,-0.8,-0.5,0.6,0.8,0.6,0.9,-1.2,-2.1*68
$GPGRS,140007.00,1,0.9,-1.6,,,,,,,,,,*6F
$GPGSV,5,1,19,25,69,300,50,06,25,048,42,24,27,156,41,32,29,270,45*7A
$GPGSV,5,2,19,29,39,217,47,28,27,311,43,11,37,091,46,12,63,073,49*7A
$GPGSV,5,3,19,31,02,316,36,19,03,047,36,36,35,170,45,58,13,245,36*76
$GPGSV,5,4,19,40,23,133,36,34,31,208,43,49,34,195,45,57,04,114,38*76
$GPGSV,5,5,19,41,07,108,35,61,03,257,38*73
$GLGSV,3,1,10,78,70,350,52,68,11,250,43,69,22,298,47,79,23,304,46*64
$GLGSV,3,2,10,87,45,047,48,77,35,102,43,88,52,153,52,86,05,022,41*6F
$GLGSV,3,3,10,70,05,358,33,81,07,187,42*6E
$GAGSV,3,1,09,30,78,041,49,15,10,163,39,02,27,085,43,29,31,289,43*6C
$GAGSV,3,2,09,07,27,228,42,34,36,116,45,36,29,054,43,27,42,281,45*68
$GAGSV,3,3,09,19,10,331,33*59
$GBGSV,6,1,21,24,66,120,51,11,17,195,41,10,18,064,38,05,20,130,38*6F
$GBGSV,6,2,21,35,25,047,44,26,15,121,42,56,25,053,,31,25,092,*66
$GBGSV,6,3,21,34,39,186,47,12,59,149,48,25,55,300,50,44,61,093,51*6B
$GBGSV,6,4,21,20,09,328,,32,07,323,41,23,05,299,39,07,05,062,36*66
$GBGSV,6,5,21,38,07,075,,41,06,273,39,08,06,070,,02,04,108,33*6C
$GBGSV,6,6,21,60,09,110,39*5D
$GPGGA,140007.00,,,,,0,00,,,M,,M,,*4A
$PTNL,GGK,140007.00,010125,4742.1601382,N,01618.1009825,E,1,39,0.7,EHT751.3661,M*47
$GPGGQ,140007.00,010125,4742.1601382,N,01618.1009825,E,1,39,1.430,708.1595,M*3E
$GPGFA,140007.00,5.498,10.097,0.578,0.440,358.359,1.231,,VVV*34
$GPLLK,140007.00,010125,,M,,M,1,39,0.8,,M*0B
$GNGMP,140007.00,,,,,DAAA,39,0.4,,,,*5A
$GPGMP,140007.00,,,,,,08,,,,2.9,136*78
$GLGMP,140007.00,,,,,,09,,,,,*74
$GAGMP,140007.00,,,,,,08,,,,,*78
$GBGMP,140007.00,,,,,,14,,,,,*76
$PSSN,SNC,[0,309625000,2347]*4F
$GPZDA,140012.00,01,01,2025,,*65
$GPDTM,W84,,00.0000000,N,00.0000000,E,00.0000000,W84*5F
$PSSN,TFM,140012.00,,,,*69
$GPRMC,140012.00,A,4742.1601374,N,01618.1009834,E,0.0,,010125,5.1,E,D*11
$GPGLL,4742.1601374,N,01618.1009834,E,140012.00,A,D*60
$GPGGA,140012.00,4742.1601374,N,01618.1009834,E,2,39,0.4,708.1623,M,43.2065,M,2.9,0136*43
$GNGNS,140012.00,4742.1601374,N,01618.1009834,E,DAAA,39,0.4,708.1623,43.2065,,*50
$GPGNS,140012.00,,,,,,08,,,,2.9,136*7C
$GLGNS,140012.00,,,,,,09,,,,,*70
$GAGNS,140012.00,,,,,,08,,,,,*7C
$GBGNS,140012.00,,,,,,14,,,,,*72
$GPLLQ,140012.00,010125,,M,,M,1,39,1.424,,M*1E
$GPVTG,,T,,M,0.00,N,0.00,K,D*26
$GPHDT,,T*1B
$GPTHS,,V*0E
$GPROT,,V*08
$PSSN,HRP,140012.00,010125,,,,,,,00,0,,*67
$PTNL,AVR,140012.00,,Yaw,,Tilt,,,,0,,00*31
$GPGSA,A,3,06,11,12,24,25,28,29,32,,,,,0.7,0.4,0.6*33
$GPGSA,A,3,68,69,77,78,79,81,86,87,88,,,,0.7,0.4,0.6*3F
$GPGSA,A,3,02,07,15,27,29,30,34,36,,,,,0.7,0.4,0.6*39
$GPGSA,A,3,05,07,10,11,12,24,25,26,32,34,35,41,0.7,0.4,0.6*37
$GPGSA,A,3,44,60,,,,,,,,,,,0.7,0.4,0.6*31
$GPGST,140012.00,2.054,0.574,0.441,358.691,0.574,0.441,1.227*54
$GPGBS,140012.00,3.428,2.412,7.427,77,0.0001,-5.701,6.295*70
$GPGRS,140012.00,1,-0.3,0.4,0.1,-0.7,-0.2,0.9,0.4,-0.4,,,,*42
$GPGRS,140012.00,1,3.9,2.2,-5.7,-1.1,1.6,2.3,-0.6,-0.5,0.6,,,*6D
$GPGRS,140012.00,1,0.2,-0.0,-0.8,-0.2,-0.3,0.2,0.8,-0.2,,,,*66
$GPGRS,140012.00,1,1.3,-7.1,0.9,1.8,-1.1,-0.3,0.4,0.5,1.1,1.2,-0.9,-1.8*60
$GPGRS,140012.00,1,1.0,-1.9,,,,,,,,,,*6C
$GPGSV,5,1,19,25,69,300,50,06,25,048,42,24,27,156,42,32,29,270,46*7A
$GPGSV,5,2,19,29,39,217,47,28,27,311,43,11,37,091,45,12,63,073,49*79
$GPGSV,5,3,19,31,02,316,38,19,03,047,36,36,35,170,46,58,13,245,36*7B
$GPGSV,5,4,19,40,23,133,36,34,31,208,43,49,34,195,45,57,04,114,38*76
$GPGSV,5,5,19,41,07,108,35,61,03,257,38*73
$GLGSV,3,1,10,78,70,350,52,68,10,250,43,69,22,298,46,79,23,304,47*65
$GLGSV,3,2,10,87,45,047,47,77,35,102,44,88,52,153,52,86,05,022,42*64
$GLGSV,3,3,10,70,05,358,33,81,07,187,42*6E
$GAGSV,3,1,09,30,78,041,49,19,10,331,34,02,27,085,43,15,10,163,39*6E
$GAGSV,3,2,09,36,29,053,43,29,31,289,43,07,27,227,43,34,36,116,45*65
$GAGSV,3,3,09,27,42,281,45*58
$GBGSV,6,1,21,24,66,120,51,11,17,195,41,10,18,064,39,05,20,130,38*6E
$GBGSV,6,2,21,35,25,047,44,26,15,121,42,56,25,053,,31,25,092,*66
$GBGSV,6,3,21,34,39,186,48,12,59,149,48,25,55,300,50,44,61,093,51*64
$GBGSV,6,4,21,20,09,328,,32,07,323,40,23,05,300,39,07,05,062,36*66
$GBGSV,6,5,21,38,07,075,,41,06,273,39,08,06,070,,02,04,108,33*6C
$GBGSV,6,6,21,60,09,110,39*5D
$GPGGA,140012.00,,,,,0,00,,,M,,M,,*4E
$PTNL,GGK,140012.00,010125,4742.1601374,N,01618.1009834,E,1,39,0.7,EHT751.3689,M*4C
$GPGGQ,140012.00,010125,4742.1601374,N,01618.1009834,E,1,39,1.424,708.1623,M*38
$GPGFA,140012.00,5.455,10.058,0.574,0.441,358.691,1.227,,VVV*39
$GPLLK,140012.00,010125,,M,,M,1,39,0.8,,M*0F
$GNGMP,140012.00,,,,,DAAA,39,0.4,,,,*5E
$GPGMP,140012.00,,,,,,08,,,,2.9,136*7C
$GLGMP,140012.00,,,,,,09,,,,,*70
$GAGMP,140012.00,,,,,,08,,,,,*7C
$GBGMP,140012.00,,,,,,14,,,,,*72
$PSSN,SNC,[0,309630000,2347]*4B
$GPZDA,140017.00,01,01,2025,,*60
$GPDTM,W84,,00.0000000,N,00.0000000,E,00.0000000,W84*5F
$PSSN,TFM,140017.00,,,,*6C
$GPRMC,140017.00,A,4742.1601371,N,01618.1009878,E,0.0,,010125,5.1,E,D*19
$GPGLL,4742.1601371,N,01618.1009878,E,140017.00,A,D*68
$GPGGA,140017.00,4742.1601371,N,01618.1009878,E,2,39,0.4,708.1555,M,43.2065,M,2.4,0136*44
$GNGNS,140017.00,4742.1601371,N,01618.1009878,E,DAAA,39,0.4,708.1555,43.2065,,*5A
$GPGNS,140017.00,,,,,,08,,,,2.4,136*74
$GLGNS,140017.00,,,,,,09,,,,,*75
$GAGNS,140017.00,,,,,,08,,,,,*79
$GBGNS,140017.00,,,,,,14,,,,,*77
$GPLLQ,140017.00,010125,,M,,M,1,39,1.412,,M*1E
$GPVTG,,T,,M,0.00,N,0.00,K,D*26
$GPHDT,,T*1B
$GPTHS,,V*0E
$GPROT,,V*08
$PSSN,HRP,140017.00,010125,,,,,,,00,0,,*62
$PTNL,AVR,140017.00,,Yaw,,Tilt,,,,0,,00*34
$GPGSA,A,3,06,11,12,24,25,28,29,32,,,,,0.7,0.4,0.6*33
$GPGSA,A,3,68,69,77,78,79,81,86,87,88,,,,0.7,0.4,0.6*3F
$GPGSA,A,3,02,07,15,27,29,30,34,36,,,,,0.7,0.4,0.6*39
$GPGSA,A,3,05,07,10,11,12,24,25,26,32,34,35,41,0.7,0.4,0.6*37
$GPGSA,A,3,44,60,,,,,,,,,,,0.7,0.4,0.6*31
$GPGST,140017.00,2.149,0.569,0.440,359.509,0.569,0.440,1.215*5E
$GPGBS,140017.00,3.471,2.399,7.247,68,0.0001,5.733,6.860*5F
$GPGRS,140017.00,1,-0.9,0.4,0.0,-0.2,-0.2,0.8,0.5,-0.3,,,,*4E
$GPGRS,140017.00,1,5.7,1.7,-5.1,-1.2,1.5,2.7,0.1,-0.7,0.3,,,*49
$GPGRS,140017.00,1,0.4,0.1,-0.7,-0.2,-0.1,0.2,0.6,-0.2,,,,*4A
$GPGRS,140017.00,1,1.1,-7.4,1.1,2.0,0.8,0.0,-0.0,-0.1,0.6,1.3,-0.9,-1.5*61
$GPGRS,140017.00,1,0.4,-1.9,,,,,,,,,,*6C
$GPGSV,5,1,19,25,69,300,49,06,25,048,42,24,27,156,43,32,29,270,45*70
$GPGSV,5,2,19,29,39,217,47,28,27,311,43,11,37,091,46,12,62,073,49*7B
$GPGSV,5,3,19,31,02,316,40,19,03,047,37,36,35,170,46,58,13,245,36*75
$GPGSV,5,4,19,40,23,133,37,34,31,208,43,49,34,195,45,57,04,114,38*77
$GPGSV,5,5,19,41,07,108,35,61,03,257,38*73
$GLGSV,3,1,10,78,70,351,52,68,10,250,44,69,22,298,47,79,23,305,46*62
$GLGSV,3,2,10,87,45,047,48,77,35,102,43,88,52,153,52,86,05,022,41*6F
$GLGSV,3,3,10,70,05,358,32,81,07,187,42*6F
$GAGSV,3,1,09,30,78,041,49,19,10,331,35,02,27,085,43,15,10,163,39*6F
$GAGSV,3,2,09,36,29,053,43,29,31,289,43,07,27,227,43,34,36,116,45*65
$GAGSV,3,3,09,27,42,281,45*58
$GBGSV,6,1,21,24,66,120,51,11,17,195,40,10,18,064,38,05,20,130,38*6E
$GBGSV,6,2,21,35,24,047,44,26,15,121,42,56,25,053,,31,25,092,*67
$GBGSV,6,3,21,34,39,186,48,12,59,149,48,25,55,300,50,44,61,093,51*64
$GBGSV,6,4,21,20,09,328,,32,07,323,39,23,05,300,38,07,05,062,36*69
$GBGSV,6,5,21,38,07,075,,41,06,273,40,08,06,070,,02,04,108,33*62
$GBGSV,6,6,21,60,09,110,39*5D
$GPGGA,140017.00,,,,,0,00,,,M,,M,,*4B
$PTNL,GGK,140017.00,010125,4742.1601371,N,01618.1009878,E,1,39,0.7,EHT751.3620,M*47
$GPGGQ,140017.00,010125,4742.1601371,N,01618.1009878,E,1,39,1.412,708.1555,M*37
$GPGFA,140017.00,5.411,9.962,0.569,0.440,359.509,1.215,,VVV*0B
$GPLLK,140017.00,010125,,M,,M,1,39,0.8,,M*0A
$GNGMP,140017.00,,,,,DAAA,39,0.4,,,,*5B
$GPGMP,140017.00,,,,,,08,,,,2.4,136*74
$GLGMP,140017.00,,,,,,09,,,,,*75
$GAGMP,140017.00,,,,,,08,,,,,*79
$GBGMP,140017.00,,,,,,14,,,,,*77
$PSSN,SNC,[0,309635000,2347]*4E
$GPZDA,140022.00,01,01,2025,,*66
$GPDTM,W84,,00.0000000,N,00.0000000,E,00.0000000,W84*5F
$PSSN,TFM,140022.00,,,,*6A
$GPRMC,140022.00,A,4742.1601378,N,01618.1009885,E,0.0,,010125,5.1,E,D*14
$GPGLL,4742.1601378,N,01618.1009885,E,140022.00,A,D*65
$GPGGA,140022.00,4742.1601378,N,01618.1009885,E,2,38,0.4,708.1600,M,43.2065,M,1.9,0136*45
$GNGNS,140022.00,4742.1601378,N,01618.1009885,E,DAAA,38,0.4,708.1600,43.2065,,*55
$GPGNS,140022.00,,,,,,08,,,,1.9,136*7C
$GLGNS,140022.00,,,,,,08,,,,,*72
$GAGNS,140022.00,,,,,,08,,,,,*7F
$GBGNS,140022.00,,,,,,14,,,,,*71
$GPLLQ,140022.00,010125,,M,,M,1,38,1.414,,M*1F
$GPVTG,,T,,M,0.00,N,0.01,K,D*27
$GPHDT,,T*1B
$GPTHS,,V*0E
$GPROT,,V*08
$PSSN,HRP,140022.00,010125,,,,,,,00,0,,*64
$PTNL,AVR,140022.00,,Yaw,,Tilt,,,,0,,00*32
$GPGSA,A,3,06,11,12,24,25,28,29,32,,,,,0.7,0.4,0.6*33
$GPGSA,A,3,68,69,77,78,79,81,87,88,,,,,0.7,0.4,0.6*31
$GPGSA,A,3,02,07,15,27,29,30,34,36,,,,,0.7,0.4,0.6*39
$GPGSA,A,3,05,07,10,11,12,24,25,26,32,34,35,41,0.7,0.4,0.6*37
$GPGSA,A,3,44,60,,,,,,,,,,,0.7,0.4,0.6*31
$GPGST,140022.00,2.199,0.570,0.437,359.194,0.570,0.437,1.218*58
$GPGBS,140022.00,3.418,2.410,7.442,77,0.0001,-5.762,6.296*77
$GPGRS,140022.00,1,-0.9,0.6,0.0,0.2,-0.3,0.9,0.3,-0.9,,,,*6B
$GPGRS,140022.00,1,5.5,2.4,-5.8,-1.4,1.3,2.9,-0.6,0.1,,,,*66
$GPGRS,140022.00,1,0.1,-0.3,-0.6,0.2,-0.2,0.2,0.5,-0.3,,,,*4B
$GPGRS,140022.00,1,0.9,-6.8,1.7,2.0,1.1,-0.1,-0.1,0.0,-0.2,1.2,-1.4,-1.4*49
$GPGRS,140022.00,1,0.3,-1.8,,,,,,,,,,*6C
$GPGSV,5,1,19,25,69,300,49,06,25,048,42,24,27,156,42,32,29,270,45*71
$GPGSV,5,2,19,29,39,217,47,28,27,311,43,11,37,090,45,12,62,073,49*79
$GPGSV,5,3,19,31,02,316,39,19,03,047,37,36,35,170,46,58,13,245,36*7B
$GPGSV,5,4,19,40,23,133,37,34,31,208,43,49,34,195,45,57,04,114,38*77
$GPGSV,5,5,19,41,07,108,35,61,03,257,38*73
$GLGSV,3,1,10,78,70,351,52,68,10,250,45,69,22,298,46,79,23,305,46*62
$GLGSV,3,2,10,87,45,047,48,77,35,102,44,88,52,153,52,86,05,022,40*69
$GLGSV,3,3,10,70,06,358,32,81,07,187,42*6C
$GAGSV,3,1,09,30,78,042,49,19,10,331,35,02,27,085,43,15,10,163,39*6C
$GAGSV,3,2,09,36,29,053,43,29,31,289,44,07,27,227,43,34,36,116,45*62
$GAGSV,3,3,09,27,42,281,45*58
$GBGSV,6,1,21,24,66,120,51,11,17,195,40,10,18,064,38,05,20,130,38*6E
$GBGSV,6,2,21,35,24,047,44,26,15,121,42,56,25,053,,31,25,092,*67
$GBGSV,6,3,21,34,40,186,48,12,59,149,48,25,55,300,50,44,61,093,51*6A
$GBGSV,6,4,21,20,09,328,,32,07,323,40,23,05,300,38,07,05,062,36*67
$GBGSV,6,5,21,38,07,075,,41,06,273,39,08,06,070,,02,04,108,33*6C
$GBGSV,6,6,21,60,09,110,39*5D
$GPGGA,140022.00,,,,,0,00,,,M,,M,,*4D
$PTNL,GGK,140022.00,010125,4742.1601378,N,01618.1009885,E,1,38,0.7,EHT751.3665,M*4A
$GPGGQ,140022.00,010125,4742.1601378,N,01618.1009885,E,1,38,1.414,708.1600,M*3E
$GPGFA,140022.00,5.421,9.989,0.570,0.437,359.194,1.218,,VVV*0E
$GPLLK,140022.00,010125,,M,,M,1,38,0.8,,M*0D
$GNGMP,140022.00,,,,,DAAA,38,0.4,,,,*5C
$GPGMP,140022.00,,,,,,08,,,,1.9,136*7C
$GLGMP,140022.00,,,,,,08,,,,,*72
$GAGMP,140022.00,,,,,,08,,,,,*7F
$GBGMP,140022.00,,,,,,14,,,,,*71
$PSSN,SNC,[0,309640000,2347]*4C
$GPZDA,140027.00,01,01,2025,,*63
$GPDTM,W84,,00.0000000,N,00.0000000,E,00.0000000,W84*5F
$PSSN,TFM,140027.00,,,,*6F
$GPRMC,140027.00,A,4742.1601390,N,01618.1009888,E,0.0,,010125,5.1,E,D*1A
$GPGLL,4742.1601390,N,01618.1009888,E,140027.00,A,D*6B
$GPGGA,140027.00,4742.1601390,N,01618.1009888,E,2,38,0.4,708.1624,M,43.2065,M,2.9,0136*4E
$GNGNS,140027.00,4742.1601390,N,01618.1009888,E,DAAA,38,0.4,708.1624,43.2065,,*5D
$GPGNS,140027.00,,,,,,08,,,,2.9,136*7A
$GLGNS,140027.00,,,,,,08,,,,,*77
$GAGNS,140027.00,,,,,,08,,,,,*7A
$GBGNS,140027.00,,,,,,14,,,,,*74
$GPLLQ,140027.00,010125,,M,,M,1,38,1.426,,M*1B
$GPVTG,,T,,M,0.00,N,0.00,K,D*26
$GPHDT,,T*1B
$GPTHS,,V*0E
$GPROT,,V*08
$PSSN,HRP,140027.00,010125,,,,,,,00,0,,*61
$PTNL,AVR,140027.00,,Yaw,,Tilt,,,,0,,00*37
$GPGSA,A,3,06,11,12,24,25,28,29,32,,,,,0.7,0.4,0.6*33
$GPGSA,A,3,68,69,77,78,79,81,87,88,,,,,0.7,0.4,0.6*31
$GPGSA,A,3,02,07,15,27,29,30,34,36,,,,,0.7,0.4,0.6*39
$GPGSA,A,3,05,07,10,11,12,24,25,26,32,34,35,41,0.7,0.4,0.6*37
$GPGSA,A,3,44,60,,,,,,,,,,,0.7,0.4,0.6*31
$GPGST,140027.00,2.106,0.572,0.438,359.232,0.572,0.438,1.231*5F
$GPGBS,140027.00,3.442,2.427,7.524,77,0.0001,-5.272,6.296*7C
$GPGRS,140027.00,1,-0.9,0.3,0.2,-0.4,-0.0,0.8,0.2,-0.6,,,,*4E
$GPGRS,140027.00,1,4.6,2.0,-5.3,-1.5,1.7,3.2,-0.6,0.2,,,,*62
$GPGRS,140027.00,1,0.2,-0.2,-0.7,0.2,-0.0,0.3,0.7,-0.1,,,,*4E
$GPGRS,140027.00,1,1.0,-6.7,1.8,1.7,1.1,-0.1,0.3,0.0,-0.4,1.1,-1.3,-2.1*6B
$GPGRS,140027.00,1,0.6,-2.0,,,,,,,,,,*67
$GPGSV,5,1,19,25,69,300,49,06,25,048,42,24,27,156,42,32,29,270,44*70
$GPGSV,5,2,19,29,39,217,47,28,27,311,43,11,37,090,45,12,62,073,49*79
$GPGSV,5,3,19,31,02,316,38,19,03,047,37,36,35,170,45,58,13,245,36*79
$GPGSV,5,4,19,40,23,133,37,34,31,208,43,49,34,195,45,57,04,114,38*77
$GPGSV,5,5,19,41,07,108,35,61,03,257,38*73
$GLGSV,3,1,10,78,70,351,52,68,10,250,44,69,22,298,47,79,23,305,45*61
$GLGSV,3,2,10,87,45,047,47,77,35,102,44,88,52,153,52,86,05,022,40*66
$GLGSV,3,3,10,70,06,358,32,81,07,187,42*6C
$GAGSV,3,1,09,30,78,042,49,19,10,331,34,02,27,085,43,15,10,163,39*6D
$GAGSV,3,2,09,36,29,053,43,29,31,289,43,07,27,227,43,34,36,116,45*65
$GAGSV,3,3,09,27,42,281,45*58
$GBGSV,6,1,21,24,66,120,51,11,17,195,41,10,18,064,38,05,20,130,38*6F
$GBGSV,6,2,21,35,24,047,44,26,15,121,42,56,25,053,,31,25,092,*67
$GBGSV,6,3,21,34,40,186,48,12,59,149,48,25,55,300,49,44,61,093,51*62
$GBGSV,6,4,21,20,09,328,,32,07,323,40,23,05,300,38,07,05,062,35*64
$GBGSV,6,5,21,38,07,075,,41,06,273,39,08,06,070,,02,04,108,33*6C
$GBGSV,6,6,21,60,09,110,39*5D
$GPGGA,140027.00,,,,,0,00,,,M,,M,,*48
$PTNL,GGK,140027.00,010125,4742.1601390,N,01618.1009888,E,1,38,0.7,EHT751.3689,M*46
$GPGGQ,140027.00,010125,4742.1601390,N,01618.1009888,E,1,38,1.426,708.1624,M*37
$GPGFA,140027.00,5.439,10.093,0.572,0.438,359.232,1.231,,VVV*31
$GPLLK,140027.00,010125,,M,,M,1,38,0.8,,M*08
$GNGMP,140027.00,,,,,DAAA,38,0.4,,,,*59
$GPGMP,140027.00,,,,,,08,,,,2.9,136*7A
$GLGMP,140027.00,,,,,,08,,,,,*77
$GAGMP,140027.00,,,,,,08,,,,,*7A
$GBGMP,140027.00,,,,,,14,,,,,*74
$PSSN,SNC,[0,309645000,2347]*49
$GPZDA,140032.00,01,01,2025,,*67
$GPDTM,W84,,00.0000000,N,00.0000000,E,00.0000000,W84*5F
$PSSN,TFM,140032.00,,,,*6B
$GPRMC,140032.00,A,4742.1601387,N,01618.1009921,E,0.0,,010125,5.1,E,D*1A
$GPGLL,4742.1601387,N,01618.1009921,E,140032.00,A,D*6B
$GPGGA,140032.00,4742.1601387,N,01618.1009921,E,2,38,0.4,708.1589,M,43.2065,M,2.9,0136*4A
$GNGNS,140032.00,4742.1601387,N,01618.1009921,E,DAAA,38,0.4,708.1589,43.2065,,*59
$GPGNS,140032.00,,,,,,08,,,,2.9,136*7E
$GLGNS,140032.00,,,,,,08,,,,,*73
$GAGNS,140032.00,,,,,,08,,,,,*7E
$GBGNS,140032.00,,,,,,14,,,,,*70
$GPLLQ,140032.00,010125,,M,,M,1,38,1.430,,M*18
$GPVTG,,T,,M,0.01,N,0.01,K,D*26
$GPHDT,,T*1B
$GPTHS,,V*0E
$GPROT,,V*08
$PSSN,HRP,140032.00,010125,,,,,,,00,0,,*65
$PTNL,AVR,140032.00,,Yaw,,Tilt,,,,0,,00*33
$GPGSA,A,3,06,11,12,24,25,28,29,32,,,,,0.7,0.4,0.6*33
$GPGSA,A,3,68,69,77,78,79,81,87,88,,,,,0.7,0.4,0.6*31
$GPGSA,A,3,02,07,15,27,29,30,34,36,,,,,0.7,0.4,0.6*39
$GPGSA,A,3,05,07,10,11,12,24,25,26,32,34,35,41,0.7,0.4,0.6*37
$GPGSA,A,3,44,60,,,,,,,,,,,0.7,0.4,0.6*31
$GPGST,140032.00,2.176,0.574,0.441,359.761,0.574,0.441,1.233*5D
$GPGBS,140032.00,3.442,2.419,7.530,24,0.0001,-0.957,1.044*75
$GPGRS,140032.00,1,-0.9,0.3,0.2,-1.0,-0.0,1.0,0.2,-0.3,,,,*43
$GPGRS,140032.00,1,4.6,2.2,-5.4,-0.9,1.7,2.9,-0.7,0.8,,,,*6F
$GPGRS,140032.00,1,-0.1,-0.0,-0.7,0.2,0.1,0.3,0.8,-0.3,,,,*47
$GPGRS,140032.00,1,0.6,-7.4,1.2,2.4,1.0,-0.0,0.4,0.2,-0.1,0.7,-1.0,-2.0*65
$GPGRS,140032.00,1,0.5,-2.1,,,,,,,,,,*61
$GPGSV,5,1,19,25,69,300,49,06,25,048,42,24,26,156,41,32,29,270,46*70
$GPGSV,5,2,19,29,39,217,46,28,27,311,43,11,37,090,45,12,62,073,49*78
$GPGSV,5,3,19,31,02,316,37,19,03,047,37,36,35,170,45,58,13,245,36*76
$GPGSV,5,4,19,40,23,133,37,34,31,208,43,49,34,195,45,57,04,114,38*77
$GPGSV,5,5,19,41,07,108,35,61,03,257,38*73
$GLGSV,3,1,10,78,70,351,52,68,10,250,46,69,22,298,46,79,23,305,47*60
$GLGSV,3,2,10,87,45,047,47,77,35,102,44,88,53,153,52,86,05,022,40*67
$GLGSV,3,3,10,70,06,358,32,81,07,187,42*6C
$GAGSV,3,1,09,30,78,042,49,19,10,331,34,02,27,085,43,15,11,163,39*6C
$GAGSV,3,2,09,36,29,053,43,29,31,289,43,07,27,227,43,34,36,116,45*65
$GAGSV,3,3,09,27,42,281,45*58
$GBGSV,6,1,21,24,66,120,51,11,17,195,41,10,18,064,38,05,20,130,38*6F
$GBGSV,6,2,21,35,24,047,44,26,15,121,42,56,25,053,,31,25,092,*67
$GBGSV,6,3,21,34,40,186,48,12,60,149,48,25,55,300,50,44,61,093,51*60
$GBGSV,6,4,21,20,09,328,,32,07,323,40,23,05,300,38,07,05,062,36*67
$GBGSV,6,5,21,38,07,075,,41,06,273,38,08,06,070,,02,04,108,33*6D
$GBGSV,6,6,21,60,09,110,39*5D
$GPGGA,140032.00,,,,,0,00,,,M,,M,,*4C
$PTNL,GGK,140032.00,010125,4742.1601387,N,01618.1009921,E,1,38,0.7,EHT751.3654,M*46
$GPGGQ,140032.00,010125,4742.1601387,N,01618.1009921,E,1,38,1.430,708.1589,M*34
$GPGFA,140032.00,5.458,10.111,0.574,0.441,359.761,1.233,,VVV*30
$GPLLK,140032.00,010125,,M,,M,1,38,0.8,,M*0C
$GNGMP,140032.00,,,,,DAAA,38,0.4,,,,*5D
$GPGMP,140032.00,,,,,,08,,,,2.9,136*7E
$GLGMP,140032.00,,,,,,08,,,,,*73
$GAGMP,140032.00,,,,,,08,,,,,*7E
$GBGMP,140032.00,,,,,,14,,,,,*70
$PSSN,SNC,[0,309650000,2347]*4D
$GPZDA,140037.00,01,01,2025,,*62
$GPDTM,W84,,00.0000000,N,00.0000000,E,00.0000000,W84*5F
$PSSN,TFM,140037.00,,,,*6E
$GPRMC,140037.00,A,4742.1601339,N,01618.1009969,E,0.0,,010125,5.1,E,D*16
$GPGLL,4742.1601339,N,01618.1009969,E,140037.00,A,D*67
$GPGGA,140037.00,4742.1601339,N,01618.1009969,E,2,38,0.4,708.1537,M,43.2065,M,2.4,0136*4E
$GNGNS,140037.00,4742.1601339,N,01618.1009969,E,DAAA,38,0.4,708.1537,43.2065,,*50
$GPGNS,140037.00,,,,,,08,,,,2.4,136*76
$GLGNS,140037.00,,,,,,08,,,,,*76
$GAGNS,140037.00,,,,,,08,,,,,*7B
$GBGNS,140037.00,,,,,,14,,,,,*75
$GPLLQ,140037.00,010125,,M,,M,1,38,1.421,,M*1D
$GPVTG,,T,,M,0.00,N,0.00,K,D*26
$GPHDT,,T*1B
$GPTHS,,V*0E
$GPROT,,V*08
$PSSN,HRP,140037.00,010125,,,,,,,00,0,,*60
$PTNL,AVR,140037.00,,Yaw,,Tilt,,,,0,,00*36
$GPGSA,A,3,06,11,12,24,25,28,29,32,,,,,0.7,0.4,0.6*33
$GPGSA,A,3,68,69,77,78,79,81,87,88,,,,,0.7,0.4,0.6*31
$GPGSA,A,3,02,07,15,27,29,30,34,36,,,,,0.7,0.4,0.6*39
$GPGSA,A,3,05,07,10,11,12,24,25,26,32,34,35,41,0.7,0.4,0.6*37
$GPGSA,A,3,44,60,,,,,,,,,,,0.7,0.4,0.6*31
$GPGST,140037.00,2.424,0.574,0.440,359.846,0.574,0.440,1.223*51
$GPGBS,140037.00,3.486,2.405,7.352,24,0.0001,-1.104,1.054*79
$GPGRS,140037.00,1,-0.7,0.5,0.0,-1.1,0.1,1.1,0.3,-0.2,,,,*60
$GPGRS,140037.00,1,5.6,2.3,-6.2,-1.4,1.8,3.0,-0.9,0.2,,,,*60
$GPGRS,140037.00,1,-0.1,-0.3,-0.8,0.1,0.4,0.3,0.9,-0.3,,,,*49
$GPGRS,140037.00,1,0.6,-8.3,0.5,2.3,1.0,-0.0,0.5,-0.0,-0.8,0.9,-1.2,-2.1*43
$GPGRS,140037.00,1,0.3,-2.0,,,,,,,,,,*63
$GPGSV,5,1,19,25,69,300,49,06,25,048,42,24,26,156,42,32,29,270,45*70
$GPGSV,5,2,19,29,39,217,47,28,27,311,43,11,37,090,45,12,62,073,49*79
$GPGSV,5,3,19,31,02,316,37,19,03,047,37,36,35,170,45,58,13,245,36*76
$GPGSV,5,4,19,40,23,133,37,34,31,208,43,49,34,195,45,57,04,114,38*77
$GPGSV,5,5,19,41,07,108,35,61,03,257,38*73
$GLGSV,3,1,10,78,70,351,52,68,10,250,45,69,22,298,47,79,23,305,47*62
$GLGSV,3,2,10,87,45,047,48,77,35,102,43,88,53,153,52,86,05,022,40*6F
$GLGSV,3,3,10,70,06,358,32,81,08,187,42*63
$GAGSV,3,1,09,30,78,042,49,19,10,331,34,02,27,085,42,15,11,163,39*6D
$GAGSV,3,2,09,36,29,053,43,29,31,289,43,07,27,227,42,34,36,116,45*64
$GAGSV,3,3,09,27,42,281,45*58
$GBGSV,6,1,21,24,66,120,51,11,17,195,41,10,18,064,38,05,20,130,38*6F
$GBGSV,6,2,21,35,24,047,43,26,15,121,42,56,25,053,,31,25,092,*60
$GBGSV,6,3,21,34,40,186,48,12,60,149,48,25,55,300,50,44,61,093,51*60
$GBGSV,6,4,21,20,09,328,,32,07,323,40,23,05,300,38,07,05,062,36*67
$GBGSV,6,5,21,38,07,075,,41,06,273,39,08,06,070,,02,04,108,33*6C
$GBGSV,6,6,21,60,09,110,39*5D
$GPGGA,140037.00,,,,,0,00,,,M,,M,,*49
$PTNL,GGK,140037.00,010125,4742.1601339,N,01618.1009969,E,1,38,0.7,EHT751.3603,M*48
$GPGGQ,140037.00,010125,4742.1601339,N,01618.1009969,E,1,38,1.421,708.1537,M*3D
$GPGFA,140037.00,5.456,10.032,0.574,0.440,359.846,1.223,,VVV*31
$GPLLK,140037.00,010125,,M,,M,1,38,0.8,,M*09
$GNGMP,140037.00,,,,,DAAA,38,0.4,,,,*58
$GPGMP,140037.00,,,,,,08,,,,2.4,136*76
$GLGMP,140037.00,,,,,,08,,,,,*76
$GAGMP,140037.00,,,,,,08,,,,,*7B
$GBGMP,140037.00,,,,,,14,,,,,*75
$PSSN,SNC,[0,309655000,2347]*48
$GPZDA,140042.00,01,01,2025,,*60
$GPDTM,W84,,00.0000000,N,00.0000000,E,00.0000000,W84*5F
$PSSN,TFM,140042.00,,,,*6C
$GPRMC,140042.00,A,4742.1601343,N,01618.1010012,E,0.0,,010125,5.1,E,D*14
$GPGLL,4742.1601343,N,01618.1010012,E,140042.00,A,D*65
$GPGGA,140042.00,4742.1601343,N,01618.1010012,E,2,38,0.4,708.1542,M,43.2065,M,1.9,0136*40
$GNGNS,140042.00,4742.1601343,N,01618.1010012,E,DAAA,38,0.4,708.1542,43.2065,,*50
$GPGNS,140042.00,,,,,,08,,,,1.9,136*7A
$GLGNS,140042.00,,,,,,08,,,,,*74
$GAGNS,140042.00,,,,,,08,,,,,*79
$GBGNS,140042.00,,,,,,14,,,,,*77
$GPLLQ,140042.00,010125,,M,,M,1,38,1.419,,M*14
$GPVTG,,T,,M,0.01,N,0.01,K,D*26
$GPHDT,,T*1B
$GPTHS,,V*0E
$GPROT,,V*08
$PSSN,HRP,140042.00,010125,,,,,,,00,0,,*62
$PTNL,AVR,140042.00,,Yaw,,Tilt,,,,0,,00*34
$GPGSA,A,3,06,11,12,24,25,28,29,32,,,,,0.7,0.4,0.6*33
$GPGSA,A,3,68,69,77,78,79,81,87,88,,,,,0.7,0.4,0.6*31
$GPGSA,A,3,02,07,15,27,29,30,34,36,,,,,0.7,0.4,0.6*39
$GPGSA,A,3,05,07,10,11,12,24,25,26,32,34,35,41,0.7,0.4,0.6*37
$GPGSA,A,3,44,60,,,,,,,,,,,0.7,0.4,0.6*31
$GPGST,140042.00,2.336,0.573,0.437,359.310,0.573,0.437,1.222*5E
$GPGBS,140042.00,3.416,2.408,7.451,77,0.0001,-5.942,6.297*79
$GPGRS,140042.00,1,-1.4,0.6,0.1,-0.5,0.1,0.8,0.0,-0.5,,,,*6B
$GPGRS,140042.00,1,3.9,3.1,-5.9,-1.1,1.8,3.8,-0.3,0.0,,,,*65
$GPGRS,140042.00,1,0.1,-0.1,-0.6,0.4,0.3,0.3,1.1,-0.5,,,,*67
$GPGRS,140042.00,1,0.8,-8.1,1.1,2.1,1.3,0.0,0.3,0.0,-0.9,1.2,-1.6,-1.8*4A
$GPGRS,140042.00,1,0.3,-1.7,,,,,,,,,,*65
$GPGSV,5,1,19,25,69,300,50,06,25,048,42,24,26,156,42,32,29,270,45*78
$GPGSV,5,2,19,29,39,217,47,28,27,311,43,11,37,090,45,12,62,073,49*79
$GPGSV,5,3,19,31,02,316,39,19,03,047,38,36,35,170,46,58,13,245,36*74
$GPGSV,5,4,19,40,23,133,37,34,31,208,43,49,34,195,45,57,04,114,38*77
$GPGSV,5,5,19,41,07,108,36,61,03,257,38*70
$GLGSV,3,1,10,78,71,351,53,68,10,250,44,69,22,298,47,79,23,305,46*62
$GLGSV,3,2,10,87,45,047,47,77,35,102,43,88,53,153,52,86,05,022,39*6E
$GLGSV,3,3,10,70,06,358,32,81,08,187,42*63
$GAGSV,3,1,09,30,78,042,49,19,10,331,34,02,27,085,42,15,11,163,39*6D
$GAGSV,3,2,09,36,29,053,43,29,31,289,43,07,27,227,43,34,36,116,45*65
$GAGSV,3,3,09,27,42,281,45*58
$GBGSV,6,1,21,24,66,120,51,11,17,195,41,10,18,064,38,05,20,130,38*6F
$GBGSV,6,2,21,35,24,047,43,26,15,121,42,56,25,053,,31,25,092,*60
$GBGSV,6,3,21,34,40,186,48,12,60,149,48,25,55,300,49,44,61,093,51*68
$GBGSV,6,4,21,20,09,328,,32,07,323,40,23,05,300,39,07,05,062,35*65
$GBGSV,6,5,21,38,08,075,,41,06,273,38,08,06,070,,02,04,108,33*62
$GBGSV,6,6,21,60,09,110,39*5D
$GPGGA,140042.00,,,,,0,00,,,M,,M,,*4B
$PTNL,GGK,140042.00,010125,4742.1601343,N,01618.1010012,E,1,38,0.7,EHT751.3607,M*4E
$GPGGQ,140042.00,010125,4742.1601343,N,01618.1010012,E,1,38,1.419,708.1542,M*36
$GPGFA,140042.00,5.446,10.024,0.573,0.437,359.310,1.222,,VVV*3B
$GPLLK,140042.00,010125,,M,,M,1,38,0.8,,M*0B
$GNGMP,140042.00,,,,,DAAA,38,0.4,,,,*5A
$GPGMP,140042.00,,,,,,08,,,,1.9,136*7A
$GLGMP,140042.00,,,,,,08,,,,,*74
$GAGMP,140042.00,,,,,,08,,,,,*79
$GBGMP,140042.00,,,,,,14,,,,,*77
$PSSN,SNC,[0,309660000,2347]*4E
$GPZDA,140047.00,01,01,2025,,*65
$GPDTM,W84,,00.0000000,N,00.0000000,E,00.0000000,W84*5F
$PSSN,TFM,140047.00,,,,*69
$GPRMC,140047.00,A,4742.1601336,N,01618.1010029,E,0.0,,010125,5.1,E,D*1B
$GPGLL,4742.1601336,N,01618.1010029,E,140047.00,A,D*6A
$GPGGA,140047.00,4742.1601336,N,01618.1010029,E,2,38,0.4,708.1470,M,43.2065,M,2.9,0136*4C
$GNGNS,140047.00,4742.1601336,N,01618.1010029,E,DAAA,38,0.4,708.1470,43.2065,,*5F
$GPGNS,140047.00,,,,,,08,,,,2.9,136*7C
$GLGNS,140047.00,,,,,,08,,,,,*71
$GAGNS,140047.00,,,,,,08,,,,,*7C
$GBGNS,140047.00,,,,,,14,,,,,*72
$GPLLQ,140047.00,010125,,M,,M,1,38,1.425,,M*1E
$GPVTG,,T,,M,0.00,N,0.01,K,D*27
$GPHDT,,T*1B
$GPTHS,,V*0E
$GPROT,,V*08
$PSSN,HRP,140047.00,010125,,,,,,,00,0,,*67
$PTNL,AVR,140047.00,,Yaw,,Tilt,,,,0,,00*31
$GPGSA,A,3,06,11,12,24,25,28,29,32,,,,,0.7,0.4,0.6*33
$GPGSA,A,3,68,69,77,78,79,81,87,88,,,,,0.7,0.4,0.6*31
$GPGSA,A,3,02,07,15,27,29,30,34,36,,,,,0.7,0.4,0.6*39
$GPGSA,A,3,05,07,10,11,12,24,25,26,32,34,35,41,0.7,0.4,0.6*37
$GPGSA,A,3,44,60,,,,,,,,,,,0.7,0.4,0.6*31
$GPGST,140047.00,2.039,0.572,0.438,359.069,0.572,0.438,1.230*59
$GPGBS,140047.00,3.440,2.425,7.532,06,0.0001,-1.583,1.557*7B
$GPGRS,140047.00,1,-1.6,0.6,0.0,-0.3,0.2,1.0,-0.1,-0.7,,,,*4F
$GPGRS,140047.00,1,2.1,2.6,-5.4,-0.6,0.8,3.1,-0.4,0.2,,,,*69
$GPGRS,140047.00,1,0.3,0.0,-0.6,0.6,0.2,0.2,1.1,-0.6,,,,*4D
$GPGRS,140047.00,1,0.7,-6.9,0.8,2.3,1.4,0.0,0.3,0.0,-0.8,1.4,-1.4,-2.5*40
$GPGRS,140047.00,1,0.3,-2.1,,,,,,,,,,*65
$GPGSV,5,1,19,25,70,300,50,06,25,048,42,24,26,156,42,32,29,270,45*70
$GPGSV,5,2,19,29,39,217,47,28,27,311,43,11,37,090,45,12,62,073,49*79
$GPGSV,5,3,19,31,02,316,39,19,03,047,38,36,35,170,46,58,13,245,36*74
$GPGSV,5,4,19,40,23,133,37,34,31,208,43,49,34,195,45,57,04,114,38*77
$GPGSV,5,5,19,41,07,108,35,61,03,257,38*73
$GLGSV,3,1,10,78,71,351,53,68,10,249,42,69,22,298,47,79,23,305,47*6D
$GLGSV,3,2,10,87,45,047,47,77,35,102,43,88,53,153,52,86,05,022,39*6E
$GLGSV,3,3,10,70,06,358,33,81,08,187,42*62
$GAGSV,3,1,09,30,78,042,49,19,10,331,33,02,27,085,42,15,11,163,39*6A
$GAGSV,3,2,09,36,29,053,43,29,31,289,43,07,27,227,42,34,36,116,45*64
$GAGSV,3,3,09,27,42,281,45*58
$GBGSV,6,1,21,24,66,120,51,11,17,195,42,10,18,064,38,05,20,130,38*6C
$GBGSV,6,2,21,35,24,047,44,26,15,121,42,56,25,053,,31,25,092,*67
$GBGSV,6,3,21,34,40,186,48,12,60,149,48,25,55,300,50,44,61,093,51*60
$GBGSV,6,4,21,20,10,327,,32,07,323,40,23,05,300,38,07,05,062,36*60
$GBGSV,6,5,21,38,08,075,,41,06,273,39,08,06,070,,02,04,108,33*63
$GBGSV,6,6,21,60,09,110,39*5D
$GPGGA,140047.00,,,,,0,00,,,M,,M,,*4E
$PTNL,GGK,140047.00,010125,4742.1601336,N,01618.1010029,E,1,38,0.7,EHT751.3535,M*43
$GPGGQ,140047.00,010125,4742.1601336,N,01618.1010029,E,1,38,1.425,708.1470,M*36
$GPGFA,140047.00,5.439,10.083,0.572,0.438,359.069,1.230,,VVV*3B
$GPLLK,140047.00,010125,,M,,M,1,38,0.8,,M*0E
$GNGMP,140047.00,,,,,DAAA,38,0.4,,,,*5F
$GPGMP,140047.00,,,,,,08,,,,2.9,136*7C
$GLGMP,140047.00,,,,,,08,,,,,*71
$GAGMP,140047.00,,,,,,08,,,,,*7C
$GBGMP,140047.00,,,,,,14,,,,,*72
$PSSN,SNC,[0,309665000,2347]*4B
$GPZDA,140052.00,01,01,2025,,*61
$GPDTM,W84,,00.0000000,N,00.0000000,E,00.0000000,W84*5F
$PSSN,TFM,140052.00,,,,*6D
$GPRMC,140052.00,A,4742.1601329,N,01618.1010060,E,0.0,,010125,5.1,E,D*1C
$GPGLL,4742.1601329,N,01618.1010060,E,140052.00,A,D*6D
$GPGGA,140052.00,4742.1601329,N,01618.1010060,E,2,38,0.4,708.1445,M,43.2065,M,2.9,0136*4D
$GNGNS,140052.00,4742.1601329,N,01618.1010060,E,DAAA,38,0.4,708.1445,43.2065,,*5E
$GPGNS,140052.00,,,,,,08,,,,2.9,136*78
$GLGNS,140052.00,,,,,,08,,,,,*75
$GAGNS,140052.00,,,,,,08,,,,,*78
$GBGNS,140052.00,,,,,,14,,,,,*76
$GPLLQ,140052.00,010125,,M,,M,1,38,1.429,,M*16
$GPVTG,,T,,M,0.00,N,0.00,K,D*26
$GPHDT,,T*1B
$GPTHS,,V*0E
$GPROT,,V*08
$PSSN,HRP,140052.00,010125,,,,,,,00,0,,*63
$PTNL,AVR,140052.00,,Yaw,,Tilt,,,,0,,00*35
$GPGSA,A,3,06,11,12,24,25,28,29,32,,,,,0.7,0.4,0.6*33
$GPGSA,A,3,68,69,77,78,79,81,87,88,,,,,0.7,0.4,0.6*31
$GPGSA,A,3,02,07,15,27,29,30,34,36,,,,,0.7,0.4,0.6*39
$GPGSA,A,3,05,07,10,11,12,24,25,26,32,34,35,41,0.7,0.4,0.6*37
$GPGSA,A,3,44,60,,,,,,,,,,,0.7,0.4,0.6*31
$GPGST,140052.00,2.085,0.574,0.441,359.594,0.574,0.441,1.232*5F
$GPGBS,140052.00,3.439,2.417,7.537,28,0.0001,1.305,1.508*56
$GPGRS,140052.00,1,-1.2,0.5,0.0,-0.7,0.0,1.3,0.1,-0.3,,,,*60
$GPGRS,140052.00,1,4.5,1.7,-4.7,-1.1,1.7,2.8,-0.6,0.6,,,,*69
$GPGRS,140052.00,1,0.7,0.2,-0.5,0.3,-0.1,0.3,1.1,-0.0,,,,*60
$GPGRS,140052.00,1,1.2,-7.0,1.2,2.7,1.0,0.1,0.3,0.3,-0.2,1.3,-1.0,-2.1*4C
$GPGRS,140052.00,1,0.5,-1.8,,,,,,,,,,*6D
$GPGSV,5,1,19,25,70,300,50,06,25,048,42,24,26,156,42,32,29,270,45*70
$GPGSV,5,2,19,29,39,217,47,28,27,311,44,11,37,090,45,12,62,073,49*7E
$GPGSV,5,3,19,31,02,316,37,19,03,047,38,36,35,170,46,58,13,245,36*7A
$GPGSV,5,4,19,40,23,133,37,34,31,208,43,49,34,195,45,57,04,114,38*77
$GPGSV,5,5,19,41,07,108,35,61,03,257,38*73
$GLGSV,3,1,10,78,71,351,52,68,10,249,44,69,22,297,46,79,23,305,46*65
$GLGSV,3,2,10,87,45,047,48,77,34,102,43,88,53,153,52,86,05,022,39*60
$GLGSV,3,3,10,70,06,358,32,81,08,187,42*63
$GAGSV,3,1,09,30,78,042,49,19,10,331,34,02,27,085,43,15,11,163,39*6C
$GAGSV,3,2,09,36,29,053,43,29,31,289,43,07,27,227,42,34,36,116,45*64
$GAGSV,3,3,09,27,42,281,45*58
$GBGSV,6,1,21,24,66,120,51,11,17,195,42,10,18,064,38,05,20,130,38*6C
$GBGSV,6,2,21,35,24,047,43,26,15,121,42,56,25,053,,31,25,092,*60
$GBGSV,6,3,21,34,40,186,48,12,60,149,48,25,55,300,50,44,61,093,51*60
$GBGSV,6,4,21,20,10,327,,32,07,323,40,23,05,300,38,07,05,062,36*60
$GBGSV,6,5,21,38,08,075,,41,06,273,39,08,06,070,,02,04,108,33*63
$GBGSV,6,6,21,60,09,110,39*5D
$GPGGA,140052.00,,,,,0,00,,,M,,M,,*4A
$PTNL,GGK,140052.00,010125,4742.1601329,N,01618.1010060,E,1,38,0.7,EHT751.3510,M*43
$GPGGQ,140052.00,010125,4742.1601329,N,01618.1010060,E,1,38,1.429,708.1445,M*3B
$GPGFA,140052.00,5.457,10.100,0.574,0.441,359.594,1.232,,VVV*30
$GPLLK,140052.00,010125,,M,,M,1,38,0.8,,M*0A
$GNGMP,140052.00,,,,,DAAA,38,0.4,,,,*5B
$GPGMP,140052.00,,,,,,08,,,,2.9,136*78
$GLGMP,140052.00,,,,,,08,,,,,*75
$GAGMP,140052.00,,,,,,08,,,,,*78
$GBGMP,140052.00,,,,,,14,,,,,*76
$PSSN,SNC,[0,309670000,2347]*4F
$GPZDA,140057.00,01,01,2025,,*64
$GPDTM,W84,,00.0000000,N,00.0000000,E,00.0000000,W84*5F
$PSSN,TFM,140057.00,,,,*68
$GPRMC,140057.00,A,4742.1601310,N,01618.1010099,E,0.0,,010125,5.1,E,D*15
$GPGLL,4742.1601310,N,01618.1010099,E,140057.00,A,D*64
$GPGGA,140057.00,4742.1601310,N,01618.1010099,E,2,38,0.4,708.1477,M,43.2065,M,2.4,0136*48
$GNGNS,140057.00,4742.1601310,N,01618.1010099,E,DAAA,38,0.4,708.1477,43.2065,,*56
$GPGNS,140057.00,,,,,,08,,,,2.4,136*70
$GLGNS,140057.00,,,,,,08,,,,,*70
$GAGNS,140057.00,,,,,,08,,,,,*7D
$GBGNS,140057.00,,,,,,14,,,,,*73
$GPLLQ,140057.00,010125,,M,,M,1,38,1.421,,M*1B
$GPVTG,,T,,M,0.01,N,0.01,K,D*26
$GPHDT,,T*1B
$GPTHS,,V*0E
$GPROT,,V*08
$PSSN,HRP,140057.00,010125,,,,,,,00,0,,*66
$PTNL,AVR,140057.00,,Yaw,,Tilt,,,,0,,00*30
$GPGSA,A,3,06,11,12,24,25,28,29,32,,,,,0.7,0.4,0.6*33
$GPGSA,A,3,68,69,77,78,79,81,87,88,,,,,0.7,0.4,0.6*31
$GPGSA,A,3,02,07,15,27,29,30,34,36,,,,,0.7,0.4,0.6*39
$GPGSA,A,3,05,07,10,11,12,24,25,26,32,34,35,41,0.7,0.4,0.6*37
$GPGSA,A,3,44,60,,,,,,,,,,,0.7,0.4,0.6*31
$GPGST,140057.00,2.242,0.574,0.440,359.623,0.574,0.440,1.223*5C
$GPGBS,140057.00,3.486,2.404,7.360,28,0.0001,1.383,1.520*55
$GPGRS,140057.00,1,-1.3,0.6,0.2,-0.4,-0.3,1.4,0.2,-0.4,,,,*4B
$GPGRS,140057.00,1,5.1,1.8,-5.4,-1.5,1.6,3.0,-0.3,0.3,,,,*68
$GPGRS,140057.00,1,0.3,0.1,-0.7,0.0,-0.1,0.2,0.7,-0.3,,,,*66
$GPGRS,140057.00,1,1.1,-7.4,0.8,2.4,0.8,-0.0,0.5,-0.3,-0.5,0.9,-1.6,-2.7*44
$GPGRS,140057.00,1,0.6,-2.0,,,,,,,,,,*60
$GPGSV,5,1,19,25,70,300,50,06,25,048,42,24,26,156,43,32,29,270,45*71
$GPGSV,5,2,19,29,39,217,47,28,27,311,43,11,37,090,46,12,62,073,49*7A
$GPGSV,5,3,19,31,02,316,37,19,03,047,37,36,35,170,46,58,13,245,36*75
$GPGSV,5,4,19,40,23,133,36,34,31,208,43,49,34,195,45,57,04,114,38*76
$GPGSV,5,5,19,41,07,108,35,61,03,257,38*73
$GLGSV,3,1,10,78,71,351,52,68,10,249,45,69,22,297,46,79,23,305,46*64
$GLGSV,3,2,10,87,45,047,48,77,34,102,43,88,53,153,52,86,05,022,39*60
$GLGSV,3,3,10,70,06,358,33,81,08,187,42*62
$GAGSV,3,1,09,30,78,042,49,19,10,331,34,02,27,085,43,15,11,163,39*6C
$GAGSV,3,2,09,36,29,053,43,29,31,289,43,07,27,227,43,34,36,116,45*65
$GAGSV,3,3,09,27,42,281,45*58
$GBGSV,6,1,21,24,66,120,51,11,17,195,41,10,18,064,38,05,20,130,38*6F
$GBGSV,6,2,21,35,24,047,44,26,15,121,42,56,25,053,,31,25,092,*67
$GBGSV,6,3,21,34,40,186,48,12,60,149,48,25,55,300,50,44,61,093,51*60
$GBGSV,6,4,21,20,10,327,,32,07,323,40,23,05,300,38,07,05,062,36*60
$GBGSV,6,5,21,38,08,075,,41,06,273,40,08,06,070,,02,04,108,33*6D
$GBGSV,6,6,21,60,09,110,39*5D
$GPGGA,140057.00,,,,,0,00,,,M,,M,,*4F
$PTNL,GGK,140057.00,010125,4742.1601310,N,01618.1010099,E,1,38,0.7,EHT751.3542,M*4D
$GPGGQ,140057.00,010125,4742.1601310,N,01618.1010099,E,1,38,1.421,708.1477,M*3B
$GPGFA,140057.00,5.459,10.025,0.574,0.440,359.623,1.223,,VVV*33
$GPLLK,140057.00,010125,,M,,M,1,38,0.8,,M*0F
$GNGMP,140057.00,,,,,DAAA,38,0.4,,,,*5E
$GPGMP,140057.00,,,,,,08,,,,2.4,136*70
$GLGMP,140057.00,,,,,,08,,,,,*70
$GAGMP,140057.00,,,,,,08,,,,,*7D
$GBGMP,140057.00,,,,,,14,,,,,*73
$PSSN,SNC,[0,309675000,2347]*4A
$GPZDA,140102.00,01,01,2025,,*65
$GPDTM,W84,,00.0000000,N,00.0000000,E,00.0000000,W84*5F
$PSSN,TFM,140102.00,,,,*69
$GPRMC,140102.00,A,4742.1601309,N,01618.1010110,E,0.0,,010125,5.1,E,D*1C
$GPGLL,4742.1601309,N,01618.1010110,E,140102.00,A,D*6D
$GPGGA,140102.00,4742.1601309,N,01618.1010110,E,2,38,0.4,708.1437,M,43.2065,M,1.9,0136*4B
$GNGNS,140102.00,4742.1601309,N,01618.1010110,E,DAAA,38,0.4,708.1437,43.2065,,*5B
$GPGNS,140102.00,,,,,,08,,,,1.9,136*7F
$GLGNS,140102.00,,,,,,08,,,,,*71
$GAGNS,140102.00,,,,,,08,,,,,*7C
$GBGNS,140102.00,,,,,,14,,,,,*72
$GPLLQ,140102.00,010125,,M,,M,1,38,1.419,,M*11
$GPVTG,,T,,M,0.00,N,0.00,K,D*26
$GPHDT,,T*1B
$GPTHS,,V*0E
$GPROT,,V*08
$PSSN,HRP,140102.00,010125,,,,,,,00,0,,*67
$PTNL,AVR,140102.00,,Yaw,,Tilt,,,,0,,00*31
$GPGSA,A,3,06,11,12,24,25,28,29,32,,,,,0.7,0.4,0.6*33
$GPGSA,A,3,68,69,77,78,79,81,87,88,,,,,0.7,0.4,0.6*31
$GPGSA,A,3,02,07,15,27,29,30,34,36,,,,,0.7,0.4,0.6*39
$GPGSA,A,3,05,07,10,11,12,24,25,26,32,34,35,41,0.7,0.4,0.6*37
$GPGSA,A,3,44,60,,,,,,,,,,,0.7,0.4,0.6*31
$GPGST,140102.00,2.229,0.573,0.438,359.065,0.573,0.438,1.222*55
$GPGBS,140102.00,3.416,2.407,7.458,77,0.0001,-5.400,6.298*7E
$GPGRS,140102.00,1,-1.0,0.3,0.2,-0.5,-0.0,0.8,0.0,-0.6,,,,*43
$GPGRS,140102.00,1,5.1,3.0,-5.4,-0.9,1.5,3.0,-0.6,0.3,,,,*68
$GPGRS,140102.00,1,0.0,0.2,-0.6,-0.0,0.2,0.3,1.0,-0.7,,,,*66
$GPGRS,140102.00,1,1.1,-7.4,0.8,1.8,0.6,0.1,0.5,-0.3,0.6,0.9,-1.4,-2.4*47
$GPGRS,140102.00,1,0.9,-1.9,,,,,,,,,,*64
$GPGSV,5,1,19,25,70,300,50,06,25,048,42,24,26,156,42,32,29,270,45*70
$GPGSV,5,2,19,29,39,217,46,28,27,311,43,11,37,090,46,12,62,073,49*7B
$GPGSV,5,3,19,31,02,316,38,19,03,047,37,36,35,170,46,58,13,245,36*7A
$GPGSV,5,4,19,40,23,133,36,34,31,208,43,49,34,195,45,57,04,114,38*76
$GPGSV,5,5,19,41,07,108,35,61,03,257,38*73
$GLGSV,3,1,10,78,71,352,53,68,10,249,44,69,22,297,46,79,23,305,47*66
$GLGSV,3,2,10,87,45,047,47,77,34,102,43,88,53,153,52,86,05,022,39*6F
$GLGSV,3,3,10,70,06,358,33,81,08,187,42*62
$GAGSV,3,1,09,30,77,043,49,19,10,331,33,02,26,085,43,15,11,163,38*65
$GAGSV,3,2,09,36,29,053,43,29,31,289,43,07,26,227,43,34,37,116,45*65
$GAGSV,3,3,09,27,42,281,45*58
$GBGSV,6,1,21,24,66,120,51,11,17,195,40,10,18,064,38,05,20,130,38*6E
$GBGSV,6,2,21,35,24,047,44,26,15,121,42,56,25,053,,31,25,092,*67
$GBGSV,6,3,21,34,40,186,48,12,60,149,48,25,55,300,50,44,61,092,51*61
$GBGSV,6,4,21,20,10,327,,32,07,323,40,23,05,300,39,07,05,062,35*62
$GBGSV,6,5,21,38,08,075,,41,06,273,40,08,06,070,,02,04,108,33*6D
$GBGSV,6,6,21,60,09,110,39*5D
$GPGGA,140102.00,,,,,0,00,,,M,,M,,*4E
$PTNL,GGK,140102.00,010125,4742.1601309,N,01618.1010110,E,1,38,0.7,EHT751.3503,M*41
$GPGGQ,140102.00,010125,4742.1601309,N,01618.1010110,E,1,38,1.419,708.1437,M*3D
$GPGFA,140102.00,5.449,10.017,0.573,0.438,359.065,1.222,,VVV*3F
$GPLLK,140102.00,010125,,M,,M,1,38,0.8,,M*0E
$GNGMP,140102.00,,,,,DAAA,38,0.4,,,,*5F
$GPGMP,140102.00,,,,,,08,,,,1.9,136*7F
$GLGMP,140102.00,,,,,,08,,,,,*71
$GAGMP,140102.00,,,,,,08,,,,,*7C
$GBGMP,140102.00,,,,,,14,,,,,*72
$PSSN,SNC,[0,309680000,2347]*40
$GPZDA,140107.00,01,01,2025,,*60
$GPDTM,W84,,00.0000000,N,00.0000000,E,00.0000000,W84*5F
$PSSN,TFM,140107.00,,,,*6C
$GPRMC,140107.00,A,4742.1601303,N,01618.1010125,E,0.0,,010125,5.1,E,D*15
$GPGLL,4742.1601303,N,01618.1010125,E,140107.00,A,D*64
$GPGGA,140107.00,4742.1601303,N,01618.1010125,E,2,39,0.4,708.1396,M,43.2065,M,2.9,0136*4C
$GNGNS,140107.00,4742.1601303,N,01618.1010125,E,DAAA,39,0.4,708.1396,43.2065,,*5F
$GPGNS,140107.00,,,,,,08,,,,2.9,136*79
$GLGNS,140107.00,,,,,,08,,,,,*74
$GAGNS,140107.00,,,,,,08,,,,,*79
$GBGNS,140107.00,,,,,,15,,,,,*76
$GPLLQ,140107.00,010125,,M,,M,1,39,1.422,,M*1D
$GPVTG,,T,,M,0.00,N,0.00,K,D*26
$GPHDT,,T*1B
$GPTHS,,V*0E
$GPROT,,V*08
$PSSN,HRP,140107.00,010125,,,,,,,00,0,,*62
$PTNL,AVR,140107.00,,Yaw,,Tilt,,,,0,,00*34
$GPGSA,A,3,06,11,12,24,25,28,29,32,,,,,0.7,0.4,0.6*33
$GPGSA,A,3,68,69,77,78,79,81,87,88,,,,,0.7,0.4,0.6*31
$GPGSA,A,3,02,07,15,27,29,30,34,36,,,,,0.7,0.4,0.6*39
$GPGSA,A,3,05,07,10,11,12,23,24,25,26,32,34,35,0.7,0.4,0.6*33
$GPGSA,A,3,41,44,60,,,,,,,,,,0.7,0.4,0.6*34
$GPGST,140107.00,2.269,0.572,0.438,359.090,0.572,0.438,1.227*5B
$GPGBS,140107.00,3.426,2.416,7.522,77,0.0001,-5.434,6.298*73
$GPGRS,140107.00,1,-1.1,0.5,0.2,-0.6,-0.0,1.2,0.5,-0.9,,,,*43
$GPGRS,140107.00,1,5.1,2.2,-5.4,-1.1,1.6,3.3,-1.1,0.6,,,,*64
$GPGRS,140107.00,1,0.2,0.1,-0.7,0.1,0.1,0.4,1.2,-0.6,,,,*48
$GPGRS,140107.00,1,1.1,-7.8,1.0,0.8,1.0,-1.7,0.1,0.2,-0.0,0.6,1.0,-1.2*4B
$GPGRS,140107.00,1,-2.5,0.7,-1.9,,,,,,,,,*6B
$GPGSV,5,1,19,25,70,300,50,06,25,048,42,24,26,156,41,32,29,270,45*73
$GPGSV,5,2,19,29,39,217,46,28,27,311,44,11,37,090,46,12,62,073,49*7C
$GPGSV,5,3,19,31,02,316,37,19,03,047,37,36,35,170,46,58,13,245,37*74
$GPGSV,5,4,19,40,23,133,37,34,31,208,43,49,34,195,45,57,04,114,38*77
$GPGSV,5,5,19,41,07,108,35,61,03,257,38*73
$GLGSV,3,1,10,78,71,352,52,68,10,249,45,69,22,297,46,79,23,305,47*66
$GLGSV,3,2,10,87,45,047,48,77,34,103,43,88,53,153,52,86,05,022,39*61
$GLGSV,3,3,10,70,06,357,33,81,08,187,42*6D
$GAGSV,3,1,09,30,77,043,49,19,10,331,34,02,26,086,43,15,11,163,38*61
$GAGSV,3,2,09,36,29,053,42,29,31,289,44,07,26,227,43,34,37,116,45*63
$GAGSV,3,3,09,27,42,281,45*58
$GBGSV,6,1,21,24,66,120,51,11,17,195,40,10,18,064,38,05,20,130,38*6E
$GBGSV,6,2,21,35,24,047,45,26,15,121,42,56,25,053,,31,25,092,*66
$GBGSV,6,3,21,34,40,186,49,12,60,149,48,25,55,300,50,44,61,092,51*60
$GBGSV,6,4,21,20,10,327,,32,07,323,41,23,05,300,39,07,05,062,36*60
$GBGSV,6,5,21,38,08,075,,41,06,273,39,08,06,070,,02,04,108,33*63
$GBGSV,6,6,21,60,09,110,39*5D
$GPGGA,140107.00,,,,,0,00,,,M,,M,,*4B
$PTNL,GGK,140107.00,010125,4742.1601303,N,01618.1010125,E,1,39,0.7,EHT751.3461,M*4C
$GPGGQ,140107.00,010125,4742.1601303,N,01618.1010125,E,1,39,1.422,708.1396,M*31
$GPGFA,140107.00,5.437,10.059,0.572,0.438,359.090,1.227,,VVV*37
$GPLLK,140107.00,010125,,M,,M,1,39,0.8,,M*0A
$GNGMP,140107.00,,,,,DAAA,39,0.4,,,,*5B
$GPGMP,140107.00,,,,,,08,,,,2.9,136*79
$GLGMP,140107.00,,,,,,08,,,,,*74
$GAGMP,140107.00,,,,,,08,,,,,*79
$GBGMP,140107.00,,,,,,15,,,,,*76
$PSSN,SNC,[0,309685000,2347]*45
$GPZDA,140112.00,01,01,2025,,*64
$GPDTM,W84,,00.0000000,N,00.0000000,E,00.0000000,W84*5F
$PSSN,TFM,140112.00,,,,*68
$GPRMC,140112.00,A,4742.1601303,N,01618.1010171,E,0.0,,010125,5.1,E,D*10
$GPGLL,4742.1601303,N,01618.1010171,E,140112.00,A,D*61
$GPGGA,140112.00,4742.1601303,N,01618.1010171,E,2,39,0.4,708.1402,M,43.2065,M,2.9,0136*43
$GNGNS,140112.00,4742.1601303,N,01618.1010171,E,DAAA,39,0.4,708.1402,43.2065,,*50
$GPGNS,140112.00,,,,,,08,,,,2.9,136*7D
$GLGNS,140112.00,,,,,,08,,,,,*70
$GAGNS,140112.00,,,,,,08,,,,,*7D
$GBGNS,140112.00,,,,,,15,,,,,*72
$GPLLQ,140112.00,010125,,M,,M,1,39,1.423,,M*18
$GPVTG,,T,,M,0.00,N,0.01,K,D*27
$GPHDT,,T*1B
$GPTHS,,V*0E
$GPROT,,V*08
$PSSN,HRP,140112.00,010125,,,,,,,00,0,,*66
$PTNL,AVR,140112.00,,Yaw,,Tilt,,,,0,,00*30
$GPGSA,A,3,06,11,12,24,25,28,29,32,,,,,0.7,0.4,0.6*33
$GPGSA,A,3,68,69,77,78,79,81,87,88,,,,,0.7,0.4,0.6*31
$GPGSA,A,3,02,07,15,27,29,30,34,36,,,,,0.7,0.4,0.6*39
$GPGSA,A,3,05,07,10,11,12,23,24,25,26,32,34,35,0.7,0.4,0.6*33
$GPGSA,A,3,41,44,60,,,,,,,,,,0.7,0.4,0.6*34
$GPGST,140112.00,2.247,0.573,0.440,359.948,0.573,0.440,1.226*5E
$GPGBS,140112.00,3.425,2.408,7.524,28,0.0001,1.617,1.506*5A
$GPGRS,140112.00,1,-1.1,-0.0,0.1,-0.4,-0.1,1.6,0.5,-0.4,,,,*66
$GPGRS,140112.00,1,3.7,2.4,-5.8,-1.3,1.8,2.6,-0.3,0.4,,,,*63
$GPGRS,140112.00,1,0.0,0.1,-0.9,0.2,-0.1,0.4,1.1,-0.2,,,,*69
$GPGRS,140112.00,1,0.6,-8.1,1.5,1.0,1.3,-2.0,-0.1,0.1,-0.1,0.1,0.8,-1.3*64
$GPGRS,140112.00,1,-2.9,0.5,-1.8,,,,,,,,,*60
$GPGSV,5,1,19,25,70,300,50,06,25,048,42,24,26,156,42,32,29,270,45*70
$GPGSV,5,2,19,29,39,217,47,28,27,311,44,11,37,090,46,12,62,073,49*7D
$GPGSV,5,3,19,31,02,316,38,19,03,047,37,36,35,170,46,58,13,245,36*7A
$GPGSV,5,4,19,40,23,133,37,34,31,208,43,49,34,195,45,57,04,114,38*77
$GPGSV,5,5,19,41,07,108,35,61,03,257,38*73
$GLGSV,3,1,10,78,71,352,52,68,10,249,44,69,22,297,47,79,23,305,46*67
$GLGSV,3,2,10,87,45,047,48,77,34,103,43,88,53,152,52,86,05,022,40*6E
$GLGSV,3,3,10,70,06,357,32,81,08,187,42*6C
$GAGSV,3,1,09,30,77,043,49,19,10,331,34,02,26,086,43,15,11,163,38*61
$GAGSV,3,2,09,36,29,053,43,29,31,289,43,07,26,227,43,34,37,116,45*65
$GAGSV,3,3,09,27,42,281,45*58
$GBGSV,6,1,21,24,66,120,51,11,17,195,40,10,18,064,38,05,20,130,38*6E
$GBGSV,6,2,21,35,24,047,44,26,15,121,42,56,25,053,,31,25,092,*67
$GBGSV,6,3,21,34,40,186,48,12,60,149,48,25,55,300,50,44,61,092,51*61
$GBGSV,6,4,21,20,10,327,,32,07,323,40,23,05,300,40,07,05,062,36*6F
$GBGSV,6,5,21,38,08,075,,41,06,273,39,08,06,070,,02,04,108,34*64
$GBGSV,6,6,21,60,09,110,39*5D
$GPGGA,140112.00,,,,,0,00,,,M,,M,,*4F
$PTNL,GGK,140112.00,010125,4742.1601303,N,01618.1010171,E,1,39,0.7,EHT751.3468,M*40
$GPGGQ,140112.00,010125,4742.1601303,N,01618.1010171,E,1,39,1.423,708.1402,M*3F
$GPGFA,140112.00,5.445,10.055,0.573,0.440,359.948,1.226,,VVV*39
$GPLLK,140112.00,010125,,M,,M,1,39,0.8,,M*0E
$GNGMP,140112.00,,,,,DAAA,39,0.4,,,,*5F
$GPGMP,140112.00,,,,,,08,,,,2.9,136*7D
$GLGMP,140112.00,,,,,,08,,,,,*70
$GAGMP,140112.00,,,,,,08,,,,,*7D
$GBGMP,140112.00,,,,,,15,,,,,*72
$PSSN,SNC,[0,309690000,2347]*41
$GPZDA,140117.00,01,01,2025,,*61
$GPDTM,W84,,00.0000000,N,00.0000000,E,00.0000000,W84*5F
$PSSN,TFM,140117.00,,,,*6D
$GPRMC,140117.00,A,4742.1601294,N,01618.1010203,E,0.0,,010125,5.1,E,D*1C
$GPGLL,4742.1601294,N,01618.1010203,E,140117.00,A,D*6D
$GPGGA,140117.00,4742.1601294,N,01618.1010203,E,2,39,0.4,708.1345,M,43.2065,M,2.4,0136*46
$GNGNS,140117.00,4742.1601294,N,01618.1010203,E,DAAA,39,0.4,708.1345,43.2065,,*58
$GPGNS,140117.00,,,,,,08,,,,2.4,136*75
$GLGNS,140117.00,,,,,,08,,,,,*75
$GAGNS,140117.00,,,,,,08,,,,,*78
$GBGNS,140117.00,,,,,,15,,,,,*77
$GPLLQ,140117.00,010125,,M,,M,1,39,1.414,,M*19
$GPVTG,,T,,M,0.00,N,0.01,K,D*27
$GPHDT,,T*1B
$GPTHS,,V*0E
$GPROT,,V*08
$PSSN,HRP,140117.00,010125,,,,,,,00,0,,*63
$PTNL,AVR,140117.00,,Yaw,,Tilt,,,,0,,00*35
$GPGSA,A,3,06,11,12,24,25,28,29,32,,,,,0.7,0.4,0.6*33
$GPGSA,A,3,68,69,77,78,79,81,87,88,,,,,0.7,0.4,0.6*31
$GPGSA,A,3,02,07,15,27,29,30,34,36,,,,,0.7,0.4,0.6*39
$GPGSA,A,3,05,07,10,11,12,23,24,25,26,32,34,35,0.7,0.4,0.6*33
$GPGSA,A,3,41,44,60,,,,,,,,,,0.7,0.4,0.6*34
$GPGST,140117.00,2.241,0.572,0.439,0.063,0.572,0.439,1.216*51
$GPGBS,140117.00,3.470,2.395,7.354,77,0.0001,-5.456,6.299*7F
$GPGRS,140117.00,1,-1.3,0.3,0.1,-0.3,-0.1,1.3,0.5,-0.8,,,,*41
$GPGRS,140117.00,1,3.1,2.2,-5.5,-1.4,1.7,2.6,-0.1,0.1,,,,*64
$GPGRS,140117.00,1,-0.2,-0.1,-0.8,-0.0,0.2,0.3,0.9,-0.1,,,,*63
$GPGRS,140117.00,1,0.5,-8.4,0.8,2.4,1.3,-2.7,0.0,0.3,0.2,0.2,0.6,-1.7*62
$GPGRS,140117.00,1,-2.4,0.5,-1.9,,,,,,,,,*69
$GPGSV,5,1,19,25,70,301,50,06,25,048,42,24,26,156,43,32,29,270,46*73
$GPGSV,5,2,19,29,39,217,47,28,27,311,44,11,37,090,45,12,62,073,49*7E
$GPGSV,5,3,19,31,02,316,38,19,03,047,37,36,35,170,46,58,13,245,37*7B
$GPGSV,5,4,19,40,23,133,37,34,31,208,43,49,34,195,45,57,04,114,38*77
$GPGSV,5,5,19,41,07,108,35,61,03,257,38*73
$GLGSV,3,1,10,78,71,352,52,68,10,249,43,69,22,297,46,79,23,305,46*61
$GLGSV,3,2,10,87,45,046,48,77,34,103,43,88,53,152,52,86,05,022,39*61
$GLGSV,3,3,10,70,06,357,32,81,08,187,42*6C
$GAGSV,3,1,09,30,77,043,49,19,10,330,34,02,26,086,43,15,11,163,38*60
$GAGSV,3,2,09,36,29,053,42,29,31,289,43,07,26,227,43,34,37,116,45*64
$GAGSV,3,3,09,27,42,281,45*58
$GBGSV,6,1,21,24,66,120,51,11,17,195,41,10,18,064,38,05,20,130,38*6F
$GBGSV,6,2,21,35,24,047,44,26,15,121,42,56,25,053,,31,25,092,*67
$GBGSV,6,3,21,34,40,186,48,12,60,149,48,25,55,300,50,44,61,092,51*61
$GBGSV,6,4,21,20,10,327,,32,07,323,40,23,05,300,40,07,05,062,36*6F
$GBGSV,6,5,21,38,08,075,,41,06,273,39,08,06,070,,02,04,108,33*63
$GBGSV,6,6,21,60,09,110,39*5D
$GPGGA,140117.00,,,,,0,00,,,M,,M,,*4A
$PTNL,GGK,140117.00,010125,4742.1601294,N,01618.1010203,E,1,39,0.7,EHT751.3410,M*43
$GPGGQ,140117.00,010125,4742.1601294,N,01618.1010203,E,1,39,1.414,708.1345,M*33
$GPGFA,140117.00,5.443,9.975,0.572,0.439,0.063,1.216,,VVV*0A
$GPLLK,140117.00,010125,,M,,M,1,39,0.8,,M*0B
$GNGMP,140117.00,,,,,DAAA,39,0.4,,,,*5A
$GPGMP,140117.00,,,,,,08,,,,2.4,136*75
