$GPZDA,111442.00,01,01,2025,,*60
$GPDTM,W84,,00.0000000,N,00.0000000,E,00.0000000,W84*5F
$PSSN,TFM,111442.00,,,,*6C
$GPRMC,111442.00,A,4742.1600204,N,01618.1002431,E,0.0,,010125,5.1,E,D*11
$GPGLL,4742.1600204,N,01618.1002431,E,111442.00,A,D*60
$GPGGA,111442.00,4742.1600204,N,01618.1002431,E,2,36,0.4,708.6105,M,43.2066,M,3.6,0136*45
$GNGNS,111442.00,4742.1600204,N,01618.1002431,E,DAAA,36,0.4,708.6105,43.2066,,*58
$GPGNS,111442.00,,,,,,09,,,,3.6,136*76
$GLGNS,111442.00,,,,,,08,,,,,*74
$GAGNS,111442.00,,,,,,07,,,,,*76
$GBGNS,111442.00,,,,,,12,,,,,*71
$GPLLQ,111442.00,010125,,M,,M,1,36,0.986,,M*10
$GPVTG,,T,,M,0.00,N,0.00,K,D*26
$GPHDT,,T*1B
$GPTHS,,V*0E
$GPROT,,V*08
$PSSN,HRP,111442.00,010125,,,,,,,00,0,,*62
$PTNL,AVR,111442.00,,Yaw,,Tilt,,,,0,,00*34
$GPGSA,A,3,10,12,13,14,15,17,19,23,24,,,,0.8,0.4,0.7*31
$GPGSA,A,3,66,67,68,76,77,78,85,86,,,,,0.8,0.4,0.7*3B
$GPGSA,A,3,02,03,07,08,10,25,30,,,,,,0.8,0.4,0.7*32
$GPGSA,A,3,05,07,10,14,24,26,33,35,40,42,45,60,0.8,0.4,0.7*3E
$GPGST,111442.00,2.705,0.429,0.330,346.677,0.425,0.336,0.824*57
$GPGBS,111442.00,2.593,1.878,6.267,77,0.0001,-7.911,6.061*71
$GPGRS,111442.00,1,-0.1,0.2,0.3,-0.6,-0.0,-0.4,0.2,0.1,-0.0,,,*4F
$GPGRS,111442.00,1,-3.1,6.8,7.2,-2.2,-7.9,-3.3,3.0,-0.2,,,,*66
$GPGRS,111442.00,1,0.3,-0.7,0.1,0.5,-0.2,0.3,0.2,,,,,*60
$GPGRS,111442.00,1,-0.2,0.9,0.9,2.2,0.0,-1.3,0.1,-2.4,-0.2,0.0,-1.2,-1.3*49
$GPGSV,6,1,22,24,73,301,50,14,11,061,40,13,24,160,43,23,13,266,41*7D
$GPGSV,6,2,22,15,40,198,48,10,15,308,42,22,32,058,,17,36,058,46*79
$GPGSV,6,3,22,12,42,240,48,19,49,100,47,02,02,016,29,25,04,244,36*7C
$GPGSV,6,4,22,32,00,326,38,36,35,170,45,58,13,245,36,40,23,133,37*7B
$GPGSV,6,5,22,34,31,208,43,49,34,195,45,57,07,111,37,41,07,108,35*79
$GPGSV,6,6,22,61,03,257,38*46
$GLGSV,3,1,10,77,59,297,46,85,23,038,45,68,20,333,46,86,24,098,48*6A
$GLGSV,3,2,10,66,34,206,49,67,51,282,52,76,55,043,51,78,07,263,44*6C
$GLGSV,3,3,10,75,03,072,41,87,04,140,*6B
$GAGSV,3,1,11,02,80,057,49,03,18,161,40,25,26,058,42,07,44,301,45*6B
$GAGSV,3,2,11,30,43,238,46,08,61,203,49,12,05,015,31,16,03,058,*6C
$GAGSV,3,3,11,11,09,063,35,10,08,037,37,36,00,108,*57
$GBGSV,5,1,19,26,73,059,51,05,20,130,39,50,15,199,,45,18,083,43*64
$GBGSV,5,2,19,40,20,039,41,35,30,117,45,07,23,051,40,33,36,286,47*62
$GBGSV,5,3,19,42,30,221,46,10,34,059,42,14,38,252,45,24,49,277,50*69
$GBGSV,5,4,19,56,39,064,,25,48,267,,41,09,331,,44,10,160,*6A
$GBGSV,5,5,19,02,04,109,31,57,02,342,,60,07,111,41*5F
$GPGGA,111442.00,,,,,0,00,,,M,,M,,*4B
$PTNL,GGK,111442.00,010125,4742.1600204,N,01618.1002431,E,1,36,0.8,EHT751.8170,M*46
$GPGGQ,111442.00,010125,4742.1600204,N,01618.1002431,E,1,36,0.986,708.6105,M*37
$GPGFA,111442.00,4.082,6.753,0.429,0.330,346.677,0.824,,VVV*0F
$GPLLK,111442.00,010125,,M,,M,1,36,0.9,,M*04
$GNGMP,111442.00,,,,,DAAA,36,0.4,,,,*54
$GPGMP,111442.00,,,,,,09,,,,3.6,136*76
$GLGMP,111442.00,,,,,,08,,,,,*74
$GAGMP,111442.00,,,,,,07,,,,,*76
$GBGMP,111442.00,,,,,,12,,,,,*71
$PSSN,SNC,[0,299700000,2347]*41
$GPZDA,111447.00,01,01,2025,,*65
$GPDTM,W84,,00.0000000,N,00.0000000,E,00.0000000,W84*5F
$PSSN,TFM,111447.00,,,,*69
$GPRMC,111447.00,A,4742.1600229,N,01618.1002451,E,0.0,,010125,5.1,E,D*1D
$GPGLL,4742.1600229,N,01618.1002451,E,111447.00,A,D*6C
$GPGGA,111447.00,4742.1600229,N,01618.1002451,E,2,36,0.4,708.6133,M,43.2066,M,2.3,0136*48
$GNGNS,111447.00,4742.1600229,N,01618.1002451,E,DAAA,36,0.4,708.6133,43.2066,,*51
$GPGNS,111447.00,,,,,,09,,,,2.3,136*77
$GLGNS,111447.00,,,,,,08,,,,,*71
$GAGNS,111447.00,,,,,,07,,,,,*73
$GBGNS,111447.00,,,,,,12,,,,,*74
$GPLLQ,111447.00,010125,,M,,M,1,36,0.982,,M*11
$GPVTG,,T,,M,0.00,N,0.01,K,D*27
$GPHDT,,T*1B
$GPTHS,,V*0E
$GPROT,,V*08
$PSSN,HRP,111447.00,010125,,,,,,,00,0,,*67
$PTNL,AVR,111447.00,,Yaw,,Tilt,,,,0,,00*31
$GPGSA,A,3,10,12,13,14,15,17,19,23,24,,,,0.8,0.4,0.7*31
$GPGSA,A,3,66,67,68,76,77,78,85,86,,,,,0.8,0.4,0.7*3B
$GPGSA,A,3,02,03,07,08,10,25,30,,,,,,0.8,0.4,0.7*32
$GPGSA,A,3,05,07,10,14,24,26,33,35,40,42,45,60,0.8,0.4,0.7*3E
$GPGST,111447.00,2.703,0.430,0.329,346.383,0.425,0.336,0.819*54
$GPGBS,111447.00,2.466,1.895,6.108,77,0.0001,-8.229,6.061*79
$GPGRS,111447.00,1,-0.0,0.1,0.4,-0.9,0.2,-0.5,0.1,0.5,-0.2,,,*6B
$GPGRS,111447.00,1,-3.3,6.4,7.1,-2.2,-8.2,-3.8,3.0,0.6,,,,*48
$GPGRS,111447.00,1,0.1,-0.8,0.1,0.2,-0.0,-0.0,-0.1,,,,,*6D
$GPGRS,111447.00,1,-0.6,0.4,0.6,1.5,0.1,-1.3,0.3,-2.2,-0.4,-0.2,-0.9,-0.8*62
$GPGSV,6,1,22,24,73,301,50,14,11,061,40,13,24,160,43,23,13,266,40*7C
$GPGSV,6,2,22,15,40,198,47,10,15,308,41,22,32,058,,17,36,058,46*75
$GPGSV,6,3,22,12,42,240,48,19,49,100,47,02,02,016,28,25,04,244,37*7C
$GPGSV,6,4,22,32,00,326,37,36,35,170,45,58,13,245,36,40,23,133,37*74
$GPGSV,6,5,22,34,31,208,43,49,34,195,45,57,07,111,37,41,07,108,35*79
$GPGSV,6,6,22,61,03,257,38*46
$GLGSV,3,1,10,77,59,297,46,85,23,038,46,68,20,333,46,86,24,098,48*69
$GLGSV,3,2,10,66,34,206,50,67,51,282,51,76,55,043,51,78,07,263,45*66
$GLGSV,3,3,10,75,03,072,41,87,04,140,*6B
$GAGSV,3,1,11,02,80,057,49,03,18,161,40,25,26,058,42,07,44,301,45*6B
$GAGSV,3,2,11,30,43,238,46,08,61,203,49,12,05,015,31,16,03,058,*6C
$GAGSV,3,3,11,11,09,063,35,10,08,037,38,36,00,108,*58
$GBGSV,5,1,19,26,73,059,51,05,20,130,39,50,15,199,,45,18,083,43*64
$GBGSV,5,2,19,40,20,039,41,35,30,117,45,07,23,051,40,33,36,286,47*62
$GBGSV,5,3,19,42,30,221,46,10,34,059,42,14,38,252,45,24,49,277,50*69
$GBGSV,5,4,19,56,39,064,,25,48,267,,41,09,331,,44,10,160,*6A
$GBGSV,5,5,19,02,04,109,30,57,02,342,,60,07,111,41*5E
$GPGGA,111447.00,,,,,0,00,,,M,,M,,*4E
$PTNL,GGK,111447.00,010125,4742.1600229,N,01618.1002451,E,1,36,0.8,EHT751.8199,M*4D
$GPGGQ,111447.00,010125,4742.1600229,N,01618.1002451,E,1,36,0.982,708.6133,M*3A
$GPGFA,111447.00,4.088,6.719,0.430,0.329,346.383,0.819,,VVV*0E
$GPLLK,111447.00,010125,,M,,M,1,36,0.9,,M*01
$GNGMP,111447.00,,,,,DAAA,36,0.4,,,,*51
$GPGMP,111447.00,,,,,,09,,,,2.3,136*77
$GLGMP,111447.00,,,,,,08,,,,,*71
$GAGMP,111447.00,,,,,,07,,,,,*73
$GBGMP,111447.00,,,,,,12,,,,,*74
$PSSN,SNC,[0,299705000,2347]*44
$GPZDA,111452.00,01,01,2025,,*61
$GPDTM,W84,,00.0000000,N,00.0000000,E,00.0000000,W84*5F
$PSSN,TFM,111452.00,,,,*6D
$GPRMC,111452.00,A,4742.1600239,N,01618.1002457,E,0.0,,010125,5.1,E,D*1E
$GPGLL,4742.1600239,N,01618.1002457,E,111452.00,A,D*6F
$GPGGA,111452.00,4742.1600239,N,01618.1002457,E,2,37,0.4,708.6079,M,43.2066,M,1.6,0136*43
$GNGNS,111452.00,4742.1600239,N,01618.1002457,E,DAAA,37,0.4,708.6079,43.2066,,*5C
$GPGNS,111452.00,,,,,,09,,,,1.6,136*75
$GLGNS,111452.00,,,,,,08,,,,,*75
$GAGNS,111452.00,,,,,,08,,,,,*78
$GBGNS,111452.00,,,,,,12,,,,,*70
$GPLLQ,111452.00,010125,,M,,M,1,37,0.968,,M*10
$GPVTG,,T,,M,0.01,N,0.01,K,D*26
$GPHDT,,T*1B
$GPTHS,,V*0E
$GPROT,,V*08
$PSSN,HRP,111452.00,010125,,,,,,,00,0,,*63
$PTNL,AVR,111452.00,,Yaw,,Tilt,,,,0,,00*35
$GPGSA,A,3,10,12,13,14,15,17,19,23,24,,,,0.8,0.4,0.7*31
$GPGSA,A,3,66,67,68,76,77,78,85,86,,,,,0.8,0.4,0.7*3B
$GPGSA,A,3,02,03,07,08,10,11,25,30,,,,,0.8,0.4,0.7*32
$GPGSA,A,3,05,07,10,14,24,26,33,35,40,42,45,60,0.8,0.4,0.7*3E
$GPGST,111452.00,2.568,0.431,0.323,345.225,0.424,0.331,0.804*50
$GPGBS,111452.00,2.480,1.889,6.128,77,0.0001,-8.471,6.060*70
$GPGRS,111452.00,1,-0.4,0.2,-0.0,-0.9,-0.0,-0.3,0.0,-0.3,0.2,,,*6F
$GPGRS,111452.00,1,-3.1,6.3,6.1,-2.2,-8.5,-2.2,4.3,1.0,,,,*47
$GPGRS,111452.00,1,0.2,-0.8,0.2,0.5,0.4,-0.4,0.2,0.2,,,,*41
$GPGRS,111452.00,1,-0.2,0.5,0.4,1.2,0.3,-1.3,0.7,-1.7,-0.3,0.2,-0.3,-1.0*4F
$GPGSV,6,1,22,24,73,301,50,14,11,061,39,13,24,160,43,23,13,266,41*73
$GPGSV,6,2,22,15,40,198,47,10,15,308,42,22,32,058,,17,36,058,46*76
$GPGSV,6,3,22,12,42,240,48,19,49,100,47,02,02,016,29,25,04,244,37*7D
$GPGSV,6,4,22,32,00,326,37,36,35,170,45,58,13,245,36,40,23,133,37*74
$GPGSV,6,5,22,34,31,208,43,49,34,195,45,57,07,111,37,41,07,108,35*79
$GPGSV,6,6,22,61,03,257,38*46
$GLGSV,3,1,10,77,59,297,46,85,23,038,47,68,20,333,45,86,24,098,47*64
$GLGSV,3,2,10,66,34,206,50,67,51,282,51,76,55,043,51,78,07,263,43*60
$GLGSV,3,3,10,75,03,072,41,87,04,140,*6B
$GAGSV,3,1,11,02,80,057,49,03,18,161,40,25,26,058,42,07,45,301,46*69
$GAGSV,3,2,11,30,43,238,46,08,61,203,49,12,05,015,31,16,03,058,*6C
$GAGSV,3,3,11,11,09,063,35,10,08,037,37,36,00,108,*57
$GBGSV,5,1,19,26,73,059,51,05,20,130,39,50,15,199,,45,18,083,43*64
$GBGSV,5,2,19,40,20,039,41,35,30,117,45,07,23,051,40,33,36,286,47*62
$GBGSV,5,3,19,42,30,221,46,10,34,059,42,14,38,252,45,24,49,277,49*61
$GBGSV,5,4,19,56,39,064,,25,48,267,,41,09,331,,44,10,160,*6A
$GBGSV,5,5,19,02,04,109,30,57,02,342,,60,07,111,40*5F
$GPGGA,111452.00,,,,,0,00,,,M,,M,,*4A
$PTNL,GGK,111452.00,010125,4742.1600239,N,01618.1002457,E,1,37,0.8,EHT751.8144,M*4F
$GPGGQ,111452.00,010125,4742.1600239,N,01618.1002457,E,1,37,0.968,708.6079,M*33
$GPGFA,111452.00,4.093,6.593,0.431,0.323,345.225,0.804,,VVV*09
$GPLLK,111452.00,010125,,M,,M,1,37,0.9,,M*04
$GNGMP,111452.00,,,,,DAAA,37,0.4,,,,*54
$GPGMP,111452.00,,,,,,09,,,,1.6,136*75
$GLGMP,111452.00,,,,,,08,,,,,*75
$GAGMP,111452.00,,,,,,08,,,,,*78
$GBGMP,111452.00,,,,,,12,,,,,*70
$PSSN,SNC,[0,299710000,2347]*40
$GPZDA,111457.00,01,01,2025,,*64
$GPDTM,W84,,00.0000000,N,00.0000000,E,00.0000000,W84*5F
$PSSN,TFM,111457.00,,,,*68
$GPRMC,111457.00,A,4742.1600224,N,01618.1002475,E,0.0,,010125,5.1,E,D*17
$GPGLL,4742.1600224,N,01618.1002475,E,111457.00,A,D*66
$GPGGA,111457.00,4742.1600224,N,01618.1002475,E,2,36,0.4,708.6043,M,43.2066,M,2.6,0136*41
$GNGNS,111457.00,4742.1600224,N,01618.1002475,E,DAAA,36,0.4,708.6043,43.2066,,*5D
$GPGNS,111457.00,,,,,,09,,,,2.6,136*73
$GLGNS,111457.00,,,,,,08,,,,,*70
$GAGNS,111457.00,,,,,,07,,,,,*72
$GBGNS,111457.00,,,,,,12,,,,,*75
$GPLLQ,111457.00,010125,,M,,M,1,36,0.977,,M*1A
$GPVTG,,T,,M,0.00,N,0.01,K,D*27
$GPHDT,,T*1B
$GPTHS,,V*0E
$GPROT,,V*08
$PSSN,HRP,111457.00,010125,,,,,,,00,0,,*66
$PTNL,AVR,111457.00,,Yaw,,Tilt,,,,0,,00*30
$GPGSA,A,3,10,12,13,14,15,17,19,23,24,,,,0.8,0.4,0.7*31
$GPGSA,A,3,66,67,68,76,77,78,85,86,,,,,0.8,0.4,0.7*3B
$GPGSA,A,3,02,03,07,08,10,25,30,,,,,,0.8,0.4,0.7*32
$GPGSA,A,3,05,07,10,14,24,26,33,35,40,42,45,60,0.8,0.4,0.7*3E
$GPGST,111457.00,2.646,0.431,0.326,345.648,0.426,0.333,0.814*51
$GPGBS,111457.00,2.525,1.900,6.245,77,0.0001,-7.981,6.060*7E
$GPGRS,111457.00,1,0.2,-0.1,-0.3,-0.6,-0.0,-0.2,0.3,-0.1,0.1,,,*60
$GPGRS,111457.00,1,-3.1,6.6,6.0,-2.3,-8.0,-3.9,4.3,0.4,,,,*4D
$GPGRS,111457.00,1,0.1,-1.0,0.3,0.5,0.5,-0.2,0.3,,,,,*65
$GPGRS,111457.00,1,0.1,0.6,0.3,2.1,-0.0,-1.2,0.2,-0.8,-0.2,0.5,-0.3,-0.9*4A
$GPGSV,6,1,22,24,73,301,50,14,11,061,39,13,24,160,43,23,13,266,41*73
$GPGSV,6,2,22,15,40,198,47,10,15,307,41,22,32,058,,17,36,058,46*7A
$GPGSV,6,3,22,12,42,240,47,19,49,100,47,02,02,016,29,25,04,244,37*72
$GPGSV,6,4,22,32,00,326,37,36,35,170,45,58,13,245,36,40,23,133,37*74
$GPGSV,6,5,22,34,31,208,43,49,34,195,45,57,07,111,37,41,07,108,35*79
$GPGSV,6,6,22,61,03,257,38*46
$GLGSV,3,1,10,77,59,297,46,85,23,038,47,68,20,333,46,86,25,098,46*67
$GLGSV,3,2,10,66,34,206,50,67,51,282,52,76,55,043,51,78,07,263,44*64
$GLGSV,3,3,10,75,03,072,40,87,04,139,*64
$GAGSV,3,1,11,02,80,057,49,03,18,161,40,25,26,058,42,07,45,301,45*6A
$GAGSV,3,2,11,30,43,238,46,08,61,203,48,12,05,015,31,16,03,058,*6D
$GAGSV,3,3,11,11,09,063,35,10,08,037,38,36,00,108,*58
$GBGSV,5,1,19,26,73,059,51,05,20,130,39,50,15,199,,45,18,083,42*65
$GBGSV,5,2,19,40,20,039,41,35,30,117,46,07,23,051,40,33,36,286,46*60
$GBGSV,5,3,19,42,30,221,45,10,34,059,42,14,38,252,45,24,49,277,49*62
$GBGSV,5,4,19,56,39,064,,25,48,267,,41,09,331,,44,10,160,*6A
$GBGSV,5,5,19,02,04,109,30,57,02,342,,60,07,111,40*5F
$GPGGA,111457.00,,,,,0,00,,,M,,M,,*4F
$PTNL,GGK,111457.00,010125,4742.1600224,N,01618.1002475,E,1,36,0.8,EHT751.8109,M*4E
$GPGGQ,111457.00,010125,4742.1600224,N,01618.1002475,E,1,36,0.977,708.6043,M*3C
$GPGFA,111457.00,4.102,6.674,0.431,0.326,345.648,0.814,,VVV*04
$GPLLK,111457.00,010125,,M,,M,1,36,0.9,,M*00
$GNGMP,111457.00,,,,,DAAA,36,0.4,,,,*50
$GPGMP,111457.00,,,,,,09,,,,2.6,136*73
$GLGMP,111457.00,,,,,,08,,,,,*70
$GAGMP,111457.00,,,,,,07,,,,,*72
$GBGMP,111457.00,,,,,,12,,,,,*75
$PSSN,SNC,[0,299715000,2347]*45
$GPZDA,111502.00,01,01,2025,,*65
$GPDTM,W84,,00.0000000,N,00.0000000,E,00.0000000,W84*5F
$PSSN,TFM,111502.00,,,,*69
$GPRMC,111502.00,A,4742.1600207,N,01618.1002480,E,0.0,,010125,5.1,E,D*1D
$GPGLL,4742.1600207,N,01618.1002480,E,111502.00,A,D*6C
$GPGGA,111502.00,4742.1600207,N,01618.1002480,E,2,37,0.4,708.6032,M,43.2066,M,3.6,0136*4D
$GNGNS,111502.00,4742.1600207,N,01618.1002480,E,DAAA,37,0.4,708.6032,43.2066,,*50
$GPGNS,111502.00,,,,,,09,,,,3.6,136*73
$GLGNS,111502.00,,,,,,08,,,,,*71
$GAGNS,111502.00,,,,,,08,,,,,*7C
$GBGNS,111502.00,,,,,,12,,,,,*74
$GPLLQ,111502.00,010125,,M,,M,1,37,0.991,,M*12
$GPVTG,,T,,M,0.01,N,0.01,K,D*26
$GPHDT,,T*1B
$GPTHS,,V*0E
$GPROT,,V*08
$PSSN,HRP,111502.00,010125,,,,,,,00,0,,*67
$PTNL,AVR,111502.00,,Yaw,,Tilt,,,,0,,00*31
$GPGSA,A,3,10,12,13,14,15,17,19,23,24,,,,0.8,0.4,0.7*31
$GPGSA,A,3,66,67,68,76,77,78,85,86,,,,,0.8,0.4,0.7*3B
$GPGSA,A,3,02,03,07,08,10,11,25,30,,,,,0.8,0.4,0.7*32
$GPGSA,A,3,05,07,10,14,24,26,33,35,40,42,45,60,0.8,0.4,0.7*3E
$GPGST,111502.00,2.710,0.438,0.330,345.551,0.432,0.338,0.825*5B
$GPGBS,111502.00,2.582,1.907,6.295,77,0.0001,-7.744,6.060*7F
$GPGRS,111502.00,1,-0.4,0.3,-0.4,-0.7,0.1,-0.3,0.3,-0.0,0.0,,,*4E
$GPGRS,111502.00,1,-3.5,7.0,6.3,-2.2,-7.7,-4.4,4.6,-0.4,,,,*67
$GPGRS,111502.00,1,0.1,-1.1,0.4,0.5,0.4,-0.7,-0.2,0.2,,,,*66
$GPGRS,111502.00,1,-0.1,0.2,0.3,2.6,0.1,-1.3,0.3,-1.0,0.1,0.2,-0.4,-1.0*66
$GPGSV,6,1,22,24,73,301,50,14,11,061,39,13,24,160,43,23,13,266,41*73
$GPGSV,6,2,22,15,40,198,47,10,15,307,41,22,32,058,,17,36,058,45*79
$GPGSV,6,3,22,12,42,240,47,19,49,099,47,02,02,015,29,25,04,244,37*70
$GPGSV,6,4,22,32,00,326,37,36,35,170,45,58,13,245,36,40,23,133,37*74
$GPGSV,6,5,22,34,31,208,43,49,34,195,45,57,07,111,37,41,07,108,35*79
$GPGSV,6,6,22,61,03,257,38*46
$GLGSV,3,1,10,77,59,297,46,85,23,038,47,68,20,332,46,86,25,098,47*67
$GLGSV,3,2,10,66,34,206,50,67,51,282,52,76,55,043,51,78,07,263,43*63
$GLGSV,3,3,10,75,03,072,41,87,04,139,*65
$GAGSV,3,1,11,02,80,057,49,03,18,161,40,25,26,058,41,07,45,301,45*69
$GAGSV,3,2,11,30,43,238,46,08,61,203,48,12,05,015,31,16,03,058,*6D
$GAGSV,3,3,11,11,09,063,35,10,08,037,38,36,00,108,*58
$GBGSV,5,1,19,26,73,059,51,05,20,130,39,50,15,199,,45,18,083,42*65
$GBGSV,5,2,19,40,20,039,41,35,30,117,46,07,23,051,39,33,36,286,46*6E
$GBGSV,5,3,19,42,29,221,45,10,34,059,41,14,38,252,45,24,49,277,49*69
$GBGSV,5,4,19,56,39,064,,25,48,267,,41,09,331,,44,10,160,*6A
$GBGSV,5,5,19,02,04,109,30,57,02,342,,60,07,111,40*5F
$GPGGA,111502.00,,,,,0,00,,,M,,M,,*4E
$PTNL,GGK,111502.00,010125,4742.1600207,N,01618.1002480,E,1,37,0.8,EHT751.8098,M*4C
$GPGGQ,111502.00,010125,4742.1600207,N,01618.1002480,E,1,37,0.991,708.6032,M*39
$GPGFA,111502.00,4.163,6.767,0.438,0.330,345.551,0.825,,VVV*06
$GPLLK,111502.00,010125,,M,,M,1,37,0.9,,M*00
$GNGMP,111502.00,,,,,DAAA,37,0.4,,,,*50
$GPGMP,111502.00,,,,,,09,,,,3.6,136*73
$GLGMP,111502.00,,,,,,08,,,,,*71
$GAGMP,111502.00,,,,,,08,,,,,*7C
$GBGMP,111502.00,,,,,,12,,,,,*74
$PSSN,SNC,[0,299720000,2347]*43
$GPZDA,111507.00,01,01,2025,,*60
$GPDTM,W84,,00.0000000,N,00.0000000,E,00.0000000,W84*5F
$PSSN,TFM,111507.00,,,,*6C
$GPRMC,111507.00,A,4742.1600239,N,01618.1002484,E,0.0,,010125,5.1,E,D*11
$GPGLL,4742.1600239,N,01618.1002484,E,111507.00,A,D*60
$GPGGA,111507.00,4742.1600239,N,01618.1002484,E,2,36,0.4,708.5968,M,43.2066,M,2.3,0136*41
$GNGNS,111507.00,4742.1600239,N,01618.1002484,E,DAAA,36,0.4,708.5968,43.2066,,*58
$GPGNS,111507.00,,,,,,09,,,,2.3,136*72
$GLGNS,111507.00,,,,,,08,,,,,*74
$GAGNS,111507.00,,,,,,07,,,,,*76
$GBGNS,111507.00,,,,,,12,,,,,*71
$GPLLQ,111507.00,010125,,M,,M,1,36,0.987,,M*11
$GPVTG,,T,,M,0.01,N,0.01,K,D*26
$GPHDT,,T*1B
$GPTHS,,V*0E
$GPROT,,V*08
$PSSN,HRP,111507.00,010125,,,,,,,00,0,,*62
$PTNL,AVR,111507.00,,Yaw,,Tilt,,,,0,,00*34
$GPGSA,A,3,10,12,13,14,15,17,19,23,24,,,,0.8,0.4,0.7*31
$GPGSA,A,3,66,67,68,76,77,78,85,86,,,,,0.8,0.4,0.7*3B
$GPGSA,A,3,02,03,07,08,10,25,30,,,,,,0.8,0.4,0.7*32
$GPGSA,A,3,05,07,10,14,24,26,33,35,40,42,45,60,0.8,0.4,0.7*3E
$GPGST,111507.00,2.617,0.438,0.329,345.297,0.432,0.338,0.821*59
$GPGBS,111507.00,2.580,1.926,6.175,77,0.0001,-7.814,6.060*7C
$GPGRS,111507.00,1,-0.4,0.5,0.1,-0.5,0.1,-0.4,0.3,-0.5,-0.1,,,*49
$GPGRS,111507.00,1,-3.0,6.8,5.8,-2.2,-7.8,-3.7,3.6,-0.1,,,,*6F
$GPGRS,111507.00,1,-0.0,-0.9,0.2,0.5,0.2,-0.3,0.1,,,,,*40
$GPGRS,111507.00,1,-0.4,0.0,0.5,2.8,0.4,-1.2,0.1,-1.6,-0.1,-0.1,-0.4,-1.1*6E
$GPGSV,6,1,22,24,74,301,50,14,11,061,39,13,24,160,44,23,13,266,42*70
$GPGSV,6,2,22,15,40,198,47,10,15,307,41,22,32,058,,17,36,058,45*79
$GPGSV,6,3,22,12,42,240,47,19,49,099,47,02,02,015,29,25,04,244,36*71
$GPGSV,6,4,22,32,00,326,37,36,35,170,45,58,13,245,36,40,23,133,37*74
$GPGSV,6,5,22,34,31,208,43,49,34,195,45,57,07,111,37,41,07,108,35*79
$GPGSV,6,6,22,61,03,257,38*46
$GLGSV,3,1,10,77,59,297,46,85,23,038,46,68,20,332,46,86,25,098,46*67
$GLGSV,3,2,10,66,33,206,50,67,51,281,52,76,55,043,50,78,07,263,43*66
$GLGSV,3,3,10,75,03,072,41,87,05,139,*64
$GAGSV,3,1,11,02,80,057,49,03,18,161,40,25,26,058,41,07,45,301,45*69
$GAGSV,3,2,11,30,43,238,45,08,61,203,48,12,05,015,31,16,03,058,*6E
$GAGSV,3,3,11,11,09,063,35,10,08,037,37,36,00,108,*57
$GBGSV,5,1,19,26,73,060,51,05,20,130,39,50,15,199,,45,18,083,42*6F
$GBGSV,5,2,19,40,20,039,41,35,31,117,46,07,23,051,40,33,36,286,46*61
$GBGSV,5,3,19,42,29,221,45,10,34,059,42,14,38,252,46,24,49,277,49*69
$GBGSV,5,4,19,56,39,064,,25,48,267,,41,09,331,,44,10,160,*6A
$GBGSV,5,5,19,02,04,109,31,57,02,342,,60,07,111,40*5E
$GPGGA,111507.00,,,,,0,00,,,M,,M,,*4B
$PTNL,GGK,111507.00,010125,4742.1600239,N,01618.1002484,E,1,36,0.8,EHT751.8034,M*47
$GPGGQ,111507.00,010125,4742.1600239,N,01618.1002484,E,1,36,0.987,708.5968,M*36
$GPGFA,111507.00,4.168,6.730,0.438,0.329,345.297,0.821,,VVV*0B
$GPLLK,111507.00,010125,,M,,M,1,36,0.9,,M*04
$GNGMP,111507.00,,,,,DAAA,36,0.4,,,,*54
$GPGMP,111507.00,,,,,,09,,,,2.3,136*72
$GLGMP,111507.00,,,,,,08,,,,,*74
$GAGMP,111507.00,,,,,,07,,,,,*76
$GBGMP,111507.00,,,,,,12,,,,,*71
$PSSN,SNC,[0,299725000,2347]*46
$GPZDA,111512.00,01,01,2025,,*64
$GPDTM,W84,,00.0000000,N,00.0000000,E,00.0000000,W84*5F
$PSSN,TFM,111512.00,,,,*68
$GPRMC,111512.00,A,4742.1600260,N,01618.1002499,E,0.0,,010125,5.1,E,D*15
$GPGLL,4742.1600260,N,01618.1002499,E,111512.00,A,D*64
$GPGGA,111512.00,4742.1600260,N,01618.1002499,E,2,37,0.4,708.5918,M,43.2066,M,1.6,0136*45
$GNGNS,111512.00,4742.1600260,N,01618.1002499,E,DAAA,37,0.4,708.5918,43.2066,,*5A
$GPGNS,111512.00,,,,,,09,,,,1.6,136*70
$GLGNS,111512.00,,,,,,08,,,,,*70
$GAGNS,111512.00,,,,,,08,,,,,*7D
$GBGNS,111512.00,,,,,,12,,,,,*75
$GPLLQ,111512.00,010125,,M,,M,1,37,0.966,,M*1B
$GPVTG,,T,,M,0.00,N,0.00,K,D*26
$GPHDT,,T*1B
$GPTHS,,V*0E
$GPROT,,V*08
$PSSN,HRP,111512.00,010125,,,,,,,00,0,,*66
$PTNL,AVR,111512.00,,Yaw,,Tilt,,,,0,,00*30
$GPGSA,A,3,10,12,13,14,15,17,19,23,24,,,,0.8,0.4,0.7*31
$GPGSA,A,3,66,67,68,76,77,78,85,86,,,,,0.8,0.4,0.7*3B
$GPGSA,A,3,02,03,07,08,10,11,25,30,,,,,0.8,0.4,0.7*32
$GPGSA,A,3,05,07,10,14,24,26,33,35,40,42,45,60,0.8,0.4,0.7*3E
$GPGST,111512.00,2.540,0.431,0.323,345.044,0.425,0.331,0.802*5D
$GPGBS,111512.00,2.481,1.893,6.103,77,0.0001,-7.748,6.060*70
$GPGRS,111512.00,1,-0.3,0.4,-0.3,-0.6,-0.0,-0.0,0.4,-0.1,-0.2,,,*4F
$GPGRS,111512.00,1,-3.2,6.4,6.0,-2.2,-7.7,-3.6,3.0,-0.2,,,,*65
$GPGRS,111512.00,1,-0.0,-1.0,0.3,0.3,-0.2,-0.6,-0.2,0.1,,,,*62
$GPGRS,111512.00,1,-0.3,0.2,-0.1,2.6,0.3,-1.5,0.5,-2.4,-0.2,-0.0,-0.5,-1.3*4C
$GPGSV,6,1,22,24,74,301,50,14,11,061,39,13,24,160,44,23,13,266,41*73
$GPGSV,6,2,22,15,40,198,47,10,15,307,42,22,32,058,,17,36,058,46*79
$GPGSV,6,3,22,12,42,240,48,19,49,099,47,02,02,015,29,25,04,244,37*7F
$GPGSV,6,4,22,32,01,326,38,36,35,170,45,58,13,245,36,40,23,133,37*7A
$GPGSV,6,5,22,34,31,208,43,49,34,195,45,57,07,111,37,41,07,108,35*79
$GPGSV,6,6,22,61,03,257,38*46
$GLGSV,3,1,10,77,59,297,46,85,23,038,46,68,20,332,45,86,25,098,46*64
$GLGSV,3,2,10,66,33,206,50,67,51,281,51,76,55,043,51,78,07,263,44*63
$GLGSV,3,3,10,75,03,072,41,87,05,139,*64
$GAGSV,3,1,11,02,80,057,49,03,18,161,40,25,26,058,41,07,45,301,45*69
$GAGSV,3,2,11,30,43,238,46,08,61,203,49,12,05,015,31,16,03,058,*6C
$GAGSV,3,3,11,11,09,063,35,10,08,037,37,36,00,108,*57
$GBGSV,5,1,19,26,73,060,51,05,20,130,39,50,15,199,,45,18,083,42*6F
$GBGSV,5,2,19,40,20,039,41,35,31,117,46,07,23,051,40,33,36,286,47*60
$GBGSV,5,3,19,42,29,221,46,10,34,059,41,14,38,252,45,24,49,277,49*6A
$GBGSV,5,4,19,56,39,064,,25,48,267,,41,09,331,,44,10,160,*6A
$GBGSV,5,5,19,02,04,109,30,57,02,342,,60,07,111,40*5F
$GPGGA,111512.00,,,,,0,00,,,M,,M,,*4F
$PTNL,GGK,111512.00,010125,4742.1600260,N,01618.1002499,E,1,37,0.8,EHT751.7983,M*48
$GPGGQ,111512.00,010125,4742.1600260,N,01618.1002499,E,1,37,0.966,708.5918,M*3B
$GPGFA,111512.00,4.098,6.578,0.431,0.323,345.044,0.802,,VVV*01
$GPLLK,111512.00,010125,,M,,M,1,37,0.9,,M*01
$GNGMP,111512.00,,,,,DAAA,37,0.4,,,,*51
$GPGMP,111512.00,,,,,,09,,,,1.6,136*70
$GLGMP,111512.00,,,,,,08,,,,,*70
$GAGMP,111512.00,,,,,,08,,,,,*7D
$GBGMP,111512.00,,,,,,12,,,,,*75
$PSSN,SNC,[0,299730000,2347]*42
$GPZDA,111517.00,01,01,2025,,*61
$GPDTM,W84,,00.0000000,N,00.0000000,E,00.0000000,W84*5F
$PSSN,TFM,111517.00,,,,*6D
$GPRMC,111517.00,A,4742.1600242,N,01618.1002472,E,0.0,,010125,5.1,E,D*15
$GPGLL,4742.1600242,N,01618.1002472,E,111517.00,A,D*64
$GPGGA,111517.00,4742.1600242,N,01618.1002472,E,2,36,0.4,708.5893,M,43.2066,M,2.6,0136*45
$GNGNS,111517.00,4742.1600242,N,01618.1002472,E,DAAA,36,0.4,708.5893,43.2066,,*59
$GPGNS,111517.00,,,,,,09,,,,2.6,136*76
$GLGNS,111517.00,,,,,,08,,,,,*75
$GAGNS,111517.00,,,,,,07,,,,,*77
$GBGNS,111517.00,,,,,,12,,,,,*70
$GPLLQ,111517.00,010125,,M,,M,1,36,0.976,,M*1E
$GPVTG,,T,,M,0.00,N,0.01,K,D*27
$GPHDT,,T*1B
$GPTHS,,V*0E
$GPROT,,V*08
$PSSN,HRP,111517.00,010125,,,,,,,00,0,,*63
$PTNL,AVR,111517.00,,Yaw,,Tilt,,,,0,,00*35
$GPGSA,A,3,10,12,13,14,15,17,19,23,24,,,,0.8,0.4,0.7*31
$GPGSA,A,3,66,67,68,76,77,78,85,86,,,,,0.8,0.4,0.7*3B
$GPGSA,A,3,02,03,07,08,10,25,30,,,,,,0.8,0.4,0.7*32
$GPGSA,A,3,05,07,10,14,24,26,33,35,40,42,45,60,0.8,0.4,0.7*3E
$GPGST,111517.00,2.586,0.432,0.326,345.491,0.426,0.333,0.812*58
$GPGBS,111517.00,2.524,1.905,6.220,77,0.0001,-8.058,6.060*7E
$GPGRS,111517.00,1,-0.1,0.4,-0.3,-0.6,-0.3,0.3,0.2,-0.3,-0.1,,,*62
$GPGRS,111517.00,1,-2.8,5.9,6.4,-1.8,-8.1,-3.4,3.8,0.1,,,,*45
$GPGRS,111517.00,1,0.2,-1.0,0.2,0.4,-0.4,0.0,0.5,,,,,*66
$GPGRS,111517.00,1,0.2,0.6,-0.1,2.0,0.4,-1.5,0.4,-2.1,-0.0,0.2,-1.1,-1.2*4D
$GPGSV,6,1,22,24,74,301,50,14,11,061,39,13,24,160,43,23,13,266,40*75
$GPGSV,6,2,22,15,40,198,47,10,15,307,42,22,32,058,,17,36,058,46*79
$GPGSV,6,3,22,12,42,240,48,19,49,099,47,02,02,015,30,25,04,244,37*77
$GPGSV,6,4,22,32,01,326,38,36,35,170,45,58,13,245,36,40,23,133,37*7A
$GPGSV,6,5,22,34,31,208,43,49,34,195,45,57,07,111,37,41,07,108,35*79
$GPGSV,6,6,22,61,03,257,38*46
$GLGSV,3,1,10,77,59,297,46,85,23,038,46,68,20,332,46,86,25,098,47*66
$GLGSV,3,2,10,66,33,205,50,67,51,281,52,76,55,043,51,78,07,264,43*63
$GLGSV,3,3,10,75,03,072,41,87,05,139,*64
$GAGSV,3,1,11,02,80,057,49,03,18,161,40,25,26,058,42,07,45,301,46*69
$GAGSV,3,2,11,30,43,238,46,08,61,203,49,12,05,015,31,16,03,058,*6C
$GAGSV,3,3,11,11,09,063,35,10,08,037,37,36,00,108,*57
$GBGSV,5,1,19,26,73,060,51,05,20,130,39,50,15,199,,45,18,083,42*6F
$GBGSV,5,2,19,40,20,039,41,35,31,117,46,07,23,051,39,33,36,286,47*6E
$GBGSV,5,3,19,42,29,221,46,10,34,059,41,14,38,252,45,24,49,277,50*62
$GBGSV,5,4,19,56,39,064,,25,49,267,,41,09,331,,44,10,160,*6B
$GBGSV,5,5,19,02,04,109,31,57,02,342,,60,07,111,40*5E
$GPGGA,111517.00,,,,,0,00,,,M,,M,,*4A
$PTNL,GGK,111517.00,010125,4742.1600242,N,01618.1002472,E,1,36,0.8,EHT751.7958,M*4F
$GPGGQ,111517.00,010125,4742.1600242,N,01618.1002472,E,1,36,0.976,708.5893,M*39
$GPGFA,111517.00,4.106,6.660,0.432,0.326,345.491,0.812,,VVV*03
$GPLLK,111517.00,010125,,M,,M,1,36,0.9,,M*05
$GNGMP,111517.00,,,,,DAAA,36,0.4,,,,*55
$GPGMP,111517.00,,,,,,09,,,,2.6,136*76
$GLGMP,111517.00,,,,,,08,,,,,*75
$GAGMP,111517.00,,,,,,07,,,,,*77
$GBGMP,111517.00,,,,,,12,,,,,*70
$PSSN,SNC,[0,299735000,2347]*47
$GPZDA,111522.00,01,01,2025,,*67
$GPDTM,W84,,00.0000000,N,00.0000000,E,00.0000000,W84*5F
$PSSN,TFM,111522.00,,,,*6B
$GPRMC,111522.00,A,4742.1600226,N,01618.1002493,E,0.0,,010125,5.1,E,D*1E
$GPGLL,4742.1600226,N,01618.1002493,E,111522.00,A,D*6F
$GPGGA,111522.00,4742.1600226,N,01618.1002493,E,2,36,0.4,708.5864,M,43.2066,M,3.6,0136*47
$GNGNS,111522.00,4742.1600226,N,01618.1002493,E,DAAA,36,0.4,708.5864,43.2066,,*5A
$GPGNS,111522.00,,,,,,09,,,,3.6,136*71
$GLGNS,111522.00,,,,,,08,,,,,*73
$GAGNS,111522.00,,,,,,07,,,,,*71
$GBGNS,111522.00,,,,,,12,,,,,*76
$GPLLQ,111522.00,010125,,M,,M,1,36,0.991,,M*11
$GPVTG,,T,,M,0.00,N,0.00,K,D*26
$GPHDT,,T*1B
$GPTHS,,V*0E
$GPROT,,V*08
$PSSN,HRP,111522.00,010125,,,,,,,00,0,,*65
$PTNL,AVR,111522.00,,Yaw,,Tilt,,,,0,,00*33
$GPGSA,A,3,10,12,13,14,15,17,19,23,24,,,,0.8,0.4,0.7*31
$GPGSA,A,3,66,67,68,76,77,78,85,86,,,,,0.8,0.4,0.7*3B
$GPGSA,A,3,02,03,07,08,10,25,30,,,,,,0.8,0.4,0.7*32
$GPGSA,A,3,05,07,10,14,24,26,33,35,40,42,45,60,0.8,0.4,0.7*3E
$GPGST,111522.00,2.674,0.438,0.331,345.454,0.432,0.339,0.825*5E
$GPGBS,111522.00,2.579,1.914,6.311,77,0.0001,-7.756,6.060*75
$GPGRS,111522.00,1,0.2,0.5,-0.9,-0.6,-0.0,0.0,0.2,0.0,-0.1,,,*6F
$GPGRS,111522.00,1,-3.2,6.5,7.2,-2.2,-7.8,-2.8,4.2,0.1,,,,*4F
$GPGRS,111522.00,1,0.1,-0.8,0.2,0.4,-0.2,-0.0,0.2,,,,,*46
$GPGRS,111522.00,1,-0.2,0.7,0.4,1.3,0.6,-1.3,0.2,-1.7,0.0,0.2,-0.9,-1.1*6F
$GPGSV,6,1,22,24,74,301,50,14,11,061,39,13,24,160,43,23,13,266,41*74
$GPGSV,6,2,22,15,40,198,47,10,15,307,41,22,32,058,,17,36,058,46*7A
$GPGSV,6,3,22,12,42,240,48,19,49,099,48,02,02,015,30,25,04,244,37*78
$GPGSV,6,4,22,32,01,326,39,36,35,170,45,58,13,245,36,40,23,133,37*7B
$GPGSV,6,5,22,34,31,208,43,49,34,195,44,57,07,111,37,41,07,108,35*78
$GPGSV,6,6,22,61,03,257,38*46
$GLGSV,3,1,10,77,59,298,46,85,23,038,45,68,20,332,46,86,25,098,46*6B
$GLGSV,3,2,10,66,33,205,50,67,51,281,51,76,55,043,51,78,07,264,44*67
$GLGSV,3,3,10,75,03,072,41,87,05,139,*64
$GAGSV,3,1,11,02,80,057,49,03,18,161,39,25,26,058,41,07,45,301,45*67
$GAGSV,3,2,11,30,43,238,46,08,61,203,48,12,05,015,31,16,03,058,*6D
$GAGSV,3,3,11,11,09,063,34,10,08,037,37,36,00,107,*59
$GBGSV,5,1,19,26,73,060,51,05,20,130,39,50,15,198,,45,18,083,42*6E
$GBGSV,5,2,19,40,20,039,41,35,31,117,46,07,23,051,40,33,36,286,47*60
$GBGSV,5,3,19,42,29,221,46,10,34,059,41,14,38,252,45,24,50,277,50*6A
$GBGSV,5,4,19,56,39,064,,25,49,267,,41,09,331,,44,10,160,*6B
$GBGSV,5,5,19,02,04,109,30,57,02,342,,60,07,111,40*5F
$GPGGA,111522.00,,,,,0,00,,,M,,M,,*4C
$PTNL,GGK,111522.00,010125,4742.1600226,N,01618.1002493,E,1,36,0.8,EHT751.7930,M*4A
$GPGGQ,111522.00,010125,4742.1600226,N,01618.1002493,E,1,36,0.991,708.5864,M*33
$GPGFA,111522.00,4.168,6.762,0.438,0.331,345.454,0.825,,VVV*0F
$GPLLK,111522.00,010125,,M,,M,1,36,0.9,,M*03
$GNGMP,111522.00,,,,,DAAA,36,0.4,,,,*53
$GPGMP,111522.00,,,,,,09,,,,3.6,136*71
$GLGMP,111522.00,,,,,,08,,,,,*73
$GAGMP,111522.00,,,,,,07,,,,,*71
$GBGMP,111522.00,,,,,,12,,,,,*76
$PSSN,SNC,[0,299740000,2347]*45
$GPZDA,111527.00,01,01,2025,,*62
$GPDTM,W84,,00.0000000,N,00.0000000,E,00.0000000,W84*5F
$PSSN,TFM,111527.00,,,,*6E
$GPRMC,111527.00,A,4742.1600205,N,01618.1002519,E,0.0,,010125,5.1,E,D*19
$GPGLL,4742.1600205,N,01618.1002519,E,111527.00,A,D*68
$GPGGA,111527.00,4742.1600205,N,01618.1002519,E,2,36,0.4,708.5827,M,43.2066,M,2.3,0136*43
$GNGNS,111527.00,4742.1600205,N,01618.1002519,E,DAAA,36,0.4,708.5827,43.2066,,*5A
$GPGNS,111527.00,,,,,,09,,,,2.3,136*70
$GLGNS,111527.00,,,,,,08,,,,,*76
$GAGNS,111527.00,,,,,,07,,,,,*74
$GBGNS,111527.00,,,,,,12,,,,,*73
$GPLLQ,111527.00,010125,,M,,M,1,36,0.987,,M*13
$GPVTG,,T,,M,0.00,N,0.01,K,D*27
$GPHDT,,T*1B
$GPTHS,,V*0E
$GPROT,,V*08
$PSSN,HRP,111527.00,010125,,,,,,,00,0,,*60
$PTNL,AVR,111527.00,,Yaw,,Tilt,,,,0,,00*36
$GPGSA,A,3,10,12,13,14,15,17,19,23,24,,,,0.8,0.4,0.7*31
$GPGSA,A,3,66,67,68,76,77,78,85,86,,,,,0.8,0.4,0.7*3B
$GPGSA,A,3,02,03,07,08,10,25,30,,,,,,0.8,0.4,0.7*32
$GPGSA,A,3,05,07,10,14,24,26,33,35,40,42,45,60,0.8,0.4,0.7*3E
$GPGST,111527.00,2.682,0.439,0.330,345.201,0.433,0.338,0.820*51
$GPGBS,111527.00,2.589,1.930,6.152,77,0.0001,-8.660,6.060*77
$GPGRS,111527.00,1,-0.4,0.3,-0.8,-0.4,0.1,-0.0,0.3,0.4,-0.0,,,*41
$GPGRS,111527.00,1,-3.0,6.5,6.5,-2.5,-8.7,-3.4,3.5,-0.6,,,,*6E
$GPGRS,111527.00,1,0.2,-1.0,0.3,0.5,0.3,-0.0,0.1,,,,,*66
$GPGRS,111527.00,1,-0.2,0.4,0.6,0.8,0.2,-1.2,0.3,-1.7,-0.3,0.4,-0.7,-0.9*4A
$GPGSV,6,1,22,24,74,301,50,14,11,061,39,13,24,160,43,23,13,266,41*74
$GPGSV,6,2,22,15,40,198,47,10,15,307,41,22,32,058,,17,36,058,46*7A
$GPGSV,6,3,22,12,42,240,48,19,49,099,47,02,02,015,30,25,04,244,37*77
$GPGSV,6,4,22,32,01,326,38,36,35,170,45,58,13,245,36,40,23,133,37*7A
$GPGSV,6,5,22,34,31,208,43,49,34,195,45,57,07,111,37,41,07,108,35*79
$GPGSV,6,6,22,61,03,257,38*46
$GLGSV,3,1,10,77,59,298,46,85,23,038,46,68,20,332,45,86,25,098,47*6A
$GLGSV,3,2,10,66,33,205,50,67,51,281,51,76,55,043,50,78,07,264,44*66
$GLGSV,3,3,10,75,03,072,41,87,05,139,*64
$GAGSV,3,1,11,02,80,057,49,03,18,161,39,25,26,058,41,07,45,301,45*67
$GAGSV,3,2,11,30,44,238,46,08,61,203,48,12,05,015,31,16,03,058,*6A
$GAGSV,3,3,11,11,09,063,34,10,08,037,37,36,00,107,*59
$GBGSV,5,1,19,26,73,060,51,05,20,130,39,50,15,198,,45,18,083,43*6F
$GBGSV,5,2,19,40,20,039,41,35,31,117,46,07,23,051,40,33,36,286,47*60
$GBGSV,5,3,19,42,29,221,46,10,34,059,41,14,38,252,45,24,50,277,49*62
$GBGSV,5,4,19,56,39,064,,25,49,268,,41,09,331,,44,10,160,*64
$GBGSV,5,5,19,02,04,109,30,57,02,342,,60,07,111,40*5F
$GPGGA,111527.00,,,,,0,00,,,M,,M,,*49
$PTNL,GGK,111527.00,010125,4742.1600205,N,01618.1002519,E,1,36,0.8,EHT751.7893,M*45
$GPGGQ,111527.00,010125,4742.1600205,N,01618.1002519,E,1,36,0.987,708.5827,M*34
$GPGFA,111527.00,4.174,6.727,0.439,0.330,345.201,0.820,,VVV*05
$GPLLK,111527.00,010125,,M,,M,1,36,0.9,,M*06
$GNGMP,111527.00,,,,,DAAA,36,0.4,,,,*56
$GPGMP,111527.00,,,,,,09,,,,2.3,136*70
$GLGMP,111527.00,,,,,,08,,,,,*76
$GAGMP,111527.00,,,,,,07,,,,,*74
$GBGMP,111527.00,,,,,,12,,,,,*73
$PSSN,SNC,[0,299745000,2347]*40
$GPZDA,111532.00,01,01,2025,,*66
$GPDTM,W84,,00.0000000,N,00.0000000,E,00.0000000,W84*5F
$PSSN,TFM,111532.00,,,,*6A
$GPRMC,111532.00,A,4742.1600212,N,01618.1002542,E,0.0,,010125,5.1,E,D*15
$GPGLL,4742.1600212,N,01618.1002542,E,111532.00,A,D*64
$GPGGA,111532.00,4742.1600212,N,01618.1002542,E,2,36,0.4,708.5846,M,43.2066,M,1.6,0136*4E
$GNGNS,111532.00,4742.1600212,N,01618.1002542,E,DAAA,36,0.4,708.5846,43.2066,,*51
$GPGNS,111532.00,,,,,,09,,,,1.6,136*72
$GLGNS,111532.00,,,,,,08,,,,,*72
$GAGNS,111532.00,,,,,,07,,,,,*70
$GBGNS,111532.00,,,,,,12,,,,,*77
$GPLLQ,111532.00,010125,,M,,M,1,36,0.967,,M*19
$GPVTG,,T,,M,0.00,N,0.01,K,D*27
$GPHDT,,T*1B
$GPTHS,,V*0E
$GPROT,,V*08
$PSSN,HRP,111532.00,010125,,,,,,,00,0,,*64
$PTNL,AVR,111532.00,,Yaw,,Tilt,,,,0,,00*32
$GPGSA,A,3,10,12,13,14,15,17,19,23,24,,,,0.8,0.4,0.7*31
$GPGSA,A,3,66,67,68,76,77,78,85,86,,,,,0.8,0.4,0.7*3B
$GPGSA,A,3,02,03,07,08,10,25,30,,,,,,0.8,0.4,0.7*32
$GPGSA,A,3,05,07,10,14,24,26,33,35,40,42,45,60,0.8,0.4,0.7*3E
$GPGST,111532.00,2.574,0.432,0.324,345.006,0.425,0.332,0.803*58
$GPGBS,111532.00,2.484,1.901,6.116,77,0.0001,-7.939,6.060*71
$GPGRS,111532.00,1,0.1,0.2,-0.1,-0.7,0.2,-0.2,0.1,0.3,-0.2,,,*60
$GPGRS,111532.00,1,-3.4,6.2,6.2,-2.1,-7.9,-3.5,4.0,-0.2,,,,*6C
$GPGRS,111532.00,1,0.2,-0.8,0.3,0.6,0.0,0.2,-0.1,,,,,*69
$GPGRS,111532.00,1,0.0,0.7,0.3,0.8,0.2,-1.1,0.2,-1.6,-0.4,0.3,-0.5,-1.0*6E
$GPGSV,6,1,22,24,74,301,50,14,11,061,39,13,24,160,43,23,13,266,41*74
$GPGSV,6,2,22,15,40,198,47,10,15,307,41,22,32,058,,17,36,058,45*79
$GPGSV,6,3,22,12,42,240,47,19,49,099,47,02,02,015,29,25,04,244,37*70
$GPGSV,6,4,22,32,01,326,39,36,35,170,45,58,13,245,36,40,23,133,37*7B
$GPGSV,6,5,22,34,31,208,43,49,34,195,44,57,07,111,37,41,07,108,35*78
$GPGSV,6,6,22,61,03,257,38*46
$GLGSV,3,1,10,77,59,298,46,85,23,038,46,68,20,332,46,86,25,098,47*69
$GLGSV,3,2,10,66,33,205,50,67,51,281,51,76,55,043,51,78,07,264,43*60
$GLGSV,3,3,10,75,03,072,41,87,05,139,*64
$GAGSV,3,1,11,02,80,057,49,03,18,161,40,25,26,058,41,07,45,301,46*6A
$GAGSV,3,2,11,30,44,239,46,08,60,203,49,12,05,015,32,16,03,058,*68
$GAGSV,3,3,11,11,09,063,34,10,08,037,37,36,01,107,*58
$GBGSV,5,1,19,26,73,060,51,05,20,130,39,50,14,198,,45,18,083,43*6E
$GBGSV,5,2,19,40,20,039,41,35,31,117,45,07,23,051,40,33,36,286,47*63
$GBGSV,5,3,19,42,29,221,45,10,34,059,42,14,38,252,45,24,50,277,49*62
$GBGSV,5,4,19,56,39,064,,25,49,268,,41,09,331,,44,10,160,*64
$GBGSV,5,5,19,02,04,109,31,57,02,342,,60,07,111,40*5E
$GPGGA,111532.00,,,,,0,00,,,M,,M,,*4D
$PTNL,GGK,111532.00,010125,4742.1600212,N,01618.1002542,E,1,36,0.8,EHT751.7911,M*42
$GPGGQ,111532.00,010125,4742.1600212,N,01618.1002542,E,1,36,0.967,708.5846,M*31
$GPGFA,111532.00,4.105,6.583,0.432,0.324,345.006,0.803,,VVV*01
$GPLLK,111532.00,010125,,M,,M,1,36,0.9,,M*02
$GNGMP,111532.00,,,,,DAAA,36,0.4,,,,*52
$GPGMP,111532.00,,,,,,09,,,,1.6,136*72
$GLGMP,111532.00,,,,,,08,,,,,*72
$GAGMP,111532.00,,,,,,07,,,,,*70
$GBGMP,111532.00,,,,,,12,,,,,*77
$PSSN,SNC,[0,299750000,2347]*44
$GPZDA,111537.00,01,01,2025,,*63
$GPDTM,W84,,00.0000000,N,00.0000000,E,00.0000000,W84*5F
$PSSN,TFM,111537.00,,,,*6F
$GPRMC,111537.00,A,4742.1600218,N,01618.1002576,E,0.0,,010125,5.1,E,D*1D
$GPGLL,4742.1600218,N,01618.1002576,E,111537.00,A,D*6C
$GPGGA,111537.00,4742.1600218,N,01618.1002576,E,2,36,0.4,708.5846,M,43.2066,M,2.6,0136*45
$GNGNS,111537.00,4742.1600218,N,01618.1002576,E,DAAA,36,0.4,708.5846,43.2066,,*59
$GPGNS,111537.00,,,,,,09,,,,2.6,136*74
$GLGNS,111537.00,,,,,,08,,,,,*77
$GAGNS,111537.00,,,,,,07,,,,,*75
$GBGNS,111537.00,,,,,,12,,,,,*72
$GPLLQ,111537.00,010125,,M,,M,1,36,0.974,,M*1E
$GPVTG,,T,,M,0.01,N,0.01,K,D*26
$GPHDT,,T*1B
$GPTHS,,V*0E
$GPROT,,V*08
$PSSN,HRP,111537.00,010125,,,,,,,00,0,,*61
$PTNL,AVR,111537.00,,Yaw,,Tilt,,,,0,,00*37
$GPGSA,A,3,10,12,13,14,15,17,19,23,24,,,,0.8,0.4,0.7*31
$GPGSA,A,3,66,67,68,76,77,78,85,86,,,,,0.8,0.4,0.7*3B
$GPGSA,A,3,02,03,07,08,10,25,30,,,,,,0.8,0.4,0.7*32
$GPGSA,A,3,05,07,10,14,24,26,33,35,40,42,45,60,0.8,0.4,0.7*3E
$GPGST,111537.00,2.594,0.432,0.326,345.337,0.426,0.334,0.810*57
$GPGBS,111537.00,2.525,1.908,6.193,77,0.0001,-7.500,6.060*7C
$GPGRS,111537.00,1,0.0,0.1,-0.0,-0.8,0.3,-0.3,0.1,-0.2,0.0,,,*6A
$GPGRS,111537.00,1,-3.6,6.2,6.6,-2.0,-7.5,-3.7,3.5,0.4,,,,*49
$GPGRS,111537.00,1,0.2,-1.2,0.2,0.4,0.2,-0.0,0.1,,,,,*64
$GPGRS,111537.00,1,-0.4,0.7,0.6,2.3,0.3,-1.3,0.1,-1.2,-0.2,-0.3,-0.6,-1.3*61
$GPGSV,6,1,22,24,74,301,50,14,11,061,39,13,24,160,43,23,13,266,41*74
$GPGSV,6,2,22,15,40,198,47,10,15,307,41,22,32,058,,17,36,057,45*76
$GPGSV,6,3,22,12,42,240,47,19,49,099,47,02,02,015,32,25,04,244,37*7A
$GPGSV,6,4,22,32,01,326,39,36,35,170,45,58,13,245,36,40,23,133,37*7B
$GPGSV,6,5,22,34,31,208,43,49,34,195,45,57,07,111,37,41,07,108,35*79
$GPGSV,6,6,22,61,03,257,38*46
$GLGSV,3,1,10,77,59,298,46,85,23,038,46,68,20,332,46,86,25,097,47*66
$GLGSV,3,2,10,66,33,205,49,67,51,281,51,76,55,043,51,78,07,264,44*6F
$GLGSV,3,3,10,75,03,072,41,87,05,139,*64
$GAGSV,3,1,11,02,80,057,48,03,18,161,39,25,26,058,41,07,45,301,45*66
$GAGSV,3,2,11,30,44,239,46,08,60,203,48,12,05,015,32,16,03,058,*69
$GAGSV,3,3,11,11,09,063,34,10,08,037,37,36,01,107,*58
$GBGSV,5,1,19,26,72,060,51,05,20,130,39,50,14,198,,45,18,083,42*6E
$GBGSV,5,2,19,40,20,039,41,35,31,117,46,07,23,051,40,33,36,286,47*60
$GBGSV,5,3,19,42,29,221,46,10,34,059,42,14,38,252,45,24,50,277,49*61
$GBGSV,5,4,19,56,39,064,,25,49,268,,41,09,331,,44,10,160,*64
$GBGSV,5,5,19,02,04,109,30,57,02,342,,60,07,111,40*5F
$GPGGA,111537.00,,,,,0,00,,,M,,M,,*48
$PTNL,GGK,111537.00,010125,4742.1600218,N,01618.1002576,E,1,36,0.8,EHT751.7911,M*4A
$GPGGQ,111537.00,010125,4742.1600218,N,01618.1002576,E,1,36,0.974,708.5846,M*3B
$GPGFA,111537.00,4.112,6.641,0.432,0.326,345.337,0.810,,VVV*0E
$GPLLK,111537.00,010125,,M,,M,1,36,0.9,,M*07
$GNGMP,111537.00,,,,,DAAA,36,0.4,,,,*57
$GPGMP,111537.00,,,,,,09,,,,2.6,136*74
$GLGMP,111537.00,,,,,,08,,,,,*77
$GAGMP,111537.00,,,,,,07,,,,,*75
$GBGMP,111537.00,,,,,,12,,,,,*72
$PSSN,SNC,[0,299755000,2347]*41
$GPZDA,111542.00,01,01,2025,,*61
$GPDTM,W84,,00.0000000,N,00.0000000,E,00.0000000,W84*5F
$PSSN,TFM,111542.00,,,,*6D
$GPRMC,111542.00,A,4742.1600225,N,01618.1002568,E,0.0,,010125,5.1,E,D*1E
$GPGLL,4742.1600225,N,01618.1002568,E,111542.00,A,D*6F
$GPGGA,111542.00,4742.1600225,N,01618.1002568,E,2,36,0.4,708.5834,M,43.2066,M,3.6,0136*42
$GNGNS,111542.00,4742.1600225,N,01618.1002568,E,DAAA,36,0.4,708.5834,43.2066,,*5F
$GPGNS,111542.00,,,,,,09,,,,3.6,136*77
$GLGNS,111542.00,,,,,,08,,,,,*75
$GAGNS,111542.00,,,,,,07,,,,,*77
$GBGNS,111542.00,,,,,,12,,,,,*70
$GPLLQ,111542.00,010125,,M,,M,1,36,0.989,,M*1E
$GPVTG,,T,,M,0.00,N,0.01,K,D*27
$GPHDT,,T*1B
$GPTHS,,V*0E
$GPROT,,V*08
$PSSN,HRP,111542.00,010125,,,,,,,00,0,,*63
$PTNL,AVR,111542.00,,Yaw,,Tilt,,,,0,,00*35
$GPGSA,A,3,10,12,13,14,15,17,19,23,24,,,,0.8,0.4,0.7*31
$GPGSA,A,3,66,67,68,76,77,78,85,86,,,,,0.8,0.4,0.7*3B
$GPGSA,A,3,02,03,07,08,10,25,30,,,,,,0.8,0.4,0.7*32
$GPGSA,A,3,05,07,10,14,24,26,33,35,40,42,45,60,0.8,0.4,0.7*3E
$GPGST,111542.00,2.700,0.439,0.331,345.299,0.433,0.339,0.823*5B
$GPGBS,111542.00,2.580,1.918,6.284,77,0.0001,-8.136,6.060*7B
$GPGRS,111542.00,1,-0.0,0.4,-0.2,-1.3,0.0,0.2,0.1,-0.5,-0.2,,,*4F
$GPGRS,111542.00,1,-3.7,6.6,6.4,-2.3,-8.1,-3.3,3.8,0.7,,,,*4E
$GPGRS,111542.00,1,0.2,-1.1,0.5,0.4,0.1,0.1,0.2,,,,,*4E
$GPGRS,111542.00,1,0.1,1.0,0.8,2.7,0.3,-1.4,0.1,-1.0,-0.4,0.4,-0.4,-0.8*66
$GPGSV,6,1,22,24,74,301,50,14,11,061,39,13,24,160,43,23,13,266,41*74
$GPGSV,6,2,22,15,40,198,47,10,15,307,42,22,31,058,,17,36,057,45*76
$GPGSV,6,3,22,12,42,240,47,19,49,099,47,02,02,015,33,25,04,244,37*7B
$GPGSV,6,4,22,32,01,326,39,36,35,170,45,58,13,245,36,40,23,133,37*7B
$GPGSV,6,5,22,34,31,208,43,49,34,195,45,57,07,111,37,41,07,108,35*79
$GPGSV,6,6,22,61,03,257,38*46
$GLGSV,3,1,10,77,59,298,46,85,23,038,47,68,20,332,46,86,25,097,47*67
$GLGSV,3,2,10,66,33,205,50,67,51,281,52,76,55,043,51,78,07,264,42*62
$GLGSV,3,3,10,75,03,072,40,87,05,139,*65
$GAGSV,3,1,11,02,80,057,49,03,18,161,39,25,26,058,41,07,45,301,45*67
$GAGSV,3,2,11,30,44,239,46,08,60,203,48,12,05,015,32,16,03,058,*69
$GAGSV,3,3,11,11,09,063,34,10,08,037,37,36,01,107,*58
$GBGSV,5,1,19,26,72,060,51,05,20,130,39,50,14,198,,45,18,083,42*6E
$GBGSV,5,2,19,40,20,039,41,35,31,117,46,07,23,051,40,33,36,286,47*60
$GBGSV,5,3,19,42,29,221,46,10,34,059,42,14,38,252,45,24,50,277,49*61
$GBGSV,5,4,19,56,39,064,,25,49,268,,41,09,331,,44,10,160,*64
$GBGSV,5,5,19,02,04,109,30,57,02,342,,60,07,111,40*5F
$GPGGA,111542.00,,,,,0,00,,,M,,M,,*4A
$PTNL,GGK,111542.00,010125,4742.1600225,N,01618.1002568,E,1,36,0.8,EHT751.7900,M*49
$GPGGQ,111542.00,010125,4742.1600225,N,01618.1002568,E,1,36,0.989,708.5834,M*3F
$GPGFA,111542.00,4.173,6.745,0.439,0.331,345.299,0.823,,VVV*06
$GPLLK,111542.00,010125,,M,,M,1,36,0.9,,M*05
$GNGMP,111542.00,,,,,DAAA,36,0.4,,,,*55
$GPGMP,111542.00,,,,,,09,,,,3.6,136*77
$GLGMP,111542.00,,,,,,08,,,,,*75
$GAGMP,111542.00,,,,,,07,,,,,*77
$GBGMP,111542.00,,,,,,12,,,,,*70
$PSSN,SNC,[0,299760000,2347]*47
$GPZDA,111547.00,01,01,2025,,*64
$GPDTM,W84,,00.0000000,N,00.0000000,E,00.0000000,W84*5F
$PSSN,TFM,111547.00,,,,*68
$GPRMC,111547.00,A,4742.1600237,N,01618.1002591,E,0.0,,010125,5.1,E,D*1E
$GPGLL,4742.1600237,N,01618.1002591,E,111547.00,A,D*6F
$GPGGA,111547.00,4742.1600237,N,01618.1002591,E,2,36,0.4,708.5810,M,43.2066,M,2.3,0136*40
$GNGNS,111547.00,4742.1600237,N,01618.1002591,E,DAAA,36,0.4,708.5810,43.2066,,*59
$GPGNS,111547.00,,,,,,09,,,,2.3,136*76
$GLGNS,111547.00,,,,,,08,,,,,*70
$GAGNS,111547.00,,,,,,07,,,,,*72
$GBGNS,111547.00,,,,,,12,,,,,*75
$GPLLQ,111547.00,010125,,M,,M,1,36,0.986,,M*14
$GPVTG,,T,,M,0.00,N,0.00,K,D*26
$GPHDT,,T*1B
$GPTHS,,V*0E
$GPROT,,V*08
$PSSN,HRP,111547.00,010125,,,,,,,00,0,,*66
$PTNL,AVR,111547.00,,Yaw,,Tilt,,,,0,,00*30
$GPGSA,A,3,10,12,13,14,15,17,19,23,24,,,,0.8,0.4,0.7*31
$GPGSA,A,3,66,67,68,76,77,78,85,86,,,,,0.8,0.4,0.7*3B
$GPGSA,A,3,02,03,07,08,10,25,30,,,,,,0.8,0.4,0.7*32
$GPGSA,A,3,05,07,10,14,24,26,33,35,40,42,45,60,0.8,0.4,0.7*3E
$GPGST,111547.00,2.752,0.440,0.330,345.029,0.433,0.339,0.818*57
$GPGBS,111547.00,2.597,1.934,6.128,77,0.0001,-8.231,6.060*77
$GPGRS,111547.00,1,0.4,0.3,-0.1,-0.8,0.1,-0.2,0.0,-0.5,-0.0,,,*42
$GPGRS,111547.00,1,-2.9,7.0,6.9,-1.9,-8.2,-3.7,3.5,-0.1,,,,*66
$GPGRS,111547.00,1,0.1,-1.0,0.3,0.5,-0.0,-0.2,0.1,,,,,*4F
$GPGRS,111547.00,1,0.3,1.4,0.6,2.6,0.3,-1.4,0.2,-1.4,-0.6,0.3,-0.4,-1.0*61
$GPGSV,6,1,22,24,74,301,50,14,11,061,40,13,24,160,43,23,13,266,41*7A
$GPGSV,6,2,22,15,40,198,47,10,15,307,41,22,31,058,,17,35,057,45*76
$GPGSV,6,3,22,12,42,240,48,19,49,099,47,02,02,015,33,25,05,244,36*74
$GPGSV,6,4,22,32,01,326,38,36,35,170,45,58,13,245,36,40,23,133,37*7A
$GPGSV,6,5,22,34,31,208,43,49,34,195,45,57,07,111,37,41,07,108,35*79
$GPGSV,6,6,22,61,03,257,38*46
$GLGSV,3,1,10,77,59,298,46,85,23,038,46,68,20,332,46,86,25,097,47*66
$GLGSV,3,2,10,66,33,205,49,67,51,281,52,76,55,043,51,78,07,264,43*6B
$GLGSV,3,3,10,75,03,072,41,87,05,139,*64
$GAGSV,3,1,11,02,80,057,49,03,18,161,40,25,25,058,41,07,45,301,45*6A
$GAGSV,3,2,11,30,44,239,46,08,60,203,49,12,05,015,32,16,03,058,*68
$GAGSV,3,3,11,11,09,063,34,10,08,037,37,36,01,107,*58
$GBGSV,5,1,19,26,72,060,51,05,20,130,39,50,14,198,,45,18,083,41*6D
$GBGSV,5,2,19,40,20,039,41,35,31,117,46,07,23,051,40,33,36,286,47*60
$GBGSV,5,3,19,42,29,221,45,10,34,059,42,14,38,252,45,24,50,277,49*62
$GBGSV,5,4,19,56,39,064,,25,49,268,,41,10,331,,44,10,160,*6C
$GBGSV,5,5,19,02,04,109,30,57,02,342,,60,07,111,40*5F
$GPGGA,111547.00,,,,,0,00,,,M,,M,,*4F
$PTNL,GGK,111547.00,010125,4742.1600237,N,01618.1002591,E,1,36,0.8,EHT751.7875,M*4A
$GPGGQ,111547.00,010125,4742.1600237,N,01618.1002591,E,1,36,0.986,708.5810,M*36
$GPGFA,111547.00,4.179,6.711,0.440,0.330,345.029,0.818,,VVV*06
$GPLLK,111547.00,010125,,M,,M,1,36,0.9,,M*00
$GNGMP,111547.00,,,,,DAAA,36,0.4,,,,*50
$GPGMP,111547.00,,,,,,09,,,,2.3,136*76
$GLGMP,111547.00,,,,,,08,,,,,*70
$GAGMP,111547.00,,,,,,07,,,,,*72
$GBGMP,111547.00,,,,,,12,,,,,*75
$PSSN,SNC,[0,299765000,2347]*42
$GPZDA,111552.00,01,01,2025,,*60
$GPDTM,W84,,00.0000000,N,00.0000000,E,00.0000000,W84*5F
$PSSN,TFM,111552.00,,,,*6C
$GPRMC,111552.00,A,4742.1600221,N,01618.1002603,E,0.0,,010125,5.1,E,D*15
$GPGLL,4742.1600221,N,01618.1002603,E,111552.00,A,D*64
$GPGGA,111552.00,4742.1600221,N,01618.1002603,E,2,36,0.4,708.5807,M,43.2066,M,1.6,0136*4B
$GNGNS,111552.00,4742.1600221,N,01618.1002603,E,DAAA,36,0.4,708.5807,43.2066,,*54
$GPGNS,111552.00,,,,,,09,,,,1.6,136*74
$GLGNS,111552.00,,,,,,08,,,,,*74
$GAGNS,111552.00,,,,,,07,,,,,*76
$GBGNS,111552.00,,,,,,12,,,,,*71
$GPLLQ,111552.00,010125,,M,,M,1,36,0.966,,M*1E
$GPVTG,,T,,M,0.00,N,0.01,K,D*27
$GPHDT,,T*1B
$GPTHS,,V*0E
$GPROT,,V*08
$PSSN,HRP,111552.00,010125,,,,,,,00,0,,*62
$PTNL,AVR,111552.00,,Yaw,,Tilt,,,,0,,00*34
$GPGSA,A,3,10,12,13,14,15,17,19,23,24,,,,0.8,0.4,0.7*31
$GPGSA,A,3,66,67,68,76,77,78,85,86,,,,,0.8,0.4,0.7*3B
$GPGSA,A,3,02,03,07,08,10,25,30,,,,,,0.8,0.4,0.7*32
$GPGSA,A,3,05,07,10,14,24,26,33,35,40,42,45,60,0.8,0.4,0.7*3E
$GPGST,111552.00,2.671,0.432,0.324,344.824,0.426,0.333,0.801*51
$GPGBS,111552.00,2.494,1.904,6.092,77,0.0001,-8.221,6.060*73
$GPGRS,111552.00,1,-0.0,0.0,-0.2,-0.5,-0.1,0.4,0.1,0.0,-0.0,,,*4D
$GPGRS,111552.00,1,-3.6,6.2,6.9,-2.1,-8.2,-2.7,3.6,0.1,,,,*4B
$GPGRS,111552.00,1,0.1,-0.9,0.0,0.5,-0.3,-0.1,0.1,,,,,*40
$GPGRS,111552.00,1,-0.2,1.1,0.5,2.5,0.3,-1.4,0.1,-1.8,-0.4,-0.1,-0.6,-1.2*6E
$GPGSV,6,1,22,24,74,301,50,14,11,061,39,13,24,160,42,23,13,266,41*75
$GPGSV,6,2,22,15,40,198,47,10,15,307,41,22,31,058,,17,35,057,46*75
$GPGSV,6,3,22,12,42,240,48,19,49,099,48,02,02,015,33,25,05,244,37*7A
$GPGSV,6,4,22,32,01,326,37,36,35,170,45,58,13,245,37,40,23,133,37*74
$GPGSV,6,5,22,34,31,208,43,49,34,195,45,57,07,111,37,41,07,108,35*79
$GPGSV,6,6,22,61,03,257,38*46
$GLGSV,3,1,10,77,59,298,46,85,23,037,46,68,20,332,46,86,25,097,47*69
$GLGSV,3,2,10,66,33,205,49,67,51,281,52,76,55,044,51,78,07,264,44*6B
$GLGSV,3,3,10,75,03,072,41,87,05,139,*64
$GAGSV,3,1,11,02,79,056,49,03,18,161,40,25,25,058,41,07,45,301,45*6D
$GAGSV,3,2,11,30,44,239,46,08,60,203,49,12,05,015,32,16,03,058,*68
$GAGSV,3,3,11,11,09,063,34,10,08,037,37,36,01,107,*58
$GBGSV,5,1,19,26,72,060,51,05,20,130,39,50,14,198,,45,18,083,41*6D
$GBGSV,5,2,19,40,20,039,41,35,31,117,47,07,23,051,40,33,36,286,47*61
$GBGSV,5,3,19,42,29,221,46,10,34,059,42,14,38,252,45,24,50,277,50*69
$GBGSV,5,4,19,56,39,064,,25,49,268,,41,10,331,,44,10,160,*6C
$GBGSV,5,5,19,02,04,109,30,57,02,342,,60,07,111,40*5F
$GPGGA,111552.00,,,,,0,00,,,M,,M,,*4B
$PTNL,GGK,111552.00,010125,4742.1600221,N,01618.1002603,E,1,36,0.8,EHT751.7872,M*46
$GPGGQ,111552.00,010125,4742.1600221,N,01618.1002603,E,1,36,0.966,708.5807,M*35
$GPGFA,111552.00,4.110,6.567,0.432,0.324,344.824,0.801,,VVV*02
$GPLLK,111552.00,010125,,M,,M,1,36,0.9,,M*04
$GNGMP,111552.00,,,,,DAAA,36,0.4,,,,*54
$GPGMP,111552.00,,,,,,09,,,,1.6,136*74
$GLGMP,111552.00,,,,,,08,,,,,*74
$GAGMP,111552.00,,,,,,07,,,,,*76
$GBGMP,111552.00,,,,,,12,,,,,*71
$PSSN,SNC,[0,299770000,2347]*46
$GPZDA,111557.00,01,01,2025,,*65
$GPDTM,W84,,00.0000000,N,00.0000000,E,00.0000000,W84*5F
$PSSN,TFM,111557.00,,,,*69
$GPRMC,111557.00,A,4742.1600200,N,01618.1002585,E,0.0,,010125,5.1,E,D*1E
$GPGLL,4742.1600200,N,01618.1002585,E,111557.00,A,D*6F
$GPGGA,111557.00,4742.1600200,N,01618.1002585,E,2,36,0.4,708.5777,M,43.2066,M,2.6,0136*4B
$GNGNS,111557.00,4742.1600200,N,01618.1002585,E,DAAA,36,0.4,708.5777,43.2066,,*57
$GPGNS,111557.00,,,,,,09,,,,2.6,136*72
$GLGNS,111557.00,,,,,,08,,,,,*71
$GAGNS,111557.00,,,,,,07,,,,,*73
$GBGNS,111557.00,,,,,,12,,,,,*74
$GPLLQ,111557.00,010125,,M,,M,1,36,0.973,,M*1F
$GPVTG,,T,,M,0.00,N,0.01,K,D*27
$GPHDT,,T*1B
$GPTHS,,V*0E
$GPROT,,V*08
$PSSN,HRP,111557.00,010125,,,,,,,00,0,,*67
$PTNL,AVR,111557.00,,Yaw,,Tilt,,,,0,,00*31
$GPGSA,A,3,10,12,13,14,15,17,19,23,24,,,,0.8,0.4,0.7*31
$GPGSA,A,3,66,67,68,76,77,78,85,86,,,,,0.8,0.4,0.7*3B
$GPGSA,A,3,02,03,07,08,10,25,30,,,,,,0.8,0.4,0.7*32
$GPGSA,A,3,05,07,10,14,24,26,33,35,40,42,45,60,0.8,0.4,0.7*3E
$GPGST,111557.00,2.554,0.433,0.326,345.170,0.427,0.334,0.808*55
$GPGBS,111557.00,2.526,1.913,6.168,77,0.0001,-8.268,6.060*71
$GPGRS,111557.00,1,0.0,-0.0,-0.2,-0.6,-0.1,0.2,0.4,-0.2,-0.1,,,*66
$GPGRS,111557.00,1,-3.3,6.2,6.2,-2.3,-8.3,-1.8,2.7,1.0,,,,*4F
$GPGRS,111557.00,1,-0.1,-0.9,-0.1,0.2,-0.4,-0.0,-0.0,,,,,*69
$GPGRS,111557.00,1,0.1,1.2,0.8,1.8,0.1,-1.4,0.1,-2.1,-0.4,0.2,-1.2,-1.0*64
$GPGSV,6,1,22,24,74,301,50,14,11,061,40,13,24,160,43,23,13,266,41*7A
$GPGSV,6,2,22,15,40,198,47,10,15,307,41,22,31,058,,17,35,057,45*76
$GPGSV,6,3,22,12,43,240,48,19,49,099,47,02,02,015,32,25,05,244,37*75
$GPGSV,6,4,22,32,01,326,38,36,35,170,45,58,13,245,36,40,23,133,37*7A
$GPGSV,6,5,22,34,31,208,43,49,34,195,45,57,07,111,38,41,07,108,35*76
$GPGSV,6,6,22,61,03,257,38*46
$GLGSV,3,1,10,77,59,298,46,85,23,037,45,68,20,332,46,86,25,097,47*6A
$GLGSV,3,2,10,66,33,205,49,67,51,281,52,76,55,044,51,78,07,264,45*6A
$GLGSV,3,3,10,75,03,072,40,87,05,139,*65
$GAGSV,3,1,11,02,79,056,49,03,18,161,40,25,25,058,41,07,45,301,46*6E
$GAGSV,3,2,11,30,44,239,46,08,60,203,49,12,05,015,32,16,03,058,*68
$GAGSV,3,3,11,11,09,063,34,10,08,037,37,36,01,107,*58
$GBGSV,5,1,19,26,72,060,51,05,20,130,39,50,14,198,,45,18,083,41*6D
$GBGSV,5,2,19,40,20,039,41,35,31,117,46,07,23,051,40,33,36,286,47*60
$GBGSV,5,3,19,42,29,221,45,10,34,059,41,14,38,252,45,24,50,277,49*61
$GBGSV,5,4,19,56,39,064,,25,49,268,,41,10,331,,44,10,160,*6C
$GBGSV,5,5,19,02,04,109,30,57,02,342,,60,07,111,40*5F
$GPGGA,111557.00,,,,,0,00,,,M,,M,,*4E
$PTNL,GGK,111557.00,010125,4742.1600200,N,01618.1002585,E,1,36,0.8,EHT751.7843,M*4F
$GPGGQ,111557.00,010125,4742.1600200,N,01618.1002585,E,1,36,0.973,708.5777,M*32
$GPGFA,111557.00,4.117,6.625,0.433,0.326,345.170,0.808,,VVV*06
$GPLLK,111557.00,010125,,M,,M,1,36,0.9,,M*01
$GNGMP,111557.00,,,,,DAAA,36,0.4,,,,*51
$GPGMP,111557.00,,,,,,09,,,,2.6,136*72
$GLGMP,111557.00,,,,,,08,,,,,*71
$GAGMP,111557.00,,,,,,07,,,,,*73
$GBGMP,111557.00,,,,,,12,,,,,*74
$PSSN,SNC,[0,299775000,2347]*43
$GPZDA,111602.00,01,01,2025,,*66
$GPDTM,W84,,00.0000000,N,00.0000000,E,00.0000000,W84*5F
$PSSN,TFM,111602.00,,,,*6A
$GPRMC,111602.00,A,4742.1600208,N,01618.1002570,E,0.0,,010125,5.1,E,D*1F
$GPGLL,4742.1600208,N,01618.1002570,E,111602.00,A,D*6E
$GPGGA,111602.00,4742.1600208,N,01618.1002570,E,2,36,0.4,708.5794,M,43.2066,M,3.6,0136*46
$GNGNS,111602.00,4742.1600208,N,01618.1002570,E,DAAA,36,0.4,708.5794,43.2066,,*5B
$GPGNS,111602.00,,,,,,09,,,,3.6,136*70
$GLGNS,111602.00,,,,,,08,,,,,*72
$GAGNS,111602.00,,,,,,07,,,,,*70
$GBGNS,111602.00,,,,,,12,,,,,*77
$GPLLQ,111602.00,010125,,M,,M,1,36,0.988,,M*18
$GPVTG,,T,,M,0.00,N,0.00,K,D*26
$GPHDT,,T*1B
$GPTHS,,V*0E
$GPROT,,V*08
$PSSN,HRP,111602.00,010125,,,,,,,00,0,,*64
$PTNL,AVR,111602.00,,Yaw,,Tilt,,,,0,,00*32
$GPGSA,A,3,10,12,13,14,15,17,19,23,24,,,,0.8,0.4,0.7*31
$GPGSA,A,3,66,67,68,76,77,78,85,86,,,,,0.8,0.4,0.7*3B
$GPGSA,A,3,02,03,07,08,10,25,30,,,,,,0.8,0.4,0.7*32
$GPGSA,A,3,05,07,10,14,24,26,33,35,40,42,45,60,0.8,0.4,0.7*3E
$GPGST,111602.00,2.530,0.439,0.331,345.117,0.433,0.339,0.820*5B
$GPGBS,111602.00,2.581,1.922,6.257,77,0.0001,-7.846,6.060*7B
$GPGRS,111602.00,1,0.1,0.1,0.3,-0.6,-0.1,0.0,0.3,-0.6,-0.0,,,*64
$GPGRS,111602.00,1,-3.0,6.3,6.3,-1.6,-7.8,-2.9,2.9,0.2,,,,*42
$GPGRS,111602.00,1,0.3,-0.8,0.1,0.4,-0.6,0.2,0.2,,,,,*6D
$GPGRS,111602.00,1,-0.1,1.1,0.7,1.3,0.0,-1.0,0.1,-2.6,-0.7,-0.1,-1.0,-1.1*61
$GPGSV,6,1,22,24,74,301,50,14,11,062,40,13,23,160,43,23,13,266,40*7F
$GPGSV,6,2,22,15,40,198,47,10,15,307,41,22,31,058,,17,35,057,46*75
$GPGSV,6,3,22,12,43,240,48,19,49,099,47,02,02,015,32,25,05,244,37*75
$GPGSV,6,4,22,32,01,326,39,36,35,170,45,58,13,245,36,40,23,133,37*7B
$GPGSV,6,5,22,34,31,208,43,49,34,195,45,57,07,111,37,41,07,108,35*79
$GPGSV,6,6,22,61,03,257,38*46
$GLGSV,3,1,10,77,59,298,46,85,23,037,46,68,20,332,46,86,25,097,46*68
$GLGSV,3,2,10,66,33,205,50,67,51,281,51,76,55,044,51,78,07,264,43*67
$GLGSV,3,3,10,75,03,072,40,87,05,139,*65
$GAGSV,3,1,11,02,79,056,49,03,18,161,40,25,25,058,42,07,45,301,45*6E
$GAGSV,3,2,11,30,44,239,46,08,60,203,49,12,05,015,31,16,03,058,*6B
$GAGSV,3,3,11,11,09,063,34,10,08,037,37,36,01,107,*58
$GBGSV,5,1,19,26,72,060,51,44,10,160,,45,17,083,42,50,14,198,*68
$GBGSV,5,2,19,05,20,130,39,40,20,039,41,35,31,117,46,07,23,051,40*65
$GBGSV,5,3,19,33,36,286,47,42,29,221,45,10,34,059,41,14,38,252,45*67
$GBGSV,5,4,19,56,39,063,,24,50,277,49,25,49,268,,41,10,331,*61
$GBGSV,5,5,19,02,04,109,30,57,02,341,,60,07,111,40*5C
$GPGGA,111602.00,,,,,0,00,,,M,,M,,*4D
$PTNL,GGK,111602.00,010125,4742.1600208,N,01618.1002570,E,1,36,0.8,EHT751.7860,M*4F
$GPGGQ,111602.00,010125,4742.1600208,N,01618.1002570,E,1,36,0.988,708.5794,M*3A
$GPGFA,111602.00,4.178,6.728,0.439,0.331,345.117,0.820,,VVV*07
$GPLLK,111602.00,010125,,M,,M,1,36,0.9,,M*02
$GNGMP,111602.00,,,,,DAAA,36,0.4,,,,*52
$GPGMP,111602.00,,,,,,09,,,,3.6,136*70
$GLGMP,111602.00,,,,,,08,,,,,*72
$GAGMP,111602.00,,,,,,07,,,,,*70
$GBGMP,111602.00,,,,,,12,,,,,*77
$PSSN,SNC,[0,299780000,2347]*49
$GPZDA,111607.00,01,01,2025,,*63
$GPDTM,W84,,00.0000000,N,00.0000000,E,00.0000000,W84*5F
$PSSN,TFM,111607.00,,,,*6F
$GPRMC,111607.00,A,4742.1600204,N,01618.1002552,E,0.0,,010125,5.1,E,D*16
$GPGLL,4742.1600204,N,01618.1002552,E,111607.00,A,D*67
$GPGGA,111607.00,4742.1600204,N,01618.1002552,E,2,36,0.4,708.5781,M,43.2066,M,2.3,0136*4F
$GNGNS,111607.00,4742.1600204,N,01618.1002552,E,DAAA,36,0.4,708.5781,43.2066,,*56
$GPGNS,111607.00,,,,,,09,,,,2.3,136*71
$GLGNS,111607.00,,,,,,08,,,,,*77
$GAGNS,111607.00,,,,,,07,,,,,*75
$GBGNS,111607.00,,,,,,12,,,,,*72
$GPLLQ,111607.00,010125,,M,,M,1,36,0.985,,M*10
$GPVTG,,T,,M,0.01,N,0.01,K,D*26
$GPHDT,,T*1B
$GPTHS,,V*0E
$GPROT,,V*08
$PSSN,HRP,111607.00,010125,,,,,,,00,0,,*61
$PTNL,AVR,111607.00,,Yaw,,Tilt,,,,0,,00*37
$GPGSA,A,3,10,12,13,14,15,17,19,23,24,,,,0.8,0.4,0.7*31
$GPGSA,A,3,66,67,68,76,77,78,85,86,,,,,0.8,0.4,0.7*3B
$GPGSA,A,3,02,03,07,08,10,25,30,,,,,,0.8,0.4,0.7*32
$GPGSA,A,3,05,07,10,14,24,26,33,35,40,42,45,60,0.8,0.4,0.7*3E
$GPGST,111607.00,2.585,0.440,0.331,344.859,0.433,0.339,0.816*59
$GPGBS,111607.00,2.607,1.938,6.105,77,0.0001,-7.936,6.060*7A
$GPGRS,111607.00,1,0.0,-0.2,0.2,-0.8,0.2,-0.1,0.1,0.1,0.1,,,*47
$GPGRS,111607.00,1,-3.2,5.8,6.0,-1.8,-7.9,-4.2,4.0,-0.7,,,,*6B
$GPGRS,111607.00,1,-0.1,-0.8,-0.0,0.4,-0.2,-0.0,-0.0,,,,,*6F
$GPGRS,111607.00,1,-0.0,1.3,0.2,0.8,-0.1,-1.3,-0.1,-2.5,-0.4,0.2,-0.8,-1.2*4E
$GPGSV,6,1,22,24,74,301,50,14,11,062,40,13,23,160,43,23,13,266,40*7F
$GPGSV,6,2,22,15,40,198,47,10,15,307,41,22,31,058,,17,35,057,46*75
$GPGSV,6,3,22,12,43,240,48,19,49,099,48,02,02,015,31,25,05,244,36*78
$GPGSV,6,4,22,32,01,326,39,36,35,170,45,58,13,245,36,40,23,133,37*7B
$GPGSV,6,5,22,34,31,208,43,49,34,195,45,57,07,111,37,41,07,108,35*79
$GPGSV,6,6,22,61,03,257,38*46
$GLGSV,3,1,10,77,59,298,46,85,23,037,46,68,20,332,48,86,25,097,46*66
$GLGSV,3,2,10,66,33,205,50,67,51,281,51,76,55,044,51,78,07,264,44*60
$GLGSV,3,3,10,75,03,072,41,87,05,139,*64
$GAGSV,3,1,11,02,79,056,49,03,18,161,40,25,25,058,41,07,45,301,46*6E
$GAGSV,3,2,11,30,44,239,46,08,60,203,48,12,05,015,32,16,03,058,*69
$GAGSV,3,3,11,11,09,063,34,10,08,037,37,36,01,107,*58
$GBGSV,5,1,19,26,72,060,51,44,10,160,,45,17,083,42,50,14,198,*68
$GBGSV,5,2,19,05,20,130,39,40,20,039,41,35,31,117,46,07,23,051,40*65
$GBGSV,5,3,19,33,36,286,46,42,29,221,45,10,34,059,41,14,38,252,45*66
$GBGSV,5,4,19,56,39,063,,24,50,277,49,25,49,268,,41,10,331,*61
$GBGSV,5,5,19,02,04,109,30,57,02,341,,60,07,111,40*5C
$GPGGA,111607.00,,,,,0,00,,,M,,M,,*48
$PTNL,GGK,111607.00,010125,4742.1600204,N,01618.1002552,E,1,36,0.8,EHT751.7847,M*43
$GPGGQ,111607.00,010125,4742.1600204,N,01618.1002552,E,1,36,0.985,708.5781,M*3A
$GPGFA,111607.00,4.184,6.694,0.440,0.331,344.859,0.816,,VVV*0E
$GPLLK,111607.00,010125,,M,,M,1,36,0.9,,M*07
$GNGMP,111607.00,,,,,DAAA,36,0.4,,,,*57
$GPGMP,111607.00,,,,,,09,,,,2.3,136*71
$GLGMP,111607.00,,,,,,08,,,,,*77
$GAGMP,111607.00,,,,,,07,,,,,*75
$GBGMP,111607.00,,,,,,12,,,,,*72
$PSSN,SNC,[0,299785000,2347]*4C
$GPZDA,111612.00,01,01,2025,,*67
$GPDTM,W84,,00.0000000,N,00.0000000,E,00.0000000,W84*5F
$PSSN,TFM,111612.00,,,,*6B
$GPRMC,111612.00,A,4742.1600199,N,01618.1002555,E,0.0,,010125,5.1,E,D*12
$GPGLL,4742.1600199,N,01618.1002555,E,111612.00,A,D*63
$GPGGA,111612.00,4742.1600199,N,01618.1002555,E,2,37,0.4,708.5781,M,43.2066,M,1.6,0136*4C
$GNGNS,111612.00,4742.1600199,N,01618.1002555,E,DAAA,37,0.4,708.5781,43.2066,,*53
$GPGNS,111612.00,,,,,,09,,,,1.6,136*73
$GLGNS,111612.00,,,,,,08,,,,,*73
$GAGNS,111612.00,,,,,,08,,,,,*7E
$GBGNS,111612.00,,,,,,12,,,,,*76
$GPLLQ,111612.00,010125,,M,,M,1,37,0.964,,M*1A
$GPVTG,,T,,M,0.01,N,0.01,K,D*26
$GPHDT,,T*1B
$GPTHS,,V*0E
$GPROT,,V*08
$PSSN,HRP,111612.00,010125,,,,,,,00,0,,*65
$PTNL,AVR,111612.00,,Yaw,,Tilt,,,,0,,00*33
$GPGSA,A,3,10,12,13,14,15,17,19,23,24,,,,0.8,0.4,0.7*31
$GPGSA,A,3,66,67,68,76,77,78,85,86,,,,,0.8,0.4,0.7*3B
$GPGSA,A,3,02,03,07,08,10,11,25,30,,,,,0.8,0.4,0.7*32
$GPGSA,A,3,05,07,10,14,24,26,33,35,40,42,45,60,0.8,0.4,0.7*3E
$GPGST,111612.00,2.716,0.433,0.324,344.584,0.426,0.333,0.798*5F
$GPGBS,111612.00,2.498,1.905,6.029,77,0.0001,-8.142,6.060*7F
$GPGRS,111612.00,1,-0.3,-0.2,-0.1,-0.8,0.1,0.1,0.1,0.8,-0.2,,,*4A
$GPGRS,111612.00,1,-3.1,6.5,8.0,-1.9,-8.1,-3.2,3.1,-0.2,,,,*6E
$GPGRS,111612.00,1,0.2,-0.8,0.2,0.5,-0.5,-0.4,-0.0,0.3,,,,*45
$GPGRS,111612.00,1,0.1,1.3,0.5,1.9,0.4,-1.2,-0.0,-1.8,-0.2,0.1,-1.1,-0.8*41
$GPGSV,6,1,22,24,74,301,50,14,11,062,40,13,23,160,43,23,13,266,41*7E
$GPGSV,6,2,22,15,40,198,47,10,15,307,42,22,31,058,,17,35,057,46*76
$GPGSV,6,3,22,12,43,240,48,19,49,099,48,02,02,015,30,25,05,244,35*7A
$GPGSV,6,4,22,32,01,326,39,36,35,170,45,58,13,245,36,40,23,133,37*7B
$GPGSV,6,5,22,34,31,208,43,49,34,195,44,57,07,111,37,41,07,108,35*78
$GPGSV,6,6,22,61,03,257,38*46
$GLGSV,3,1,10,77,59,298,46,85,23,037,46,68,20,332,47,86,25,097,46*69
$GLGSV,3,2,10,66,33,205,50,67,51,281,52,76,55,044,51,78,07,264,43*64
$GLGSV,3,3,10,75,03,072,41,87,05,139,*64
$GAGSV,3,1,11,02,79,056,49,03,18,161,40,25,25,058,41,07,45,301,45*6D
$GAGSV,3,2,11,30,44,239,46,08,60,203,48,12,05,015,31,16,03,058,*6A
$GAGSV,3,3,11,11,09,063,35,10,08,037,37,36,01,107,*59
$GBGSV,5,1,19,26,72,060,51,44,10,160,,45,17,083,42,50,14,198,*68
$GBGSV,5,2,19,05,20,130,39,40,20,039,41,35,31,117,45,07,23,051,40*66
$GBGSV,5,3,19,33,36,286,46,42,29,221,45,10,34,059,41,14,38,252,45*66
$GBGSV,5,4,19,56,39,063,,24,50,277,49,25,49,268,,41,10,331,*61
$GBGSV,5,5,19,02,04,109,31,57,02,341,,60,07,111,40*5D
$GPGGA,111612.00,,,,,0,00,,,M,,M,,*4C
$PTNL,GGK,111612.00,010125,4742.1600199,N,01618.1002555,E,1,37,0.8,EHT751.7847,M*46
$GPGGQ,111612.00,010125,4742.1600199,N,01618.1002555,E,1,37,0.964,708.5781,M*30
$GPGFA,111612.00,4.114,6.541,0.433,0.324,344.584,0.798,,VVV*0C
$GPLLK,111612.00,010125,,M,,M,1,37,0.9,,M*02
$GNGMP,111612.00,,,,,DAAA,37,0.4,,,,*52
$GPGMP,111612.00,,,,,,09,,,,1.6,136*73
$GLGMP,111612.00,,,,,,08,,,,,*73
$GAGMP,111612.00,,,,,,08,,,,,*7E
$GBGMP,111612.00,,,,,,12,,,,,*76
$PSSN,SNC,[0,299790000,2347]*48
$GPZDA,111617.00,01,01,2025,,*62
$GPDTM,W84,,00.0000000,N,00.0000000,E,00.0000000,W84*5F
$PSSN,TFM,111617.00,,,,*6E
$GPRMC,111617.00,A,4742.1600216,N,01618.1002551,E,0.0,,010125,5.1,E,D*17
$GPGLL,4742.1600216,N,01618.1002551,E,111617.00,A,D*66
$GPGGA,111617.00,4742.1600216,N,01618.1002551,E,2,37,0.4,708.5783,M,43.2066,M,2.6,0136*48
$GNGNS,111617.00,4742.1600216,N,01618.1002551,E,DAAA,37,0.4,708.5783,43.2066,,*54
$GPGNS,111617.00,,,,,,09,,,,2.6,136*75
$GLGNS,111617.00,,,,,,08,,,,,*76
$GAGNS,111617.00,,,,,,08,,,,,*7B
$GBGNS,111617.00,,,,,,12,,,,,*73
$GPLLQ,111617.00,010125,,M,,M,1,37,0.976,,M*1C
$GPVTG,,T,,M,0.01,N,0.01,K,D*26
$GPHDT,,T*1B
$GPTHS,,V*0E
$GPROT,,V*08
$PSSN,HRP,111617.00,010125,,,,,,,00,0,,*60
$PTNL,AVR,111617.00,,Yaw,,Tilt,,,,0,,00*36
$GPGSA,A,3,10,12,13,14,15,17,19,23,24,,,,0.8,0.4,0.7*31
$GPGSA,A,3,66,67,68,76,77,78,85,86,,,,,0.8,0.4,0.7*3B
$GPGSA,A,3,02,03,07,08,10,11,25,30,,,,,0.8,0.4,0.7*32
$GPGSA,A,3,05,07,10,14,24,26,33,35,40,42,45,60,0.8,0.4,0.7*3E
$GPGST,111617.00,2.593,0.438,0.326,344.368,0.431,0.336,0.809*5C
$GPGBS,111617.00,2.545,1.926,6.091,77,0.0001,-7.942,6.060*7E
$GPGRS,111617.00,1,0.1,0.1,-0.1,-0.4,0.2,-0.0,0.2,-0.1,-0.1,,,*49
$GPGRS,111617.00,1,-3.4,6.6,6.5,-2.5,-7.9,-3.0,3.4,0.4,,,,*42
$GPGRS,111617.00,1,0.1,-0.8,0.2,0.5,0.2,-0.0,-0.2,0.2,,,,*6E
$GPGRS,111617.00,1,0.5,1.2,0.4,2.2,0.5,-1.3,0.1,-1.6,-0.2,0.2,-1.0,-1.0*61
$GPGSV,6,1,22,24,74,301,50,14,11,062,40,13,23,160,43,23,13,265,41*7D
$GPGSV,6,2,22,15,40,198,47,10,15,307,42,22,31,058,,17,35,057,46*76
$GPGSV,6,3,22,12,43,240,48,19,49,099,48,02,02,015,29,25,05,244,37*70
$GPGSV,6,4,22,32,01,326,39,36,35,170,45,58,13,245,36,40,23,133,37*7B
$GPGSV,6,5,22,34,31,208,43,49,34,195,45,57,07,111,37,41,07,108,35*79
$GPGSV,6,6,22,61,03,257,38*46
$GLGSV,3,1,10,77,59,298,46,85,23,037,46,68,21,332,46,86,25,097,47*68
$GLGSV,3,2,10,66,33,205,49,67,51,280,52,76,55,044,51,78,07,264,44*6A
$GLGSV,3,3,10,75,02,072,42,87,05,139,*66
$GAGSV,3,1,11,02,79,056,49,03,18,161,40,25,25,058,41,07,45,301,45*6D
$GAGSV,3,2,11,30,44,239,46,08,60,203,48,12,05,015,31,16,02,059,*6A
$GAGSV,3,3,11,11,09,063,35,10,08,037,37,36,01,107,*59
$GBGSV,5,1,19,26,72,060,51,44,10,160,,45,17,083,42,50,14,198,*68
$GBGSV,5,2,19,05,20,130,39,40,20,039,41,35,31,117,46,07,23,051,40*65
$GBGSV,5,3,19,33,36,286,46,42,29,221,45,10,34,059,41,14,38,252,45*66
$GBGSV,5,4,19,56,39,063,,24,50,277,49,25,49,268,,41,10,331,*61
$GBGSV,5,5,19,02,04,109,31,57,02,341,,60,07,111,40*5D
$GPGGA,111617.00,,,,,0,00,,,M,,M,,*49
$PTNL,GGK,111617.00,010125,4742.1600216,N,01618.1002551,E,1,37,0.8,EHT751.7848,M*4C
$GPGGQ,111617.00,010125,4742.1600216,N,01618.1002551,E,1,37,0.976,708.5783,M*34
$GPGFA,111617.00,4.161,6.635,0.438,0.326,344.368,0.809,,VVV*01
$GPLLK,111617.00,010125,,M,,M,1,37,0.9,,M*07
$GNGMP,111617.00,,,,,DAAA,37,0.4,,,,*57
$GPGMP,111617.00,,,,,,09,,,,2.6,136*75
$GLGMP,111617.00,,,,,,08,,,,,*76
$GAGMP,111617.00,,,,,,08,,,,,*7B
$GBGMP,111617.00,,,,,,12,,,,,*73
$PSSN,SNC,[0,299795000,2347]*4D
$GPZDA,111622.00,01,01,2025,,*64
$GPDTM,W84,,00.0000000,N,00.0000000,E,00.0000000,W84*5F
$PSSN,TFM,111622.00,,,,*68
$GPRMC,111622.00,A,4742.1600209,N,01618.1002546,E,0.0,,010125,5.1,E,D*19
$GPGLL,4742.1600209,N,01618.1002546,E,111622.00,A,D*68
$GPGGA,111622.00,4742.1600209,N,01618.1002546,E,2,36,0.4,708.5750,M,43.2066,M,3.6,0136*48
$GNGNS,111622.00,4742.1600209,N,01618.1002546,E,DAAA,36,0.4,708.5750,43.2066,,*55
$GPGNS,111622.00,,,,,,09,,,,3.6,136*72
$GLGNS,111622.00,,,,,,08,,,,,*70
$GAGNS,111622.00,,,,,,07,,,,,*72
$GBGNS,111622.00,,,,,,12,,,,,*75
$GPLLQ,111622.00,010125,,M,,M,1,36,0.992,,M*11
$GPVTG,,T,,M,0.01,N,0.01,K,D*26
$GPHDT,,T*1B
$GPTHS,,V*0E
$GPROT,,V*08
$PSSN,HRP,111622.00,010125,,,,,,,00,0,,*66
$PTNL,AVR,111622.00,,Yaw,,Tilt,,,,0,,00*30
$GPGSA,A,3,10,12,13,14,15,17,19,23,24,,,,0.8,0.4,0.7*31
$GPGSA,A,3,66,67,68,76,77,78,85,86,,,,,0.8,0.4,0.7*3B
$GPGSA,A,3,02,03,07,08,10,25,30,,,,,,0.8,0.4,0.7*32
