$GPZDA,194442.00,01,01,2025,,*6D
$GPDTM,W84,,00.0000000,N,00.0000000,E,00.0000000,W84*5F
$PSSN,TFM,194442.00,,,,*61
$GPRMC,194442.00,A,4742.1604721,N,01618.1002110,E,0.0,,010125,5.1,E,D*1C
$GPGLL,4742.1604721,N,01618.1002110,E,194442.00,A,D*6D
$GPGGA,194442.00,4742.1604721,N,01618.1002110,E,2,39,0.4,708.4961,M,43.2066,M,2.3,0136*4B
$GNGNS,194442.00,4742.1604721,N,01618.1002110,E,DAAA,39,0.4,708.4961,43.2066,,*52
$GPGNS,194442.00,,,,,,09,,,,2.3,136*7F
$GLGNS,194442.00,,,,,,08,,,,,*79
$GAGNS,194442.00,,,,,,07,,,,,*7B
$GBGNS,194442.00,,,,,,15,,,,,*7B
$GPLLQ,194442.00,010125,,M,,M,1,39,0.945,,M*1D
$GPVTG,,T,,M,0.00,N,0.00,K,D*26
$GPHDT,,T*1B
$GPTHS,,V*0E
$GPROT,,V*08
$PSSN,HRP,194442.00,010125,,,,,,,00,0,,*6F
$PTNL,AVR,194442.00,,Yaw,,Tilt,,,,0,,00*39
$GPGSA,A,3,07,08,10,15,16,18,23,26,27,,,,0.8,0.4,0.7*3D
$GPGSA,A,3,66,67,73,74,80,82,83,84,,,,,0.8,0.4,0.7*3A
$GPGSA,A,3,03,08,13,15,21,26,27,,,,,,0.8,0.4,0.7*36
$GPGSA,A,3,05,08,11,13,14,21,23,27,28,33,37,38,0.8,0.4,0.7*31
$GPGSA,A,3,42,43,60,,,,,,,,,,0.8,0.4,0.7*3E
$GPGST,194442.00,1.874,0.365,0.331,344.499,0.363,0.334,0.806*59
$GPGBS,194442.00,2.585,1.879,5.109,67,0.0001,6.100,6.121*52
$GPGRS,194442.00,1,0.2,0.1,0.1,-0.4,-0.2,0.1,-0.0,-0.1,0.1,,,*6B
$GPGRS,194442.00,1,-3.0,6.1,5.2,-3.6,-0.9,-1.2,-1.0,-2.3,,,,*4C
$GPGRS,194442.00,1,-0.8,-1.0,0.2,0.7,0.4,0.3,-0.5,,,,,*4D
$GPGRS,194442.00,1,0.4,1.0,2.2,1.0,1.8,-0.1,-0.5,-0.6,0.1,0.2,-0.1,-0.4*64
$GPGRS,194442.00,1,-0.2,0.2,-1.6,,,,,,,,,*69
$GPGSV,6,1,21,27,64,303,50,15,15,054,41,26,30,191,43,08,28,299,43*75
$GPGSV,6,2,21,18,35,062,45,10,48,166,49,16,56,216,48,23,59,088,47*76
$GPGSV,6,3,21,21,05,254,35,13,04,024,36,07,08,313,39,30,00,343,36*7F
$GPGSV,6,4,21,36,35,170,44,58,13,245,37,57,11,108,38,34,31,208,42*7C
$GPGSV,6,5,21,40,24,133,36,49,34,195,44,41,07,108,34,61,03,257,38*7B
$GPGSV,6,6,21*7A
$GLGSV,3,1,09,83,67,348,43,84,19,273,37,80,14,200,45,68,17,136,*68
$GLGSV,3,2,09,66,19,027,46,67,36,085,50,74,34,313,44,82,40,059,49*64
$GLGSV,3,3,09,73,42,254,50*58
$GAGSV,3,1,10,13,76,039,48,27,13,166,38,03,12,058,37,23,45,297,*66
$GAGSV,3,2,10,15,22,060,40,26,46,250,46,21,54,208,47,08,08,106,37*65
$GAGSV,3,3,10,05,02,012,30,31,03,327,37*6D
$GBGSV,6,1,23,28,65,293,51,21,11,031,41,46,22,308,,38,15,037,41*6B
$GBGSV,6,2,23,60,11,108,40,50,24,050,,05,23,128,38,08,29,037,40*64
$GBGSV,6,3,23,33,28,142,45,30,20,270,,31,26,054,,58,30,304,*69
$GBGSV,6,4,23,27,20,277,44,13,37,044,44,11,23,085,43,37,30,248,46*6B
$GBGSV,6,5,23,14,37,112,45,42,36,077,46,43,45,085,49,23,09,201,40*63
$GBGSV,6,6,23,57,03,220,,02,08,105,34,34,01,093,29*55
$GPGGA,194442.00,,,,,0,00,,,M,,M,,*46
$PTNL,GGK,194442.00,010125,4742.1604721,N,01618.1002110,E,1,39,0.8,EHT751.7027,M*48
$GPGGQ,194442.00,010125,4742.1604721,N,01618.1002110,E,1,39,0.945,708.4961,M*32
$GPGFA,194442.00,3.475,6.606,0.365,0.331,344.499,0.806,,VVV*06
$GPLLK,194442.00,010125,,M,,M,1,39,0.9,,M*06
$GNGMP,194442.00,,,,,DAAA,39,0.4,,,,*56
$GPGMP,194442.00,,,,,,09,,,,2.3,136*7F
$GLGMP,194442.00,,,,,,08,,,,,*79
$GAGMP,194442.00,,,,,,07,,,,,*7B
$GBGMP,194442.00,,,,,,15,,,,,*7B
$PSSN,SNC,[0,330300000,2347]*47
$GPZDA,194447.00,01,01,2025,,*68
$GPDTM,W84,,00.0000000,N,00.0000000,E,00.0000000,W84*5F
$PSSN,TFM,194447.00,,,,*64
$GPRMC,194447.00,A,4742.1604721,N,01618.1002119,E,0.0,,010125,5.1,E,D*10
$GPGLL,4742.1604721,N,01618.1002119,E,194447.00,A,D*61
$GPGGA,194447.00,4742.1604721,N,01618.1002119,E,2,39,0.4,708.4998,M,43.2066,M,3.3,0136*40
$GNGNS,194447.00,4742.1604721,N,01618.1002119,E,DAAA,39,0.4,708.4998,43.2066,,*58
$GPGNS,194447.00,,,,,,09,,,,3.3,136*7B
$GLGNS,194447.00,,,,,,08,,,,,*7C
$GAGNS,194447.00,,,,,,07,,,,,*7E
$GBGNS,194447.00,,,,,,15,,,,,*7E
$GPLLQ,194447.00,010125,,M,,M,1,39,0.955,,M*19
$GPVTG,,T,,M,0.00,N,0.00,K,D*26
$GPHDT,,T*1B
$GPTHS,,V*0E
$GPROT,,V*08
$PSSN,HRP,194447.00,010125,,,,,,,00,0,,*6A
$PTNL,AVR,194447.00,,Yaw,,Tilt,,,,0,,00*3C
$GPGSA,A,3,07,08,10,15,16,18,23,26,27,,,,0.8,0.4,0.7*3D
$GPGSA,A,3,66,67,73,74,80,82,83,84,,,,,0.8,0.4,0.7*3A
$GPGSA,A,3,03,08,13,15,21,26,27,,,,,,0.8,0.4,0.7*36
$GPGSA,A,3,05,08,11,13,14,21,23,27,28,33,37,38,0.8,0.4,0.7*31
$GPGSA,A,3,42,43,60,,,,,,,,,,0.8,0.4,0.7*3E
$GPGST,194447.00,1.858,0.367,0.334,348.546,0.365,0.336,0.816*5F
$GPGBS,194447.00,2.641,1.912,5.204,67,0.0001,5.985,6.121*58
$GPGRS,194447.00,1,0.4,0.2,0.1,-0.2,-0.2,0.1,-0.1,-0.1,-0.2,,,*42
$GPGRS,194447.00,1,-3.0,6.0,5.1,-4.1,-0.5,-0.6,-1.1,-2.2,,,,*42
$GPGRS,194447.00,1,-0.5,-0.8,0.3,0.7,0.5,0.4,-0.6,,,,,*48
$GPGRS,194447.00,1,0.6,1.3,2.3,0.8,1.3,-0.0,-0.7,-0.1,-0.1,0.3,-0.0,-0.5*4B
$GPGRS,194447.00,1,-0.2,0.3,-1.4,,,,,,,,,*6F
$GPGSV,6,1,21,27,64,303,50,15,15,053,40,26,30,191,43,08,29,299,43*72
$GPGSV,6,2,21,18,35,062,44,10,48,166,49,16,56,216,48,23,59,088,47*77
$GPGSV,6,3,21,21,05,254,34,13,04,024,36,07,08,313,39,30,00,343,36*7E
$GPGSV,6,4,21,36,35,170,45,58,13,245,37,57,11,108,38,34,31,208,42*7D
$GPGSV,6,5,21,40,24,133,36,49,34,195,44,41,07,108,34,61,03,257,38*7B
$GPGSV,6,6,21*7A
$GLGSV,3,1,09,83,67,348,42,84,19,273,37,80,14,200,45,68,17,136,*69
$GLGSV,3,2,09,66,19,027,46,67,36,084,49,74,34,313,44,82,40,059,49*6D
$GLGSV,3,3,09,73,42,254,50*58
$GAGSV,3,1,10,13,76,039,48,27,13,166,38,03,12,058,37,23,45,297,*66
$GAGSV,3,2,10,15,22,060,41,26,46,250,46,21,54,207,47,08,08,106,37*6B
$GAGSV,3,3,10,05,02,012,30,31,03,327,37*6D
$GBGSV,6,1,23,28,65,293,51,21,11,031,41,46,22,308,,38,15,037,41*6B
$GBGSV,6,2,23,60,11,108,40,50,24,050,,05,23,128,38,08,29,037,40*64
$GBGSV,6,3,23,33,28,142,45,30,20,270,,31,26,054,,58,30,304,*69
$GBGSV,6,4,23,27,20,277,44,13,37,044,44,11,23,085,43,37,30,248,46*6B
$GBGSV,6,5,23,14,37,112,45,42,36,077,47,43,45,085,49,23,09,201,41*63
$GBGSV,6,6,23,57,03,220,,02,08,105,35,34,01,093,28*55
$GPGGA,194447.00,,,,,0,00,,,M,,M,,*43
$PTNL,GGK,194447.00,010125,4742.1604721,N,01618.1002119,E,1,39,0.8,EHT751.7063,M*44
$GPGGQ,194447.00,010125,4742.1604721,N,01618.1002119,E,1,39,0.955,708.4998,M*39
$GPGFA,194447.00,3.486,6.694,0.367,0.334,348.546,0.816,,VVV*0D
$GPLLK,194447.00,010125,,M,,M,1,39,0.9,,M*03
$GNGMP,194447.00,,,,,DAAA,39,0.4,,,,*53
$GPGMP,194447.00,,,,,,09,,,,3.3,136*7B
$GLGMP,194447.00,,,,,,08,,,,,*7C
$GAGMP,194447.00,,,,,,07,,,,,*7E
$GBGMP,194447.00,,,,,,15,,,,,*7E
$PSSN,SNC,[0,330305000,2347]*42
$GPZDA,194452.00,01,01,2025,,*6C
$GPDTM,W84,,00.0000000,N,00.0000000,E,00.0000000,W84*5F
$PSSN,TFM,194452.00,,,,*60
$GPRMC,194452.00,A,4742.1604725,N,01618.1002098,E,0.0,,010125,5.1,E,D*18
$GPGLL,4742.1604725,N,01618.1002098,E,194452.00,A,D*69
$GPGGA,194452.00,4742.1604725,N,01618.1002098,E,2,39,0.4,708.4970,M,43.2066,M,1.7,0136*48
$GNGNS,194452.00,4742.1604725,N,01618.1002098,E,DAAA,39,0.4,708.4970,43.2066,,*56
$GPGNS,194452.00,,,,,,09,,,,1.7,136*79
$GLGNS,194452.00,,,,,,08,,,,,*78
$GAGNS,194452.00,,,,,,07,,,,,*7A
$GBGNS,194452.00,,,,,,15,,,,,*7A
$GPLLQ,194452.00,010125,,M,,M,1,39,0.949,,M*10
$GPVTG,,T,,M,0.00,N,0.00,K,D*26
$GPHDT,,T*1B
$GPTHS,,V*0E
$GPROT,,V*08
$PSSN,HRP,194452.00,010125,,,,,,,00,0,,*6E
$PTNL,AVR,194452.00,,Yaw,,Tilt,,,,0,,00*38
$GPGSA,A,3,07,08,10,15,16,18,23,26,27,,,,0.8,0.4,0.7*3D
$GPGSA,A,3,66,67,73,74,80,82,83,84,,,,,0.8,0.4,0.7*3A
$GPGSA,A,3,03,08,13,15,21,26,27,,,,,,0.8,0.4,0.7*36
$GPGSA,A,3,05,08,11,13,14,21,23,27,28,33,37,38,0.8,0.4,0.7*31
$GPGSA,A,3,42,43,60,,,,,,,,,,0.8,0.4,0.7*3E
$GPGST,194452.00,1.889,0.366,0.333,345.770,0.365,0.335,0.810*5E
$GPGBS,194452.00,2.574,1.830,4.903,67,0.0001,5.837,6.121*5D
$GPGRS,194452.00,1,0.4,-0.3,0.2,0.2,-0.0,0.1,0.0,-0.0,-0.1,,,*68
$GPGRS,194452.00,1,-2.9,5.8,5.0,-4.0,-0.0,-1.4,-1.7,-3.2,,,,*44
$GPGRS,194452.00,1,-0.5,-0.9,0.3,0.8,0.5,0.3,-0.7,,,,,*44
$GPGRS,194452.00,1,0.1,1.0,2.3,0.7,1.1,-0.2,-0.5,0.1,0.1,0.8,-0.2,-0.5*4F
$GPGRS,194452.00,1,-0.5,0.2,-1.7,,,,,,,,,*6E
$GPGSV,6,1,21,27,64,303,50,15,15,053,40,26,30,191,44,08,29,299,43*75
$GPGSV,6,2,21,18,35,062,44,10,49,166,49,16,56,216,48,23,59,088,47*76
$GPGSV,6,3,21,21,05,254,34,13,04,024,35,07,08,313,39,30,00,343,36*7D
$GPGSV,6,4,21,36,35,170,44,58,13,245,37,57,11,108,38,34,31,208,42*7C
$GPGSV,6,5,21,40,24,133,36,49,34,195,44,41,07,108,34,61,03,257,38*7B
$GPGSV,6,6,21*7A
$GLGSV,3,1,09,83,67,348,43,84,20,273,37,80,14,200,45,68,17,136,*62
$GLGSV,3,2,09,66,19,027,46,67,36,084,49,74,34,313,44,82,40,059,47*63
$GLGSV,3,3,09,73,42,254,50*58
$GAGSV,3,1,10,13,76,039,48,27,13,166,38,03,12,058,38,23,45,297,*69
$GAGSV,3,2,10,15,22,060,41,26,46,250,46,21,54,207,47,08,08,106,37*6B
$GAGSV,3,3,10,05,02,012,30,31,03,327,36*6C
$GBGSV,6,1,23,28,65,293,51,21,11,031,40,46,22,308,,38,15,037,40*6B
$GBGSV,6,2,23,60,11,108,40,50,24,050,,05,23,128,37,08,29,037,39*65
$GBGSV,6,3,23,33,28,142,45,30,20,270,,31,26,054,,58,30,304,*69
$GBGSV,6,4,23,27,20,277,44,13,37,044,43,11,23,085,43,37,30,248,46*6C
$GBGSV,6,5,23,14,37,112,45,42,36,077,46,43,45,085,48,23,09,201,41*63
$GBGSV,6,6,23,57,03,220,,02,08,105,34,34,01,093,29*55
$GPGGA,194452.00,,,,,0,00,,,M,,M,,*47
$PTNL,GGK,194452.00,010125,4742.1604725,N,01618.1002098,E,1,39,0.8,EHT751.7036,M*4C
$GPGGQ,194452.00,010125,4742.1604725,N,01618.1002098,E,1,39,0.949,708.4970,M*3A
$GPGFA,194452.00,3.484,6.642,0.366,0.333,345.770,0.810,,VVV*0A
$GPLLK,194452.00,010125,,M,,M,1,39,0.9,,M*07
$GNGMP,194452.00,,,,,DAAA,39,0.4,,,,*57
$GPGMP,194452.00,,,,,,09,,,,1.7,136*79
$GLGMP,194452.00,,,,,,08,,,,,*78
$GAGMP,194452.00,,,,,,07,,,,,*7A
$GBGMP,194452.00,,,,,,15,,,,,*7A
$PSSN,SNC,[0,330310000,2347]*46
$GPZDA,194457.00,01,01,2025,,*69
$GPDTM,W84,,00.0000000,N,00.0000000,E,00.0000000,W84*5F
$PSSN,TFM,194457.00,,,,*65
$GPRMC,194457.00,A,4742.1604732,N,01618.1002074,E,0.0,,010125,5.1,E,D*19
$GPGLL,4742.1604732,N,01618.1002074,E,194457.00,A,D*68
$GPGGA,194457.00,4742.1604732,N,01618.1002074,E,2,39,0.4,708.4985,M,43.2066,M,2.7,0136*40
$GNGNS,194457.00,4742.1604732,N,01618.1002074,E,DAAA,39,0.4,708.4985,43.2066,,*5D
$GPGNS,194457.00,,,,,,09,,,,2.7,136*7F
$GLGNS,194457.00,,,,,,08,,,,,*7D
$GAGNS,194457.00,,,,,,07,,,,,*7F
$GBGNS,194457.00,,,,,,15,,,,,*7F
$GPLLQ,194457.00,010125,,M,,M,1,39,0.932,,M*19
$GPVTG,,T,,M,0.00,N,0.00,K,D*26
$GPHDT,,T*1B
$GPTHS,,V*0E
$GPROT,,V*08
$PSSN,HRP,194457.00,010125,,,,,,,00,0,,*6B
$PTNL,AVR,194457.00,,Yaw,,Tilt,,,,0,,00*3D
$GPGSA,A,3,07,08,10,15,16,18,23,26,27,,,,0.8,0.4,0.7*3D
$GPGSA,A,3,66,67,73,74,80,82,83,84,,,,,0.8,0.4,0.7*3A
$GPGSA,A,3,03,08,13,15,21,26,27,,,,,,0.8,0.4,0.7*36
$GPGSA,A,3,05,08,11,13,14,21,23,27,28,33,37,38,0.8,0.4,0.7*31
$GPGSA,A,3,42,43,60,,,,,,,,,,0.8,0.4,0.7*3E
$GPGST,194457.00,1.869,0.363,0.326,341.863,0.360,0.330,0.794*5E
$GPGBS,194457.00,2.628,1.855,4.967,67,0.0001,6.589,6.121*58
$GPGRS,194457.00,1,0.4,-0.0,0.1,-0.4,0.0,0.0,0.0,-0.2,0.0,,,*44
$GPGRS,194457.00,1,-2.6,6.6,5.4,-3.2,0.2,-1.2,-2.3,-1.7,,,,*6B
$GPGRS,194457.00,1,-0.1,-1.0,0.5,0.8,0.6,0.4,-0.7,,,,,*4F
$GPGRS,194457.00,1,0.7,0.5,1.4,0.3,1.0,-0.3,-0.2,0.1,-0.2,1.0,-0.2,-0.3*6E
$GPGRS,194457.00,1,-1.0,0.2,-1.7,,,,,,,,,*6F
$GPGSV,6,1,21,27,64,303,50,15,15,053,39,26,30,191,44,08,29,299,43*7B
$GPGSV,6,2,21,18,35,062,45,10,49,165,49,16,56,216,48,23,59,088,47*74
$GPGSV,6,3,21,21,05,254,34,13,04,024,36,07,08,313,40,30,00,343,36*70
$GPGSV,6,4,21,36,35,170,44,58,13,245,37,57,11,108,38,34,31,208,42*7C
$GPGSV,6,5,21,40,24,133,36,49,34,195,43,41,07,108,34,61,03,257,38*7C
$GPGSV,6,6,21*7A
$GLGSV,3,1,09,83,67,348,42,84,20,273,37,80,14,200,46,68,17,136,*60
$GLGSV,3,2,09,66,19,027,46,67,36,084,50,74,34,313,44,82,40,059,48*64
$GLGSV,3,3,09,73,42,254,50*58
$GAGSV,3,1,10,13,76,039,47,27,13,166,38,03,12,058,37,23,45,297,*69
$GAGSV,3,2,10,15,22,060,40,26,46,250,46,21,54,207,47,08,08,106,37*6A
$GAGSV,3,3,10,05,02,012,29,31,03,327,36*64
$GBGSV,6,1,23,28,65,294,50,21,11,031,40,46,22,308,,38,15,037,40*6D
$GBGSV,6,2,23,60,11,108,40,50,24,050,,05,23,128,37,08,29,037,39*65
$GBGSV,6,3,23,33,28,142,45,30,20,270,,31,26,054,,58,30,304,*69
$GBGSV,6,4,23,27,20,277,44,13,37,044,43,11,23,085,42,37,30,248,45*6E
$GBGSV,6,5,23,14,37,112,45,42,36,077,46,43,45,085,48,23,09,201,41*63
$GBGSV,6,6,23,57,03,220,,02,08,105,35,34,01,093,29*54
$GPGGA,194457.00,,,,,0,00,,,M,,M,,*42
$PTNL,GGK,194457.00,010125,4742.1604732,N,01618.1002074,E,1,39,0.8,EHT751.7050,M*4D
$GPGGQ,194457.00,010125,4742.1604732,N,01618.1002074,E,1,39,0.932,708.4985,M*3D
$GPGFA,194457.00,3.454,6.514,0.363,0.326,341.863,0.794,,VVV*09
$GPLLK,194457.00,010125,,M,,M,1,39,0.9,,M*02
$GNGMP,194457.00,,,,,DAAA,39,0.4,,,,*52
$GPGMP,194457.00,,,,,,09,,,,2.7,136*7F
$GLGMP,194457.00,,,,,,08,,,,,*7D
$GAGMP,194457.00,,,,,,07,,,,,*7F
$GBGMP,194457.00,,,,,,15,,,,,*7F
$PSSN,SNC,[0,330315000,2347]*43
$GPZDA,194502.00,01,01,2025,,*68
$GPDTM,W84,,00.0000000,N,00.0000000,E,00.0000000,W84*5F
$PSSN,TFM,194502.00,,,,*64
$GPRMC,194502.00,A,4742.1604736,N,01618.1002086,E,0.0,,010125,5.1,E,D*11
$GPGLL,4742.1604736,N,01618.1002086,E,194502.00,A,D*60
$GPGGA,194502.00,4742.1604736,N,01618.1002086,E,2,39,0.4,708.4964,M,43.2066,M,2.3,0136*43
$GNGNS,194502.00,4742.1604736,N,01618.1002086,E,DAAA,39,0.4,708.4964,43.2066,,*5A
$GPGNS,194502.00,,,,,,09,,,,2.3,136*7A
$GLGNS,194502.00,,,,,,08,,,,,*7C
$GAGNS,194502.00,,,,,,07,,,,,*7E
$GBGNS,194502.00,,,,,,15,,,,,*7E
$GPLLQ,194502.00,010125,,M,,M,1,39,0.943,,M*1E
$GPVTG,,T,,M,0.00,N,0.01,K,D*27
$GPHDT,,T*1B
$GPTHS,,V*0E
$GPROT,,V*08
$PSSN,HRP,194502.00,010125,,,,,,,00,0,,*6A
$PTNL,AVR,194502.00,,Yaw,,Tilt,,,,0,,00*3C
$GPGSA,A,3,07,08,10,15,16,18,23,26,27,,,,0.8,0.4,0.7*3D
$GPGSA,A,3,66,67,73,74,80,82,83,84,,,,,0.8,0.4,0.7*3A
$GPGSA,A,3,03,08,13,15,21,26,27,,,,,,0.8,0.4,0.7*36
$GPGSA,A,3,05,08,11,13,14,21,23,27,28,33,37,38,0.8,0.4,0.7*31
$GPGSA,A,3,42,43,60,,,,,,,,,,0.8,0.4,0.7*3E
$GPGST,194502.00,1.924,0.365,0.331,343.993,0.363,0.334,0.804*5A
$GPGBS,194502.00,2.585,1.880,5.107,67,0.0001,6.963,6.121*52
$GPGRS,194502.00,1,0.1,0.3,0.2,-0.2,-0.0,0.3,-0.2,-0.5,-0.2,,,*42
$GPGRS,194502.00,1,-3.2,7.0,5.2,-3.2,0.5,-0.2,-1.9,-2.2,,,,*67
$GPGRS,194502.00,1,-0.5,-0.8,0.5,0.5,0.5,0.4,-0.7,,,,,*4D
$GPGRS,194502.00,1,0.6,0.6,1.6,0.1,1.4,-0.7,-0.1,0.0,-0.4,0.8,0.1,-0.4*49
$GPGRS,194502.00,1,-0.7,0.2,-1.8,,,,,,,,,*67
$GPGSV,6,1,21,27,64,303,50,15,15,053,39,26,30,191,43,08,29,299,43*7C
$GPGSV,6,2,21,18,35,063,45,10,49,165,49,16,56,216,48,23,59,088,47*75
$GPGSV,6,3,21,21,05,254,34,13,04,024,36,07,08,313,39,30,00,343,35*7D
$GPGSV,6,4,21,36,35,170,44,58,13,245,37,57,11,108,38,34,31,208,42*7C
$GPGSV,6,5,21,40,24,133,36,49,34,195,43,41,07,108,33,61,03,257,38*7B
$GPGSV,6,6,21*7A
$GLGSV,3,1,09,83,67,348,42,84,20,273,38,80,13,200,46,68,17,136,*68
$GLGSV,3,2,09,66,19,027,45,67,36,084,49,74,34,313,44,82,40,059,48*6F
$GLGSV,3,3,09,73,42,254,50*58
$GAGSV,3,1,10,13,76,040,48,27,13,166,38,03,12,058,37,23,45,297,*68
$GAGSV,3,2,10,15,22,060,40,26,46,250,46,21,54,207,47,08,08,106,37*6A
$GAGSV,3,3,10,05,02,012,29,31,03,327,36*64
$GBGSV,6,1,23,28,65,294,51,21,11,031,40,46,22,308,,38,15,037,41*6D
$GBGSV,6,2,23,60,11,108,40,50,24,050,,05,23,128,38,08,29,037,40*64
$GBGSV,6,3,23,33,28,142,45,30,20,270,,31,26,054,,58,30,304,*69
$GBGSV,6,4,23,27,21,278,44,13,37,044,43,11,23,085,43,37,30,248,45*61
$GBGSV,6,5,23,14,37,112,45,42,36,077,46,43,45,086,48,23,09,201,41*60
$GBGSV,6,6,23,57,03,220,,02,08,105,35,34,01,093,30*5C
$GPGGA,194502.00,,,,,0,00,,,M,,M,,*43
$PTNL,GGK,194502.00,010125,4742.1604736,N,01618.1002086,E,1,39,0.8,EHT751.7030,M*43
$GPGGQ,194502.00,010125,4742.1604736,N,01618.1002086,E,1,39,0.943,708.4964,M*3C
$GPGFA,194502.00,3.474,6.595,0.365,0.331,343.993,0.804,,VVV*09
$GPLLK,194502.00,010125,,M,,M,1,39,0.9,,M*03
$GNGMP,194502.00,,,,,DAAA,39,0.4,,,,*53
$GPGMP,194502.00,,,,,,09,,,,2.3,136*7A
$GLGMP,194502.00,,,,,,08,,,,,*7C
$GAGMP,194502.00,,,,,,07,,,,,*7E
$GBGMP,194502.00,,,,,,15,,,,,*7E
$PSSN,SNC,[0,330320000,2347]*45
$GPZDA,194507.00,01,01,2025,,*6D
$GPDTM,W84,,00.0000000,N,00.0000000,E,00.0000000,W84*5F
$PSSN,TFM,194507.00,,,,*61
$GPRMC,194507.00,A,4742.1604721,N,01618.1002056,E,0.0,,010125,5.1,E,D*1F
$GPGLL,4742.1604721,N,01618.1002056,E,194507.00,A,D*6E
$GPGGA,194507.00,4742.1604721,N,01618.1002056,E,2,39,0.4,708.4967,M,43.2066,M,3.3,0136*4F
$GNGNS,194507.00,4742.1604721,N,01618.1002056,E,DAAA,39,0.4,708.4967,43.2066,,*57
$GPGNS,194507.00,,,,,,09,,,,3.3,136*7E
$GLGNS,194507.00,,,,,,08,,,,,*79
$GAGNS,194507.00,,,,,,07,,,,,*7B
$GBGNS,194507.00,,,,,,15,,,,,*7B
$GPLLQ,194507.00,010125,,M,,M,1,39,0.954,,M*1D
$GPVTG,,T,,M,0.00,N,0.01,K,D*27
$GPHDT,,T*1B
$GPTHS,,V*0E
$GPROT,,V*08
$PSSN,HRP,194507.00,010125,,,,,,,00,0,,*6F
$PTNL,AVR,194507.00,,Yaw,,Tilt,,,,0,,00*39
$GPGSA,A,3,07,08,10,15,16,18,23,26,27,,,,0.8,0.4,0.7*3D
$GPGSA,A,3,66,67,73,74,80,82,83,84,,,,,0.8,0.4,0.7*3A
$GPGSA,A,3,03,08,13,15,21,26,27,,,,,,0.8,0.4,0.7*36
$GPGSA,A,3,05,08,11,13,14,21,23,27,28,33,37,38,0.8,0.4,0.7*31
$GPGSA,A,3,42,43,60,,,,,,,,,,0.8,0.4,0.7*3E
$GPGST,194507.00,1.902,0.367,0.334,348.200,0.365,0.336,0.815*52
$GPGBS,194507.00,2.642,1.913,5.204,67,0.0001,6.023,6.120*58
$GPGRS,194507.00,1,0.1,-0.1,0.2,0.2,0.0,0.4,-0.1,-0.5,-0.2,,,*6C
$GPGRS,194507.00,1,-3.9,6.0,5.6,-3.5,0.2,0.0,-1.6,-1.8,,,,*45
$GPGRS,194507.00,1,-0.4,-1.1,0.4,0.3,0.6,0.5,-0.9,,,,,*4A
$GPGRS,194507.00,1,0.6,0.7,1.7,0.2,2.0,-0.7,-0.3,-0.3,-0.3,0.6,-0.4,-0.7*46
$GPGRS,194507.00,1,-0.2,0.2,-1.5,,,,,,,,,*6A
$GPGSV,6,1,21,27,64,303,50,15,15,053,39,26,30,191,42,08,29,299,43*7D
$GPGSV,6,2,21,18,35,063,45,10,49,165,49,16,56,216,48,23,59,088,47*75
$GPGSV,6,3,21,21,05,254,35,13,04,024,36,07,08,313,40,30,00,343,35*72
$GPGSV,6,4,21,36,35,170,44,58,13,245,37,57,11,108,37,34,31,208,42*73
$GPGSV,6,5,21,40,24,133,36,49,34,195,44,41,07,108,34,61,03,257,38*7B
$GPGSV,6,6,21*7A
$GLGSV,3,1,09,83,67,349,43,84,20,273,37,80,13,200,46,68,18,136,*68
$GLGSV,3,2,09,66,19,027,45,67,36,084,49,74,34,313,44,82,40,059,49*6E
$GLGSV,3,3,09,73,42,254,50*58
$GAGSV,3,1,10,13,75,040,47,27,13,166,38,03,12,058,38,23,45,297,*6B
$GAGSV,3,2,10,15,22,060,40,26,46,250,46,21,54,207,47,08,08,106,37*6A
$GAGSV,3,3,10,05,02,012,28,31,03,327,37*64
$GBGSV,6,1,23,28,65,294,51,21,11,031,40,46,22,308,,38,15,037,41*6D
$GBGSV,6,2,23,60,11,108,40,50,24,050,,05,23,128,38,08,29,037,40*64
$GBGSV,6,3,23,33,28,142,45,30,20,270,,31,26,054,,58,30,304,*69
$GBGSV,6,4,23,27,21,278,44,13,37,044,43,11,23,085,42,37,30,248,45*60
$GBGSV,6,5,23,14,37,112,45,42,36,077,46,43,45,086,49,23,09,201,41*61
$GBGSV,6,6,23,57,03,220,,02,08,105,35,34,01,093,30*5C
$GPGGA,194507.00,,,,,0,00,,,M,,M,,*46
$PTNL,GGK,194507.00,010125,4742.1604721,N,01618.1002056,E,1,39,0.8,EHT751.7033,M*4E
$GPGGQ,194507.00,010125,4742.1604721,N,01618.1002056,E,1,39,0.954,708.4967,M*37
$GPGFA,194507.00,3.486,6.681,0.367,0.334,348.200,0.815,,VVV*0A
$GPLLK,194507.00,010125,,M,,M,1,39,0.9,,M*06
$GNGMP,194507.00,,,,,DAAA,39,0.4,,,,*56
$GPGMP,194507.00,,,,,,09,,,,3.3,136*7E
$GLGMP,194507.00,,,,,,08,,,,,*79
$GAGMP,194507.00,,,,,,07,,,,,*7B
$GBGMP,194507.00,,,,,,15,,,,,*7B
$PSSN,SNC,[0,330325000,2347]*40
$GPZDA,194512.00,01,01,2025,,*69
$GPDTM,W84,,00.0000000,N,00.0000000,E,00.0000000,W84*5F
$PSSN,TFM,194512.00,,,,*65
$GPRMC,194512.00,A,4742.1604697,N,01618.1002035,E,0.0,,010125,5.1,E,D*12
$GPGLL,4742.1604697,N,01618.1002035,E,194512.00,A,D*63
$GPGGA,194512.00,4742.1604697,N,01618.1002035,E,2,40,0.4,708.4972,M,43.2066,M,1.7,0136*4E
$GNGNS,194512.00,4742.1604697,N,01618.1002035,E,DAAA,40,0.4,708.4972,43.2066,,*50
$GPGNS,194512.00,,,,,,09,,,,1.7,136*7C
$GLGNS,194512.00,,,,,,08,,,,,*7D
$GAGNS,194512.00,,,,,,07,,,,,*7F
$GBGNS,194512.00,,,,,,16,,,,,*7C
$GPLLQ,194512.00,010125,,M,,M,1,40,0.943,,M*11
$GPVTG,,T,,M,0.00,N,0.01,K,D*27
$GPHDT,,T*1B
$GPTHS,,V*0E
$GPROT,,V*08
$PSSN,HRP,194512.00,010125,,,,,,,00,0,,*6B
$PTNL,AVR,194512.00,,Yaw,,Tilt,,,,0,,00*3D
$GPGSA,A,3,07,08,10,15,16,18,23,26,27,,,,0.8,0.4,0.7*3D
$GPGSA,A,3,66,67,73,74,80,82,83,84,,,,,0.8,0.4,0.7*3A
$GPGSA,A,3,03,08,13,15,21,26,27,,,,,,0.8,0.4,0.7*36
$GPGSA,A,3,02,05,08,11,13,14,21,23,27,28,33,37,0.8,0.4,0.7*38
$GPGSA,A,3,38,42,43,60,,,,,,,,,0.8,0.4,0.7*35
$GPGST,194512.00,1.878,0.363,0.328,352.253,0.362,0.329,0.807*54
$GPGBS,194512.00,2.579,1.825,4.953,67,0.0001,5.991,6.120*58
$GPGRS,194512.00,1,0.6,0.3,0.4,-0.2,-0.3,0.3,0.0,-0.7,-0.2,,,*6C
$GPGRS,194512.00,1,-3.1,6.0,5.3,-4.2,-0.3,-0.3,-1.5,-2.5,,,,*43
$GPGRS,194512.00,1,0.3,-1.0,0.5,0.3,0.7,0.3,-0.9,,,,,*63
$GPGRS,194512.00,1,-0.3,1.0,0.5,1.5,0.3,2.2,-0.6,-0.3,-0.5,-0.2,-0.3,-0.1*69
$GPGRS,194512.00,1,-0.7,-0.1,-0.0,-1.5,,,,,,,,*46
$GPGSV,6,1,21,27,64,303,50,15,15,053,40,26,30,191,43,08,29,299,43*72
$GPGSV,6,2,21,18,35,063,45,10,49,165,49,16,56,216,48,23,59,088,47*75
$GPGSV,6,3,21,21,06,254,35,13,04,024,36,07,08,313,39,30,00,343,35*7F
$GPGSV,6,4,21,36,35,170,44,58,13,245,37,57,11,108,38,34,31,208,42*7C
$GPGSV,6,5,21,40,24,133,36,49,34,195,44,41,07,108,34,61,03,257,38*7B
$GPGSV,6,6,21*7A
$GLGSV,3,1,09,83,67,349,42,84,20,273,36,80,13,200,46,68,18,136,*68
$GLGSV,3,2,09,66,19,027,46,67,36,084,49,74,34,313,44,82,40,059,49*6D
$GLGSV,3,3,09,73,42,254,50*58
$GAGSV,3,1,10,13,75,040,47,27,13,166,38,03,12,058,38,23,45,297,*6B
$GAGSV,3,2,10,15,22,060,40,26,46,250,46,21,54,207,47,08,08,106,37*6A
$GAGSV,3,3,10,05,02,012,28,31,03,327,37*64
$GBGSV,6,1,23,28,65,294,50,21,11,031,40,46,22,308,,38,15,037,41*6C
$GBGSV,6,2,23,60,11,108,40,50,24,050,,05,23,128,38,08,29,037,39*6A
$GBGSV,6,3,23,33,28,142,44,30,20,270,,31,26,054,,58,30,304,*68
$GBGSV,6,4,23,27,21,278,44,13,37,044,43,11,23,085,42,37,30,248,46*63
$GBGSV,6,5,23,14,37,112,45,42,36,077,47,43,45,086,49,23,09,201,40*61
$GBGSV,6,6,23,57,03,220,,02,08,105,35,34,01,093,29*54
$GPGGA,194512.00,,,,,0,00,,,M,,M,,*42
$PTNL,GGK,194512.00,010125,4742.1604697,N,01618.1002035,E,1,40,0.8,EHT751.7038,M*46
$GPGGQ,194512.00,010125,4742.1604697,N,01618.1002035,E,1,40,0.943,708.4972,M*36
$GPGFA,194512.00,3.450,6.614,0.363,0.328,352.253,0.807,,VVV*0E
$GPLLK,194512.00,010125,,M,,M,1,40,0.9,,M*0C
$GNGMP,194512.00,,,,,DAAA,40,0.4,,,,*5C
$GPGMP,194512.00,,,,,,09,,,,1.7,136*7C
$GLGMP,194512.00,,,,,,08,,,,,*7D
$GAGMP,194512.00,,,,,,07,,,,,*7F
$GBGMP,194512.00,,,,,,16,,,,,*7C
$PSSN,SNC,[0,330330000,2347]*44
$GPZDA,194517.00,01,01,2025,,*6C
$GPDTM,W84,,00.0000000,N,00.0000000,E,00.0000000,W84*5F
$PSSN,TFM,194517.00,,,,*60
$GPRMC,194517.00,A,4742.1604680,N,01618.1002041,E,0.0,,010125,5.1,E,D*12
$GPGLL,4742.1604680,N,01618.1002041,E,194517.00,A,D*63
$GPGGA,194517.00,4742.1604680,N,01618.1002041,E,2,39,0.4,708.5004,M,43.2066,M,2.7,0136*4A
$GNGNS,194517.00,4742.1604680,N,01618.1002041,E,DAAA,39,0.4,708.5004,43.2066,,*57
$GPGNS,194517.00,,,,,,09,,,,2.7,136*7A
$GLGNS,194517.00,,,,,,08,,,,,*78
$GAGNS,194517.00,,,,,,07,,,,,*7A
$GBGNS,194517.00,,,,,,15,,,,,*7A
$GPLLQ,194517.00,010125,,M,,M,1,39,0.927,,M*18
$GPVTG,,T,,M,0.01,N,0.01,K,D*26
$GPHDT,,T*1B
$GPTHS,,V*0E
$GPROT,,V*08
$PSSN,HRP,194517.00,010125,,,,,,,00,0,,*6E
$PTNL,AVR,194517.00,,Yaw,,Tilt,,,,0,,00*38
$GPGSA,A,3,07,08,10,15,16,18,23,26,27,,,,0.8,0.4,0.7*3D
$GPGSA,A,3,66,67,73,74,80,82,83,84,,,,,0.8,0.4,0.7*3A
$GPGSA,A,3,03,08,13,15,21,26,27,,,,,,0.8,0.4,0.7*36
$GPGSA,A,3,05,08,11,13,14,21,23,27,28,33,37,38,0.8,0.4,0.7*31
$GPGSA,A,3,42,43,60,,,,,,,,,,0.8,0.4,0.7*3E
$GPGST,194517.00,1.895,0.359,0.322,347.668,0.358,0.324,0.791*5D
$GPGBS,194517.00,2.636,1.852,5.033,67,0.0001,6.590,6.120*55
$GPGRS,194517.00,1,0.5,0.4,0.1,0.1,-0.1,-0.0,-0.1,-0.2,-0.1,,,*40
$GPGRS,194517.00,1,-3.0,6.6,5.7,-3.3,-0.9,-0.8,-1.5,-2.0,,,,*47
$GPGRS,194517.00,1,0.0,-0.7,0.3,0.7,0.4,0.2,-0.9,,,,,*63
$GPGRS,194517.00,1,0.6,0.2,1.0,0.5,2.1,-0.5,-0.1,-0.2,-0.1,-0.0,-0.3,-0.8*63
$GPGRS,194517.00,1,-0.4,0.2,-1.4,,,,,,,,,*6C
$GPGSV,6,1,21,27,65,303,50,15,15,053,40,26,30,191,43,08,29,299,43*73
$GPGSV,6,2,21,18,35,063,45,10,49,165,50,16,56,216,48,23,59,088,47*7D
$GPGSV,6,3,21,21,06,254,34,13,04,024,36,07,08,313,39,30,00,343,34*7F
$GPGSV,6,4,21,36,35,170,44,58,13,245,37,57,11,108,38,34,31,208,42*7C
$GPGSV,6,5,21,40,24,133,36,49,34,195,44,41,07,108,34,61,03,257,38*7B
$GPGSV,6,6,21*7A
$GLGSV,3,1,09,83,67,349,42,84,20,273,37,80,13,200,45,68,18,136,*6A
$GLGSV,3,2,09,66,19,027,46,67,36,084,49,74,34,313,45,82,40,059,48*6D
$GLGSV,3,3,09,73,42,254,50*58
$GAGSV,3,1,10,13,75,040,48,27,13,166,39,03,12,058,39,23,45,297,*64
$GAGSV,3,2,10,15,22,060,40,26,46,250,46,21,54,207,47,08,08,106,38*65
$GAGSV,3,3,10,05,02,012,29,31,03,327,37*65
$GBGSV,6,1,23,28,65,294,51,21,11,031,40,46,22,308,,38,15,037,41*6D
$GBGSV,6,2,23,60,11,108,40,50,24,050,,05,23,128,38,08,29,037,39*6A
$GBGSV,6,3,23,33,28,142,45,30,20,270,,31,26,054,,58,30,304,*69
$GBGSV,6,4,23,27,21,278,44,13,37,044,43,11,23,085,42,37,30,248,46*63
$GBGSV,6,5,23,14,37,112,45,42,36,077,46,43,45,086,49,23,09,201,40*60
$GBGSV,6,6,23,57,03,220,,02,08,105,35,34,01,093,27*5A
$GPGGA,194517.00,,,,,0,00,,,M,,M,,*47
$PTNL,GGK,194517.00,010125,4742.1604680,N,01618.1002041,E,1,39,0.8,EHT751.7070,M*44
$GPGGQ,194517.00,010125,4742.1604680,N,01618.1002041,E,1,39,0.927,708.5004,M*33
$GPGFA,194517.00,3.416,6.488,0.359,0.322,347.668,0.791,,VVV*05
$GPLLK,194517.00,010125,,M,,M,1,39,0.9,,M*07
$GNGMP,194517.00,,,,,DAAA,39,0.4,,,,*57
$GPGMP,194517.00,,,,,,09,,,,2.7,136*7A
$GLGMP,194517.00,,,,,,08,,,,,*78
$GAGMP,194517.00,,,,,,07,,,,,*7A
$GBGMP,194517.00,,,,,,15,,,,,*7A
$PSSN,SNC,[0,330335000,2347]*41
$GPZDA,194522.00,01,01,2025,,*6A
$GPDTM,W84,,00.0000000,N,00.0000000,E,00.0000000,W84*5F
$PSSN,TFM,194522.00,,,,*66
$GPRMC,194522.00,A,4742.1604650,N,01618.1002077,E,0.0,,010125,5.1,E,D*1C
$GPGLL,4742.1604650,N,01618.1002077,E,194522.00,A,D*6D
$GPGGA,194522.00,4742.1604650,N,01618.1002077,E,2,39,0.4,708.5003,M,43.2066,M,2.3,0136*47
$GNGNS,194522.00,4742.1604650,N,01618.1002077,E,DAAA,39,0.4,708.5003,43.2066,,*5E
$GPGNS,194522.00,,,,,,09,,,,2.3,136*78
$GLGNS,194522.00,,,,,,08,,,,,*7E
$GAGNS,194522.00,,,,,,07,,,,,*7C
$GBGNS,194522.00,,,,,,15,,,,,*7C
$GPLLQ,194522.00,010125,,M,,M,1,39,0.938,,M*10
$GPVTG,,T,,M,0.00,N,0.01,K,D*27
$GPHDT,,T*1B
$GPTHS,,V*0E
$GPROT,,V*08
$PSSN,HRP,194522.00,010125,,,,,,,00,0,,*68
$PTNL,AVR,194522.00,,Yaw,,Tilt,,,,0,,00*3E
$GPGSA,A,3,07,08,10,15,16,18,23,26,27,,,,0.8,0.4,0.7*3D
$GPGSA,A,3,66,67,73,74,80,82,83,84,,,,,0.8,0.4,0.7*3A
$GPGSA,A,3,03,08,13,15,21,26,27,,,,,,0.8,0.4,0.7*36
$GPGSA,A,3,05,08,11,13,14,21,23,27,28,33,37,38,0.8,0.4,0.7*31
$GPGSA,A,3,42,43,60,,,,,,,,,,0.8,0.4,0.7*3E
$GPGST,194522.00,1.884,0.362,0.327,350.374,0.361,0.328,0.801*58
$GPGBS,194522.00,2.594,1.877,5.168,67,0.0001,6.626,6.120*5E
$GPGRS,194522.00,1,0.5,0.1,-0.1,-0.2,-0.0,-0.1,-0.0,-0.3,0.2,,,*6E
$GPGRS,194522.00,1,-2.9,6.6,5.3,-3.3,-1.4,-1.0,-1.5,-2.1,,,,*49
$GPGRS,194522.00,1,-0.1,-1.0,0.2,0.6,0.5,0.1,-1.2,,,,,*47
$GPGRS,194522.00,1,0.3,0.3,0.6,0.3,2.1,-0.2,-0.5,-0.2,-0.2,0.1,-0.4,-0.9*4A
$GPGRS,194522.00,1,-0.7,0.1,-1.6,,,,,,,,,*68
$GPGSV,6,1,21,27,65,303,50,15,15,053,40,26,30,191,42,08,29,299,42*73
$GPGSV,6,2,21,18,35,063,45,10,49,165,49,16,55,216,48,23,59,088,47*76
$GPGSV,6,3,21,21,06,254,34,13,04,024,35,07,08,313,40,30,00,343,34*72
$GPGSV,6,4,21,36,35,170,44,58,13,245,37,57,11,108,38,34,31,208,42*7C
$GPGSV,6,5,21,40,24,133,36,49,34,195,44,41,07,108,34,61,03,257,38*7B
$GPGSV,6,6,21*7A
$GLGSV,3,1,09,83,67,349,42,84,20,273,38,80,13,200,45,68,18,136,*65
$GLGSV,3,2,09,66,19,027,46,67,36,084,49,74,34,313,44,82,40,060,48*66
$GLGSV,3,3,09,73,42,254,50*58
$GAGSV,3,1,10,13,75,040,48,27,13,166,39,03,12,058,39,23,45,297,*64
$GAGSV,3,2,10,15,22,060,40,26,46,250,46,21,54,207,48,08,08,106,37*65
$GAGSV,3,3,10,05,02,012,28,31,03,327,37*64
$GBGSV,6,1,23,28,65,294,51,21,11,031,40,46,22,308,,38,15,037,41*6D
$GBGSV,6,2,23,60,11,108,40,50,24,050,,05,23,128,38,08,29,037,39*6A
$GBGSV,6,3,23,33,28,142,45,30,20,270,,31,26,054,,58,30,304,*69
$GBGSV,6,4,23,27,21,278,44,13,37,044,43,11,23,085,41,37,30,248,46*60
$GBGSV,6,5,23,14,38,112,46,42,36,077,46,43,45,086,49,23,09,201,40*6C
$GBGSV,6,6,23,57,03,220,,02,08,105,35,34,01,093,27*5A
$GPGGA,194522.00,,,,,0,00,,,M,,M,,*41
$PTNL,GGK,194522.00,010125,4742.1604650,N,01618.1002077,E,1,39,0.8,EHT751.7068,M*43
$GPGGQ,194522.00,010125,4742.1604650,N,01618.1002077,E,1,39,0.938,708.5003,M*34
$GPGFA,194522.00,3.440,6.571,0.362,0.327,350.374,0.801,,VVV*02
$GPLLK,194522.00,010125,,M,,M,1,39,0.9,,M*01
$GNGMP,194522.00,,,,,DAAA,39,0.4,,,,*51
$GPGMP,194522.00,,,,,,09,,,,2.3,136*78
$GLGMP,194522.00,,,,,,08,,,,,*7E
$GAGMP,194522.00,,,,,,07,,,,,*7C
$GBGMP,194522.00,,,,,,15,,,,,*7C
$PSSN,SNC,[0,330340000,2347]*43
$GPZDA,194527.00,01,01,2025,,*6F
$GPDTM,W84,,00.0000000,N,00.0000000,E,00.0000000,W84*5F
$PSSN,TFM,194527.00,,,,*63
$GPRMC,194527.00,A,4742.1604633,N,01618.1002078,E,0.0,,010125,5.1,E,D*13
$GPGLL,4742.1604633,N,01618.1002078,E,194527.00,A,D*62
$GPGGA,194527.00,4742.1604633,N,01618.1002078,E,2,39,0.4,708.4982,M,43.2066,M,3.3,0136*48
$GNGNS,194527.00,4742.1604633,N,01618.1002078,E,DAAA,39,0.4,708.4982,43.2066,,*50
$GPGNS,194527.00,,,,,,09,,,,3.3,136*7C
$GLGNS,194527.00,,,,,,08,,,,,*7B
$GAGNS,194527.00,,,,,,07,,,,,*79
$GBGNS,194527.00,,,,,,15,,,,,*79
$GPLLQ,194527.00,010125,,M,,M,1,39,0.948,,M*12
$GPVTG,,T,,M,0.00,N,0.01,K,D*27
$GPHDT,,T*1B
$GPTHS,,V*0E
$GPROT,,V*08
$PSSN,HRP,194527.00,010125,,,,,,,00,0,,*6D
$PTNL,AVR,194527.00,,Yaw,,Tilt,,,,0,,00*3B
$GPGSA,A,3,07,08,10,15,16,18,23,26,27,,,,0.8,0.4,0.7*3D
$GPGSA,A,3,66,67,73,74,80,82,83,84,,,,,0.8,0.4,0.7*3A
$GPGSA,A,3,03,08,13,15,21,26,27,,,,,,0.8,0.4,0.7*36
$GPGSA,A,3,05,08,11,13,14,21,23,27,28,33,37,38,0.8,0.4,0.7*31
$GPGSA,A,3,42,43,60,,,,,,,,,,0.8,0.4,0.7*3E
$GPGST,194527.00,1.889,0.363,0.329,354.842,0.363,0.330,0.812*5C
$GPGBS,194527.00,2.651,1.909,5.261,67,0.0001,6.333,6.120*52
$GPGRS,194527.00,1,0.7,-0.0,-0.1,0.2,0.1,-0.1,0.1,-0.6,0.2,,,*6D
$GPGRS,194527.00,1,-2.8,6.3,5.5,-3.2,-1.4,-0.8,-1.9,-2.6,,,,*4D
$GPGRS,194527.00,1,0.0,-1.1,0.4,0.7,0.6,0.4,-0.6,,,,,*6B
$GPGRS,194527.00,1,0.7,0.5,0.8,0.7,2.1,0.0,-0.7,-0.5,-0.2,0.1,-0.1,-0.5*64
$GPGRS,194527.00,1,-0.2,0.1,-1.6,,,,,,,,,*68
$GPGSV,6,1,21,27,65,303,50,15,15,053,40,26,30,191,43,08,29,299,43*73
$GPGSV,6,2,21,18,35,063,45,10,49,165,49,16,55,216,48,23,59,088,47*76
$GPGSV,6,3,21,21,06,254,33,13,04,024,35,07,08,313,40,30,00,343,34*75
$GPGSV,6,4,21,36,35,170,44,58,13,245,37,57,11,108,38,34,31,208,42*7C
$GPGSV,6,5,21,40,24,133,35,49,34,195,44,41,07,108,34,61,03,257,38*78
$GPGSV,6,6,21*7A
$GLGSV,3,1,09,83,67,349,42,84,20,273,37,80,13,200,44,68,18,136,*6B
$GLGSV,3,2,09,66,19,027,46,67,36,084,49,74,34,313,45,82,40,060,48*67
$GLGSV,3,3,09,73,42,254,50*58
$GAGSV,3,1,10,13,75,040,48,27,13,166,39,03,12,058,39,23,45,297,*64
$GAGSV,3,2,10,15,22,060,40,26,46,250,46,21,54,207,48,08,08,106,37*65
$GAGSV,3,3,10,05,02,012,29,31,03,327,37*65
$GBGSV,6,1,23,28,65,294,51,21,11,031,40,46,22,308,,38,15,037,41*6D
$GBGSV,6,2,23,60,11,108,40,50,24,050,,05,23,128,38,08,29,037,39*6A
$GBGSV,6,3,23,33,28,142,45,30,20,270,,31,26,054,,58,30,304,*69
$GBGSV,6,4,23,27,21,278,44,13,37,044,44,11,23,085,41,37,30,248,45*64
$GBGSV,6,5,23,14,38,112,46,42,36,077,46,43,45,086,49,23,09,201,39*62
$GBGSV,6,6,23,57,03,220,,02,08,105,35,34,01,093,28*55
$GPGGA,194527.00,,,,,0,00,,,M,,M,,*44
$PTNL,GGK,194527.00,010125,4742.1604633,N,01618.1002078,E,1,39,0.8,EHT751.7048,M*4E
$GPGGQ,194527.00,010125,4742.1604633,N,01618.1002078,E,1,39,0.948,708.4982,M*3D
$GPGFA,194527.00,3.455,6.656,0.363,0.329,354.842,0.812,,VVV*02
$GPLLK,194527.00,010125,,M,,M,1,39,0.9,,M*04
$GNGMP,194527.00,,,,,DAAA,39,0.4,,,,*54
$GPGMP,194527.00,,,,,,09,,,,3.3,136*7C
$GLGMP,194527.00,,,,,,08,,,,,*7B
$GAGMP,194527.00,,,,,,07,,,,,*79
$GBGMP,194527.00,,,,,,15,,,,,*79
$PSSN,SNC,[0,330345000,2347]*46
$GPZDA,194532.00,01,01,2025,,*6B
$GPDTM,W84,,00.0000000,N,00.0000000,E,00.0000000,W84*5F
$PSSN,TFM,194532.00,,,,*67
$GPRMC,194532.00,A,4742.1604612,N,01618.1002108,E,0.0,,010125,5.1,E,D*12
$GPGLL,4742.1604612,N,01618.1002108,E,194532.00,A,D*63
$GPGGA,194532.00,4742.1604612,N,01618.1002108,E,2,39,0.4,708.4976,M,43.2066,M,1.7,0136*44
$GNGNS,194532.00,4742.1604612,N,01618.1002108,E,DAAA,39,0.4,708.4976,43.2066,,*5A
$GPGNS,194532.00,,,,,,09,,,,1.7,136*7E
$GLGNS,194532.00,,,,,,08,,,,,*7F
$GAGNS,194532.00,,,,,,07,,,,,*7D
$GBGNS,194532.00,,,,,,15,,,,,*7D
$GPLLQ,194532.00,010125,,M,,M,1,39,0.942,,M*1C
$GPVTG,,T,,M,0.00,N,0.00,K,D*26
$GPHDT,,T*1B
$GPTHS,,V*0E
$GPROT,,V*08
$PSSN,HRP,194532.00,010125,,,,,,,00,0,,*69
$PTNL,AVR,194532.00,,Yaw,,Tilt,,,,0,,00*3F
$GPGSA,A,3,07,08,10,15,16,18,23,26,27,,,,0.8,0.4,0.7*3D
$GPGSA,A,3,66,67,73,74,80,82,83,84,,,,,0.8,0.4,0.7*3A
$GPGSA,A,3,03,08,13,15,21,26,27,,,,,,0.8,0.4,0.7*36
$GPGSA,A,3,05,08,11,13,14,21,23,27,28,33,37,38,0.8,0.4,0.7*31
$GPGSA,A,3,42,43,60,,,,,,,,,,0.8,0.4,0.7*3E
$GPGST,194532.00,1.856,0.363,0.328,351.810,0.362,0.329,0.806*55
$GPGBS,194532.00,2.582,1.827,4.969,67,0.0001,5.704,6.120*57
$GPGRS,194532.00,1,-0.0,0.1,0.2,0.2,-0.1,-0.1,-0.1,-0.0,-0.1,,,*69
$GPGRS,194532.00,1,-3.2,5.7,5.6,-3.3,-0.8,-0.3,-2.2,-2.4,,,,*4B
$GPGRS,194532.00,1,0.0,-1.2,0.5,0.6,0.3,0.6,-0.6,,,,,*6B
$GPGRS,194532.00,1,0.7,0.6,1.0,0.6,1.9,-0.3,-0.8,-0.5,-0.1,0.6,-0.4,-0.3*46
$GPGRS,194532.00,1,-0.1,-0.1,-1.6,,,,,,,,,*42
$GPGSV,6,1,21,27,65,303,50,15,15,053,40,26,30,191,43,08,29,299,43*73
$GPGSV,6,2,21,18,35,063,44,10,49,165,49,16,55,216,48,23,59,088,47*77
$GPGSV,6,3,21,21,06,254,33,13,04,024,35,07,08,313,40,30,00,343,34*75
$GPGSV,6,4,21,36,35,170,44,58,13,245,37,57,11,108,38,34,31,208,42*7C
$GPGSV,6,5,21,40,24,133,36,49,34,195,44,41,07,108,34,61,03,257,38*7B
$GPGSV,6,6,21*7A
$GLGSV,3,1,09,83,67,349,42,84,20,273,37,80,13,200,44,68,18,136,*6B
$GLGSV,3,2,09,66,19,027,45,67,36,084,48,74,34,313,45,82,40,060,49*64
$GLGSV,3,3,09,73,42,253,50*5F
$GAGSV,3,1,10,13,75,040,48,27,13,166,39,03,12,058,38,23,45,297,*65
$GAGSV,3,2,10,15,22,060,40,26,46,250,46,21,54,207,47,08,08,106,37*6A
$GAGSV,3,3,10,05,02,012,28,31,03,327,37*64
$GBGSV,6,1,23,28,65,294,51,21,11,031,39,46,22,308,,38,15,037,40*62
$GBGSV,6,2,23,60,11,108,40,50,24,050,,05,23,128,38,08,29,037,39*6A
$GBGSV,6,3,23,33,28,142,45,30,20,270,,31,26,054,,58,30,304,*69
$GBGSV,6,4,23,27,21,278,44,13,37,044,44,11,23,085,41,37,30,248,45*64
$GBGSV,6,5,23,14,38,112,46,42,36,077,46,43,45,086,49,23,09,201,39*62
$GBGSV,6,6,23,57,03,220,,02,08,105,35,34,01,093,28*55
$GPGGA,194532.00,,,,,0,00,,,M,,M,,*40
$PTNL,GGK,194532.00,010125,4742.1604612,N,01618.1002108,E,1,39,0.8,EHT751.7042,M*45
$GPGGQ,194532.00,010125,4742.1604612,N,01618.1002108,E,1,39,0.942,708.4976,M*3D
$GPGFA,194532.00,3.450,6.606,0.363,0.328,351.810,0.806,,VVV*00
$GPLLK,194532.00,010125,,M,,M,1,39,0.9,,M*00
$GNGMP,194532.00,,,,,DAAA,39,0.4,,,,*50
$GPGMP,194532.00,,,,,,09,,,,1.7,136*7E
$GLGMP,194532.00,,,,,,08,,,,,*7F
$GAGMP,194532.00,,,,,,07,,,,,*7D
$GBGMP,194532.00,,,,,,15,,,,,*7D
$PSSN,SNC,[0,330350000,2347]*42
$GPZDA,194537.00,01,01,2025,,*6E
$GPDTM,W84,,00.0000000,N,00.0000000,E,00.0000000,W84*5F
$PSSN,TFM,194537.00,,,,*62
$GPRMC,194537.00,A,4742.1604630,N,01618.1002070,E,0.0,,010125,5.1,E,D*19
$GPGLL,4742.1604630,N,01618.1002070,E,194537.00,A,D*68
$GPGGA,194537.00,4742.1604630,N,01618.1002070,E,2,39,0.4,708.4989,M,43.2066,M,2.7,0136*4C
$GNGNS,194537.00,4742.1604630,N,01618.1002070,E,DAAA,39,0.4,708.4989,43.2066,,*51
$GPGNS,194537.00,,,,,,09,,,,2.7,136*78
$GLGNS,194537.00,,,,,,08,,,,,*7A
$GAGNS,194537.00,,,,,,07,,,,,*78
$GBGNS,194537.00,,,,,,15,,,,,*78
$GPLLQ,194537.00,010125,,M,,M,1,39,0.926,,M*1B
$GPVTG,,T,,M,0.00,N,0.01,K,D*27
$GPHDT,,T*1B
$GPTHS,,V*0E
$GPROT,,V*08
$PSSN,HRP,194537.00,010125,,,,,,,00,0,,*6C
$PTNL,AVR,194537.00,,Yaw,,Tilt,,,,0,,00*3A
$GPGSA,A,3,07,08,10,15,16,18,23,26,27,,,,0.8,0.4,0.7*3D
$GPGSA,A,3,66,67,73,74,80,82,83,84,,,,,0.8,0.4,0.7*3A
$GPGSA,A,3,03,08,13,15,21,26,27,,,,,,0.8,0.4,0.7*36
$GPGSA,A,3,05,08,11,13,14,21,23,27,28,33,37,38,0.8,0.4,0.7*31
$GPGSA,A,3,42,43,60,,,,,,,,,,0.8,0.4,0.7*3E
$GPGST,194537.00,1.849,0.359,0.322,347.320,0.358,0.324,0.790*56
$GPGBS,194537.00,2.635,1.853,5.032,67,0.0001,5.837,6.120*57
$GPGRS,194537.00,1,0.2,-0.2,0.2,0.4,-0.1,-0.1,-0.0,0.1,-0.1,,,*46
$GPGRS,194537.00,1,-3.3,5.8,5.8,-3.7,0.0,0.0,-1.9,-1.2,,,,*4C
$GPGRS,194537.00,1,-0.3,-0.8,0.3,0.5,0.4,0.4,-0.7,,,,,*4A
$GPGRS,194537.00,1,0.6,0.5,0.5,0.4,1.8,-0.4,-1.0,-0.6,-0.3,0.8,-0.6,-0.5*43
$GPGRS,194537.00,1,-0.4,0.1,-1.7,,,,,,,,,*6E
$GPGSV,6,1,21,27,65,303,50,15,15,053,40,26,30,191,43,08,29,299,43*73
$GPGSV,6,2,21,18,35,063,45,10,49,165,49,16,55,216,48,23,59,088,47*76
$GPGSV,6,3,21,21,06,254,33,13,04,024,35,07,08,313,41,30,00,343,35*75
$GPGSV,6,4,21,36,35,170,44,58,13,245,37,57,11,108,38,34,31,208,42*7C
$GPGSV,6,5,21,40,24,133,36,49,34,195,44,41,07,108,34,61,03,257,38*7B
$GPGSV,6,6,21*7A
$GLGSV,3,1,09,83,67,349,42,84,20,273,38,80,13,200,45,68,18,136,*65
$GLGSV,3,2,09,66,19,027,45,67,36,084,49,74,34,313,44,82,40,060,49*64
$GLGSV,3,3,09,73,42,253,50*5F
$GAGSV,3,1,10,13,75,040,48,27,13,166,39,03,12,058,38,23,45,297,*65
$GAGSV,3,2,10,15,22,061,39,26,46,250,46,21,54,207,47,08,08,106,37*65
$GAGSV,3,3,10,05,02,012,28,31,03,327,36*65
$GBGSV,6,1,23,28,65,294,51,21,11,031,40,46,22,308,,38,15,037,41*6D
$GBGSV,6,2,23,60,11,108,40,50,24,050,,05,23,128,38,08,29,037,40*64
$GBGSV,6,3,23,33,28,142,45,31,26,054,,30,20,270,,58,30,304,*69
$GBGSV,6,4,23,27,21,278,44,13,37,044,44,11,23,085,41,37,30,248,45*64
$GBGSV,6,5,23,14,38,112,45,42,36,076,47,43,45,086,49,23,09,201,39*61
$GBGSV,6,6,23,57,03,220,,02,08,105,35,34,01,093,29*54
$GPGGA,194537.00,,,,,0,00,,,M,,M,,*45
$PTNL,GGK,194537.00,010125,4742.1604630,N,01618.1002070,E,1,39,0.8,EHT751.7055,M*48
$GPGGQ,194537.00,010125,4742.1604630,N,01618.1002070,E,1,39,0.926,708.4989,M*34
$GPGFA,194537.00,3.416,6.476,0.359,0.322,347.320,0.790,,VVV*0E
$GPLLK,194537.00,010125,,M,,M,1,39,0.9,,M*05
$GNGMP,194537.00,,,,,DAAA,39,0.4,,,,*55
$GPGMP,194537.00,,,,,,09,,,,2.7,136*78
$GLGMP,194537.00,,,,,,08,,,,,*7A
$GAGMP,194537.00,,,,,,07,,,,,*78
$GBGMP,194537.00,,,,,,15,,,,,*78
$PSSN,SNC,[0,330355000,2347]*47
$GPZDA,194542.00,01,01,2025,,*6C
$GPDTM,W84,,00.0000000,N,00.0000000,E,00.0000000,W84*5F
$PSSN,TFM,194542.00,,,,*60
$GPRMC,194542.00,A,4742.1604633,N,01618.1002066,E,0.0,,010125,5.1,E,D*1F
$GPGLL,4742.1604633,N,01618.1002066,E,194542.00,A,D*6E
$GPGGA,194542.00,4742.1604633,N,01618.1002066,E,2,39,0.4,708.5008,M,43.2066,M,2.3,0136*4F
$GNGNS,194542.00,4742.1604633,N,01618.1002066,E,DAAA,39,0.4,708.5008,43.2066,,*56
$GPGNS,194542.00,,,,,,09,,,,2.3,136*7E
$GLGNS,194542.00,,,,,,08,,,,,*78
$GAGNS,194542.00,,,,,,07,,,,,*7A
$GBGNS,194542.00,,,,,,15,,,,,*7A
$GPLLQ,194542.00,010125,,M,,M,1,39,0.937,,M*19
$GPVTG,,T,,M,0.00,N,0.01,K,D*27
$GPHDT,,T*1B
$GPTHS,,V*0E
$GPROT,,V*08
$PSSN,HRP,194542.00,010125,,,,,,,00,0,,*6E
$PTNL,AVR,194542.00,,Yaw,,Tilt,,,,0,,00*38
$GPGSA,A,3,07,08,10,15,16,18,23,26,27,,,,0.8,0.4,0.7*3D
$GPGSA,A,3,66,67,73,74,80,82,83,84,,,,,0.8,0.4,0.7*3A
$GPGSA,A,3,03,08,13,15,21,26,27,,,,,,0.8,0.4,0.7*36
$GPGSA,A,3,05,08,11,13,14,21,23,27,28,33,37,38,0.8,0.4,0.7*31
$GPGSA,A,3,42,43,60,,,,,,,,,,0.8,0.4,0.7*3E
$GPGST,194542.00,1.926,0.362,0.327,350.051,0.361,0.328,0.800*52
$GPGBS,194542.00,2.594,1.878,5.165,67,0.0001,6.846,6.120*52
$GPGRS,194542.00,1,0.2,0.0,0.2,0.3,-0.1,0.1,-0.3,-0.1,0.0,,,*43
$GPGRS,194542.00,1,-3.5,6.8,5.5,-4.1,0.5,-0.6,-1.0,-1.5,,,,*67
$GPGRS,194542.00,1,-0.2,-0.8,0.3,0.6,0.5,0.8,-0.9,,,,,*49
$GPGRS,194542.00,1,0.6,0.1,0.2,0.5,1.2,-0.4,-0.9,0.1,-0.3,0.6,-0.5,-0.3*60
$GPGRS,194542.00,1,-0.3,0.2,-1.3,,,,,,,,,*6C
$GPGSV,6,1,21,27,65,303,50,15,15,053,40,26,30,191,43,08,29,299,43*73
$GPGSV,6,2,21,18,35,063,45,10,49,165,49,16,55,216,48,23,59,088,47*76
$GPGSV,6,3,21,21,06,254,34,13,04,024,35,07,08,313,40,30,00,343,34*72
$GPGSV,6,4,21,36,35,170,44,58,13,245,37,57,11,108,38,34,31,208,42*7C
$GPGSV,6,5,21,40,24,133,36,49,34,195,44,41,07,108,34,61,03,257,38*7B
$GPGSV,6,6,21*7A
$GLGSV,3,1,09,83,67,349,42,84,20,273,37,80,13,200,45,68,18,136,*6A
$GLGSV,3,2,09,66,19,027,46,67,36,084,49,74,34,313,44,82,40,060,49*67
$GLGSV,3,3,09,73,42,253,50*5F
$GAGSV,3,1,10,13,75,040,48,27,13,166,39,03,12,058,38,23,45,297,*65
$GAGSV,3,2,10,15,22,061,39,26,46,250,46,21,54,207,47,08,08,106,37*65
$GAGSV,3,3,10,05,02,012,28,31,04,327,36*62
$GBGSV,6,1,23,28,65,294,51,21,11,030,41,46,22,308,,38,15,037,41*6D
$GBGSV,6,2,23,60,11,108,41,50,24,050,,05,23,128,38,08,29,037,40*65
$GBGSV,6,3,23,33,28,142,45,31,26,054,,30,20,270,,58,30,304,*69
$GBGSV,6,4,23,27,21,278,44,13,37,044,44,11,22,085,42,37,30,248,46*65
$GBGSV,6,5,23,14,38,112,45,42,36,076,47,43,45,086,49,23,08,201,40*6E
$GBGSV,6,6,23,57,03,220,,02,08,105,35,34,01,093,29*54
$GPGGA,194542.00,,,,,0,00,,,M,,M,,*47
$PTNL,GGK,194542.00,010125,4742.1604633,N,01618.1002066,E,1,39,0.8,EHT751.7073,M*4A
$GPGGQ,194542.00,010125,4742.1604633,N,01618.1002066,E,1,39,0.937,708.5008,M*33
$GPGFA,194542.00,3.438,6.559,0.362,0.327,350.051,0.800,,VVV*04
$GPLLK,194542.00,010125,,M,,M,1,39,0.9,,M*07
$GNGMP,194542.00,,,,,DAAA,39,0.4,,,,*57
$GPGMP,194542.00,,,,,,09,,,,2.3,136*7E
$GLGMP,194542.00,,,,,,08,,,,,*78
$GAGMP,194542.00,,,,,,07,,,,,*7A
$GBGMP,194542.00,,,,,,15,,,,,*7A
$PSSN,SNC,[0,330360000,2347]*41
$GPZDA,194547.00,01,01,2025,,*69
$GPDTM,W84,,00.0000000,N,00.0000000,E,00.0000000,W84*5F
$PSSN,TFM,194547.00,,,,*65
$GPRMC,194547.00,A,4742.1604647,N,01618.1002060,E,0.0,,010125,5.1,E,D*1F
$GPGLL,4742.1604647,N,01618.1002060,E,194547.00,A,D*6E
$GPGGA,194547.00,4742.1604647,N,01618.1002060,E,2,39,0.4,708.5007,M,43.2066,M,3.3,0136*41
$GNGNS,194547.00,4742.1604647,N,01618.1002060,E,DAAA,39,0.4,708.5007,43.2066,,*59
$GPGNS,194547.00,,,,,,09,,,,3.3,136*7A
$GLGNS,194547.00,,,,,,08,,,,,*7D
$GAGNS,194547.00,,,,,,07,,,,,*7F
$GBGNS,194547.00,,,,,,15,,,,,*7F
$GPLLQ,194547.00,010125,,M,,M,1,39,0.946,,M*1A
$GPVTG,,T,,M,0.00,N,0.00,K,D*26
$GPHDT,,T*1B
$GPTHS,,V*0E
$GPROT,,V*08
$PSSN,HRP,194547.00,010125,,,,,,,00,0,,*6B
$PTNL,AVR,194547.00,,Yaw,,Tilt,,,,0,,00*3D
$GPGSA,A,3,07,08,10,15,16,18,23,26,27,,,,0.8,0.4,0.7*3D
$GPGSA,A,3,66,67,73,74,80,82,83,84,,,,,0.8,0.4,0.7*3A
$GPGSA,A,3,03,08,13,15,21,26,27,,,,,,0.8,0.4,0.7*36
$GPGSA,A,3,05,08,11,13,14,21,23,27,28,33,37,38,0.8,0.4,0.7*31
$GPGSA,A,3,42,43,60,,,,,,,,,,0.8,0.4,0.7*3E
$GPGST,194547.00,1.864,0.363,0.329,354.719,0.363,0.330,0.810*5A
$GPGBS,194547.00,2.651,1.910,5.256,67,0.0001,6.406,6.119*53
$GPGRS,194547.00,1,-0.4,0.2,0.5,-0.1,-0.0,0.0,-0.1,-0.0,-0.1,,,*68
$GPGRS,194547.00,1,-2.8,6.4,5.0,-4.2,0.2,-1.5,-1.7,-2.2,,,,*62
$GPGRS,194547.00,1,-0.2,-0.7,0.4,0.5,0.4,0.5,-1.0,,,,,*43
$GPGRS,194547.00,1,0.3,0.2,0.9,0.9,1.0,-0.3,-1.3,0.1,-0.2,0.3,-0.2,-0.4*6E
$GPGRS,194547.00,1,-0.8,-0.0,-1.3,,,,,,,,,*4D
$GPGSV,6,1,21,27,65,303,50,15,15,053,40,26,30,191,43,08,29,299,43*73
$GPGSV,6,2,21,18,35,063,45,10,49,165,49,16,55,216,48,23,59,087,48*76
$GPGSV,6,3,21,21,06,255,33,13,04,024,36,07,08,313,41,30,00,343,35*77
$GPGSV,6,4,21,36,35,170,44,58,13,245,37,57,11,108,38,34,31,208,42*7C
$GPGSV,6,5,21,40,24,133,35,49,34,195,43,41,07,108,33,61,03,257,38*78
$GPGSV,6,6,21*7A
$GLGSV,3,1,09,83,67,350,42,84,20,273,38,80,13,200,45,68,18,136,*6D
$GLGSV,3,2,09,66,19,027,46,67,36,084,50,74,34,313,44,82,40,060,49*6F
$GLGSV,3,3,09,73,42,253,50*5F
$GAGSV,3,1,10,13,75,040,48,27,13,166,39,03,12,058,38,23,45,297,*65
$GAGSV,3,2,10,15,22,061,40,26,46,250,46,21,54,207,47,08,08,106,37*6B
$GAGSV,3,3,10,05,02,012,30,31,04,327,37*6A
$GBGSV,6,1,23,28,65,294,51,21,11,030,40,60,11,108,41,38,15,037,41*6F
$GBGSV,6,2,23,46,22,308,,50,24,050,,05,23,128,38,08,29,037,40*66
$GBGSV,6,3,23,33,28,142,45,31,26,054,,30,20,270,,58,30,304,*69
$GBGSV,6,4,23,27,21,278,44,13,36,044,44,11,22,086,43,37,30,248,46*66
$GBGSV,6,5,23,14,38,111,46,42,36,076,47,43,45,086,49,34,01,093,29*67
$GBGSV,6,6,23,57,04,220,,02,08,105,35,23,08,201,40*5A
$GPGGA,194547.00,,,,,0,00,,,M,,M,,*42
$PTNL,GGK,194547.00,010125,4742.1604647,N,01618.1002060,E,1,39,0.8,EHT751.7073,M*4A
$GPGGQ,194547.00,010125,4742.1604647,N,01618.1002060,E,1,39,0.946,708.5007,M*3A
$GPGFA,194547.00,3.450,6.639,0.363,0.329,354.719,0.810,,VVV*0B
$GPLLK,194547.00,010125,,M,,M,1,39,0.9,,M*02
$GNGMP,194547.00,,,,,DAAA,39,0.4,,,,*52
$GPGMP,194547.00,,,,,,09,,,,3.3,136*7A
$GLGMP,194547.00,,,,,,08,,,,,*7D
$GAGMP,194547.00,,,,,,07,,,,,*7F
$GBGMP,194547.00,,,,,,15,,,,,*7F
$PSSN,SNC,[0,330365000,2347]*44
$GPZDA,194552.00,01,01,2025,,*6D
$GPDTM,W84,,00.0000000,N,00.0000000,E,00.0000000,W84*5F
$PSSN,TFM,194552.00,,,,*61
$GPRMC,194552.00,A,4742.1604680,N,01618.1002054,E,0.0,,010125,5.1,E,D*17
$GPGLL,4742.1604680,N,01618.1002054,E,194552.00,A,D*66
$GPGGA,194552.00,4742.1604680,N,01618.1002054,E,2,39,0.4,708.4980,M,43.2066,M,1.7,0136*48
$GNGNS,194552.00,4742.1604680,N,01618.1002054,E,DAAA,39,0.4,708.4980,43.2066,,*56
$GPGNS,194552.00,,,,,,09,,,,1.7,136*78
$GLGNS,194552.00,,,,,,08,,,,,*79
$GAGNS,194552.00,,,,,,07,,,,,*7B
$GBGNS,194552.00,,,,,,15,,,,,*7B
$GPLLQ,194552.00,010125,,M,,M,1,39,0.951,,M*18
$GPVTG,,T,,M,0.00,N,0.01,K,D*27
$GPHDT,,T*1B
$GPTHS,,V*0E
$GPROT,,V*08
$PSSN,HRP,194552.00,010125,,,,,,,00,0,,*6F
$PTNL,AVR,194552.00,,Yaw,,Tilt,,,,0,,00*39
$GPGSA,A,3,07,08,10,15,16,18,23,26,27,,,,0.8,0.4,0.7*3D
$GPGSA,A,3,66,67,73,74,80,82,83,84,,,,,0.8,0.4,0.7*3A
$GPGSA,A,3,03,08,13,15,21,26,27,,,,,,0.8,0.4,0.7*36
$GPGSA,A,3,05,08,11,13,14,21,23,27,28,33,37,38,0.8,0.4,0.7*31
$GPGSA,A,3,42,43,60,,,,,,,,,,0.8,0.4,0.7*3E
$GPGST,194552.00,1.923,0.363,0.330,353.711,0.363,0.330,0.814*5F
$GPGBS,194552.00,2.580,1.827,4.967,67,0.0001,6.577,6.119*52
$GPGRS,194552.00,1,-0.5,0.1,0.3,0.4,0.1,-0.1,-0.3,0.4,-0.2,,,*68
$GPGRS,194552.00,1,-3.0,6.6,5.4,-3.8,-0.3,-1.3,-1.7,-1.8,,,,*47
$GPGRS,194552.00,1,-0.3,-0.7,0.3,0.7,0.7,-0.2,-1.1,,,,,*6B
$GPGRS,194552.00,1,0.3,0.4,1.7,0.4,1.3,-0.7,-1.3,-0.2,-0.3,-0.0,-0.2,-0.1*6D
$GPGRS,194552.00,1,-0.9,-0.0,-1.4,,,,,,,,,*4F
$GPGSV,6,1,21,27,65,303,50,15,15,053,40,26,30,191,43,08,29,299,43*73
$GPGSV,6,2,21,18,34,063,45,10,49,165,50,16,55,216,48,23,59,087,47*70
$GPGSV,6,3,21,21,06,255,35,13,04,024,35,07,08,312,41,30,00,343,35*73
$GPGSV,6,4,21,36,35,170,44,58,13,245,37,57,11,108,38,34,31,208,42*7C
$GPGSV,6,5,21,40,24,133,36,49,34,195,43,41,07,108,33,61,03,257,38*7B
$GPGSV,6,6,21*7A
$GLGSV,3,1,09,83,67,350,42,84,20,273,37,80,13,200,45,68,18,136,*62
$GLGSV,3,2,09,66,19,027,46,67,36,084,50,74,34,313,44,82,40,060,48*6E
$GLGSV,3,3,09,73,42,253,50*5F
$GAGSV,3,1,10,13,75,040,48,27,13,166,39,03,12,058,39,23,45,297,*64
$GAGSV,3,2,10,15,22,061,41,26,46,250,46,21,54,207,47,08,08,106,37*6A
$GAGSV,3,3,10,05,02,012,30,31,04,327,37*6A
$GBGSV,6,1,23,28,65,294,51,21,11,030,40,60,11,108,40,38,15,037,41*6E
$GBGSV,6,2,23,46,22,307,,50,24,050,,05,23,128,38,08,29,037,40*69
$GBGSV,6,3,23,33,28,142,45,31,26,054,,30,20,270,,58,30,304,*69
$GBGSV,6,4,23,27,21,278,44,13,36,044,44,11,22,086,43,37,30,248,45*65
$GBGSV,6,5,23,14,38,111,45,42,36,076,46,43,45,086,49,34,01,093,27*6B
$GBGSV,6,6,23,57,04,220,,02,08,105,35,23,08,201,41*5B
$GPGGA,194552.00,,,,,0,00,,,M,,M,,*46
$PTNL,GGK,194552.00,010125,4742.1604680,N,01618.1002054,E,1,39,0.8,EHT751.7046,M*44
$GPGGQ,194552.00,010125,4742.1604680,N,01618.1002054,E,1,39,0.951,708.4980,M*33
$GPGFA,194552.00,3.454,6.676,0.363,0.330,353.711,0.814,,VVV*03
$GPLLK,194552.00,010125,,M,,M,1,39,0.9,,M*06
$GNGMP,194552.00,,,,,DAAA,39,0.4,,,,*56
$GPGMP,194552.00,,,,,,09,,,,1.7,136*78
$GLGMP,194552.00,,,,,,08,,,,,*79
$GAGMP,194552.00,,,,,,07,,,,,*7B
$GBGMP,194552.00,,,,,,15,,,,,*7B
$PSSN,SNC,[0,330370000,2347]*40
$GPZDA,194557.00,01,01,2025,,*68
$GPDTM,W84,,00.0000000,N,00.0000000,E,00.0000000,W84*5F
$PSSN,TFM,194557.00,,,,*64
$GPRMC,194557.00,A,4742.1604698,N,01618.1002030,E,0.0,,010125,5.1,E,D*19
$GPGLL,4742.1604698,N,01618.1002030,E,194557.00,A,D*68
$GPGGA,194557.00,4742.1604698,N,01618.1002030,E,2,39,0.4,708.5006,M,43.2066,M,2.7,0136*43
$GNGNS,194557.00,4742.1604698,N,01618.1002030,E,DAAA,39,0.4,708.5006,43.2066,,*5E
$GPGNS,194557.00,,,,,,09,,,,2.7,136*7E
$GLGNS,194557.00,,,,,,08,,,,,*7C
$GAGNS,194557.00,,,,,,07,,,,,*7E
$GBGNS,194557.00,,,,,,15,,,,,*7E
$GPLLQ,194557.00,010125,,M,,M,1,39,0.924,,M*1F
$GPVTG,,T,,M,0.01,N,0.01,K,D*26
$GPHDT,,T*1B
$GPTHS,,V*0E
$GPROT,,V*08
$PSSN,HRP,194557.00,010125,,,,,,,00,0,,*6A
$PTNL,AVR,194557.00,,Yaw,,Tilt,,,,0,,00*3C
$GPGSA,A,3,07,08,10,15,16,18,23,26,27,,,,0.8,0.4,0.7*3D
$GPGSA,A,3,66,67,73,74,80,82,83,84,,,,,0.8,0.4,0.7*3A
$GPGSA,A,3,03,08,13,15,21,26,27,,,,,,0.8,0.4,0.7*36
$GPGSA,A,3,05,08,11,13,14,21,23,27,28,33,37,38,0.8,0.4,0.7*31
$GPGSA,A,3,42,43,60,,,,,,,,,,0.8,0.4,0.7*3E
$GPGST,194557.00,2.021,0.359,0.322,346.948,0.357,0.324,0.788*56
$GPGBS,194557.00,2.634,1.853,5.030,67,0.0001,7.022,6.119*56
$GPGRS,194557.00,1,-0.4,0.3,0.1,0.0,0.0,0.2,-0.2,0.0,-0.2,,,*42
$GPGRS,194557.00,1,-3.4,7.0,5.9,-3.1,-0.5,-1.0,-1.7,-2.5,,,,*4E
$GPGRS,194557.00,1,-0.8,-0.9,0.3,0.7,0.5,0.3,-1.0,,,,,*44
$GPGRS,194557.00,1,0.7,0.4,2.1,0.4,1.0,-0.5,-0.8,-0.6,-0.4,0.6,-0.5,-0.2*4E
$GPGRS,194557.00,1,-0.7,0.2,-1.7,,,,,,,,,*68
$GPGSV,6,1,21,27,65,303,50,15,15,053,40,26,29,191,43,08,29,299,43*7B
$GPGSV,6,2,21,18,34,063,45,10,49,165,50,16,55,216,48,23,59,087,47*70
$GPGSV,6,3,21,21,06,255,34,13,04,024,35,07,08,312,39,30,00,343,34*7C
$GPGSV,6,4,21,36,35,170,44,58,13,245,37,57,11,108,38,34,31,208,42*7C
$GPGSV,6,5,21,40,24,133,36,49,34,195,44,41,07,108,34,61,03,257,38*7B
$GPGSV,6,6,21*7A
$GLGSV,3,1,09,83,67,350,42,84,20,273,38,80,13,200,45,68,18,136,*6D
$GLGSV,3,2,09,66,19,027,46,67,36,084,50,74,34,313,44,82,40,060,48*6E
$GLGSV,3,3,09,73,42,253,50*5F
$GAGSV,3,1,10,13,75,040,48,27,13,166,39,03,12,058,39,23,45,297,*64
$GAGSV,3,2,10,15,22,061,41,26,46,250,46,21,54,207,48,08,08,106,37*65
$GAGSV,3,3,10,05,02,012,30,31,04,327,38*65
$GBGSV,6,1,23,28,65,294,51,21,11,030,40,60,11,108,40,38,15,037,40*6F
$GBGSV,6,2,23,46,22,307,,50,24,050,,05,23,128,38,08,29,037,40*69
$GBGSV,6,3,23,33,28,142,45,31,26,054,,30,20,270,,58,30,304,*69
$GBGSV,6,4,23,27,21,278,44,13,36,044,44,11,22,086,43,37,30,248,46*66
$GBGSV,6,5,23,14,38,111,45,42,36,076,46,43,45,086,49,34,01,093,28*64
$GBGSV,6,6,23,57,04,220,,02,08,105,35,23,08,201,41*5B
$GPGGA,194557.00,,,,,0,00,,,M,,M,,*43
$PTNL,GGK,194557.00,010125,4742.1604698,N,01618.1002030,E,1,39,0.8,EHT751.7071,M*4E
$GPGGQ,194557.00,010125,4742.1604698,N,01618.1002030,E,1,39,0.924,708.5006,M*39
$GPGFA,194557.00,3.415,6.465,0.359,0.322,346.948,0.788,,VVV*05
$GPLLK,194557.00,010125,,M,,M,1,39,0.9,,M*03
$GNGMP,194557.00,,,,,DAAA,39,0.4,,,,*53
$GPGMP,194557.00,,,,,,09,,,,2.7,136*7E
$GLGMP,194557.00,,,,,,08,,,,,*7C
$GAGMP,194557.00,,,,,,07,,,,,*7E
$GBGMP,194557.00,,,,,,15,,,,,*7E
$PSSN,SNC,[0,330375000,2347]*45
$GPZDA,194602.00,01,01,2025,,*6B
$GPDTM,W84,,00.0000000,N,00.0000000,E,00.0000000,W84*5F
$PSSN,TFM,194602.00,,,,*67
$GPRMC,194602.00,A,4742.1604699,N,01618.1002025,E,0.0,,010125,5.1,E,D*1F
$GPGLL,4742.1604699,N,01618.1002025,E,194602.00,A,D*6E
$GPGGA,194602.00,4742.1604699,N,01618.1002025,E,2,39,0.4,708.5027,M,43.2066,M,2.3,0136*42
$GNGNS,194602.00,4742.1604699,N,01618.1002025,E,DAAA,39,0.4,708.5027,43.2066,,*5B
$GPGNS,194602.00,,,,,,09,,,,2.3,136*79
$GLGNS,194602.00,,,,,,08,,,,,*7F
$GAGNS,194602.00,,,,,,07,,,,,*7D
$GBGNS,194602.00,,,,,,15,,,,,*7D
$GPLLQ,194602.00,010125,,M,,M,1,39,0.936,,M*1F
$GPVTG,,T,,M,0.00,N,0.01,K,D*27
$GPHDT,,T*1B
$GPTHS,,V*0E
$GPROT,,V*08
$PSSN,HRP,194602.00,010125,,,,,,,00,0,,*69
$PTNL,AVR,194602.00,,Yaw,,Tilt,,,,0,,00*3F
$GPGSA,A,3,07,08,10,15,16,18,23,26,27,,,,0.8,0.4,0.7*3D
$GPGSA,A,3,66,67,73,74,80,82,83,84,,,,,0.8,0.4,0.7*3A
$GPGSA,A,3,03,08,13,15,21,26,27,,,,,,0.8,0.4,0.7*36
$GPGSA,A,3,05,08,11,13,14,21,23,27,28,33,37,38,0.8,0.4,0.7*31
$GPGSA,A,3,42,43,60,,,,,,,,,,0.8,0.4,0.7*3E
$GPGST,194602.00,1.907,0.362,0.327,349.649,0.360,0.328,0.799*5F
$GPGBS,194602.00,2.594,1.877,5.159,67,0.0001,6.437,6.119*55
$GPGRS,194602.00,1,-0.3,0.2,0.2,-0.2,-0.1,0.1,0.0,-0.4,0.0,,,*6D
$GPGRS,194602.00,1,-3.1,6.4,5.7,-3.0,-0.3,-1.4,-1.6,-2.1,,,,*45
$GPGRS,194602.00,1,-0.5,-0.7,0.5,0.9,0.7,0.4,-0.6,,,,,*4E
$GPGRS,194602.00,1,1.0,0.4,2.3,0.6,0.6,-0.2,-0.8,-0.4,-0.2,0.7,-0.3,-0.1*4B
$GPGRS,194602.00,1,-0.3,0.3,-1.6,,,,,,,,,*6F
$GPGSV,6,1,21,27,65,303,50,15,15,053,40,26,29,191,43,08,29,299,43*7B
$GPGSV,6,2,21,18,34,063,45,10,49,165,50,16,55,216,48,23,59,087,47*70
$GPGSV,6,3,21,21,06,255,35,13,04,024,36,07,08,312,39,30,00,343,34*7E
$GPGSV,6,4,21,36,35,170,44,58,13,245,37,57,11,108,38,34,31,208,42*7C
$GPGSV,6,5,21,40,24,133,36,49,34,195,44,41,07,108,34,61,03,257,38*7B
$GPGSV,6,6,21*7A
$GLGSV,3,1,09,83,67,350,42,84,20,273,36,80,13,200,45,68,18,136,*63
$GLGSV,3,2,09,66,19,027,46,67,36,084,49,74,34,313,45,82,40,060,48*67
$GLGSV,3,3,09,73,42,253,51*5E
$GAGSV,3,1,10,13,75,040,48,27,13,166,39,03,12,058,39,23,45,296,*65
$GAGSV,3,2,10,15,22,061,41,26,46,250,46,21,54,207,47,08,08,106,37*6A
$GAGSV,3,3,10,05,02,012,31,31,04,327,38*64
$GBGSV,6,1,23,28,65,294,51,21,11,030,40,60,11,108,40,38,15,037,41*6E
$GBGSV,6,2,23,46,22,307,,50,24,049,,05,23,128,38,08,29,037,39*6F
$GBGSV,6,3,23,33,28,142,45,31,26,054,,30,20,270,,58,30,304,*69
$GBGSV,6,4,23,27,21,278,44,13,36,044,44,11,22,086,43,37,30,248,46*66
$GBGSV,6,5,23,14,38,111,45,42,36,076,46,43,45,086,49,34,01,093,29*65
$GBGSV,6,6,23,57,04,220,,02,08,105,35,23,08,201,42*58
$GPGGA,194602.00,,,,,0,00,,,M,,M,,*40
$PTNL,GGK,194602.00,010125,4742.1604699,N,01618.1002025,E,1,39,0.8,EHT751.7093,M*44
$GPGGQ,194602.00,010125,4742.1604699,N,01618.1002025,E,1,39,0.936,708.5027,M*3F
$GPGFA,194602.00,3.437,6.549,0.362,0.327,349.649,0.799,,VVV*05
$GPLLK,194602.00,010125,,M,,M,1,39,0.9,,M*00
$GNGMP,194602.00,,,,,DAAA,39,0.4,,,,*50
$GPGMP,194602.00,,,,,,09,,,,2.3,136*79
$GLGMP,194602.00,,,,,,08,,,,,*7F
$GAGMP,194602.00,,,,,,07,,,,,*7D
$GBGMP,194602.00,,,,,,15,,,,,*7D
$PSSN,SNC,[0,330380000,2347]*4F
$GPZDA,194607.00,01,01,2025,,*6E
$GPDTM,W84,,00.0000000,N,00.0000000,E,00.0000000,W84*5F
$PSSN,TFM,194607.00,,,,*62
$GPRMC,194607.00,A,4742.1604685,N,01618.1002041,E,0.0,,010125,5.1,E,D*15
$GPGLL,4742.1604685,N,01618.1002041,E,194607.00,A,D*64
$GPGGA,194607.00,4742.1604685,N,01618.1002041,E,2,39,0.4,708.4995,M,43.2066,M,3.3,0136*48
$GNGNS,194607.00,4742.1604685,N,01618.1002041,E,DAAA,39,0.4,708.4995,43.2066,,*50
$GPGNS,194607.00,,,,,,09,,,,3.3,136*7D
$GLGNS,194607.00,,,,,,08,,,,,*7A
$GAGNS,194607.00,,,,,,07,,,,,*78
$GBGNS,194607.00,,,,,,15,,,,,*78
$GPLLQ,194607.00,010125,,M,,M,1,39,0.945,,M*1E
$GPVTG,,T,,M,0.00,N,0.01,K,D*27
$GPHDT,,T*1B
$GPTHS,,V*0E
$GPROT,,V*08
$PSSN,HRP,194607.00,010125,,,,,,,00,0,,*6C
$PTNL,AVR,194607.00,,Yaw,,Tilt,,,,0,,00*3A
$GPGSA,A,3,07,08,10,15,16,18,23,26,27,,,,0.8,0.4,0.7*3D
$GPGSA,A,3,66,67,73,74,80,82,83,84,,,,,0.8,0.4,0.7*3A
$GPGSA,A,3,03,08,13,15,21,26,27,,,,,,0.8,0.4,0.7*36
$GPGSA,A,3,05,08,11,13,14,21,23,27,28,33,37,38,0.8,0.4,0.7*31
$GPGSA,A,3,42,43,60,,,,,,,,,,0.8,0.4,0.7*3E
$GPGST,194607.00,1.840,0.363,0.330,354.174,0.362,0.330,0.808*56
$GPGBS,194607.00,2.651,1.910,5.251,67,0.0001,5.928,6.119*51
$GPGRS,194607.00,1,0.3,0.1,-0.1,-0.5,0.1,0.3,-0.0,-0.7,0.2,,,*6C
$GPGRS,194607.00,1,-2.7,5.9,5.4,-3.5,0.3,-1.2,-1.9,-2.6,,,,*6C
$GPGRS,194607.00,1,-0.7,-0.8,0.5,0.8,0.6,0.3,-0.8,,,,,*4F
$GPGRS,194607.00,1,0.5,0.1,1.6,0.9,1.7,-0.2,-0.3,0.2,-0.3,0.5,0.1,-0.2*49
$GPGRS,194607.00,1,-0.1,0.1,-1.4,,,,,,,,,*68
$GPGSV,6,1,21,27,65,303,50,15,15,053,40,26,29,191,43,08,29,299,43*7B
$GPGSV,6,2,21,18,34,063,44,10,49,165,49,16,55,215,48,23,59,087,47*7A
$GPGSV,6,3,21,21,06,255,35,13,04,024,36,07,08,312,39,30,00,343,35*7F
$GPGSV,6,4,21,36,35,170,44,58,13,245,37,57,11,108,38,34,31,208,42*7C
$GPGSV,6,5,21,40,24,133,36,49,34,195,44,41,07,108,34,61,03,257,38*7B
$GPGSV,6,6,21*7A
$GLGSV,3,1,09,83,67,350,43,84,20,273,38,80,13,199,46,68,18,136,*6C
$GLGSV,3,2,09,66,19,027,46,67,36,084,49,74,34,313,44,82,40,060,48*66
$GLGSV,3,3,09,73,42,253,50*5F
$GAGSV,3,1,10,13,75,040,48,27,13,166,39,03,12,058,38,23,45,296,*64
$GAGSV,3,2,10,15,22,061,41,26,46,250,46,21,54,207,47,08,08,106,37*6A
$GAGSV,3,3,10,05,02,012,32,31,04,327,38*67
$GBGSV,6,1,23,28,66,294,51,21,11,030,40,60,11,108,40,38,15,037,40*6C
$GBGSV,6,2,23,46,22,307,,50,24,049,,05,23,128,38,08,29,037,39*6F
$GBGSV,6,3,23,33,28,142,45,31,26,054,,30,20,270,,58,30,304,*69
$GBGSV,6,4,23,27,21,278,44,13,36,044,44,11,22,086,42,37,30,248,46*67
$GBGSV,6,5,23,14,38,111,45,42,36,076,46,43,45,086,49,34,01,093,30*6D
$GBGSV,6,6,23,57,04,220,,02,08,105,35,23,08,201,41*5B
$GPGGA,194607.00,,,,,0,00,,,M,,M,,*45
$PTNL,GGK,194607.00,010125,4742.1604685,N,01618.1002041,E,1,39,0.8,EHT751.7061,M*43
$GPGGQ,194607.00,010125,4742.1604685,N,01618.1002041,E,1,39,0.945,708.4995,M*30
$GPGFA,194607.00,3.447,6.627,0.363,0.330,354.174,0.808,,VVV*09
$GPLLK,194607.00,010125,,M,,M,1,39,0.9,,M*05
$GNGMP,194607.00,,,,,DAAA,39,0.4,,,,*55
$GPGMP,194607.00,,,,,,09,,,,3.3,136*7D
$GLGMP,194607.00,,,,,,08,,,,,*7A
$GAGMP,194607.00,,,,,,07,,,,,*78
$GBGMP,194607.00,,,,,,15,,,,,*78
$PSSN,SNC,[0,330385000,2347]*4A
$GPZDA,194612.00,01,01,2025,,*6A
$GPDTM,W84,,00.0000000,N,00.0000000,E,00.0000000,W84*5F
$PSSN,TFM,194612.00,,,,*66
$GPRMC,194612.00,A,4742.1604654,N,01618.1002029,E,0.0,,010125,5.1,E,D*13
$GPGLL,4742.1604654,N,01618.1002029,E,194612.00,A,D*62
$GPGGA,194612.00,4742.1604654,N,01618.1002029,E,2,39,0.4,708.4981,M,43.2066,M,1.7,0136*4D
$GNGNS,194612.00,4742.1604654,N,01618.1002029,E,DAAA,39,0.4,708.4981,43.2066,,*53
$GPGNS,194612.00,,,,,,09,,,,1.7,136*7F
$GLGNS,194612.00,,,,,,08,,,,,*7E
$GAGNS,194612.00,,,,,,07,,,,,*7C
$GBGNS,194612.00,,,,,,15,,,,,*7C
$GPLLQ,194612.00,010125,,M,,M,1,39,0.940,,M*1F
$GPVTG,,T,,M,0.00,N,0.01,K,D*27
$GPHDT,,T*1B
$GPTHS,,V*0E
$GPROT,,V*08
$PSSN,HRP,194612.00,010125,,,,,,,00,0,,*68
$PTNL,AVR,194612.00,,Yaw,,Tilt,,,,0,,00*3E
$GPGSA,A,3,07,08,10,15,16,18,23,26,27,,,,0.8,0.4,0.7*3D
$GPGSA,A,3,66,67,73,74,80,82,83,84,,,,,0.8,0.4,0.7*3A
$GPGSA,A,3,03,08,13,15,21,26,27,,,,,,0.8,0.4,0.7*36
$GPGSA,A,3,05,08,11,13,14,21,23,27,28,33,37,38,0.8,0.4,0.7*31
$GPGSA,A,3,42,43,60,,,,,,,,,,0.8,0.4,0.7*3E
$GPGST,194612.00,1.860,0.363,0.328,351.145,0.362,0.329,0.803*5D
$GPGBS,194612.00,2.579,1.829,4.965,67,0.0001,6.340,6.119*5D
$GPGRS,194612.00,1,0.8,-0.0,0.0,-0.0,0.1,0.3,0.1,-0.7,-0.2,,,*67
$GPGRS,194612.00,1,-3.1,6.3,5.0,-3.7,0.2,-0.3,-1.9,-2.4,,,,*63
$GPGRS,194612.00,1,-0.4,-0.6,0.5,0.6,0.7,0.5,-0.8,,,,,*4F
$GPGRS,194612.00,1,0.8,-0.6,0.8,1.1,1.7,-0.7,-0.0,0.1,-0.1,0.7,-0.2,-0.1*44
$GPGRS,194612.00,1,-0.3,0.1,-1.4,,,,,,,,,*6E
$GPGSV,6,1,21,27,65,303,50,15,15,053,39,26,29,191,43,08,29,299,43*75
$GPGSV,6,2,21,18,34,063,45,10,49,165,49,16,55,215,48,23,59,087,47*7B
$GPGSV,6,3,21,21,06,255,34,13,04,024,36,07,08,312,39,30,00,343,35*7E
$GPGSV,6,4,21,36,35,170,44,58,13,245,37,57,11,108,38,34,31,208,42*7C
$GPGSV,6,5,21,40,24,133,36,49,34,195,44,41,07,108,34,61,03,257,38*7B
$GPGSV,6,6,21*7A
$GLGSV,3,1,09,83,67,350,42,84,20,273,37,80,13,199,46,68,18,136,*62
$GLGSV,3,2,09,66,19,027,46,67,36,084,50,74,34,313,44,82,40,060,49*6F
$GLGSV,3,3,09,73,42,253,50*5F
$GAGSV,3,1,10,13,75,040,48,27,13,166,38,03,12,058,38,23,45,296,*65
$GAGSV,3,2,10,15,22,061,41,26,46,250,46,21,54,207,48,08,08,106,37*65
$GAGSV,3,3,10,05,01,012,32,31,04,327,36*6A
$GBGSV,6,1,23,28,66,294,51,21,11,030,40,60,11,108,41,38,15,037,40*6D
$GBGSV,6,2,23,46,22,307,,50,24,049,,05,23,128,38,08,29,037,39*6F
$GBGSV,6,3,23,33,28,142,45,31,26,054,,30,20,270,,58,30,304,*69
$GBGSV,6,4,23,27,21,278,44,13,36,044,44,11,22,086,42,37,29,248,45*6C
$GBGSV,6,5,23,14,38,111,45,42,36,076,46,43,45,086,49,34,01,093,30*6D
$GBGSV,6,6,23,57,04,220,,02,08,105,35,23,08,201,41*5B
$GPGGA,194612.00,,,,,0,00,,,M,,M,,*41
$PTNL,GGK,194612.00,010125,4742.1604654,N,01618.1002029,E,1,39,0.8,EHT751.7047,M*41
$GPGGQ,194612.00,010125,4742.1604654,N,01618.1002029,E,1,39,0.940,708.4981,M*36
$GPGFA,194612.00,3.448,6.586,0.363,0.328,351.145,0.803,,VVV*0F
$GPLLK,194612.00,010125,,M,,M,1,39,0.9,,M*01
$GNGMP,194612.00,,,,,DAAA,39,0.4,,,,*51
$GPGMP,194612.00,,,,,,09,,,,1.7,136*7F
$GLGMP,194612.00,,,,,,08,,,,,*7E
$GAGMP,194612.00,,,,,,07,,,,,*7C
$GBGMP,194612.00,,,,,,15,,,,,*7C
$PSSN,SNC,[0,330390000,2347]*4E
$GPZDA,194617.00,01,01,2025,,*6F
$GPDTM,W84,,00.0000000,N,00.0000000,E,00.0000000,W84*5F
$PSSN,TFM,194617.00,,,,*63
$GPRMC,194617.00,A,4742.1604652,N,01618.1002023,E,0.0,,010125,5.1,E,D*1A
$GPGLL,4742.1604652,N,01618.1002023,E,194617.00,A,D*6B
$GPGGA,194617.00,4742.1604652,N,01618.1002023,E,2,39,0.4,708.5007,M,43.2066,M,2.7,0136*41
$GNGNS,194617.00,4742.1604652,N,01618.1002023,E,DAAA,39,0.4,708.5007,43.2066,,*5C
$GPGNS,194617.00,,,,,,09,,,,2.7,136*79
$GLGNS,194617.00,,,,,,08,,,,,*7B
$GAGNS,194617.00,,,,,,07,,,,,*79
$GBGNS,194617.00,,,,,,15,,,,,*79
$GPLLQ,194617.00,010125,,M,,M,1,39,0.923,,M*1F
$GPVTG,,T,,M,0.00,N,0.00,K,D*26
$GPHDT,,T*1B
$GPTHS,,V*0E
$GPROT,,V*08
$PSSN,HRP,194617.00,010125,,,,,,,00,0,,*6D
$PTNL,AVR,194617.00,,Yaw,,Tilt,,,,0,,00*3B
$GPGSA,A,3,07,08,10,15,16,18,23,26,27,,,,0.8,0.4,0.7*3D
$GPGSA,A,3,66,67,73,74,80,82,83,84,,,,,0.8,0.4,0.7*3A
$GPGSA,A,3,03,08,13,15,21,26,27,,,,,,0.8,0.4,0.7*36
$GPGSA,A,3,05,08,11,13,14,21,23,27,28,33,37,38,0.8,0.4,0.7*31
$GPGSA,A,3,42,43,60,,,,,,,,,,0.8,0.4,0.7*3E
$GPGST,194617.00,1.956,0.359,0.322,346.514,0.357,0.325,0.787*50
$GPGBS,194617.00,2.632,1.854,5.025,67,0.0001,6.770,6.119*55
$GPGRS,194617.00,1,0.3,-0.1,0.1,0.1,-0.1,-0.0,0.0,0.0,-0.1,,,*6E
$GPGRS,194617.00,1,-3.4,6.8,5.3,-3.4,-0.2,-0.3,-2.3,-2.8,,,,*40
$GPGRS,194617.00,1,-0.3,-0.9,0.5,0.8,0.8,0.4,-0.9,,,,,*43
$GPGRS,194617.00,1,0.4,-0.5,0.6,0.6,1.4,-0.6,-0.5,-0.3,-0.1,1.1,-0.1,-0.1*6A
$GPGRS,194617.00,1,-0.7,0.2,-1.4,,,,,,,,,*6C
$GPGSV,6,1,21,27,65,303,50,15,15,053,39,26,29,191,44,08,29,299,43*72
$GPGSV,6,2,21,18,34,063,45,10,49,165,49,16,55,215,48,23,59,087,47*7B
