$GPZDA,054442.00,01,01,2025,,*60
$GPDTM,W84,,00.0000000,N,00.0000000,E,00.0000000,W84*5F
$PSSN,TFM,054442.00,,,,*6C
$GPRMC,054442.00,A,4742.1602929,N,01618.1000430,E,0.0,,010125,5.1,E,D*14
$GPGLL,4742.1602929,N,01618.1000430,E,054442.00,A,D*65
$GPGGA,054442.00,4742.1602929,N,01618.1000430,E,2,40,0.4,708.2570,M,43.2066,M,2.4,0136*40
$GNGNS,054442.00,4742.1602929,N,01618.1000430,E,DAAA,40,0.4,708.2570,43.2066,,*5E
$GPGNS,054442.00,,,,,,10,,,,2.4,136*7D
$GLGNS,054442.00,,,,,,09,,,,,*75
$GAGNS,054442.00,,,,,,09,,,,,*78
$GBGNS,054442.00,,,,,,12,,,,,*71
$GPLLQ,054442.00,010125,,M,,M,1,40,0.815,,M*1A
$GPVTG,,T,,M,0.00,N,0.00,K,D*26
$GPHDT,,T*1B
$GPTHS,,V*0E
$GPROT,,V*08
$PSSN,HRP,054442.00,010125,,,,,,,00,0,,*62
$PTNL,AVR,054442.00,,Yaw,,Tilt,,,,0,,00*34
$GPGSA,A,3,04,05,06,07,09,11,13,16,20,30,,,0.7,0.4,0.6*3A
$GPGSA,A,3,65,71,72,73,74,75,80,87,88,,,,0.7,0.4,0.6*35
$GPGSA,A,3,03,05,09,13,15,24,25,31,34,,,,0.7,0.4,0.6*3A
$GPGSA,A,3,02,05,06,09,11,12,16,19,22,34,36,60,0.7,0.4,0.6*37
$GPGST,054442.00,2.231,0.431,0.273,347.122,0.424,0.283,0.635*5C
$GPGBS,054442.00,2.763,1.759,3.729,72,0.0001,6.519,6.041*55
$GPGRS,054442.00,1,-0.2,0.4,-0.5,-0.1,-0.1,0.0,0.9,0.1,-0.2,0.2,,*6B
$GPGRS,054442.00,1,-3.9,-0.4,6.5,4.2,2.5,-2.8,-3.2,-6.4,-1.8,,,*6F
$GPGRS,054442.00,1,0.1,0.3,0.4,0.6,0.1,0.2,-1.2,-0.5,0.3,,,*65
$GPGRS,054442.00,1,-0.0,2.0,0.2,-0.5,2.8,0.5,0.1,-1.2,-0.6,-0.8,0.1,-1.5*4E
$GPGSV,5,1,20,07,77,098,49,16,11,034,39,05,22,312,43,06,19,214,40*71
$GPGSV,5,2,20,04,16,086,40,11,34,251,45,20,54,293,48,30,56,209,49*74
$GPGSV,5,3,20,09,44,083,46,13,08,268,39,14,02,172,,36,35,170,45*76
$GPGSV,5,4,20,58,13,245,37,40,24,132,37,34,31,208,44,49,34,195,45*7D
$GPGSV,5,5,20,57,07,111,37,41,07,108,35,61,03,257,39*48
$GLGSV,3,1,11,72,62,332,51,87,16,251,43,80,11,024,42,88,22,311,46*60
$GLGSV,3,2,11,71,51,084,50,74,49,150,48,73,54,067,50,75,07,184,43*67
$GLGSV,3,3,11,81,04,359,41,70,08,107,32,65,10,299,40*5E
$GAGSV,3,1,11,05,76,045,49,16,23,141,,09,24,082,42,31,25,055,42*60
$GAGSV,3,2,11,24,32,113,44,34,30,224,44,15,36,287,44,03,44,278,46*6D
$GAGSV,3,3,11,25,09,161,37,06,03,086,36,13,09,334,38*5E
$GBGSV,6,1,22,22,83,336,52,06,11,051,37,12,10,268,40,11,11,318,39*6A
$GBGSV,6,2,22,26,16,184,,48,12,116,,09,26,052,39,45,24,189,*6F
$GBGSV,6,3,22,05,22,129,40,58,31,050,,46,36,055,,19,38,113,48*64
$GBGSV,6,4,22,36,58,135,51,21,80,342,,43,03,338,,44,02,246,39*68
$GBGSV,6,5,22,34,09,295,41,16,09,050,38,40,00,077,,50,07,298,*68
$GBGSV,6,6,22,02,06,107,35,60,07,111,41*6A
$GPGGA,054442.00,,,,,0,00,,,M,,M,,*4B
$PTNL,GGK,054442.00,010125,4742.1602929,N,01618.1000430,E,1,40,0.7,EHT751.4635,M*47
$GPGGQ,054442.00,010125,4742.1602929,N,01618.1000430,E,1,40,0.815,708.2570,M*3A
$GPGFA,054442.00,4.097,5.210,0.431,0.273,347.122,0.635,,VVV*0D
$GPLLK,054442.00,010125,,M,,M,1,40,0.7,,M*0B
$GNGMP,054442.00,,,,,DAAA,40,0.4,,,,*55
$GPGMP,054442.00,,,,,,10,,,,2.4,136*7D
$GLGMP,054442.00,,,,,,09,,,,,*75
$GAGMP,054442.00,,,,,,09,,,,,*78
$GBGMP,054442.00,,,,,,12,,,,,*71
$PSSN,SNC,[0,279900000,2347]*41
$GPZDA,054447.00,01,01,2025,,*65
$GPDTM,W84,,00.0000000,N,00.0000000,E,00.0000000,W84*5F
$PSSN,TFM,054447.00,,,,*69
$GPRMC,054447.00,A,4742.1602911,N,01618.1000447,E,0.0,,010125,5.1,E,D*1A
$GPGLL,4742.1602911,N,01618.1000447,E,054447.00,A,D*6B
$GPGGA,054447.00,4742.1602911,N,01618.1000447,E,2,40,0.4,708.2573,M,43.2066,M,3.0,0136*48
$GNGNS,054447.00,4742.1602911,N,01618.1000447,E,DAAA,40,0.4,708.2573,43.2066,,*53
$GPGNS,054447.00,,,,,,10,,,,3.0,136*7D
$GLGNS,054447.00,,,,,,09,,,,,*70
$GAGNS,054447.00,,,,,,09,,,,,*7D
$GBGNS,054447.00,,,,,,12,,,,,*74
$GPLLQ,054447.00,010125,,M,,M,1,40,0.826,,M*1F
$GPVTG,,T,,M,0.00,N,0.01,K,D*27
$GPHDT,,T*1B
$GPTHS,,V*0E
$GPROT,,V*08
$PSSN,HRP,054447.00,010125,,,,,,,00,0,,*67
$PTNL,AVR,054447.00,,Yaw,,Tilt,,,,0,,00*31
$GPGSA,A,3,04,05,06,07,09,11,13,16,20,30,,,0.7,0.4,0.6*3A
$GPGSA,A,3,65,71,72,73,74,75,80,87,88,,,,0.7,0.4,0.6*35
$GPGSA,A,3,03,05,09,13,15,24,25,31,34,,,,0.7,0.4,0.6*3A
$GPGSA,A,3,02,05,06,09,11,12,16,19,22,34,36,60,0.7,0.4,0.6*37
$GPGST,054447.00,2.049,0.436,0.277,346.728,0.429,0.288,0.645*5B
$GPGBS,054447.00,2.717,1.782,3.680,72,0.0001,6.322,6.041*59
$GPGRS,054447.00,1,-0.0,0.1,-0.4,-0.2,0.0,0.1,0.4,0.1,-0.0,0.2,,*49
$GPGRS,054447.00,1,-3.9,0.3,6.3,4.3,2.6,-2.8,-2.1,-5.5,-1.5,,,*49
$GPGRS,054447.00,1,0.3,0.2,0.4,0.4,0.3,0.1,-1.2,-0.4,0.2,,,*60
$GPGRS,054447.00,1,0.0,2.1,-0.0,-0.1,1.5,0.7,0.2,-0.9,-0.7,-0.5,0.4,-1.5*40
$GPGSV,5,1,20,07,77,097,49,16,11,034,38,05,22,312,43,06,19,214,41*7E
$GPGSV,5,2,20,04,16,086,39,11,34,251,44,20,54,293,48,30,56,209,49*7B
$GPGSV,5,3,20,09,44,083,46,13,08,268,38,14,02,172,,36,35,170,45*77
$GPGSV,5,4,20,58,13,245,37,40,24,132,38,34,31,208,44,49,34,195,45*72
$GPGSV,5,5,20,57,07,111,37,41,07,108,35,61,03,257,39*48
$GLGSV,3,1,11,72,62,332,51,87,16,251,42,80,11,024,42,88,22,311,45*62
$GLGSV,3,2,11,71,51,084,51,74,49,150,48,73,54,067,50,75,07,184,43*66
$GLGSV,3,3,11,81,04,359,41,70,08,107,31,65,10,299,40*5D
$GAGSV,3,1,11,05,76,045,49,16,23,141,,09,24,082,42,31,25,055,42*60
$GAGSV,3,2,11,24,32,113,44,34,30,224,44,15,36,287,44,03,44,278,46*6D
$GAGSV,3,3,11,25,09,161,38,06,03,086,36,13,09,334,39*50
$GBGSV,6,1,22,22,83,336,52,06,11,051,37,12,10,268,39,11,11,318,39*64
$GBGSV,6,2,22,26,16,183,,48,12,116,,09,26,052,39,45,24,189,*68
$GBGSV,6,3,22,05,22,129,39,58,31,050,,46,36,055,,19,38,113,48*6A
$GBGSV,6,4,22,36,59,135,51,21,80,342,,43,03,338,,44,02,246,39*69
$GBGSV,6,5,22,34,09,295,41,16,09,050,38,40,00,077,,50,07,298,*68
$GBGSV,6,6,22,02,06,107,35,60,07,111,41*6A
$GPGGA,054447.00,,,,,0,00,,,M,,M,,*4E
$PTNL,GGK,054447.00,010125,4742.1602911,N,01618.1000447,E,1,40,0.7,EHT751.4638,M*44
$GPGGQ,054447.00,010125,4742.1602911,N,01618.1000447,E,1,40,0.826,708.2573,M*37
$GPGFA,054447.00,4.143,5.288,0.436,0.277,346.728,0.645,,VVV*08
$GPLLK,054447.00,010125,,M,,M,1,40,0.7,,M*0E
$GNGMP,054447.00,,,,,DAAA,40,0.4,,,,*50
$GPGMP,054447.00,,,,,,10,,,,3.0,136*7D
$GLGMP,054447.00,,,,,,09,,,,,*70
$GAGMP,054447.00,,,,,,09,,,,,*7D
$GBGMP,054447.00,,,,,,12,,,,,*74
$PSSN,SNC,[0,279905000,2347]*44
$GPZDA,054452.00,01,01,2025,,*61
$GPDTM,W84,,00.0000000,N,00.0000000,E,00.0000000,W84*5F
$PSSN,TFM,054452.00,,,,*6D
$GPRMC,054452.00,A,4742.1602900,N,01618.1000438,E,0.0,,010125,5.1,E,D*16
$GPGLL,4742.1602900,N,01618.1000438,E,054452.00,A,D*67
$GPGGA,054452.00,4742.1602900,N,01618.1000438,E,2,40,0.4,708.2546,M,43.2066,M,3.2,0136*40
$GNGNS,054452.00,4742.1602900,N,01618.1000438,E,DAAA,40,0.4,708.2546,43.2066,,*59
$GPGNS,054452.00,,,,,,10,,,,3.2,136*7B
$GLGNS,054452.00,,,,,,09,,,,,*74
$GAGNS,054452.00,,,,,,09,,,,,*79
$GBGNS,054452.00,,,,,,12,,,,,*70
$GPLLQ,054452.00,010125,,M,,M,1,40,0.830,,M*1C
$GPVTG,,T,,M,0.00,N,0.01,K,D*27
$GPHDT,,T*1B
$GPTHS,,V*0E
$GPROT,,V*08
$PSSN,HRP,054452.00,010125,,,,,,,00,0,,*63
$PTNL,AVR,054452.00,,Yaw,,Tilt,,,,0,,00*35
$GPGSA,A,3,04,05,06,07,09,11,13,16,20,30,,,0.7,0.4,0.6*3A
$GPGSA,A,3,65,71,72,73,74,75,80,87,88,,,,0.7,0.4,0.6*35
$GPGSA,A,3,03,05,09,13,15,24,25,31,34,,,,0.7,0.4,0.6*3A
$GPGSA,A,3,02,05,06,09,11,12,16,19,22,34,36,60,0.7,0.4,0.6*37
$GPGST,054452.00,1.975,0.435,0.280,346.242,0.428,0.291,0.649*5D
$GPGBS,054452.00,2.701,1.781,3.588,72,0.0001,6.799,6.041*56
$GPGRS,054452.00,1,-0.3,0.0,-0.3,0.1,0.1,0.1,0.6,-0.2,-0.4,0.2,,*4F
$GPGRS,054452.00,1,-1.9,0.0,6.8,3.9,2.1,-2.8,-2.2,-5.1,-2.2,,,*4E
$GPGRS,054452.00,1,0.3,0.1,0.6,0.1,-0.3,-0.0,-1.1,-0.7,0.3,,,*60
$GPGRS,054452.00,1,-0.2,2.6,0.2,-0.3,1.4,0.5,0.2,-0.7,-0.6,-1.2,0.3,-1.3*4A
$GPGSV,5,1,20,07,77,097,49,16,11,034,39,05,22,312,43,06,19,214,41*7F
$GPGSV,5,2,20,04,16,086,40,11,34,251,45,20,54,293,48,30,56,209,49*74
$GPGSV,5,3,20,09,44,083,46,13,08,268,38,14,02,172,,36,35,170,45*77
$GPGSV,5,4,20,58,13,245,37,40,24,132,37,34,31,208,44,49,34,195,45*7D
$GPGSV,5,5,20,57,07,111,37,41,07,108,36,61,03,257,38*4A
$GLGSV,3,1,11,72,62,332,51,87,16,251,44,80,11,024,42,88,22,311,46*67
$GLGSV,3,2,11,71,51,084,50,74,49,150,47,73,54,067,49,75,07,184,43*60
$GLGSV,3,3,11,81,04,359,41,70,08,107,31,65,10,299,41*5C
$GAGSV,3,1,11,05,76,046,49,16,23,141,,09,24,082,42,31,25,055,42*63
$GAGSV,3,2,11,24,32,113,44,34,30,224,44,15,36,287,44,03,44,278,46*6D
$GAGSV,3,3,11,25,09,161,38,06,03,086,36,13,09,334,38*51
$GBGSV,6,1,22,22,83,337,52,06,11,051,37,12,10,268,39,11,11,318,39*65
$GBGSV,6,2,22,26,16,183,,48,12,116,,09,26,052,39,45,24,189,*68
$GBGSV,6,3,22,05,22,129,40,58,31,050,,46,36,055,,19,38,113,48*64
$GBGSV,6,4,22,36,59,135,51,21,80,342,,43,03,338,,44,02,246,39*69
$GBGSV,6,5,22,34,09,295,41,16,09,050,38,40,00,077,,50,07,298,*68
$GBGSV,6,6,22,02,06,107,35,60,07,111,41*6A
$GPGGA,054452.00,,,,,0,00,,,M,,M,,*4A
$PTNL,GGK,054452.00,010125,4742.1602900,N,01618.1000438,E,1,40,0.7,EHT751.4611,M*43
$GPGGQ,054452.00,010125,4742.1602900,N,01618.1000438,E,1,40,0.830,708.2546,M*3A
$GPGFA,054452.00,4.134,5.320,0.435,0.280,346.242,0.649,,VVV*01
$GPLLK,054452.00,010125,,M,,M,1,40,0.7,,M*0A
$GNGMP,054452.00,,,,,DAAA,40,0.4,,,,*54
$GPGMP,054452.00,,,,,,10,,,,3.2,136*7B
$GLGMP,054452.00,,,,,,09,,,,,*74
$GAGMP,054452.00,,,,,,09,,,,,*79
$GBGMP,054452.00,,,,,,12,,,,,*70
$PSSN,SNC,[0,279910000,2347]*40
$GPZDA,054457.00,01,01,2025,,*64
$GPDTM,W84,,00.0000000,N,00.0000000,E,00.0000000,W84*5F
$PSSN,TFM,054457.00,,,,*68
$GPRMC,054457.00,A,4742.1602917,N,01618.1000484,E,0.0,,010125,5.1,E,D*12
$GPGLL,4742.1602917,N,01618.1000484,E,054457.00,A,D*63
$GPGGA,054457.00,4742.1602917,N,01618.1000484,E,2,40,0.4,708.2514,M,43.2066,M,1.4,0136*47
$GNGNS,054457.00,4742.1602917,N,01618.1000484,E,DAAA,40,0.4,708.2514,43.2066,,*5A
$GPGNS,054457.00,,,,,,10,,,,1.4,136*7A
$GLGNS,054457.00,,,,,,09,,,,,*71
$GAGNS,054457.00,,,,,,09,,,,,*7C
$GBGNS,054457.00,,,,,,12,,,,,*75
$GPLLQ,054457.00,010125,,M,,M,1,40,0.819,,M*12
$GPVTG,,T,,M,0.00,N,0.01,K,D*27
$GPHDT,,T*1B
$GPTHS,,V*0E
$GPROT,,V*08
$PSSN,HRP,054457.00,010125,,,,,,,00,0,,*66
$PTNL,AVR,054457.00,,Yaw,,Tilt,,,,0,,00*30
$GPGSA,A,3,04,05,06,07,09,11,13,16,20,30,,,0.7,0.4,0.6*3A
$GPGSA,A,3,65,71,72,73,74,75,80,87,88,,,,0.7,0.4,0.6*35
$GPGSA,A,3,03,05,09,13,15,24,25,31,34,,,,0.7,0.4,0.6*3A
$GPGSA,A,3,02,05,06,09,11,12,16,19,22,34,36,60,0.7,0.4,0.6*37
$GPGST,054457.00,2.005,0.431,0.276,346.502,0.424,0.287,0.639*57
$GPGBS,054457.00,2.704,1.735,3.656,72,0.0001,6.793,6.041*53
$GPGRS,054457.00,1,-0.6,-0.1,-0.4,0.1,-0.1,0.3,1.2,0.1,-0.4,0.3,,*61
$GPGRS,054457.00,1,-2.9,-0.2,6.8,3.4,2.3,-3.0,-2.6,-4.9,-1.8,,,*65
$GPGRS,054457.00,1,-0.2,0.3,0.6,0.2,-0.1,0.0,-1.4,-0.6,0.4,,,*64
$GPGRS,054457.00,1,-0.8,2.5,0.2,0.0,1.6,0.5,0.8,-1.0,-0.6,-0.2,-0.1,-1.2*49
$GPGSV,5,1,20,07,77,097,50,16,11,034,39,05,23,312,44,06,19,214,41*71
$GPGSV,5,2,20,04,16,086,40,11,34,251,46,20,54,293,48,30,56,209,50*7F
$GPGSV,5,3,20,09,44,083,46,13,08,268,38,14,02,172,,36,35,170,45*77
$GPGSV,5,4,20,58,13,245,37,40,24,132,37,34,31,208,44,49,34,195,45*7D
$GPGSV,5,5,20,57,07,111,37,41,07,108,35,61,03,257,39*48
$GLGSV,3,1,11,72,62,332,51,87,16,251,43,80,11,024,42,65,10,299,41*64
$GLGSV,3,2,11,88,22,311,45,73,54,067,50,74,49,150,47,71,51,084,51*64
$GLGSV,3,3,11,81,04,359,41,70,08,107,32,75,07,184,43*55
$GAGSV,3,1,11,05,76,046,49,16,23,141,,09,24,082,42,31,25,055,42*63
$GAGSV,3,2,11,24,32,113,43,34,30,224,44,15,36,287,44,03,44,278,46*6A
$GAGSV,3,3,11,25,09,161,38,06,03,086,36,13,09,334,38*51
$GBGSV,6,1,22,22,83,337,52,06,11,051,37,12,10,268,38,11,11,318,39*64
$GBGSV,6,2,22,26,16,183,,48,12,116,,09,26,052,39,45,24,189,*68
$GBGSV,6,3,22,05,22,129,39,58,31,050,,46,36,055,,19,38,113,48*6A
$GBGSV,6,4,22,36,59,135,51,21,80,342,,43,03,338,,44,02,246,39*69
$GBGSV,6,5,22,34,09,295,41,16,09,050,38,40,00,077,,50,07,298,*68
$GBGSV,6,6,22,02,06,107,35,60,07,111,41*6A
$GPGGA,054457.00,,,,,0,00,,,M,,M,,*4F
$PTNL,GGK,054457.00,010125,4742.1602917,N,01618.1000484,E,1,40,0.7,EHT751.4579,M*4A
$GPGGQ,054457.00,010125,4742.1602917,N,01618.1000484,E,1,40,0.819,708.2514,M*32
$GPGFA,054457.00,4.095,5.243,0.431,0.276,346.502,0.639,,VVV*03
$GPLLK,054457.00,010125,,M,,M,1,40,0.7,,M*0F
$GNGMP,054457.00,,,,,DAAA,40,0.4,,,,*51
$GPGMP,054457.00,,,,,,10,,,,1.4,136*7A
$GLGMP,054457.00,,,,,,09,,,,,*71
$GAGMP,054457.00,,,,,,09,,,,,*7C
$GBGMP,054457.00,,,,,,12,,,,,*75
$PSSN,SNC,[0,279915000,2347]*45
$GPZDA,054502.00,01,01,2025,,*65
$GPDTM,W84,,00.0000000,N,00.0000000,E,00.0000000,W84*5F
$PSSN,TFM,054502.00,,,,*69
$GPRMC,054502.00,A,4742.1602909,N,01618.1000470,E,0.0,,010125,5.1,E,D*17
$GPGLL,4742.1602909,N,01618.1000470,E,054502.00,A,D*66
$GPGGA,054502.00,4742.1602909,N,01618.1000470,E,2,40,0.4,708.2505,M,43.2066,M,2.4,0136*41
$GNGNS,054502.00,4742.1602909,N,01618.1000470,E,DAAA,40,0.4,708.2505,43.2066,,*5F
$GPGNS,054502.00,,,,,,10,,,,2.4,136*78
$GLGNS,054502.00,,,,,,09,,,,,*70
$GAGNS,054502.00,,,,,,09,,,,,*7D
$GBGNS,054502.00,,,,,,12,,,,,*74
$GPLLQ,054502.00,010125,,M,,M,1,40,0.810,,M*1A
$GPVTG,,T,,M,0.00,N,0.01,K,D*27
$GPHDT,,T*1B
$GPTHS,,V*0E
$GPROT,,V*08
$PSSN,HRP,054502.00,010125,,,,,,,00,0,,*67
$PTNL,AVR,054502.00,,Yaw,,Tilt,,,,0,,00*31
$GPGSA,A,3,04,05,06,07,09,11,13,16,20,30,,,0.7,0.4,0.6*3A
$GPGSA,A,3,65,71,72,73,74,75,80,87,88,,,,0.7,0.4,0.6*35
$GPGSA,A,3,03,05,09,13,15,24,25,31,34,,,,0.7,0.4,0.6*3A
$GPGSA,A,3,02,05,06,09,11,12,16,19,22,34,36,60,0.7,0.4,0.6*37
$GPGST,054502.00,2.001,0.429,0.271,346.689,0.423,0.282,0.631*56
$GPGBS,054502.00,2.755,1.751,3.708,72,0.0001,6.787,6.041*5B
$GPGRS,054502.00,1,-0.3,0.0,-0.6,0.1,-0.1,0.1,0.5,0.3,-0.4,0.6,,*48
$GPGRS,054502.00,1,-2.9,-0.0,6.8,3.9,2.0,-2.8,-2.1,-4.9,-1.9,,,*67
$GPGRS,054502.00,1,-0.2,0.4,0.4,0.4,0.2,-0.3,-1.4,-0.4,0.4,,,*64
$GPGRS,054502.00,1,-0.9,2.2,-0.1,0.5,2.0,-0.0,0.0,-1.0,-0.6,0.2,0.2,-1.3*42
$GPGSV,5,1,20,07,77,097,50,16,11,034,39,05,23,312,43,06,19,214,41*76
$GPGSV,5,2,20,04,16,086,39,11,34,251,45,20,54,293,48,30,56,209,50*72
$GPGSV,5,3,20,09,44,083,46,13,08,268,38,14,02,172,,36,35,170,45*77
$GPGSV,5,4,20,58,13,245,37,40,24,132,37,34,31,208,44,49,34,195,45*7D
$GPGSV,5,5,20,57,07,111,37,41,07,108,35,61,03,257,39*48
$GLGSV,3,1,11,72,62,332,51,87,16,251,44,80,11,024,42,65,10,299,40*62
$GLGSV,3,2,11,88,22,311,44,73,54,067,50,74,49,150,47,71,51,084,51*65
$GLGSV,3,3,11,81,04,359,41,70,08,107,32,75,07,184,43*55
$GAGSV,3,1,11,05,76,046,49,16,23,141,,09,24,082,42,31,25,054,42*62
$GAGSV,3,2,11,24,32,113,43,34,30,224,44,15,36,287,44,03,44,278,46*6A
$GAGSV,3,3,11,25,09,161,38,06,03,086,36,13,09,334,38*51
$GBGSV,6,1,22,22,83,337,52,06,11,051,37,12,10,268,38,11,10,318,39*65
$GBGSV,6,2,22,26,16,183,,48,12,116,,09,26,052,40,45,24,189,*66
$GBGSV,6,3,22,05,22,129,39,58,31,050,,46,36,055,,19,38,113,48*6A
$GBGSV,6,4,22,36,59,135,51,21,80,342,,43,03,338,,44,02,246,39*69
$GBGSV,6,5,22,34,09,295,41,16,09,050,38,40,00,077,,50,08,298,*67
$GBGSV,6,6,22,02,06,107,35,60,07,111,41*6A
$GPGGA,054502.00,,,,,0,00,,,M,,M,,*4E
$PTNL,GGK,054502.00,010125,4742.1602909,N,01618.1000470,E,1,40,0.7,EHT751.4571,M*47
$GPGGQ,054502.00,010125,4742.1602909,N,01618.1000470,E,1,40,0.810,708.2505,M*3E
$GPGFA,054502.00,4.083,5.177,0.429,0.271,346.689,0.631,,VVV*07
$GPLLK,054502.00,010125,,M,,M,1,40,0.7,,M*0E
$GNGMP,054502.00,,,,,DAAA,40,0.4,,,,*50
$GPGMP,054502.00,,,,,,10,,,,2.4,136*78
$GLGMP,054502.00,,,,,,09,,,,,*70
$GAGMP,054502.00,,,,,,09,,,,,*7D
$GBGMP,054502.00,,,,,,12,,,,,*74
$PSSN,SNC,[0,279920000,2347]*43
$GPZDA,054507.00,01,01,2025,,*60
$GPDTM,W84,,00.0000000,N,00.0000000,E,00.0000000,W84*5F
$PSSN,TFM,054507.00,,,,*6C
$GPRMC,054507.00,A,4742.1602911,N,01618.1000473,E,0.0,,010125,5.1,E,D*18
$GPGLL,4742.1602911,N,01618.1000473,E,054507.00,A,D*69
$GPGGA,054507.00,4742.1602911,N,01618.1000473,E,2,40,0.4,708.2477,M,43.2066,M,3.0,0136*4F
$GNGNS,054507.00,4742.1602911,N,01618.1000473,E,DAAA,40,0.4,708.2477,43.2066,,*54
$GPGNS,054507.00,,,,,,10,,,,3.0,136*78
$GLGNS,054507.00,,,,,,09,,,,,*75
$GAGNS,054507.00,,,,,,09,,,,,*78
$GBGNS,054507.00,,,,,,12,,,,,*71
$GPLLQ,054507.00,010125,,M,,M,1,40,0.822,,M*1E
$GPVTG,,T,,M,0.00,N,0.01,K,D*27
$GPHDT,,T*1B
$GPTHS,,V*0E
$GPROT,,V*08
$PSSN,HRP,054507.00,010125,,,,,,,00,0,,*62
$PTNL,AVR,054507.00,,Yaw,,Tilt,,,,0,,00*34
$GPGSA,A,3,04,05,06,07,09,11,13,16,20,30,,,0.7,0.4,0.6*3A
$GPGSA,A,3,65,71,72,73,74,75,80,87,88,,,,0.7,0.4,0.6*35
$GPGSA,A,3,03,05,09,13,15,24,25,31,34,,,,0.7,0.4,0.6*3A
$GPGSA,A,3,02,05,06,09,11,12,16,19,22,34,36,60,0.7,0.4,0.6*37
$GPGST,054507.00,2.098,0.434,0.276,346.312,0.427,0.287,0.641*59
$GPGBS,054507.00,2.712,1.773,3.660,72,0.0001,6.561,6.041*58
$GPGRS,054507.00,1,0.2,-0.1,-0.9,-0.1,-0.1,-0.0,1.2,0.2,-0.2,0.6,,*42
$GPGRS,054507.00,1,-3.6,-0.1,6.6,4.1,2.3,-2.9,-2.8,-5.1,-2.2,,,*66
$GPGRS,054507.00,1,-0.1,0.1,0.3,0.2,-0.2,-0.3,-1.3,-0.5,0.4,,,*4D
$GPGRS,054507.00,1,-0.8,1.9,-0.4,0.1,2.1,-0.3,-0.7,-1.0,-0.9,-0.2,0.1,-1.7*42
$GPGSV,5,1,20,07,77,097,50,16,11,034,39,05,23,312,43,06,19,214,41*76
$GPGSV,5,2,20,04,16,086,39,11,34,251,45,20,54,293,48,30,57,209,50*73
$GPGSV,5,3,20,09,44,083,46,13,08,268,38,14,02,172,,36,35,170,45*77
$GPGSV,5,4,20,58,13,245,37,40,24,132,37,34,31,208,44,49,34,195,45*7D
$GPGSV,5,5,20,57,07,111,37,41,07,108,35,61,03,257,38*49
$GLGSV,3,1,11,72,62,332,51,87,16,251,44,80,11,024,42,65,10,299,40*62
$GLGSV,3,2,11,88,22,311,45,73,54,067,49,74,49,150,47,71,51,084,51*6C
$GLGSV,3,3,11,81,04,359,41,70,08,107,32,75,07,184,42*54
$GAGSV,3,1,11,05,76,046,49,16,23,141,,09,24,083,42,31,25,054,42*63
$GAGSV,3,2,11,24,32,113,44,34,30,224,44,15,36,287,44,03,44,278,46*6D
$GAGSV,3,3,11,25,09,161,37,06,03,086,36,13,09,334,38*5E
$GBGSV,6,1,22,22,83,337,52,06,11,051,36,12,10,268,38,11,10,318,40*6A
$GBGSV,6,2,22,26,16,183,,48,12,116,,09,26,052,40,45,24,189,*66
$GBGSV,6,3,22,05,22,129,39,58,31,050,,46,36,055,,19,38,113,47*65
$GBGSV,6,4,22,36,59,135,51,21,80,342,,43,03,338,,44,02,246,39*69
$GBGSV,6,5,22,34,09,295,41,16,09,050,38,40,00,077,,50,08,298,*67
$GBGSV,6,6,22,02,06,107,35,60,07,111,41*6A
$GPGGA,054507.00,,,,,0,00,,,M,,M,,*4B
$PTNL,GGK,054507.00,010125,4742.1602911,N,01618.1000473,E,1,40,0.7,EHT751.4542,M*48
$GPGGQ,054507.00,010125,4742.1602911,N,01618.1000473,E,1,40,0.822,708.2477,M*34
$GPGFA,054507.00,4.128,5.254,0.434,0.276,346.312,0.641,,VVV*0B
$GPLLK,054507.00,010125,,M,,M,1,40,0.7,,M*0B
$GNGMP,054507.00,,,,,DAAA,40,0.4,,,,*55
$GPGMP,054507.00,,,,,,10,,,,3.0,136*78
$GLGMP,054507.00,,,,,,09,,,,,*75
$GAGMP,054507.00,,,,,,09,,,,,*78
$GBGMP,054507.00,,,,,,12,,,,,*71
$PSSN,SNC,[0,279925000,2347]*46
$GPZDA,054512.00,01,01,2025,,*64
$GPDTM,W84,,00.0000000,N,00.0000000,E,00.0000000,W84*5F
$PSSN,TFM,054512.00,,,,*68
$GPRMC,054512.00,A,4742.1602914,N,01618.1000487,E,0.0,,010125,5.1,E,D*12
$GPGLL,4742.1602914,N,01618.1000487,E,054512.00,A,D*63
$GPGGA,054512.00,4742.1602914,N,01618.1000487,E,2,40,0.4,708.2507,M,43.2066,M,3.2,0136*41
$GNGNS,054512.00,4742.1602914,N,01618.1000487,E,DAAA,40,0.4,708.2507,43.2066,,*58
$GPGNS,054512.00,,,,,,10,,,,3.2,136*7E
$GLGNS,054512.00,,,,,,09,,,,,*71
$GAGNS,054512.00,,,,,,09,,,,,*7C
$GBGNS,054512.00,,,,,,12,,,,,*75
$GPLLQ,054512.00,010125,,M,,M,1,40,0.827,,M*1F
$GPVTG,,T,,M,0.00,N,0.01,K,D*27
$GPHDT,,T*1B
$GPTHS,,V*0E
$GPROT,,V*08
$PSSN,HRP,054512.00,010125,,,,,,,00,0,,*66
$PTNL,AVR,054512.00,,Yaw,,Tilt,,,,0,,00*30
$GPGSA,A,3,04,05,06,07,09,11,13,16,20,30,,,0.7,0.4,0.6*3A
$GPGSA,A,3,65,71,72,73,74,75,80,87,88,,,,0.7,0.4,0.6*35
$GPGSA,A,3,03,05,09,13,15,24,25,31,34,,,,0.7,0.4,0.6*3A
$GPGSA,A,3,02,05,06,09,11,12,16,19,22,34,36,60,0.7,0.4,0.6*37
$GPGST,054512.00,2.109,0.434,0.279,346.106,0.427,0.290,0.646*5D
$GPGBS,054512.00,2.703,1.783,3.572,72,0.0001,6.470,6.041*52
$GPGRS,054512.00,1,-0.1,-0.3,-0.2,-0.4,0.0,0.2,1.2,0.1,-0.2,0.2,,*60
$GPGRS,054512.00,1,-3.1,0.1,6.5,3.8,2.4,-3.3,-2.9,-5.5,-2.0,,,*4E
$GPGRS,054512.00,1,-0.2,0.3,0.5,0.2,0.2,-0.2,-1.6,-0.3,0.2,,,*67
$GPGRS,054512.00,1,-0.6,2.0,0.5,0.7,2.2,-1.0,-0.5,-0.9,-0.9,-0.4,0.2,-1.7*66
$GPGSV,5,1,20,07,77,097,50,16,11,034,39,05,23,312,43,06,19,214,40*77
$GPGSV,5,2,20,04,16,086,40,11,34,251,45,20,54,293,48,30,57,209,50*7D
$GPGSV,5,3,20,09,44,083,46,13,08,268,38,14,02,172,,36,35,170,45*77
$GPGSV,5,4,20,58,13,245,37,40,24,132,37,34,31,208,44,49,34,195,45*7D
$GPGSV,5,5,20,57,07,111,37,41,07,108,35,61,03,257,38*49
$GLGSV,3,1,11,72,62,332,51,87,16,251,44,80,10,024,42,65,10,299,41*62
$GLGSV,3,2,11,88,22,311,46,73,54,067,49,74,49,150,47,71,51,084,51*6F
$GLGSV,3,3,11,81,04,359,40,70,08,107,31,75,07,184,42*56
$GAGSV,3,1,11,05,76,046,49,16,23,141,,09,24,083,42,31,25,054,42*63
$GAGSV,3,2,11,24,32,113,43,34,30,224,44,15,36,287,44,03,44,278,46*6A
$GAGSV,3,3,11,25,09,161,37,06,03,086,35,13,09,334,37*52
$GBGSV,6,1,22,22,83,337,52,06,11,051,36,12,10,268,39,11,10,318,39*65
$GBGSV,6,2,22,26,16,183,,48,12,116,,09,26,052,40,45,24,189,*66
$GBGSV,6,3,22,05,22,129,40,58,31,050,,46,36,055,,19,38,113,48*64
$GBGSV,6,4,22,36,59,135,51,21,80,342,,43,03,338,,44,02,246,39*69
$GBGSV,6,5,22,34,09,295,41,16,09,050,38,40,00,077,,50,08,298,*67
$GBGSV,6,6,22,02,06,107,35,60,07,111,41*6A
$GPGGA,054512.00,,,,,0,00,,,M,,M,,*4F
$PTNL,GGK,054512.00,010125,4742.1602914,N,01618.1000487,E,1,40,0.7,EHT751.4572,M*41
$GPGGQ,054512.00,010125,4742.1602914,N,01618.1000487,E,1,40,0.827,708.2507,M*3D
$GPGFA,054512.00,4.128,5.295,0.434,0.279,346.106,0.646,,VVV*0D
$GPLLK,054512.00,010125,,M,,M,1,40,0.7,,M*0F
$GNGMP,054512.00,,,,,DAAA,40,0.4,,,,*51
$GPGMP,054512.00,,,,,,10,,,,3.2,136*7E
$GLGMP,054512.00,,,,,,09,,,,,*71
$GAGMP,054512.00,,,,,,09,,,,,*7C
$GBGMP,054512.00,,,,,,12,,,,,*75
$PSSN,SNC,[0,279930000,2347]*42
$GPZDA,054517.00,01,01,2025,,*61
$GPDTM,W84,,00.0000000,N,00.0000000,E,00.0000000,W84*5F
$PSSN,TFM,054517.00,,,,*6D
$GPRMC,054517.00,A,4742.1602924,N,01618.1000480,E,0.0,,010125,5.1,E,D*13
$GPGLL,4742.1602924,N,01618.1000480,E,054517.00,A,D*62
$GPGGA,054517.00,4742.1602924,N,01618.1000480,E,2,40,0.4,708.2507,M,43.2066,M,1.4,0136*44
$GNGNS,054517.00,4742.1602924,N,01618.1000480,E,DAAA,40,0.4,708.2507,43.2066,,*59
$GPGNS,054517.00,,,,,,10,,,,1.4,136*7F
$GLGNS,054517.00,,,,,,09,,,,,*74
$GAGNS,054517.00,,,,,,09,,,,,*79
$GBGNS,054517.00,,,,,,12,,,,,*70
$GPLLQ,054517.00,010125,,M,,M,1,40,0.818,,M*16
$GPVTG,,T,,M,0.00,N,0.00,K,D*26
$GPHDT,,T*1B
$GPTHS,,V*0E
$GPROT,,V*08
$PSSN,HRP,054517.00,010125,,,,,,,00,0,,*63
$PTNL,AVR,054517.00,,Yaw,,Tilt,,,,0,,00*35
$GPGSA,A,3,04,05,06,07,09,11,13,16,20,30,,,0.7,0.4,0.6*3A
$GPGSA,A,3,65,71,72,73,74,75,80,87,88,,,,0.7,0.4,0.6*35
$GPGSA,A,3,03,05,09,13,15,24,25,31,34,,,,0.7,0.4,0.6*3A
$GPGSA,A,3,02,05,06,09,11,12,16,19,22,34,36,60,0.7,0.4,0.6*37
$GPGST,054517.00,2.073,0.431,0.276,346.609,0.424,0.286,0.638*5B
$GPGBS,054517.00,2.705,1.738,3.642,72,0.0001,6.280,6.041*58
$GPGRS,054517.00,1,0.3,0.1,-0.4,-0.2,0.5,-0.1,0.7,0.4,-0.3,0.1,,*4D
$GPGRS,054517.00,1,-3.4,-0.4,6.3,3.9,2.2,-3.3,-2.3,-5.7,-1.6,,,*6A
$GPGRS,054517.00,1,0.1,0.3,0.8,0.7,0.1,-0.1,-1.5,-0.4,0.4,,,*46
$GPGRS,054517.00,1,-1.3,2.1,-0.5,0.9,1.4,-0.0,-0.4,-0.9,-0.7,-0.8,0.3,-1.5*41
$GPGSV,5,1,20,07,77,096,50,16,11,034,39,05,23,312,43,06,19,214,41*77
$GPGSV,5,2,20,04,16,086,40,11,34,251,45,20,54,293,48,30,57,209,50*7D
$GPGSV,5,3,20,09,44,083,46,13,08,269,38,14,02,172,,36,35,170,45*76
$GPGSV,5,4,20,58,13,245,37,40,24,132,37,34,31,208,44,49,34,195,45*7D
$GPGSV,5,5,20,57,07,111,37,41,07,108,35,61,03,257,38*49
$GLGSV,3,1,11,72,62,332,51,87,16,251,43,80,10,024,42,65,10,299,41*65
$GLGSV,3,2,11,88,22,311,46,73,54,066,50,74,50,150,48,71,51,084,51*61
$GLGSV,3,3,11,81,04,359,41,70,08,107,31,75,07,184,42*57
$GAGSV,3,1,11,05,76,046,49,16,23,141,,09,24,083,41,31,25,054,42*60
$GAGSV,3,2,11,24,32,113,43,34,30,224,44,15,36,287,44,03,44,278,45*69
$GAGSV,3,3,11,25,09,161,38,06,02,086,35,13,09,334,37*5C
$GBGSV,6,1,22,22,83,337,52,06,11,051,36,12,10,268,39,11,10,318,40*6B
$GBGSV,6,2,22,26,16,183,,48,12,116,,09,26,052,40,45,24,189,*66
$GBGSV,6,3,22,05,22,129,39,58,30,050,,46,36,055,,19,38,113,48*6B
$GBGSV,6,4,22,36,59,135,51,21,80,343,,43,03,337,,44,02,246,39*67
$GBGSV,6,5,22,34,09,295,41,16,09,050,38,40,00,077,,50,08,298,*67
$GBGSV,6,6,22,02,06,107,35,60,07,111,41*6A
$GPGGA,054517.00,,,,,0,00,,,M,,M,,*4A
$PTNL,GGK,054517.00,010125,4742.1602924,N,01618.1000480,E,1,40,0.7,EHT751.4573,M*41
$GPGGQ,054517.00,010125,4742.1602924,N,01618.1000480,E,1,40,0.818,708.2507,M*30
$GPGFA,054517.00,4.098,5.233,0.431,0.276,346.609,0.638,,VVV*05
$GPLLK,054517.00,010125,,M,,M,1,40,0.7,,M*0A
$GNGMP,054517.00,,,,,DAAA,40,0.4,,,,*54
$GPGMP,054517.00,,,,,,10,,,,1.4,136*7F
$GLGMP,054517.00,,,,,,09,,,,,*74
$GAGMP,054517.00,,,,,,09,,,,,*79
$GBGMP,054517.00,,,,,,12,,,,,*70
$PSSN,SNC,[0,279935000,2347]*47
$GPZDA,054522.00,01,01,2025,,*67
$GPDTM,W84,,00.0000000,N,00.0000000,E,00.0000000,W84*5F
$PSSN,TFM,054522.00,,,,*6B
$GPRMC,054522.00,A,4742.1602905,N,01618.1000460,E,0.0,,010125,5.1,E,D*18
$GPGLL,4742.1602905,N,01618.1000460,E,054522.00,A,D*69
$GPGGA,054522.00,4742.1602905,N,01618.1000460,E,2,40,0.4,708.2547,M,43.2066,M,2.4,0136*48
$GNGNS,054522.00,4742.1602905,N,01618.1000460,E,DAAA,40,0.4,708.2547,43.2066,,*56
$GPGNS,054522.00,,,,,,10,,,,2.4,136*7A
$GLGNS,054522.00,,,,,,09,,,,,*72
$GAGNS,054522.00,,,,,,09,,,,,*7F
$GBGNS,054522.00,,,,,,12,,,,,*76
$GPLLQ,054522.00,010125,,M,,M,1,40,0.810,,M*18
$GPVTG,,T,,M,0.00,N,0.00,K,D*26
$GPHDT,,T*1B
$GPTHS,,V*0E
$GPROT,,V*08
$PSSN,HRP,054522.00,010125,,,,,,,00,0,,*65
$PTNL,AVR,054522.00,,Yaw,,Tilt,,,,0,,00*33
$GPGSA,A,3,04,05,06,07,09,11,13,16,20,30,,,0.7,0.4,0.6*3A
$GPGSA,A,3,65,71,72,73,74,75,80,87,88,,,,0.7,0.4,0.6*35
$GPGSA,A,3,03,05,09,13,15,24,25,31,34,,,,0.7,0.4,0.6*3A
$GPGSA,A,3,02,05,06,09,11,12,16,19,22,34,36,60,0.7,0.4,0.6*37
$GPGST,054522.00,2.084,0.430,0.271,346.783,0.423,0.282,0.630*5B
$GPGBS,054522.00,2.756,1.755,3.694,72,0.0001,6.473,6.041*52
$GPGRS,054522.00,1,-0.5,-0.0,-0.2,-0.3,0.4,0.2,1.2,0.2,-0.3,0.1,,*66
$GPGRS,054522.00,1,-1.5,-0.8,6.5,4.2,1.8,-3.5,-2.3,-6.1,-1.4,,,*61
$GPGRS,054522.00,1,0.1,0.2,0.6,1.0,-0.2,-0.0,-1.6,-0.5,0.4,,,*64
$GPGRS,054522.00,1,-0.9,2.1,-0.0,0.3,2.1,0.1,-0.5,-1.1,-0.8,-0.4,0.3,-1.6*61
$GPGSV,5,1,20,07,77,096,50,16,11,034,39,05,23,312,43,06,19,214,41*77
$GPGSV,5,2,20,04,16,086,40,11,34,251,45,20,54,293,48,30,57,209,50*7D
$GPGSV,5,3,20,09,44,083,46,13,08,269,38,14,03,172,,36,35,170,45*77
$GPGSV,5,4,20,58,13,245,37,40,24,132,38,34,31,208,44,49,34,195,45*72
$GPGSV,5,5,20,57,07,111,37,41,07,108,35,61,03,257,39*48
$GLGSV,3,1,11,72,62,333,51,87,16,251,43,80,10,024,42,65,10,299,42*67
$GLGSV,3,2,11,88,22,311,45,73,54,066,50,74,50,150,48,71,51,085,50*62
$GLGSV,3,3,11,81,04,359,42,70,08,107,31,75,07,184,42*54
$GAGSV,3,1,11,05,76,046,49,16,23,141,,09,24,083,42,31,25,054,42*63
$GAGSV,3,2,11,24,32,113,43,34,30,224,44,15,36,287,44,03,44,278,45*69
$GAGSV,3,3,11,25,09,161,38,06,02,086,36,13,09,334,37*5F
$GBGSV,6,1,22,22,83,338,52,06,11,051,36,12,10,268,39,11,10,318,40*64
$GBGSV,6,2,22,26,16,183,,48,12,116,,09,26,052,40,45,24,189,*66
$GBGSV,6,3,22,05,22,129,39,58,30,050,,46,36,055,,19,38,113,48*6B
$GBGSV,6,4,22,36,59,135,51,21,80,343,,43,03,337,,44,02,246,39*67
$GBGSV,6,5,22,34,09,295,41,16,09,050,39,40,00,077,,50,08,298,*66
$GBGSV,6,6,22,02,06,107,35,60,07,111,41*6A
$GPGGA,054522.00,,,,,0,00,,,M,,M,,*4C
$PTNL,GGK,054522.00,010125,4742.1602905,N,01618.1000460,E,1,40,0.7,EHT751.4613,M*4F
$GPGGQ,054522.00,010125,4742.1602905,N,01618.1000460,E,1,40,0.810,708.2547,M*37
$GPGFA,054522.00,4.085,5.168,0.430,0.271,346.783,0.630,,VVV*0F
$GPLLK,054522.00,010125,,M,,M,1,40,0.7,,M*0C
$GNGMP,054522.00,,,,,DAAA,40,0.4,,,,*52
$GPGMP,054522.00,,,,,,10,,,,2.4,136*7A
$GLGMP,054522.00,,,,,,09,,,,,*72
$GAGMP,054522.00,,,,,,09,,,,,*7F
$GBGMP,054522.00,,,,,,12,,,,,*76
$PSSN,SNC,[0,279940000,2347]*45
$GPZDA,054527.00,01,01,2025,,*62
$GPDTM,W84,,00.0000000,N,00.0000000,E,00.0000000,W84*5F
$PSSN,TFM,054527.00,,,,*6E
$GPRMC,054527.00,A,4742.1602908,N,01618.1000457,E,0.0,,010125,5.1,E,D*14
$GPGLL,4742.1602908,N,01618.1000457,E,054527.00,A,D*65
$GPGGA,054527.00,4742.1602908,N,01618.1000457,E,2,40,0.4,708.2584,M,43.2066,M,3.0,0136*4E
$GNGNS,054527.00,4742.1602908,N,01618.1000457,E,DAAA,40,0.4,708.2584,43.2066,,*55
$GPGNS,054527.00,,,,,,10,,,,3.0,136*7A
$GLGNS,054527.00,,,,,,09,,,,,*77
$GAGNS,054527.00,,,,,,09,,,,,*7A
$GBGNS,054527.00,,,,,,12,,,,,*73
$GPLLQ,054527.00,010125,,M,,M,1,40,0.821,,M*1F
$GPVTG,,T,,M,0.01,N,0.01,K,D*26
$GPHDT,,T*1B
$GPTHS,,V*0E
$GPROT,,V*08
$PSSN,HRP,054527.00,010125,,,,,,,00,0,,*60
$PTNL,AVR,054527.00,,Yaw,,Tilt,,,,0,,00*36
$GPGSA,A,3,04,05,06,07,09,11,13,16,20,30,,,0.7,0.4,0.6*3A
$GPGSA,A,3,65,71,72,73,74,75,80,87,88,,,,0.7,0.4,0.6*35
$GPGSA,A,3,03,05,09,13,15,24,25,31,34,,,,0.7,0.4,0.6*3A
$GPGSA,A,3,02,05,06,09,11,12,16,19,22,34,36,60,0.7,0.4,0.6*37
$GPGST,054527.00,2.141,0.435,0.276,346.359,0.427,0.287,0.640*51
$GPGBS,054527.00,2.713,1.778,3.644,72,0.0001,7.024,6.041*53
$GPGRS,054527.00,1,-0.0,-0.1,-0.4,-0.2,0.2,-0.2,0.9,0.3,-0.3,0.2,,*43
$GPGRS,054527.00,1,-2.1,-0.2,7.0,4.3,2.5,-2.9,-2.1,-5.5,-2.1,,,*6C
$GPGRS,054527.00,1,0.1,0.2,0.6,0.7,-0.3,-0.0,-1.3,-0.4,0.3,,,*65
$GPGRS,054527.00,1,-0.8,1.9,0.4,0.7,3.6,0.1,-0.0,-1.2,-0.7,-0.6,0.3,-1.4*4C
$GPGSV,5,1,20,07,77,096,49,16,11,034,39,05,23,312,44,06,19,214,41*78
$GPGSV,5,2,20,04,16,086,40,11,34,251,45,20,54,293,48,30,57,209,49*75
$GPGSV,5,3,20,09,44,083,46,13,08,269,38,14,03,172,,36,35,170,45*77
$GPGSV,5,4,20,58,13,245,37,40,24,132,37,34,31,208,44,49,34,195,45*7D
$GPGSV,5,5,20,57,07,111,37,41,07,108,35,61,03,257,38*49
$GLGSV,3,1,11,72,62,333,51,87,16,251,43,80,10,024,42,65,10,299,40*65
$GLGSV,3,2,11,88,22,311,45,73,54,066,50,74,50,150,48,71,51,085,50*62
$GLGSV,3,3,11,81,04,359,42,70,08,107,31,75,07,184,42*54
$GAGSV,3,1,11,05,76,046,49,16,23,141,,09,24,083,42,31,25,054,42*63
$GAGSV,3,2,11,24,32,113,43,34,30,224,44,15,36,287,44,03,44,278,46*6A
$GAGSV,3,3,11,25,09,161,38,06,02,086,36,13,09,334,37*5F
$GBGSV,6,1,22,22,83,338,52,06,11,051,36,12,10,268,39,11,10,318,40*64
$GBGSV,6,2,22,26,16,183,,48,12,116,,09,26,052,40,45,24,189,*66
$GBGSV,6,3,22,05,22,129,40,58,30,050,,46,36,055,,19,38,113,48*65
$GBGSV,6,4,22,36,59,135,52,21,80,343,,43,03,337,,44,02,246,40*6A
$GBGSV,6,5,22,34,09,295,41,16,09,050,39,40,00,077,,50,08,298,*66
$GBGSV,6,6,22,02,06,107,35,60,07,111,41*6A
$GPGGA,054527.00,,,,,0,00,,,M,,M,,*49
$PTNL,GGK,054527.00,010125,4742.1602908,N,01618.1000457,E,1,40,0.7,EHT751.4650,M*44
$GPGGQ,054527.00,010125,4742.1602908,N,01618.1000457,E,1,40,0.821,708.2584,M*36
$GPGFA,054527.00,4.133,5.248,0.435,0.276,346.359,0.640,,VVV*01
$GPLLK,054527.00,010125,,M,,M,1,40,0.7,,M*09
$GNGMP,054527.00,,,,,DAAA,40,0.4,,,,*57
$GPGMP,054527.00,,,,,,10,,,,3.0,136*7A
$GLGMP,054527.00,,,,,,09,,,,,*77
$GAGMP,054527.00,,,,,,09,,,,,*7A
$GBGMP,054527.00,,,,,,12,,,,,*73
$PSSN,SNC,[0,279945000,2347]*40
$GPZDA,054532.00,01,01,2025,,*66
$GPDTM,W84,,00.0000000,N,00.0000000,E,00.0000000,W84*5F
$PSSN,TFM,054532.00,,,,*6A
$GPRMC,054532.00,A,4742.1602891,N,01618.1000451,E,0.0,,010125,5.1,E,D*17
$GPGLL,4742.1602891,N,01618.1000451,E,054532.00,A,D*66
$GPGGA,054532.00,4742.1602891,N,01618.1000451,E,2,40,0.4,708.2576,M,43.2066,M,3.2,0136*42
$GNGNS,054532.00,4742.1602891,N,01618.1000451,E,DAAA,40,0.4,708.2576,43.2066,,*5B
$GPGNS,054532.00,,,,,,10,,,,3.2,136*7C
$GLGNS,054532.00,,,,,,09,,,,,*73
$GAGNS,054532.00,,,,,,09,,,,,*7E
$GBGNS,054532.00,,,,,,12,,,,,*77
$GPLLQ,054532.00,010125,,M,,M,1,40,0.826,,M*1C
$GPVTG,,T,,M,0.00,N,0.01,K,D*27
$GPHDT,,T*1B
$GPTHS,,V*0E
$GPROT,,V*08
$PSSN,HRP,054532.00,010125,,,,,,,00,0,,*64
$PTNL,AVR,054532.00,,Yaw,,Tilt,,,,0,,00*32
$GPGSA,A,3,04,05,06,07,09,11,13,16,20,30,,,0.7,0.4,0.6*3A
$GPGSA,A,3,65,71,72,73,74,75,80,87,88,,,,0.7,0.4,0.6*35
$GPGSA,A,3,03,05,09,13,15,24,25,31,34,,,,0.7,0.4,0.6*3A
$GPGSA,A,3,02,05,06,09,11,12,16,19,22,34,36,60,0.7,0.4,0.6*37
$GPGST,054532.00,2.178,0.434,0.279,346.153,0.427,0.290,0.644*5B
$GPGBS,054532.00,2.705,1.789,3.557,72,0.0001,6.747,6.041*5C
$GPGRS,054532.00,1,-0.7,0.2,-0.4,-0.2,0.2,-0.0,0.9,0.5,-0.1,0.2,,*68
$GPGRS,054532.00,1,-4.0,0.4,6.7,4.2,2.6,-3.0,-1.9,-5.0,-1.9,,,*4D
$GPGRS,054532.00,1,-0.2,0.2,0.8,0.3,-0.3,-0.1,-1.3,-0.7,0.4,,,*40
$GPGRS,054532.00,1,-0.8,2.4,0.2,0.8,3.5,-0.9,0.6,-0.9,-0.5,-0.8,0.3,-1.4*44
$GPGSV,5,1,20,07,77,096,50,16,11,034,39,05,23,312,43,06,19,214,42*74
$GPGSV,5,2,20,04,16,086,40,11,34,251,45,20,54,293,48,30,57,209,50*7D
$GPGSV,5,3,20,09,43,083,46,13,08,269,39,14,03,172,,36,35,170,45*71
$GPGSV,5,4,20,58,13,245,37,40,24,132,37,34,31,208,44,49,34,195,45*7D
$GPGSV,5,5,20,57,07,111,37,41,07,108,35,61,03,257,38*49
$GLGSV,3,1,11,72,62,333,51,87,16,251,43,80,10,024,42,65,10,299,40*65
$GLGSV,3,2,11,88,22,310,46,73,54,066,50,74,50,150,47,71,51,085,51*6E
$GLGSV,3,3,11,81,04,359,41,70,08,107,32,75,07,184,42*54
$GAGSV,3,1,11,05,76,046,48,16,23,141,,09,24,083,41,31,25,054,42*61
$GAGSV,3,2,11,24,32,113,43,34,30,224,44,15,36,287,44,03,44,278,46*6A
$GAGSV,3,3,11,25,09,161,38,06,02,086,36,13,09,334,37*5F
$GBGSV,6,1,22,22,83,338,52,06,11,051,37,12,10,268,39,11,10,318,40*65
$GBGSV,6,2,22,26,16,183,,48,12,116,,09,26,052,40,45,24,189,*66
$GBGSV,6,3,22,05,22,129,40,58,30,050,,46,36,055,,19,38,113,48*65
$GBGSV,6,4,22,36,59,134,51,21,80,343,,43,03,337,,44,02,246,40*68
$GBGSV,6,5,22,34,09,295,41,16,09,050,39,40,00,077,,50,08,298,*66
$GBGSV,6,6,22,02,06,107,35,60,07,111,41*6A
$GPGGA,054532.00,,,,,0,00,,,M,,M,,*4D
$PTNL,GGK,054532.00,010125,4742.1602891,N,01618.1000451,E,1,40,0.7,EHT751.4641,M*47
$GPGGQ,054532.00,010125,4742.1602891,N,01618.1000451,E,1,40,0.826,708.2576,M*3F
$GPGFA,054532.00,4.130,5.285,0.434,0.279,346.153,0.644,,VVV*05
$GPLLK,054532.00,010125,,M,,M,1,40,0.7,,M*0D
$GNGMP,054532.00,,,,,DAAA,40,0.4,,,,*53
$GPGMP,054532.00,,,,,,10,,,,3.2,136*7C
$GLGMP,054532.00,,,,,,09,,,,,*73
$GAGMP,054532.00,,,,,,09,,,,,*7E
$GBGMP,054532.00,,,,,,12,,,,,*77
$PSSN,SNC,[0,279950000,2347]*44
$GPZDA,054537.00,01,01,2025,,*63
$GPDTM,W84,,00.0000000,N,00.0000000,E,00.0000000,W84*5F
$PSSN,TFM,054537.00,,,,*6F
$GPRMC,054537.00,A,4742.1602893,N,01618.1000446,E,0.0,,010125,5.1,E,D*16
$GPGLL,4742.1602893,N,01618.1000446,E,054537.00,A,D*67
$GPGGA,054537.00,4742.1602893,N,01618.1000446,E,2,40,0.4,708.2559,M,43.2066,M,1.4,0136*4A
$GNGNS,054537.00,4742.1602893,N,01618.1000446,E,DAAA,40,0.4,708.2559,43.2066,,*57
$GPGNS,054537.00,,,,,,10,,,,1.4,136*7D
$GLGNS,054537.00,,,,,,09,,,,,*76
$GAGNS,054537.00,,,,,,09,,,,,*7B
$GBGNS,054537.00,,,,,,12,,,,,*72
$GPLLQ,054537.00,010125,,M,,M,1,40,0.817,,M*1B
$GPVTG,,T,,M,0.01,N,0.01,K,D*26
$GPHDT,,T*1B
$GPTHS,,V*0E
$GPROT,,V*08
$PSSN,HRP,054537.00,010125,,,,,,,00,0,,*61
$PTNL,AVR,054537.00,,Yaw,,Tilt,,,,0,,00*37
$GPGSA,A,3,04,05,06,07,09,11,13,16,20,30,,,0.7,0.4,0.6*3A
$GPGSA,A,3,65,71,72,73,74,75,80,87,88,,,,0.7,0.4,0.6*35
$GPGSA,A,3,03,05,09,13,15,24,25,31,34,,,,0.7,0.4,0.6*3A
$GPGSA,A,3,02,05,06,09,11,12,16,19,22,34,36,60,0.7,0.4,0.6*37
$GPGST,054537.00,2.095,0.431,0.276,346.676,0.424,0.286,0.637*56
$GPGBS,054537.00,2.706,1.744,3.628,72,0.0001,7.088,6.041*55
$GPGRS,054537.00,1,-0.0,-0.5,-0.5,0.1,0.1,0.0,0.4,0.3,-0.2,0.3,,*48
$GPGRS,054537.00,1,-3.3,0.4,7.1,3.8,2.5,-2.6,-2.1,-4.7,-1.3,,,*45
$GPGRS,054537.00,1,0.4,0.3,0.9,0.1,-0.1,0.3,-1.2,-0.5,0.4,,,*42
$GPGRS,054537.00,1,-0.5,2.3,0.0,0.9,3.7,0.2,0.6,-0.7,-0.5,-0.3,0.3,-1.5*68
$GPGSV,5,1,20,07,77,096,50,16,11,034,38,05,23,312,42,06,19,214,41*77
$GPGSV,5,2,20,04,16,086,40,11,34,251,45,20,54,293,48,30,57,209,49*75
$GPGSV,5,3,20,09,43,083,47,13,08,269,39,14,03,172,,36,35,170,45*70
$GPGSV,5,4,20,58,13,245,37,40,24,132,38,34,31,208,44,49,34,195,45*72
$GPGSV,5,5,20,57,07,111,37,41,07,108,35,61,03,257,38*49
$GLGSV,3,1,11,72,62,333,51,87,16,251,44,80,10,024,42,65,10,299,40*62
$GLGSV,3,2,11,88,22,310,46,73,54,066,49,74,50,150,47,71,51,085,51*66
$GLGSV,3,3,11,81,04,359,42,70,07,107,33,75,07,184,42*59
$GAGSV,3,1,11,05,76,046,49,16,23,141,,09,24,083,42,31,25,054,42*63
$GAGSV,3,2,11,24,32,113,43,34,30,224,44,15,36,287,44,03,44,278,46*6A
$GAGSV,3,3,11,25,09,161,38,06,02,086,36,13,09,334,38*50
$GBGSV,6,1,22,22,83,338,52,06,11,051,36,12,10,268,40,11,10,318,40*6A
$GBGSV,6,2,22,26,16,183,,48,12,116,,09,26,052,40,45,24,189,*66
$GBGSV,6,3,22,05,22,129,40,58,30,050,,46,36,055,,19,38,113,48*65
$GBGSV,6,4,22,36,59,134,52,21,80,343,,43,03,337,,44,02,246,39*65
$GBGSV,6,5,22,34,09,294,42,16,09,050,39,40,00,077,,50,08,298,*64
$GBGSV,6,6,22,02,06,107,36,60,07,111,41*69
$GPGGA,054537.00,,,,,0,00,,,M,,M,,*48
$PTNL,GGK,054537.00,010125,4742.1602893,N,01618.1000446,E,1,40,0.7,EHT751.4625,M*44
$GPGGQ,054537.00,010125,4742.1602893,N,01618.1000446,E,1,40,0.817,708.2559,M*31
$GPGFA,054537.00,4.100,5.222,0.431,0.276,346.676,0.637,,VVV*00
$GPLLK,054537.00,010125,,M,,M,1,40,0.7,,M*08
$GNGMP,054537.00,,,,,DAAA,40,0.4,,,,*56
$GPGMP,054537.00,,,,,,10,,,,1.4,136*7D
$GLGMP,054537.00,,,,,,09,,,,,*76
$GAGMP,054537.00,,,,,,09,,,,,*7B
$GBGMP,054537.00,,,,,,12,,,,,*72
$PSSN,SNC,[0,279955000,2347]*41
$GPZDA,054542.00,01,01,2025,,*61
$GPDTM,W84,,00.0000000,N,00.0000000,E,00.0000000,W84*5F
$PSSN,TFM,054542.00,,,,*6D
$GPRMC,054542.00,A,4742.1602881,N,01618.1000415,E,0.0,,010125,5.1,E,D*11
$GPGLL,4742.1602881,N,01618.1000415,E,054542.00,A,D*60
$GPGGA,054542.00,4742.1602881,N,01618.1000415,E,2,40,0.4,708.2525,M,43.2066,M,2.4,0136*45
$GNGNS,054542.00,4742.1602881,N,01618.1000415,E,DAAA,40,0.4,708.2525,43.2066,,*5B
$GPGNS,054542.00,,,,,,10,,,,2.4,136*7C
$GLGNS,054542.00,,,,,,09,,,,,*74
$GAGNS,054542.00,,,,,,09,,,,,*79
$GBGNS,054542.00,,,,,,12,,,,,*70
$GPLLQ,054542.00,010125,,M,,M,1,40,0.809,,M*16
$GPVTG,,T,,M,0.00,N,0.00,K,D*26
$GPHDT,,T*1B
$GPTHS,,V*0E
$GPROT,,V*08
$PSSN,HRP,054542.00,010125,,,,,,,00,0,,*63
$PTNL,AVR,054542.00,,Yaw,,Tilt,,,,0,,00*35
$GPGSA,A,3,04,05,06,07,09,11,13,16,20,30,,,0.7,0.4,0.6*3A
$GPGSA,A,3,65,71,72,73,74,75,80,87,88,,,,0.7,0.4,0.6*35
$GPGSA,A,3,03,05,09,13,15,24,25,31,34,,,,0.7,0.4,0.6*3A
$GPGSA,A,3,02,05,06,09,11,12,16,19,22,34,36,60,0.7,0.4,0.6*37
$GPGST,054542.00,2.108,0.430,0.271,346.889,0.423,0.282,0.629*55
$GPGBS,054542.00,2.757,1.760,3.679,72,0.0001,7.327,6.041*57
$GPGRS,054542.00,1,-0.2,0.0,-0.8,0.0,0.2,0.2,0.4,0.2,-0.3,0.4,,*6A
$GPGRS,054542.00,1,-2.5,0.2,7.3,3.8,2.8,-2.9,-3.2,-4.7,-1.8,,,*4F
$GPGRS,054542.00,1,0.2,0.5,0.9,0.9,0.4,0.3,-1.0,-0.4,0.5,,,*62
$GPGRS,054542.00,1,-0.6,1.9,0.2,0.5,2.4,1.7,0.2,-0.7,-0.5,0.5,0.3,-1.4*46
$GPGSV,5,1,20,07,77,096,50,16,11,034,39,05,23,312,43,06,18,214,41*76
$GPGSV,5,2,20,04,16,086,40,11,33,251,46,20,54,293,48,30,57,209,50*79
$GPGSV,5,3,20,09,43,083,47,13,08,269,39,14,03,172,,36,35,170,45*70
$GPGSV,5,4,20,58,13,245,37,40,24,132,37,34,31,208,44,49,34,195,45*7D
$GPGSV,5,5,20,57,07,111,37,41,07,108,35,61,03,257,38*49
$GLGSV,3,1,11,72,62,333,51,87,16,251,44,80,10,024,41,65,10,299,40*61
$GLGSV,3,2,11,88,22,310,46,73,54,066,49,74,50,150,47,71,51,085,51*66
$GLGSV,3,3,11,81,04,359,42,70,07,107,32,75,07,184,42*58
$GAGSV,3,1,11,05,76,046,49,16,23,141,,09,24,083,42,31,25,054,42*63
$GAGSV,3,2,11,24,32,113,43,34,30,224,44,15,36,287,44,03,44,278,46*6A
$GAGSV,3,3,11,25,09,161,38,06,02,086,36,13,09,334,39*51
$GBGSV,6,1,23,22,83,338,52,06,11,051,37,12,10,268,39,11,10,318,40*64
$GBGSV,6,2,23,26,16,183,,48,12,116,,09,26,052,40,45,24,189,*67
$GBGSV,6,3,23,05,22,129,40,58,30,050,,46,36,055,,19,38,113,48*64
$GBGSV,6,4,23,36,59,134,52,21,80,343,,40,00,077,,43,03,337,*68
$GBGSV,6,5,23,44,02,246,40,28,00,347,,16,09,050,39,34,09,294,42*63
$GBGSV,6,6,23,50,08,298,,02,06,107,36,60,07,111,41*56
$GPGGA,054542.00,,,,,0,00,,,M,,M,,*4A
$PTNL,GGK,054542.00,010125,4742.1602881,N,01618.1000415,E,1,40,0.7,EHT751.4590,M*4E
$GPGGQ,054542.00,010125,4742.1602881,N,01618.1000415,E,1,40,0.809,708.2525,M*32
$GPGFA,054542.00,4.087,5.157,0.430,0.271,346.889,0.629,,VVV*0A
$GPLLK,054542.00,010125,,M,,M,1,40,0.7,,M*0A
$GNGMP,054542.00,,,,,DAAA,40,0.4,,,,*54
$GPGMP,054542.00,,,,,,10,,,,2.4,136*7C
$GLGMP,054542.00,,,,,,09,,,,,*74
$GAGMP,054542.00,,,,,,09,,,,,*79
$GBGMP,054542.00,,,,,,12,,,,,*70
$PSSN,SNC,[0,279960000,2347]*47
$GPZDA,054547.00,01,01,2025,,*64
$GPDTM,W84,,00.0000000,N,00.0000000,E,00.0000000,W84*5F
$PSSN,TFM,054547.00,,,,*68
$GPRMC,054547.00,A,4742.1602846,N,01618.1000445,E,0.0,,010125,5.1,E,D*1A
$GPGLL,4742.1602846,N,01618.1000445,E,054547.00,A,D*6B
$GPGGA,054547.00,4742.1602846,N,01618.1000445,E,2,40,0.4,708.2539,M,43.2066,M,3.0,0136*46
$GNGNS,054547.00,4742.1602846,N,01618.1000445,E,DAAA,40,0.4,708.2539,43.2066,,*5D
$GPGNS,054547.00,,,,,,10,,,,3.0,136*7C
$GLGNS,054547.00,,,,,,09,,,,,*71
$GAGNS,054547.00,,,,,,09,,,,,*7C
$GBGNS,054547.00,,,,,,12,,,,,*75
$GPLLQ,054547.00,010125,,M,,M,1,40,0.820,,M*18
$GPVTG,,T,,M,0.00,N,0.01,K,D*27
$GPHDT,,T*1B
$GPTHS,,V*0E
$GPROT,,V*08
$PSSN,HRP,054547.00,010125,,,,,,,00,0,,*66
$PTNL,AVR,054547.00,,Yaw,,Tilt,,,,0,,00*30
$GPGSA,A,3,04,05,06,07,09,11,13,16,20,30,,,0.7,0.4,0.6*3A
$GPGSA,A,3,65,71,72,73,74,75,80,87,88,,,,0.7,0.4,0.6*35
$GPGSA,A,3,03,05,09,13,15,24,25,31,34,,,,0.7,0.4,0.6*3A
$GPGSA,A,3,02,05,06,09,11,12,16,19,22,34,36,60,0.7,0.4,0.6*37
$GPGST,054547.00,2.119,0.435,0.276,346.491,0.428,0.287,0.639*58
$GPGBS,054547.00,2.715,1.783,3.628,72,0.0001,6.681,6.041*55
$GPGRS,054547.00,1,-0.5,0.5,-0.9,-0.2,-0.1,0.3,0.5,1.0,-0.2,0.4,,*6F
$GPGRS,054547.00,1,-2.8,-0.2,6.7,3.9,2.6,-3.1,-3.2,-5.4,-2.4,,,*64
$GPGRS,054547.00,1,0.0,0.4,0.7,0.6,0.1,0.3,-1.3,-0.9,0.4,,,*6F
$GPGRS,054547.00,1,-0.9,2.0,0.5,1.0,1.0,0.2,-0.3,-1.2,-0.7,-0.8,0.2,-1.4*4D
$GPGSV,5,1,20,07,77,096,49,16,11,034,38,05,23,312,43,06,18,214,41*7F
$GPGSV,5,2,20,04,16,086,39,11,33,251,45,20,54,293,48,30,57,209,50*74
$GPGSV,5,3,20,09,43,083,46,13,08,269,38,14,03,172,,36,35,170,45*70
$GPGSV,5,4,20,58,13,245,37,40,24,132,37,34,31,208,44,49,34,195,45*7D
$GPGSV,5,5,20,57,07,111,37,41,07,108,35,61,03,257,38*49
$GLGSV,3,1,11,72,62,333,51,87,16,251,44,80,10,024,41,65,10,299,40*61
$GLGSV,3,2,11,88,22,310,46,73,53,066,50,74,50,150,48,71,51,085,50*67
$GLGSV,3,3,11,81,04,359,42,70,07,107,33,75,07,184,42*59
$GAGSV,3,1,11,05,76,047,49,16,23,141,,09,24,083,42,31,25,054,41*61
$GAGSV,3,2,11,24,32,113,44,34,30,224,44,15,36,287,44,03,44,278,46*6D
$GAGSV,3,3,11,25,09,161,38,06,02,086,35,13,09,334,38*53
$GBGSV,6,1,23,22,83,338,52,06,11,051,37,11,10,318,40,09,26,052,40*6E
$GBGSV,6,2,23,48,12,116,,26,16,183,,05,22,129,40,58,30,050,*6E
$GBGSV,6,3,23,45,24,189,,19,38,113,48,46,36,055,,36,59,134,52*6B
$GBGSV,6,4,23,21,80,344,,28,00,347,,40,00,077,,43,03,337,*6D
$GBGSV,6,5,23,44,02,246,41,34,09,294,41,12,10,268,39,16,09,050,39*6F
$GBGSV,6,6,23,50,08,298,,02,06,107,35,60,07,111,41*55
$GPGGA,054547.00,,,,,0,00,,,M,,M,,*4F
$PTNL,GGK,054547.00,010125,4742.1602846,N,01618.1000445,E,1,40,0.7,EHT751.4605,M*4A
$GPGGQ,054547.00,010125,4742.1602846,N,01618.1000445,E,1,40,0.820,708.2539,M*3F
$GPGFA,054547.00,4.134,5.237,0.435,0.276,346.491,0.639,,VVV*05
$GPLLK,054547.00,010125,,M,,M,1,40,0.7,,M*0F
$GNGMP,054547.00,,,,,DAAA,40,0.4,,,,*51
$GPGMP,054547.00,,,,,,10,,,,3.0,136*7C
$GLGMP,054547.00,,,,,,09,,,,,*71
$GAGMP,054547.00,,,,,,09,,,,,*7C
$GBGMP,054547.00,,,,,,12,,,,,*75
$PSSN,SNC,[0,279965000,2347]*42
$GPZDA,054552.00,01,01,2025,,*60
$GPDTM,W84,,00.0000000,N,00.0000000,E,00.0000000,W84*5F
$PSSN,TFM,054552.00,,,,*6C
$GPRMC,054552.00,A,4742.1602831,N,01618.1000466,E,0.0,,010125,5.1,E,D*1F
$GPGLL,4742.1602831,N,01618.1000466,E,054552.00,A,D*6E
$GPGGA,054552.00,4742.1602831,N,01618.1000466,E,2,40,0.4,708.2483,M,43.2066,M,3.2,0136*41
$GNGNS,054552.00,4742.1602831,N,01618.1000466,E,DAAA,40,0.4,708.2483,43.2066,,*58
$GPGNS,054552.00,,,,,,10,,,,3.2,136*7A
$GLGNS,054552.00,,,,,,09,,,,,*75
$GAGNS,054552.00,,,,,,09,,,,,*78
$GBGNS,054552.00,,,,,,12,,,,,*71
$GPLLQ,054552.00,010125,,M,,M,1,40,0.825,,M*19
$GPVTG,,T,,M,0.00,N,0.00,K,D*26
$GPHDT,,T*1B
$GPTHS,,V*0E
$GPROT,,V*08
$PSSN,HRP,054552.00,010125,,,,,,,00,0,,*62
$PTNL,AVR,054552.00,,Yaw,,Tilt,,,,0,,00*34
$GPGSA,A,3,04,05,06,07,09,11,13,16,20,30,,,0.7,0.4,0.6*3A
$GPGSA,A,3,65,71,72,73,74,75,80,87,88,,,,0.7,0.4,0.6*35
$GPGSA,A,3,03,05,09,13,15,24,25,31,34,,,,0.7,0.4,0.6*3A
$GPGSA,A,3,02,05,06,09,11,12,16,19,22,34,36,60,0.7,0.4,0.6*37
$GPGST,054552.00,2.140,0.435,0.279,346.246,0.427,0.290,0.643*57
$GPGBS,054552.00,2.707,1.794,3.541,72,0.0001,6.789,6.040*50
$GPGRS,054552.00,1,-0.8,-0.0,-0.2,-0.1,-0.0,0.3,-0.0,1.0,-0.2,0.3,,*68
$GPGRS,054552.00,1,-2.9,-0.3,6.8,4.2,2.0,-2.8,-2.8,-6.0,-2.2,,,*67
$GPGRS,054552.00,1,-0.2,0.2,0.7,0.2,0.0,-0.2,-1.6,-0.4,-0.1,,,*4B
$GPGRS,054552.00,1,-0.3,2.0,0.2,0.8,1.9,0.0,0.5,-1.2,-0.8,-1.0,0.0,-1.6*6B
$GPGSV,5,1,20,07,77,095,50,16,11,034,39,05,23,312,43,06,18,214,41*75
$GPGSV,5,2,20,04,16,086,40,11,33,251,45,20,54,293,48,30,57,209,49*72
$GPGSV,5,3,20,09,43,084,46,13,08,269,39,14,03,172,,36,35,170,45*76
$GPGSV,5,4,20,58,13,245,37,40,24,132,37,34,31,208,44,49,34,195,45*7D
$GPGSV,5,5,20,57,07,111,37,41,07,108,35,61,03,257,39*48
$GLGSV,3,1,11,72,62,333,51,87,16,250,43,80,10,024,41,65,10,299,41*66
$GLGSV,3,2,11,88,22,310,46,73,53,066,50,74,50,150,47,71,51,085,50*68
$GLGSV,3,3,11,81,04,359,41,70,07,107,32,75,07,184,42*5B
$GAGSV,3,1,11,05,76,047,49,16,23,141,,09,24,083,42,31,25,054,41*61
$GAGSV,3,2,11,24,32,113,44,34,30,224,44,15,36,287,44,03,44,279,46*6C
$GAGSV,3,3,11,25,09,161,38,06,02,086,35,13,09,334,38*53
$GBGSV,6,1,23,22,84,338,52,06,11,051,37,11,10,318,41,09,26,052,40*68
$GBGSV,6,2,23,48,12,116,,26,17,183,,05,22,129,40,58,30,050,*6F
$GBGSV,6,3,23,45,24,189,,19,38,113,48,46,36,055,,36,59,134,51*68
$GBGSV,6,4,23,21,80,344,,28,00,347,,40,00,077,,43,03,337,*6D
$GBGSV,6,5,23,44,02,246,41,34,09,294,41,12,10,268,40,16,09,050,38*60
$GBGSV,6,6,23,50,08,298,,02,06,107,35,60,07,111,41*55
$GPGGA,054552.00,,,,,0,00,,,M,,M,,*4B
$PTNL,GGK,054552.00,010125,4742.1602831,N,01618.1000466,E,1,40,0.7,EHT751.4548,M*45
$GPGGQ,054552.00,010125,4742.1602831,N,01618.1000466,E,1,40,0.825,708.2483,M*3F
$GPGFA,054552.00,4.133,5.274,0.435,0.279,346.246,0.643,,VVV*0F
$GPLLK,054552.00,010125,,M,,M,1,40,0.7,,M*0B
$GNGMP,054552.00,,,,,DAAA,40,0.4,,,,*55
$GPGMP,054552.00,,,,,,10,,,,3.2,136*7A
$GLGMP,054552.00,,,,,,09,,,,,*75
$GAGMP,054552.00,,,,,,09,,,,,*78
$GBGMP,054552.00,,,,,,12,,,,,*71
$PSSN,SNC,[0,279970000,2347]*46
$GPZDA,054557.00,01,01,2025,,*65
$GPDTM,W84,,00.0000000,N,00.0000000,E,00.0000000,W84*5F
$PSSN,TFM,054557.00,,,,*69
$GPRMC,054557.00,A,4742.1602827,N,01618.1000470,E,0.0,,010125,5.1,E,D*1A
$GPGLL,4742.1602827,N,01618.1000470,E,054557.00,A,D*6B
$GPGGA,054557.00,4742.1602827,N,01618.1000470,E,2,40,0.4,708.2477,M,43.2066,M,1.4,0136*4B
$GNGNS,054557.00,4742.1602827,N,01618.1000470,E,DAAA,40,0.4,708.2477,43.2066,,*56
$GPGNS,054557.00,,,,,,10,,,,1.4,136*7B
$GLGNS,054557.00,,,,,,09,,,,,*70
$GAGNS,054557.00,,,,,,09,,,,,*7D
$GBGNS,054557.00,,,,,,12,,,,,*74
$GPLLQ,054557.00,010125,,M,,M,1,40,0.817,,M*1D
$GPVTG,,T,,M,0.00,N,0.00,K,D*26
$GPHDT,,T*1B
$GPTHS,,V*0E
$GPROT,,V*08
$PSSN,HRP,054557.00,010125,,,,,,,00,0,,*67
$PTNL,AVR,054557.00,,Yaw,,Tilt,,,,0,,00*31
$GPGSA,A,3,04,05,06,07,09,11,13,16,20,30,,,0.7,0.4,0.6*3A
$GPGSA,A,3,65,71,72,73,74,75,80,87,88,,,,0.7,0.4,0.6*35
$GPGSA,A,3,03,05,09,13,15,24,25,31,34,,,,0.7,0.4,0.6*3A
$GPGSA,A,3,02,05,06,09,11,12,16,19,22,34,36,60,0.7,0.4,0.6*37
$GPGST,054557.00,2.153,0.431,0.277,345.881,0.423,0.289,0.637*57
$GPGBS,054557.00,2.705,1.778,3.606,72,0.0001,6.822,6.041*5A
$GPGRS,054557.00,1,-0.8,0.2,0.0,-0.1,0.3,0.0,0.2,0.1,-0.3,0.2,,*6F
$GPGRS,054557.00,1,-2.5,0.1,6.8,3.9,2.0,-2.6,-2.8,-5.6,-1.9,,,*4E
$GPGRS,054557.00,1,0.0,0.5,0.2,0.3,0.0,-0.1,-1.3,-0.2,0.0,,,*4E
$GPGRS,054557.00,1,-0.6,2.2,0.5,1.2,4.0,0.3,0.0,-1.1,-0.7,-0.8,0.2,-1.8*66
$GPGSV,5,1,20,07,77,095,50,16,11,034,39,05,23,312,43,06,18,214,40*74
$GPGSV,5,2,20,04,16,086,40,11,33,251,46,20,54,293,48,30,57,209,49*71
$GPGSV,5,3,20,09,43,084,47,13,08,269,38,14,03,172,,36,35,170,45*76
$GPGSV,5,4,20,58,13,245,37,40,24,132,37,34,31,208,44,49,34,195,45*7D
$GPGSV,5,5,20,57,07,111,37,41,07,108,35,61,03,257,38*49
$GLGSV,3,1,11,72,62,333,51,87,16,250,43,80,10,024,42,65,10,299,41*65
$GLGSV,3,2,11,88,22,310,46,73,53,066,50,74,50,150,47,71,51,085,51*69
$GLGSV,3,3,11,81,04,359,41,70,07,107,33,75,07,184,42*5A
$GAGSV,3,1,11,05,76,047,49,16,23,141,,09,24,083,42,31,25,054,41*61
$GAGSV,3,2,11,24,32,113,44,34,30,224,44,15,36,287,44,03,44,279,46*6C
$GAGSV,3,3,11,25,09,161,38,06,02,086,35,13,09,334,38*53
$GBGSV,6,1,23,22,84,339,52,06,11,051,37,11,10,318,40,09,26,052,40*68
$GBGSV,6,2,23,48,12,116,,26,17,183,,05,22,129,40,58,30,050,*6F
$GBGSV,6,3,23,45,24,189,,19,38,113,48,46,36,055,,36,59,134,51*68
$GBGSV,6,4,23,21,80,344,,28,00,347,,40,00,077,,43,03,337,*6D
$GBGSV,6,5,23,44,02,246,41,34,09,294,41,12,10,268,40,16,09,050,38*60
$GBGSV,6,6,23,50,08,298,,02,06,107,35,60,07,111,41*55
$GPGGA,054557.00,,,,,0,00,,,M,,M,,*4E
$PTNL,GGK,054557.00,010125,4742.1602827,N,01618.1000470,E,1,40,0.7,EHT751.4543,M*4B
$GPGGQ,054557.00,010125,4742.1602827,N,01618.1000470,E,1,40,0.817,708.2477,M*30
$GPGFA,054557.00,4.093,5.222,0.431,0.277,345.881,0.637,,VVV*09
$GPLLK,054557.00,010125,,M,,M,1,40,0.7,,M*0E
$GNGMP,054557.00,,,,,DAAA,40,0.4,,,,*50
$GPGMP,054557.00,,,,,,10,,,,1.4,136*7B
$GLGMP,054557.00,,,,,,09,,,,,*70
$GAGMP,054557.00,,,,,,09,,,,,*7D
$GBGMP,054557.00,,,,,,12,,,,,*74
$PSSN,SNC,[0,279975000,2347]*43
$GPZDA,054602.00,01,01,2025,,*66
$GPDTM,W84,,00.0000000,N,00.0000000,E,00.0000000,W84*5F
$PSSN,TFM,054602.00,,,,*6A
$GPRMC,054602.00,A,4742.1602808,N,01618.1000485,E,0.0,,010125,5.1,E,D*1E
$GPGLL,4742.1602808,N,01618.1000485,E,054602.00,A,D*6F
$GPGGA,054602.00,4742.1602808,N,01618.1000485,E,2,40,0.4,708.2460,M,43.2066,M,2.4,0136*4A
$GNGNS,054602.00,4742.1602808,N,01618.1000485,E,DAAA,40,0.4,708.2460,43.2066,,*54
$GPGNS,054602.00,,,,,,10,,,,2.4,136*7B
$GLGNS,054602.00,,,,,,09,,,,,*73
$GAGNS,054602.00,,,,,,09,,,,,*7E
$GBGNS,054602.00,,,,,,12,,,,,*77
$GPLLQ,054602.00,010125,,M,,M,1,40,0.805,,M*1D
$GPVTG,,T,,M,0.00,N,0.01,K,D*27
$GPHDT,,T*1B
$GPTHS,,V*0E
$GPROT,,V*08
$PSSN,HRP,054602.00,010125,,,,,,,00,0,,*64
$PTNL,AVR,054602.00,,Yaw,,Tilt,,,,0,,00*32
$GPGSA,A,3,04,05,06,07,09,11,13,16,20,30,,,0.7,0.4,0.6*3A
$GPGSA,A,3,65,71,72,73,74,75,80,87,88,,,,0.7,0.4,0.6*35
$GPGSA,A,3,03,05,09,13,15,24,25,31,34,,,,0.7,0.4,0.6*3A
$GPGSA,A,3,02,05,06,09,11,12,16,19,22,34,36,60,0.7,0.4,0.6*37
$GPGST,054602.00,2.015,0.427,0.272,345.549,0.419,0.284,0.626*58
$GPGBS,054602.00,2.748,1.781,3.653,72,0.0001,6.387,6.041*52
$GPGRS,054602.00,1,-0.7,0.2,-0.5,-0.1,0.2,-0.2,0.8,0.3,-0.2,0.5,,*6B
$GPGRS,054602.00,1,-2.3,-0.1,6.4,4.1,2.3,-2.2,-2.9,-4.5,-2.2,,,*69
$GPGRS,054602.00,1,-0.1,0.4,-0.0,0.8,0.2,-0.1,-1.2,-0.4,0.1,,,*40
$GPGRS,054602.00,1,-1.1,2.1,0.7,0.5,3.2,1.3,-0.3,-1.1,-0.8,-0.8,0.3,-1.5*4D
$GPGSV,5,1,20,07,77,095,50,16,11,034,39,05,23,312,43,06,18,214,40*74
$GPGSV,5,2,20,04,16,086,39,11,33,251,45,20,54,293,48,30,57,209,49*7C
$GPGSV,5,3,20,09,43,084,46,13,08,269,38,14,03,172,,36,35,170,45*77
$GPGSV,5,4,20,58,13,245,37,40,24,132,37,34,31,208,44,49,34,195,45*7D
$GPGSV,5,5,20,57,07,111,37,41,07,108,36,61,03,257,38*4A
$GLGSV,3,1,11,72,62,333,51,87,16,250,44,80,10,024,41,65,10,299,41*61
$GLGSV,3,2,11,88,22,310,46,73,53,066,50,74,50,150,48,71,51,085,51*66
$GLGSV,3,3,11,81,04,359,41,70,07,107,33,75,07,184,42*5A
$GAGSV,3,1,11,05,76,047,49,16,23,141,,09,24,083,41,31,25,054,41*62
$GAGSV,3,2,11,24,32,113,44,34,30,224,44,15,36,287,44,03,44,279,46*6C
$GAGSV,3,3,11,25,09,161,38,06,02,086,35,13,09,334,38*53
$GBGSV,6,1,23,22,84,339,52,06,11,051,37,11,10,318,40,09,26,052,40*68
$GBGSV,6,2,23,48,12,116,,26,17,183,,05,22,129,39,58,30,050,*61
$GBGSV,6,3,23,45,24,189,,19,38,113,48,46,36,055,,36,59,134,52*6B
$GBGSV,6,4,23,21,80,344,,28,00,347,,40,00,077,,43,03,337,*6D
$GBGSV,6,5,23,44,02,246,41,34,09,294,41,12,10,267,39,16,09,050,38*61
$GBGSV,6,6,23,50,08,298,,02,06,107,35,60,07,111,41*55
$GPGGA,054602.00,,,,,0,00,,,M,,M,,*4D
$PTNL,GGK,054602.00,010125,4742.1602808,N,01618.1000485,E,1,40,0.7,EHT751.4525,M*4F
$GPGGQ,054602.00,010125,4742.1602808,N,01618.1000485,E,1,40,0.805,708.2460,M*31
$GPGFA,054602.00,4.063,5.136,0.427,0.272,345.549,0.626,,VVV*08
$GPLLK,054602.00,010125,,M,,M,1,40,0.7,,M*0D
$GNGMP,054602.00,,,,,DAAA,40,0.4,,,,*53
$GPGMP,054602.00,,,,,,10,,,,2.4,136*7B
$GLGMP,054602.00,,,,,,09,,,,,*73
$GAGMP,054602.00,,,,,,09,,,,,*7E
$GBGMP,054602.00,,,,,,12,,,,,*77
$PSSN,SNC,[0,279980000,2347]*49
$GPZDA,054607.00,01,01,2025,,*63
$GPDTM,W84,,00.0000000,N,00.0000000,E,00.0000000,W84*5F
$PSSN,TFM,054607.00,,,,*6F
$GPRMC,054607.00,A,4742.1602815,N,01618.1000526,E,0.0,,010125,5.1,E,D*1F
$GPGLL,4742.1602815,N,01618.1000526,E,054607.00,A,D*6E
$GPGGA,054607.00,4742.1602815,N,01618.1000526,E,2,40,0.4,708.2448,M,43.2066,M,3.0,0136*44
$GNGNS,054607.00,4742.1602815,N,01618.1000526,E,DAAA,40,0.4,708.2448,43.2066,,*5F
$GPGNS,054607.00,,,,,,10,,,,3.0,136*7B
$GLGNS,054607.00,,,,,,09,,,,,*76
$GAGNS,054607.00,,,,,,09,,,,,*7B
$GBGNS,054607.00,,,,,,12,,,,,*72
$GPLLQ,054607.00,010125,,M,,M,1,40,0.811,,M*1D
$GPVTG,,T,,M,0.01,N,0.01,K,D*26
$GPHDT,,T*1B
$GPTHS,,V*0E
$GPROT,,V*08
$PSSN,HRP,054607.00,010125,,,,,,,00,0,,*61
$PTNL,AVR,054607.00,,Yaw,,Tilt,,,,0,,00*37
$GPGSA,A,3,04,05,06,07,09,11,13,16,20,30,,,0.7,0.4,0.6*3A
$GPGSA,A,3,65,71,72,73,74,75,80,87,88,,,,0.7,0.4,0.6*35
$GPGSA,A,3,03,05,09,13,15,24,25,31,34,,,,0.7,0.4,0.6*3A
$GPGSA,A,3,02,05,06,09,11,12,16,19,22,34,36,60,0.7,0.4,0.6*37
$GPGST,054607.00,2.100,0.431,0.273,345.609,0.423,0.285,0.630*56
$GPGBS,054607.00,2.701,1.748,3.605,72,0.0001,6.603,6.040*54
$GPGRS,054607.00,1,-0.7,0.1,-0.3,-0.4,-0.1,-0.2,0.8,0.1,0.0,0.6,,*6E
$GPGRS,054607.00,1,-2.3,0.4,6.6,4.4,2.7,-2.7,-2.6,-5.7,-1.7,,,*48
$GPGRS,054607.00,1,-0.1,0.2,0.3,0.6,0.2,-0.1,-1.6,-0.3,0.6,,,*67
$GPGRS,054607.00,1,-0.6,2.1,0.2,0.5,2.2,-0.0,-0.7,-1.1,-0.7,-0.8,0.3,-1.4*6F
$GPGSV,5,1,20,07,77,095,49,16,11,034,39,05,23,312,43,06,18,214,41*7D
$GPGSV,5,2,20,04,16,086,39,11,33,251,45,20,54,293,48,30,57,209,50*74
$GPGSV,5,3,20,09,43,084,46,13,08,269,39,14,03,172,,36,35,170,45*76
$GPGSV,5,4,20,58,13,245,37,40,24,132,38,34,31,208,44,49,34,195,45*72
$GPGSV,5,5,20,57,07,111,37,41,07,108,35,61,03,257,38*49
$GLGSV,3,1,11,72,62,333,51,87,16,250,43,80,10,024,41,65,10,299,41*66
$GLGSV,3,2,11,88,22,310,47,73,53,066,49,74,50,150,48,71,51,085,51*6F
$GLGSV,3,3,11,81,04,359,42,70,07,108,33,75,07,184,42*56
$GAGSV,3,1,11,05,76,047,49,16,23,141,,09,24,083,41,31,25,054,42*61
$GAGSV,3,2,11,24,32,113,43,34,30,224,44,15,36,286,44,03,44,279,46*6A
$GAGSV,3,3,11,25,10,161,38,06,02,086,35,13,09,334,38*5B
$GBGSV,6,1,23,22,84,339,52,06,11,051,37,11,10,318,40,09,26,052,40*68
$GBGSV,6,2,23,48,12,116,,26,17,183,,05,22,129,40,58,30,050,*6F
$GBGSV,6,3,23,45,25,189,,19,38,113,48,46,36,055,,36,59,134,52*6A
$GBGSV,6,4,23,21,80,344,,28,00,347,,40,00,077,,43,03,337,*6D
$GBGSV,6,5,23,44,02,246,40,34,09,294,41,12,10,267,39,16,09,050,38*60
$GBGSV,6,6,23,50,08,298,,02,06,107,36,60,07,111,41*56
$GPGGA,054607.00,,,,,0,00,,,M,,M,,*48
$PTNL,GGK,054607.00,010125,4742.1602815,N,01618.1000526,E,1,40,0.7,EHT751.4514,M*4C
$GPGGQ,054607.00,010125,4742.1602815,N,01618.1000526,E,1,40,0.811,708.2448,M*3F
$GPGFA,054607.00,4.102,5.169,0.431,0.273,345.609,0.630,,VVV*07
$GPLLK,054607.00,010125,,M,,M,1,40,0.7,,M*08
$GNGMP,054607.00,,,,,DAAA,40,0.4,,,,*56
$GPGMP,054607.00,,,,,,10,,,,3.0,136*7B
$GLGMP,054607.00,,,,,,09,,,,,*76
$GAGMP,054607.00,,,,,,09,,,,,*7B
$GBGMP,054607.00,,,,,,12,,,,,*72
$PSSN,SNC,[0,279985000,2347]*4C
$GPZDA,054612.00,01,01,2025,,*67
$GPDTM,W84,,00.0000000,N,00.0000000,E,00.0000000,W84*5F
$PSSN,TFM,054612.00,,,,*6B
$GPRMC,054612.00,A,4742.1602819,N,01618.1000558,E,0.0,,010125,5.1,E,D*1E
$GPGLL,4742.1602819,N,01618.1000558,E,054612.00,A,D*6F
$GPGGA,054612.00,4742.1602819,N,01618.1000558,E,2,40,0.4,708.2401,M,43.2066,M,3.2,0136*4A
$GNGNS,054612.00,4742.1602819,N,01618.1000558,E,DAAA,40,0.4,708.2401,43.2066,,*53
$GPGNS,054612.00,,,,,,10,,,,3.2,136*7D
$GLGNS,054612.00,,,,,,09,,,,,*72
$GAGNS,054612.00,,,,,,09,,,,,*7F
$GBGNS,054612.00,,,,,,12,,,,,*76
$GPLLQ,054612.00,010125,,M,,M,1,40,0.814,,M*1C
$GPVTG,,T,,M,0.00,N,0.00,K,D*26
$GPHDT,,T*1B
$GPTHS,,V*0E
$GPROT,,V*08
$PSSN,HRP,054612.00,010125,,,,,,,00,0,,*65
$PTNL,AVR,054612.00,,Yaw,,Tilt,,,,0,,00*33
$GPGSA,A,3,04,05,06,07,09,11,13,16,20,30,,,0.7,0.4,0.6*3A
$GPGSA,A,3,65,71,72,73,74,75,80,87,88,,,,0.7,0.4,0.6*35
$GPGSA,A,3,03,05,09,13,15,24,25,31,34,,,,0.7,0.4,0.6*3A
$GPGSA,A,3,02,05,06,09,11,12,16,19,22,34,36,60,0.7,0.4,0.6*37
$GPGST,054612.00,2.125,0.431,0.276,345.178,0.423,0.288,0.634*58
$GPGBS,054612.00,2.687,1.742,3.516,72,0.0001,6.468,6.040*5B
$GPGRS,054612.00,1,-0.4,0.2,-0.3,-0.2,0.0,-0.1,1.2,-0.4,-0.2,0.5,,*4C
$GPGRS,054612.00,1,-2.7,0.1,6.5,3.8,2.5,-3.5,-3.6,-5.8,-0.8,,,*44
$GPGRS,054612.00,1,-0.0,0.2,0.9,0.7,0.3,-0.0,-1.3,-0.4,0.6,,,*6B
$GPGRS,054612.00,1,-0.6,2.1,0.6,0.3,1.6,0.5,-0.5,-1.1,-0.7,-0.5,0.2,-1.8*44
$GPGSV,5,1,20,07,77,095,49,16,11,034,39,05,23,312,43,06,18,214,41*7D
$GPGSV,5,2,20,04,16,086,40,11,33,251,45,20,54,293,48,30,57,209,50*7A
$GPGSV,5,3,20,09,43,084,46,13,08,269,39,14,03,172,,36,35,170,45*76
$GPGSV,5,4,20,58,13,245,37,40,24,132,37,34,31,208,44,49,34,195,45*7D
$GPGSV,5,5,20,57,07,111,37,41,07,108,35,61,03,257,39*48
$GLGSV,3,1,11,72,62,333,51,87,16,250,43,80,10,024,40,65,10,299,41*67
$GLGSV,3,2,11,88,22,310,47,73,53,066,50,74,50,150,48,71,51,085,51*67
$GLGSV,3,3,11,81,04,359,40,70,07,108,33,75,07,184,42*54
$GAGSV,3,1,11,05,76,047,49,16,23,141,,09,24,083,42,31,25,054,42*62
$GAGSV,3,2,11,24,32,113,44,34,30,224,44,15,36,286,45,03,44,279,46*6C
$GAGSV,3,3,11,25,10,161,38,06,02,086,34,13,09,334,38*5A
$GBGSV,6,1,23,22,84,339,52,06,11,051,37,11,10,318,40,09,26,052,40*68
$GBGSV,6,2,23,48,12,116,,26,17,183,,05,22,129,40,58,30,050,*6F
$GBGSV,6,3,23,45,25,189,,19,38,113,48,46,36,055,,36,59,134,51*69
$GBGSV,6,4,23,21,80,344,,28,00,347,,40,00,077,,43,03,337,*6D
$GBGSV,6,5,23,44,02,246,39,34,09,294,41,12,10,267,39,16,09,050,38*6E
$GBGSV,6,6,23,50,08,298,,02,06,107,36,60,07,111,41*56
$GPGGA,054612.00,,,,,0,00,,,M,,M,,*4C
$PTNL,GGK,054612.00,010125,4742.1602819,N,01618.1000558,E,1,40,0.7,EHT751.4467,M*48
$GPGGQ,054612.00,010125,4742.1602819,N,01618.1000558,E,1,40,0.814,708.2401,M*36
$GPGFA,054612.00,4.098,5.197,0.431,0.276,345.178,0.634,,VVV*00
$GPLLK,054612.00,010125,,M,,M,1,40,0.7,,M*0C
$GNGMP,054612.00,,,,,DAAA,40,0.4,,,,*52
$GPGMP,054612.00,,,,,,10,,,,3.2,136*7D
$GLGMP,054612.00,,,,,,09,,,,,*72
$GAGMP,054612.00,,,,,,09,,,,,*7F
$GBGMP,054612.00,,,,,,12,,,,,*76
$PSSN,SNC,[0,279990000,2347]*48
$GPZDA,054617.00,01,01,2025,,*62
$GPDTM,W84,,00.0000000,N,00.0000000,E,00.0000000,W84*5F
$PSSN,TFM,054617.00,,,,*6E
$GPRMC,054617.00,A,4742.1602828,N,01618.1000600,E,0.0,,010125,5.1,E,D*17
$GPGLL,4742.1602828,N,01618.1000600,E,054617.00,A,D*66
$GPGGA,054617.00,4742.1602828,N,01618.1000600,E,2,40,0.4,708.2380,M,43.2066,M,1.4,0136*49
$GNGNS,054617.00,4742.1602828,N,01618.1000600,E,DAAA,40,0.4,708.2380,43.2066,,*54
$GPGNS,054617.00,,,,,,10,,,,1.4,136*7C
$GLGNS,054617.00,,,,,,09,,,,,*77
$GAGNS,054617.00,,,,,,09,,,,,*7A
$GBGNS,054617.00,,,,,,12,,,,,*73
$GPLLQ,054617.00,010125,,M,,M,1,40,0.804,,M*18
$GPVTG,,T,,M,0.00,N,0.01,K,D*27
$GPHDT,,T*1B
$GPTHS,,V*0E
$GPROT,,V*08
$PSSN,HRP,054617.00,010125,,,,,,,00,0,,*60
$PTNL,AVR,054617.00,,Yaw,,Tilt,,,,0,,00*36
$GPGSA,A,3,04,05,06,07,09,11,13,16,20,30,,,0.7,0.4,0.6*3A
$GPGSA,A,3,65,71,72,73,74,75,80,87,88,,,,0.7,0.4,0.6*35
$GPGSA,A,3,03,05,09,13,15,24,25,31,34,,,,0.7,0.4,0.6*3A
$GPGSA,A,3,02,05,06,09,11,12,16,19,22,34,36,60,0.7,0.4,0.6*37
$GPGST,054617.00,2.126,0.427,0.272,345.418,0.419,0.284,0.625*5B
$GPGBS,054617.00,2.685,1.705,3.582,72,0.0001,6.737,6.040*5B
$GPGRS,054617.00,1,-0.7,0.1,-0.4,-0.1,0.1,0.3,0.4,-0.3,-0.1,0.3,,*66
$GPGRS,054617.00,1,-3.2,-0.4,6.7,3.8,2.3,-2.5,-4.0,-5.7,-1.4,,,*6B
$GPGRS,054617.00,1,0.1,0.3,0.9,0.6,-0.0,0.2,-1.2,-0.8,0.5,,,*4D
$GPGRS,054617.00,1,-0.7,1.9,0.3,0.5,1.9,-0.2,-0.1,-0.8,-0.8,-0.4,0.3,-1.5*63
$GPGSV,5,1,20,07,77,095,49,16,11,034,38,05,23,312,43,06,18,214,41*7C
$GPGSV,5,2,20,04,16,086,41,11,33,251,46,20,54,293,48,30,57,209,49*70
$GPGSV,5,3,20,09,43,084,46,13,08,269,39,14,03,172,,36,35,170,45*76
$GPGSV,5,4,20,58,13,245,37,40,24,132,37,34,31,208,44,49,34,195,45*7D
$GPGSV,5,5,20,57,07,111,37,41,07,108,35,61,03,257,38*49
$GLGSV,3,1,11,72,62,333,51,87,16,250,44,80,10,024,41,65,11,299,41*60
$GLGSV,3,2,11,88,22,310,46,73,53,066,50,74,50,150,48,71,51,085,51*66
$GLGSV,3,3,11,81,04,359,41,70,07,108,33,75,07,184,42*55
$GAGSV,3,1,11,05,76,047,49,16,23,141,,09,24,083,42,31,25,054,42*62
$GAGSV,3,2,11,24,32,113,44,34,30,224,44,15,36,286,44,03,44,279,46*6D
$GAGSV,3,3,11,25,10,161,38,06,02,086,34,13,09,334,38*5A
$GBGSV,6,1,23,22,84,339,52,06,11,051,37,11,10,318,40,09,26,052,39*66
$GBGSV,6,2,23,48,12,116,,26,17,183,,05,22,129,39,58,30,050,*61
$GBGSV,6,3,23,45,25,189,,19,38,114,48,46,36,055,,36,59,134,51*6E
$GBGSV,6,4,23,21,81,345,,28,00,347,,40,00,077,,43,03,337,*6D
$GBGSV,6,5,23,44,02,246,40,34,09,294,41,12,10,267,38,16,09,050,38*61
$GBGSV,6,6,23,50,08,298,,02,06,107,35,60,07,111,41*55
$GPGGA,054617.00,,,,,0,00,,,M,,M,,*49
$PTNL,GGK,054617.00,010125,4742.1602828,N,01618.1000600,E,1,40,0.7,EHT751.4446,M*42
$GPGGQ,054617.00,010125,4742.1602828,N,01618.1000600,E,1,40,0.804,708.2380,M*30
$GPGFA,054617.00,4.059,5.124,0.427,0.272,345.418,0.625,,VVV*00
$GPLLK,054617.00,010125,,M,,M,1,40,0.7,,M*09
$GNGMP,054617.00,,,,,DAAA,40,0.4,,,,*57
$GPGMP,054617.00,,,,,,10,,,,1.4,136*7C
$GLGMP,054617.00,,,,,,09,,,,,*77
$GAGMP,054617.00,,,,,,09,,,,,*7A
$GBGMP,054617.00,,,,,,12,,,,,*73
