$GPZDA,014442.00,01,01,2025,,*64
$GPDTM,W84,,00.0000000,N,00.0000000,E,00.0000000,W84*5F
$PSSN,TFM,014442.00,,,,*68
$GPRMC,014442.00,A,4742.1603205,N,01618.1002087,E,0.0,,010125,5.1,E,D*1E
$GPGLL,4742.1603205,N,01618.1002087,E,014442.00,A,D*6F
$GPGGA,014442.00,4742.1603205,N,01618.1002087,E,2,39,0.4,707.7635,M,43.2066,M,2.9,0136*41
$GNGNS,014442.00,4742.1603205,N,01618.1002087,E,DAAA,39,0.4,707.7635,43.2066,,*52
$GPGNS,014442.00,,,,,,10,,,,2.9,136*74
$GLGNS,014442.00,,,,,,08,,,,,*70
$GAGNS,014442.00,,,,,,08,,,,,*7D
$GBGNS,014442.00,,,,,,13,,,,,*74
$GPLLQ,014442.00,010125,,M,,M,1,39,0.925,,M*12
$GPVTG,,T,,M,0.00,N,0.01,K,D*27
$GPHDT,,T*1B
$GPTHS,,V*0E
$GPROT,,V*08
$PSSN,HRP,014442.00,010125,,,,,,,00,0,,*66
$PTNL,AVR,014442.00,,Yaw,,Tilt,,,,0,,00*30
$GPGSA,A,3,02,03,04,06,09,17,19,21,28,31,,,0.8,0.4,0.6*37
$GPGSA,A,3,69,70,71,78,79,84,85,86,,,,,0.8,0.4,0.6*38
$GPGSA,A,3,04,05,06,09,10,11,34,36,,,,,0.8,0.4,0.6*35
$GPGSA,A,3,05,06,09,16,19,20,29,32,35,37,39,44,0.8,0.4,0.6*3D
$GPGSA,A,3,60,,,,,,,,,,,,0.8,0.4,0.6*3E
$GPGST,014442.00,0.882,0.350,0.297,5.480,0.350,0.297,0.803*50
$GPGBS,014442.00,1.621,1.755,6.287,78,0.0001,-2.803,6.666*7B
$GPGRS,014442.00,1,-0.3,0.1,0.0,-0.0,0.2,-0.3,0.3,-0.0,0.1,0.1,,*49
$GPGRS,014442.00,1,-0.3,-0.4,0.6,-2.8,1.2,-0.1,1.7,-1.8,,,,*62
$GPGRS,014442.00,1,-0.2,0.1,-0.1,-0.0,-0.1,-0.0,0.1,0.0,,,,*66
$GPGRS,014442.00,1,1.4,0.3,1.0,0.6,-0.2,-1.6,0.4,0.8,-0.7,-0.6,-0.6,0.4*6F
$GPGRS,014442.00,1,-0.9,,,,,,,,,,,*43
$GPGSV,5,1,20,03,77,026,50,06,16,313,39,28,25,052,42,19,30,297,44*7C
$GPGSV,5,2,20,21,26,151,40,09,29,221,44,31,33,083,45,17,35,262,45*76
$GPGSV,5,3,20,02,44,158,48,01,49,146,,04,58,206,47,36,35,170,44*7B
$GPGSV,5,4,20,58,13,245,38,40,24,132,36,34,31,208,42,49,34,195,44*74
$GPGSV,5,5,20,57,09,110,38,41,07,108,34,61,03,257,38*48
$GLGSV,2,1,08,85,72,268,52,84,37,169,38,78,14,034,45,86,24,326,47*60
$GLGSV,2,2,08,71,14,241,45,69,44,041,50,70,60,263,41,79,09,083,43*6F
$GAGSV,3,1,10,36,75,288,48,05,19,217,40,10,21,139,40,18,19,302,*62
$GAGSV,3,2,10,04,50,058,45,34,23,312,41,11,48,144,43,09,70,187,48*60
$GAGSV,3,3,10,06,74,093,48,27,01,349,35*66
$GBGSV,5,1,17,48,79,278,,29,44,204,49,05,24,128,38,39,27,045,42*6D
$GBGSV,5,2,17,37,12,099,40,32,18,065,43,16,32,055,43,35,42,293,48*60
$GBGSV,5,3,17,06,33,059,41,09,38,075,42,22,49,242,,19,51,256,49*6B
$GBGSV,5,4,17,20,74,044,52,30,03,167,,44,07,326,40,02,08,105,34*67
$GBGSV,5,5,17,60,09,110,39*58
$GPGGA,014442.00,,,,,0,00,,,M,,M,,*4F
$PTNL,GGK,014442.00,010125,4742.1603205,N,01618.1002087,E,1,39,0.8,EHT750.9701,M*46
$GPGGQ,014442.00,010125,4742.1603205,N,01618.1002087,E,1,39,0.925,707.7635,M*34
$GPGFA,014442.00,3.332,6.584,0.350,0.297,5.480,0.803,,VVV*02
$GPLLK,014442.00,010125,,M,,M,1,39,0.9,,M*0F
$GNGMP,014442.00,,,,,DAAA,39,0.4,,,,*5F
$GPGMP,014442.00,,,,,,10,,,,2.9,136*74
$GLGMP,014442.00,,,,,,08,,,,,*70
$GAGMP,014442.00,,,,,,08,,,,,*7D
$GBGMP,014442.00,,,,,,13,,,,,*74
$PSSN,SNC,[0,265500000,2347]*40
$GPZDA,014447.00,01,01,2025,,*61
$GPDTM,W84,,00.0000000,N,00.0000000,E,00.0000000,W84*5F
$PSSN,TFM,014447.00,,,,*6D
$GPRMC,014447.00,A,4742.1603204,N,01618.1002092,E,0.0,,010125,5.1,E,D*1E
$GPGLL,4742.1603204,N,01618.1002092,E,014447.00,A,D*6F
$GPGGA,014447.00,4742.1603204,N,01618.1002092,E,2,39,0.4,707.7638,M,43.2066,M,1.9,0136*4F
$GNGNS,014447.00,4742.1603204,N,01618.1002092,E,DAAA,39,0.4,707.7638,43.2066,,*5F
$GPGNS,014447.00,,,,,,10,,,,1.9,136*72
$GLGNS,014447.00,,,,,,08,,,,,*75
$GAGNS,014447.00,,,,,,08,,,,,*78
$GBGNS,014447.00,,,,,,13,,,,,*71
$GPLLQ,014447.00,010125,,M,,M,1,39,0.915,,M*14
$GPVTG,,T,,M,0.00,N,0.00,K,D*26
$GPHDT,,T*1B
$GPTHS,,V*0E
$GPROT,,V*08
$PSSN,HRP,014447.00,010125,,,,,,,00,0,,*63
$PTNL,AVR,014447.00,,Yaw,,Tilt,,,,0,,00*35
$GPGSA,A,3,02,03,04,06,09,17,19,21,28,31,,,0.8,0.4,0.6*37
$GPGSA,A,3,69,70,71,78,79,84,85,86,,,,,0.8,0.4,0.6*38
$GPGSA,A,3,04,05,06,09,10,11,34,36,,,,,0.8,0.4,0.6*35
$GPGSA,A,3,05,06,09,16,19,20,29,32,35,37,39,44,0.8,0.4,0.6*3D
$GPGSA,A,3,60,,,,,,,,,,,,0.8,0.4,0.6*3E
$GPGST,014447.00,0.838,0.348,0.294,8.469,0.346,0.295,0.793*57
$GPGBS,014447.00,1.518,1.736,5.916,02,0.0001,-0.395,0.635*79
$GPGRS,014447.00,1,-0.4,-0.0,0.1,-0.2,0.3,0.1,-0.1,0.1,-0.1,0.1,,*64
$GPGRS,014447.00,1,-0.2,-0.6,0.6,-2.7,0.7,-0.1,1.8,-1.0,,,,*68
$GPGRS,014447.00,1,-0.3,-0.0,-0.1,0.3,-0.1,-0.2,0.2,0.1,,,,*60
$GPGRS,014447.00,1,1.1,0.6,1.1,0.2,-0.2,-1.7,0.4,0.6,-0.9,-0.7,-0.6,0.3*68
$GPGRS,014447.00,1,-1.0,,,,,,,,,,,*4E
$GPGSV,5,1,20,03,77,026,50,06,16,313,39,28,25,052,42,19,30,297,44*7C
$GPGSV,5,2,20,21,26,151,40,09,29,221,43,31,33,083,45,17,35,262,45*71
$GPGSV,5,3,20,02,44,158,47,01,49,146,,04,58,206,47,36,35,170,44*74
$GPGSV,5,4,20,58,13,245,38,40,24,132,36,34,31,208,42,49,34,195,44*74
$GPGSV,5,5,20,57,09,110,38,41,07,108,34,61,03,257,37*47
$GLGSV,2,1,08,85,72,268,53,84,37,169,38,78,14,034,45,86,24,326,47*61
$GLGSV,2,2,08,71,14,241,45,69,44,041,50,70,60,263,40,79,09,083,43*6E
$GAGSV,3,1,10,36,75,288,48,05,19,217,40,10,21,139,40,18,19,302,*62
$GAGSV,3,2,10,04,50,058,45,34,23,312,41,11,48,144,43,09,70,187,48*60
$GAGSV,3,3,10,06,74,092,48,27,01,349,35*67
$GBGSV,5,1,17,48,79,278,,29,44,204,49,05,24,128,38,39,27,045,42*6D
$GBGSV,5,2,17,37,12,099,40,32,18,065,43,16,32,055,43,35,42,293,48*60
$GBGSV,5,3,17,06,33,059,41,09,38,075,42,22,49,242,,19,51,256,49*6B
$GBGSV,5,4,17,20,74,044,52,30,03,167,,44,07,326,39,02,08,105,34*69
$GBGSV,5,5,17,60,09,110,40*56
$GPGGA,014447.00,,,,,0,00,,,M,,M,,*4A
$PTNL,GGK,014447.00,010125,4742.1603204,N,01618.1002092,E,1,39,0.8,EHT750.9703,M*44
$GPGGQ,014447.00,010125,4742.1603204,N,01618.1002092,E,1,39,0.915,707.7638,M*3A
$GPGFA,014447.00,3.304,6.504,0.348,0.294,8.469,0.793,,VVV*0C
$GPLLK,014447.00,010125,,M,,M,1,39,0.9,,M*0A
$GNGMP,014447.00,,,,,DAAA,39,0.4,,,,*5A
$GPGMP,014447.00,,,,,,10,,,,1.9,136*72
$GLGMP,014447.00,,,,,,08,,,,,*75
$GAGMP,014447.00,,,,,,08,,,,,*78
$GBGMP,014447.00,,,,,,13,,,,,*71
$PSSN,SNC,[0,265505000,2347]*45
$GPZDA,014452.00,01,01,2025,,*65
$GPDTM,W84,,00.0000000,N,00.0000000,E,00.0000000,W84*5F
$PSSN,TFM,014452.00,,,,*69
$GPRMC,014452.00,A,4742.1603204,N,01618.1002089,E,0.0,,010125,5.1,E,D*10
$GPGLL,4742.1603204,N,01618.1002089,E,014452.00,A,D*61
$GPGGA,014452.00,4742.1603204,N,01618.1002089,E,2,39,0.4,707.7667,M,43.2066,M,2.1,0136*40
$GNGNS,014452.00,4742.1603204,N,01618.1002089,E,DAAA,39,0.4,707.7667,43.2066,,*5B
$GPGNS,014452.00,,,,,,10,,,,2.1,136*7D
$GLGNS,014452.00,,,,,,08,,,,,*71
$GAGNS,014452.00,,,,,,08,,,,,*7C
$GBGNS,014452.00,,,,,,13,,,,,*75
$GPLLQ,014452.00,010125,,M,,M,1,39,0.896,,M*1A
$GPVTG,,T,,M,0.00,N,0.00,K,D*26
$GPHDT,,T*1B
$GPTHS,,V*0E
$GPROT,,V*08
$PSSN,HRP,014452.00,010125,,,,,,,00,0,,*67
$PTNL,AVR,014452.00,,Yaw,,Tilt,,,,0,,00*31
$GPGSA,A,3,02,03,04,06,09,17,19,21,28,31,,,0.8,0.4,0.6*37
$GPGSA,A,3,69,70,71,78,79,84,85,86,,,,,0.8,0.4,0.6*38
$GPGSA,A,3,04,05,06,09,10,11,34,36,,,,,0.8,0.4,0.6*35
$GPGSA,A,3,05,06,09,16,19,20,29,32,35,37,39,44,0.8,0.4,0.6*3D
$GPGSA,A,3,60,,,,,,,,,,,,0.8,0.4,0.6*3E
$GPGST,014452.00,0.870,0.341,0.294,6.444,0.341,0.294,0.774*58
$GPGBS,014452.00,1.555,1.750,6.070,78,0.0001,-2.726,6.665*7E
$GPGRS,014452.00,1,-0.2,0.1,-0.1,0.0,0.0,0.0,-0.2,0.2,0.2,-0.0,,*48
$GPGRS,014452.00,1,-0.3,-0.3,0.9,-2.7,1.0,0.1,2.1,-0.6,,,,*41
$GPGRS,014452.00,1,-0.2,0.2,0.1,0.3,-0.3,0.0,0.1,0.1,,,,*49
$GPGRS,014452.00,1,0.8,0.6,1.0,0.5,-0.2,-1.4,0.5,0.9,-1.1,0.3,-0.6,1.0*4D
$GPGRS,014452.00,1,-1.0,,,,,,,,,,,*4A
$GPGSV,5,1,20,03,77,026,50,06,16,313,39,28,25,052,42,19,30,297,44*7C
$GPGSV,5,2,20,21,26,151,40,09,29,221,43,31,33,083,45,17,35,262,45*71
$GPGSV,5,3,20,02,44,158,47,01,49,146,,04,58,206,47,36,35,170,44*74
$GPGSV,5,4,20,58,13,245,37,40,24,132,36,34,31,208,43,49,34,195,44*7A
$GPGSV,5,5,20,57,09,110,38,41,07,108,35,61,03,257,37*46
$GLGSV,2,1,08,85,72,267,52,84,37,169,38,78,14,034,45,86,24,326,47*6F
$GLGSV,2,2,08,71,14,241,46,69,44,041,50,70,60,263,41,79,09,083,44*6B
$GAGSV,3,1,10,36,75,288,48,05,19,217,39,10,21,139,40,18,19,301,*6F
$GAGSV,3,2,10,04,50,058,45,34,23,312,41,11,48,144,43,09,70,187,48*60
$GAGSV,3,3,10,06,74,092,48,27,01,349,35*67
$GBGSV,5,1,17,48,79,278,,29,44,204,49,05,24,128,38,39,27,045,42*6D
$GBGSV,5,2,17,37,12,099,40,32,18,065,43,16,32,055,43,35,42,293,48*60
$GBGSV,5,3,17,06,33,059,41,09,38,075,42,22,49,242,,19,51,256,49*6B
$GBGSV,5,4,17,20,74,044,52,30,03,167,,44,07,326,40,02,08,105,34*67
$GBGSV,5,5,17,60,09,110,40*56
$GPGGA,014452.00,,,,,0,00,,,M,,M,,*4E
$PTNL,GGK,014452.00,010125,4742.1603204,N,01618.1002089,E,1,39,0.8,EHT750.9732,M*48
$GPGGQ,014452.00,010125,4742.1603204,N,01618.1002089,E,1,39,0.896,707.7667,M*34
$GPGFA,014452.00,3.247,6.347,0.341,0.294,6.444,0.774,,VVV*0E
$GPLLK,014452.00,010125,,M,,M,1,39,0.9,,M*0E
$GNGMP,014452.00,,,,,DAAA,39,0.4,,,,*5E
$GPGMP,014452.00,,,,,,10,,,,2.1,136*7D
$GLGMP,014452.00,,,,,,08,,,,,*71
$GAGMP,014452.00,,,,,,08,,,,,*7C
$GBGMP,014452.00,,,,,,13,,,,,*75
$PSSN,SNC,[0,265510000,2347]*41
$GPZDA,014457.00,01,01,2025,,*60
$GPDTM,W84,,00.0000000,N,00.0000000,E,00.0000000,W84*5F
$PSSN,TFM,014457.00,,,,*6C
$GPRMC,014457.00,A,4742.1603191,N,01618.1002084,E,0.0,,010125,5.1,E,D*17
$GPGLL,4742.1603191,N,01618.1002084,E,014457.00,A,D*66
$GPGGA,014457.00,4742.1603191,N,01618.1002084,E,2,39,0.4,707.7660,M,43.2066,M,3.1,0136*41
$GNGNS,014457.00,4742.1603191,N,01618.1002084,E,DAAA,39,0.4,707.7660,43.2066,,*5B
$GPGNS,014457.00,,,,,,10,,,,3.1,136*79
$GLGNS,014457.00,,,,,,08,,,,,*74
$GAGNS,014457.00,,,,,,08,,,,,*79
$GBGNS,014457.00,,,,,,13,,,,,*70
$GPLLQ,014457.00,010125,,M,,M,1,39,0.910,,M*10
$GPVTG,,T,,M,0.00,N,0.00,K,D*26
$GPHDT,,T*1B
$GPTHS,,V*0E
$GPROT,,V*08
$PSSN,HRP,014457.00,010125,,,,,,,00,0,,*62
$PTNL,AVR,014457.00,,Yaw,,Tilt,,,,0,,00*34
$GPGSA,A,3,02,03,04,06,09,17,19,21,28,31,,,0.8,0.4,0.6*37
$GPGSA,A,3,69,70,71,78,79,84,85,86,,,,,0.8,0.4,0.6*38
$GPGSA,A,3,04,05,06,09,10,11,34,36,,,,,0.8,0.4,0.6*35
$GPGSA,A,3,05,06,09,16,19,20,29,32,35,37,39,44,0.8,0.4,0.6*3D
$GPGSA,A,3,60,,,,,,,,,,,,0.8,0.4,0.6*3E
$GPGST,014457.00,0.902,0.346,0.295,2.971,0.346,0.296,0.788*56
$GPGBS,014457.00,1.580,1.778,6.198,78,0.0001,-2.799,6.665*7A
$GPGRS,014457.00,1,-0.0,-0.0,0.1,0.3,0.2,-0.2,0.0,-0.3,0.3,0.1,,*4E
$GPGRS,014457.00,1,0.2,-1.2,1.2,-2.8,1.2,0.4,1.5,-1.0,,,,*6A
$GPGRS,014457.00,1,-0.2,-0.1,-0.2,0.2,-0.3,-0.1,0.0,-0.2,,,,*4E
$GPGRS,014457.00,1,0.8,0.8,0.6,0.8,-0.5,-1.5,0.5,1.0,-1.3,0.7,-0.8,0.7*4C
$GPGRS,014457.00,1,-0.9,,,,,,,,,,,*47
$GPGSV,5,1,20,03,77,026,50,06,16,313,39,28,25,052,42,19,30,297,44*7C
$GPGSV,5,2,20,21,26,151,40,09,29,221,43,31,33,083,45,17,35,262,45*71
$GPGSV,5,3,20,02,44,158,47,01,49,146,,04,58,206,47,36,35,170,44*74
$GPGSV,5,4,20,58,13,245,37,40,24,132,36,34,31,208,42,49,34,195,44*7B
$GPGSV,5,5,20,57,09,110,38,41,07,108,34,61,03,257,37*47
$GLGSV,2,1,08,85,72,267,53,84,37,169,38,78,14,034,46,86,24,326,47*6D
$GLGSV,2,2,08,71,14,241,47,69,44,041,50,70,60,263,40,79,09,083,44*6B
$GAGSV,3,1,10,36,75,288,48,05,19,217,39,10,21,139,40,18,19,301,*6F
$GAGSV,3,2,10,04,50,058,45,34,23,312,41,11,48,144,43,09,70,187,48*60
$GAGSV,3,3,10,06,74,092,48,27,01,349,35*67
$GBGSV,5,1,17,48,79,278,,29,44,204,49,05,24,128,38,39,27,045,42*6D
$GBGSV,5,2,17,37,12,099,41,32,18,065,43,16,32,055,43,35,42,293,48*61
$GBGSV,5,3,17,06,33,059,41,09,38,075,42,22,49,242,,19,51,256,49*6B
$GBGSV,5,4,17,20,74,044,52,30,03,166,,44,07,326,40,02,08,105,34*66
$GBGSV,5,5,17,60,09,110,39*58
$GPGGA,014457.00,,,,,0,00,,,M,,M,,*4B
$PTNL,GGK,014457.00,010125,4742.1603191,N,01618.1002084,E,1,39,0.8,EHT750.9726,M*4A
$GPGGQ,014457.00,010125,4742.1603191,N,01618.1002084,E,1,39,0.910,707.7660,M*3B
$GPGFA,014457.00,3.289,6.462,0.346,0.295,2.971,0.788,,VVV*03
$GPLLK,014457.00,010125,,M,,M,1,39,0.9,,M*0B
$GNGMP,014457.00,,,,,DAAA,39,0.4,,,,*5B
$GPGMP,014457.00,,,,,,10,,,,3.1,136*79
$GLGMP,014457.00,,,,,,08,,,,,*74
$GAGMP,014457.00,,,,,,08,,,,,*79
$GBGMP,014457.00,,,,,,13,,,,,*70
$PSSN,SNC,[0,265515000,2347]*44
$GPZDA,014502.00,01,01,2025,,*61
$GPDTM,W84,,00.0000000,N,00.0000000,E,00.0000000,W84*5F
$PSSN,TFM,014502.00,,,,*6D
$GPRMC,014502.00,A,4742.1603195,N,01618.1002102,E,0.0,,010125,5.1,E,D*1D
$GPGLL,4742.1603195,N,01618.1002102,E,014502.00,A,D*6C
$GPGGA,014502.00,4742.1603195,N,01618.1002102,E,2,39,0.4,707.7686,M,43.2066,M,2.9,0136*4A
$GNGNS,014502.00,4742.1603195,N,01618.1002102,E,DAAA,39,0.4,707.7686,43.2066,,*59
$GPGNS,014502.00,,,,,,10,,,,2.9,136*71
$GLGNS,014502.00,,,,,,08,,,,,*75
$GAGNS,014502.00,,,,,,08,,,,,*78
$GBGNS,014502.00,,,,,,13,,,,,*71
$GPLLQ,014502.00,010125,,M,,M,1,39,0.925,,M*17
$GPVTG,,T,,M,0.00,N,0.01,K,D*27
$GPHDT,,T*1B
$GPTHS,,V*0E
$GPROT,,V*08
$PSSN,HRP,014502.00,010125,,,,,,,00,0,,*63
$PTNL,AVR,014502.00,,Yaw,,Tilt,,,,0,,00*35
$GPGSA,A,3,02,03,04,06,09,17,19,21,28,31,,,0.8,0.4,0.6*37
$GPGSA,A,3,69,70,71,78,79,84,85,86,,,,,0.8,0.4,0.6*38
$GPGSA,A,3,04,05,06,09,10,11,34,36,,,,,0.8,0.4,0.6*35
$GPGSA,A,3,05,06,09,16,19,20,29,32,35,37,39,44,0.8,0.4,0.6*3D
$GPGSA,A,3,60,,,,,,,,,,,,0.8,0.4,0.6*3E
$GPGST,014502.00,0.932,0.350,0.297,5.300,0.350,0.297,0.803*50
$GPGBS,014502.00,1.622,1.754,6.276,78,0.0001,-2.314,6.664*7D
$GPGRS,014502.00,1,-0.0,-0.2,0.1,0.3,0.1,0.2,0.2,-0.2,-0.2,0.1,,*4C
$GPGRS,014502.00,1,0.2,-1.1,0.9,-2.3,1.4,0.7,1.9,-2.1,,,,*62
$GPGRS,014502.00,1,-0.2,0.1,-0.1,0.1,-0.3,-0.1,-0.1,-0.1,,,,*4D
$GPGRS,014502.00,1,0.5,0.5,0.3,0.4,-0.5,-1.8,0.5,1.1,-1.3,0.6,-0.8,0.3*4D
$GPGRS,014502.00,1,-1.1,,,,,,,,,,,*4F
$GPGSV,5,1,20,03,77,026,50,06,16,313,40,28,25,052,42,19,30,297,44*72
$GPGSV,5,2,20,21,26,151,39,09,30,221,44,31,33,083,45,17,35,262,46*73
$GPGSV,5,3,20,02,44,158,47,01,49,146,,04,58,206,47,36,35,170,44*74
$GPGSV,5,4,20,58,13,245,38,40,24,132,36,34,31,208,43,49,34,195,44*75
$GPGSV,5,5,20,57,09,110,38,41,07,108,34,61,03,257,37*47
$GLGSV,2,1,08,85,72,267,52,84,37,169,38,78,14,034,45,86,24,326,48*60
$GLGSV,2,2,08,71,14,241,46,69,44,041,50,70,60,264,40,79,09,083,44*6D
$GAGSV,3,1,10,36,76,287,48,05,19,217,40,10,21,139,40,18,19,301,*6D
$GAGSV,3,2,10,04,50,058,45,34,23,312,41,11,48,144,44,09,70,187,48*67
$GAGSV,3,3,10,06,74,092,48,27,01,349,34*66
$GBGSV,5,1,17,48,79,278,,29,44,204,49,05,24,128,38,39,27,045,42*6D
$GBGSV,5,2,17,37,12,099,41,32,18,065,42,16,32,055,43,35,42,293,48*60
$GBGSV,5,3,17,06,33,059,41,09,38,074,42,22,49,242,,19,51,256,49*6A
$GBGSV,5,4,17,20,74,044,52,30,03,166,,44,07,326,39,02,08,105,34*68
$GBGSV,5,5,17,60,09,110,39*58
$GPGGA,014502.00,,,,,0,00,,,M,,M,,*4A
$PTNL,GGK,014502.00,010125,4742.1603195,N,01618.1002102,E,1,39,0.8,EHT750.9752,M*43
$GPGGQ,014502.00,010125,4742.1603195,N,01618.1002102,E,1,39,0.925,707.7686,M*3F
$GPGFA,014502.00,3.331,6.582,0.350,0.297,5.300,0.803,,VVV*0D
$GPLLK,014502.00,010125,,M,,M,1,39,0.9,,M*0A
$GNGMP,014502.00,,,,,DAAA,39,0.4,,,,*5A
$GPGMP,014502.00,,,,,,10,,,,2.9,136*71
$GLGMP,014502.00,,,,,,08,,,,,*75
$GAGMP,014502.00,,,,,,08,,,,,*78
$GBGMP,014502.00,,,,,,13,,,,,*71
$PSSN,SNC,[0,265520000,2347]*42
$GPZDA,014507.00,01,01,2025,,*64
$GPDTM,W84,,00.0000000,N,00.0000000,E,00.0000000,W84*5F
$PSSN,TFM,014507.00,,,,*68
$GPRMC,014507.00,A,4742.1603196,N,01618.1002111,E,0.0,,010125,5.1,E,D*19
$GPGLL,4742.1603196,N,01618.1002111,E,014507.00,A,D*68
$GPGGA,014507.00,4742.1603196,N,01618.1002111,E,2,39,0.4,707.7715,M,43.2066,M,1.9,0136*46
$GNGNS,014507.00,4742.1603196,N,01618.1002111,E,DAAA,39,0.4,707.7715,43.2066,,*56
$GPGNS,014507.00,,,,,,10,,,,1.9,136*77
$GLGNS,014507.00,,,,,,08,,,,,*70
$GAGNS,014507.00,,,,,,08,,,,,*7D
$GBGNS,014507.00,,,,,,13,,,,,*74
$GPLLQ,014507.00,010125,,M,,M,1,39,0.914,,M*10
$GPVTG,,T,,M,0.00,N,0.01,K,D*27
$GPHDT,,T*1B
$GPTHS,,V*0E
$GPROT,,V*08
$PSSN,HRP,014507.00,010125,,,,,,,00,0,,*66
$PTNL,AVR,014507.00,,Yaw,,Tilt,,,,0,,00*30
$GPGSA,A,3,02,03,04,06,09,17,19,21,28,31,,,0.8,0.4,0.6*37
$GPGSA,A,3,69,70,71,78,79,84,85,86,,,,,0.8,0.4,0.6*38
$GPGSA,A,3,04,05,06,09,10,11,34,36,,,,,0.8,0.4,0.6*35
$GPGSA,A,3,05,06,09,16,19,20,29,32,35,37,39,44,0.8,0.4,0.6*3D
$GPGSA,A,3,60,,,,,,,,,,,,0.8,0.4,0.6*3E
$GPGST,014507.00,0.954,0.347,0.294,8.204,0.346,0.295,0.793*5B
$GPGBS,014507.00,1.526,1.736,5.906,78,0.0001,-3.325,6.664*77
$GPGRS,014507.00,1,-0.1,-0.1,0.1,-0.2,0.2,-0.0,-0.1,-0.2,0.1,0.0,,*4A
$GPGRS,014507.00,1,-0.5,-0.7,-0.1,-3.3,0.5,0.8,1.6,-1.6,,,,*6A
$GPGRS,014507.00,1,-0.2,0.5,-0.0,0.2,-0.2,-0.2,-0.0,-0.0,,,,*4C
$GPGRS,014507.00,1,1.1,1.0,0.2,0.8,-0.1,-1.9,0.7,0.8,-1.0,0.6,-0.8,-0.1*67
$GPGRS,014507.00,1,-1.2,,,,,,,,,,,*49
$GPGSV,5,1,20,03,77,027,50,06,16,313,40,28,25,052,42,19,30,297,44*73
$GPGSV,5,2,20,21,26,151,39,09,30,221,44,31,33,083,45,17,35,262,45*70
$GPGSV,5,3,20,02,44,158,47,01,49,146,,04,58,206,47,36,35,170,44*74
$GPGSV,5,4,20,58,13,245,38,40,24,132,36,34,31,208,42,49,34,195,44*74
$GPGSV,5,5,20,57,09,110,38,41,07,108,34,61,03,257,38*48
$GLGSV,2,1,08,85,72,267,52,84,37,169,38,78,14,034,45,86,24,326,47*6F
$GLGSV,2,2,08,71,15,241,47,69,44,041,49,70,60,264,41,79,09,083,44*64
$GAGSV,3,1,10,36,76,287,48,05,19,217,40,10,21,139,40,18,19,301,*6D
$GAGSV,3,2,10,04,50,058,45,34,23,312,41,11,48,144,43,09,70,187,48*60
$GAGSV,3,3,10,06,74,092,48,27,01,349,34*66
$GBGSV,5,1,17,48,79,278,,29,44,204,49,05,24,128,38,39,27,045,42*6D
$GBGSV,5,2,17,37,12,099,41,32,18,065,42,16,32,055,43,35,42,293,48*60
$GBGSV,5,3,17,06,33,059,41,09,38,074,42,22,49,242,,19,51,256,49*6A
$GBGSV,5,4,17,20,74,044,52,30,03,166,,44,07,326,40,02,08,105,34*66
$GBGSV,5,5,17,60,09,110,39*58
$GPGGA,014507.00,,,,,0,00,,,M,,M,,*4F
$PTNL,GGK,014507.00,010125,4742.1603196,N,01618.1002111,E,1,39,0.8,EHT750.9780,M*48
$GPGGQ,014507.00,010125,4742.1603196,N,01618.1002111,E,1,39,0.914,707.7715,M*32
$GPGFA,014507.00,3.303,6.503,0.347,0.294,8.204,0.793,,VVV*0B
$GPLLK,014507.00,010125,,M,,M,1,39,0.9,,M*0F
$GNGMP,014507.00,,,,,DAAA,39,0.4,,,,*5F
$GPGMP,014507.00,,,,,,10,,,,1.9,136*77
$GLGMP,014507.00,,,,,,08,,,,,*70
$GAGMP,014507.00,,,,,,08,,,,,*7D
$GBGMP,014507.00,,,,,,13,,,,,*74
$PSSN,SNC,[0,265525000,2347]*47
$GPZDA,014512.00,01,01,2025,,*60
$GPDTM,W84,,00.0000000,N,00.0000000,E,00.0000000,W84*5F
$PSSN,TFM,014512.00,,,,*6C
$GPRMC,014512.00,A,4742.1603196,N,01618.1002111,E,0.0,,010125,5.1,E,D*1D
$GPGLL,4742.1603196,N,01618.1002111,E,014512.00,A,D*6C
$GPGGA,014512.00,4742.1603196,N,01618.1002111,E,2,39,0.4,707.7714,M,43.2066,M,2.1,0136*48
$GNGNS,014512.00,4742.1603196,N,01618.1002111,E,DAAA,39,0.4,707.7714,43.2066,,*53
$GPGNS,014512.00,,,,,,10,,,,2.1,136*78
$GLGNS,014512.00,,,,,,08,,,,,*74
$GAGNS,014512.00,,,,,,08,,,,,*79
$GBGNS,014512.00,,,,,,13,,,,,*70
$GPLLQ,014512.00,010125,,M,,M,1,39,0.896,,M*1F
$GPVTG,,T,,M,0.00,N,0.01,K,D*27
$GPHDT,,T*1B
$GPTHS,,V*0E
$GPROT,,V*08
$PSSN,HRP,014512.00,010125,,,,,,,00,0,,*62
$PTNL,AVR,014512.00,,Yaw,,Tilt,,,,0,,00*34
$GPGSA,A,3,02,03,04,06,09,17,19,21,28,31,,,0.8,0.4,0.6*37
$GPGSA,A,3,69,70,71,78,79,84,85,86,,,,,0.8,0.4,0.6*38
$GPGSA,A,3,04,05,06,09,10,11,34,36,,,,,0.8,0.4,0.6*35
$GPGSA,A,3,05,06,09,16,19,20,29,32,35,37,39,44,0.8,0.4,0.6*3D
$GPGSA,A,3,60,,,,,,,,,,,,0.8,0.4,0.6*3E
$GPGST,014512.00,0.927,0.342,0.294,6.143,0.341,0.295,0.774*5E
$GPGBS,014512.00,1.564,1.750,6.062,78,0.0001,-3.081,6.663*77
$GPGRS,014512.00,1,0.1,-0.2,0.2,-0.0,-0.2,-0.1,0.3,-0.4,-0.1,0.3,,*4A
$GPGRS,014512.00,1,-0.3,-0.9,1.0,-3.1,1.0,0.6,1.9,-1.6,,,,*4C
$GPGRS,014512.00,1,-0.3,0.6,-0.0,0.3,0.1,-0.1,0.2,0.1,,,,*65
$GPGRS,014512.00,1,0.9,1.1,0.9,0.4,0.0,-1.4,0.5,0.8,-0.7,0.5,-0.6,-0.1*44
$GPGRS,014512.00,1,-0.8,,,,,,,,,,,*46
$GPGSV,5,1,20,03,77,027,50,06,16,313,40,28,25,052,42,19,30,297,44*73
$GPGSV,5,2,20,21,25,151,38,09,30,221,43,31,33,083,45,17,35,262,45*75
$GPGSV,5,3,20,02,44,158,48,01,49,146,,04,58,206,47,36,35,170,44*7B
$GPGSV,5,4,20,58,13,245,37,40,24,132,36,34,31,208,42,49,34,195,44*7B
$GPGSV,5,5,20,57,09,110,38,41,07,108,34,61,03,257,37*47
$GLGSV,2,1,08,85,72,267,53,84,37,169,38,78,14,034,45,86,24,326,46*6F
$GLGSV,2,2,08,71,15,242,46,69,44,041,49,70,60,264,41,79,09,083,44*66
$GAGSV,3,1,10,36,76,287,48,05,19,217,40,10,21,139,40,18,19,301,*6D
$GAGSV,3,2,10,04,50,058,45,34,23,312,41,11,48,144,43,09,70,186,48*61
$GAGSV,3,3,10,06,74,092,48,27,01,349,34*66
$GBGSV,5,1,17,48,79,279,,29,44,204,49,05,24,128,38,39,27,045,42*6C
$GBGSV,5,2,17,37,12,099,41,32,18,065,42,16,32,055,43,35,42,293,48*60
$GBGSV,5,3,17,06,33,059,41,09,38,074,42,22,49,242,,19,51,256,49*6A
$GBGSV,5,4,17,20,74,044,52,30,03,166,,44,07,326,39,02,08,105,34*68
$GBGSV,5,5,17,60,09,110,39*58
$GPGGA,014512.00,,,,,0,00,,,M,,M,,*4B
$PTNL,GGK,014512.00,010125,4742.1603196,N,01618.1002111,E,1,39,0.8,EHT750.9780,M*4C
$GPGGQ,014512.00,010125,4742.1603196,N,01618.1002111,E,1,39,0.896,707.7714,M*3C
$GPGFA,014512.00,3.247,6.347,0.342,0.294,6.143,0.774,,VVV*0A
$GPLLK,014512.00,010125,,M,,M,1,39,0.9,,M*0B
$GNGMP,014512.00,,,,,DAAA,39,0.4,,,,*5B
$GPGMP,014512.00,,,,,,10,,,,2.1,136*78
$GLGMP,014512.00,,,,,,08,,,,,*74
$GAGMP,014512.00,,,,,,08,,,,,*79
$GBGMP,014512.00,,,,,,13,,,,,*70
$PSSN,SNC,[0,265530000,2347]*43
$GPZDA,014517.00,01,01,2025,,*65
$GPDTM,W84,,00.0000000,N,00.0000000,E,00.0000000,W84*5F
$PSSN,TFM,014517.00,,,,*69
$GPRMC,014517.00,A,4742.1603196,N,01618.1002092,E,0.0,,010125,5.1,E,D*12
$GPGLL,4742.1603196,N,01618.1002092,E,014517.00,A,D*63
$GPGGA,014517.00,4742.1603196,N,01618.1002092,E,2,39,0.4,707.7689,M,43.2066,M,3.1,0136*43
$GNGNS,014517.00,4742.1603196,N,01618.1002092,E,DAAA,39,0.4,707.7689,43.2066,,*59
$GPGNS,014517.00,,,,,,10,,,,3.1,136*7C
$GLGNS,014517.00,,,,,,08,,,,,*71
$GAGNS,014517.00,,,,,,08,,,,,*7C
$GBGNS,014517.00,,,,,,13,,,,,*75
$GPLLQ,014517.00,010125,,M,,M,1,39,0.910,,M*15
$GPVTG,,T,,M,0.00,N,0.00,K,D*26
$GPHDT,,T*1B
$GPTHS,,V*0E
$GPROT,,V*08
$PSSN,HRP,014517.00,010125,,,,,,,00,0,,*67
$PTNL,AVR,014517.00,,Yaw,,Tilt,,,,0,,00*31
$GPGSA,A,3,02,03,04,06,09,17,19,21,28,31,,,0.8,0.4,0.6*37
$GPGSA,A,3,69,70,71,78,79,84,85,86,,,,,0.8,0.4,0.6*38
$GPGSA,A,3,04,05,06,09,10,11,34,36,,,,,0.8,0.4,0.6*35
$GPGSA,A,3,05,06,09,16,19,20,29,32,35,37,39,44,0.8,0.4,0.6*3D
$GPGSA,A,3,60,,,,,,,,,,,,0.8,0.4,0.6*3E
$GPGST,014517.00,0.868,0.346,0.295,2.690,0.346,0.296,0.788*5E
$GPGBS,014517.00,1.589,1.778,6.190,85,0.0001,2.036,6.041*53
$GPGRS,014517.00,1,0.2,0.0,0.2,-0.3,-0.2,-0.1,-0.3,-0.3,0.2,0.2,,*65
$GPGRS,014517.00,1,0.3,-0.2,1.3,-2.1,1.5,0.2,2.0,-0.9,,,,*68
$GPGRS,014517.00,1,0.1,0.2,0.1,0.3,0.2,-0.0,-0.0,0.1,,,,*4A
$GPGRS,014517.00,1,0.8,0.9,1.2,0.6,-0.1,-1.3,0.6,1.0,-1.1,0.3,-0.6,1.2*4E
$GPGRS,014517.00,1,-0.6,,,,,,,,,,,*4D
$GPGSV,5,1,20,03,77,027,50,06,16,313,40,28,25,052,42,19,30,297,44*73
$GPGSV,5,2,20,21,25,151,38,09,30,221,43,31,33,082,45,17,35,262,45*74
$GPGSV,5,3,20,02,44,158,48,01,49,146,,04,58,206,47,36,35,170,45*7A
$GPGSV,5,4,20,58,13,245,38,40,24,132,36,34,31,208,42,49,34,195,44*74
$GPGSV,5,5,20,57,09,110,38,41,07,108,34,61,03,257,38*48
$GLGSV,2,1,08,85,72,267,52,84,37,169,38,78,14,034,45,86,24,326,47*6F
$GLGSV,2,2,08,71,15,242,46,69,44,041,50,70,60,264,41,79,10,083,44*66
$GAGSV,3,1,10,36,76,287,48,05,19,217,40,10,21,139,40,18,20,301,*67
$GAGSV,3,2,10,04,50,058,45,34,23,312,42,11,48,144,43,09,70,186,48*62
$GAGSV,3,3,10,06,74,092,48,27,01,349,33*61
$GBGSV,5,1,17,48,79,279,,29,44,204,49,05,24,128,38,39,27,045,42*6C
$GBGSV,5,2,17,37,12,099,41,32,18,065,42,16,32,055,43,35,42,293,48*60
$GBGSV,5,3,17,06,33,059,41,09,38,074,42,22,49,242,,19,51,256,49*6A
$GBGSV,5,4,17,20,74,044,52,30,03,166,,44,07,326,39,02,08,105,34*68
$GBGSV,5,5,17,60,09,110,39*58
$GPGGA,014517.00,,,,,0,00,,,M,,M,,*4E
$PTNL,GGK,014517.00,010125,4742.1603196,N,01618.1002092,E,1,39,0.8,EHT750.9754,M*4A
$GPGGQ,014517.00,010125,4742.1603196,N,01618.1002092,E,1,39,0.910,707.7689,M*39
$GPGFA,014517.00,3.289,6.461,0.346,0.295,2.690,0.788,,VVV*05
$GPLLK,014517.00,010125,,M,,M,1,39,0.9,,M*0E
$GNGMP,014517.00,,,,,DAAA,39,0.4,,,,*5E
$GPGMP,014517.00,,,,,,10,,,,3.1,136*7C
$GLGMP,014517.00,,,,,,08,,,,,*71
$GAGMP,014517.00,,,,,,08,,,,,*7C
$GBGMP,014517.00,,,,,,13,,,,,*75
$PSSN,SNC,[0,265535000,2347]*46
$GPZDA,014522.00,01,01,2025,,*63
$GPDTM,W84,,00.0000000,N,00.0000000,E,00.0000000,W84*5F
$PSSN,TFM,014522.00,,,,*6F
$GPRMC,014522.00,A,4742.1603207,N,01618.1002066,E,0.0,,010125,5.1,E,D*14
$GPGLL,4742.1603207,N,01618.1002066,E,014522.00,A,D*65
$GPGGA,014522.00,4742.1603207,N,01618.1002066,E,2,39,0.4,707.7627,M,43.2066,M,2.9,0136*48
$GNGNS,014522.00,4742.1603207,N,01618.1002066,E,DAAA,39,0.4,707.7627,43.2066,,*5B
$GPGNS,014522.00,,,,,,10,,,,2.9,136*73
$GLGNS,014522.00,,,,,,08,,,,,*77
$GAGNS,014522.00,,,,,,08,,,,,*7A
$GBGNS,014522.00,,,,,,13,,,,,*73
$GPLLQ,014522.00,010125,,M,,M,1,39,0.924,,M*14
$GPVTG,,T,,M,0.00,N,0.01,K,D*27
$GPHDT,,T*1B
$GPTHS,,V*0E
$GPROT,,V*08
$PSSN,HRP,014522.00,010125,,,,,,,00,0,,*61
$PTNL,AVR,014522.00,,Yaw,,Tilt,,,,0,,00*37
$GPGSA,A,3,02,03,04,06,09,17,19,21,28,31,,,0.8,0.4,0.6*37
$GPGSA,A,3,69,70,71,78,79,84,85,86,,,,,0.8,0.4,0.6*38
$GPGSA,A,3,04,05,06,09,10,11,34,36,,,,,0.8,0.4,0.6*35
$GPGSA,A,3,05,06,09,16,19,20,29,32,35,37,39,44,0.8,0.4,0.6*3D
$GPGSA,A,3,60,,,,,,,,,,,,0.8,0.4,0.6*3E
$GPGST,014522.00,0.880,0.350,0.297,5.088,0.350,0.297,0.802*58
$GPGBS,014522.00,1.624,1.753,6.264,06,0.0001,-0.682,1.225*7A
$GPGRS,014522.00,1,0.0,0.2,0.3,-0.7,-0.3,0.1,-0.1,-0.4,0.1,0.1,,*4F
$GPGRS,014522.00,1,0.1,-0.7,0.6,-2.4,1.8,-0.1,1.8,-0.9,,,,*40
$GPGRS,014522.00,1,0.1,0.1,-0.0,0.2,0.4,0.1,-0.2,0.1,,,,*4A
$GPGRS,014522.00,1,1.1,0.4,1.1,0.4,-0.2,-1.4,0.5,0.9,-1.0,-0.0,-0.4,1.4*68
$GPGRS,014522.00,1,-0.7,,,,,,,,,,,*4A
$GPGSV,5,1,20,03,77,027,50,06,16,313,39,28,25,052,42,19,30,297,44*7D
$GPGSV,5,2,20,21,25,151,39,09,30,221,43,31,33,082,46,02,44,158,47*7C
$GPGSV,5,3,20,17,35,262,45,01,49,147,,04,58,207,47,36,35,170,45*7F
$GPGSV,5,4,20,58,13,245,38,40,24,132,36,34,31,208,43,49,34,195,44*75
$GPGSV,5,5,20,57,09,110,38,41,07,108,34,61,03,257,38*48
$GLGSV,2,1,08,85,72,266,53,84,37,169,37,78,14,034,45,86,24,326,47*60
$GLGSV,2,2,08,71,15,242,46,69,44,041,50,70,60,264,40,79,10,083,44*67
$GAGSV,3,1,10,36,76,287,48,05,20,217,40,10,21,139,41,18,20,301,*6C
$GAGSV,3,2,10,04,50,058,45,34,24,312,42,11,48,144,44,09,70,186,48*62
$GAGSV,3,3,10,06,74,092,48,27,01,349,34*66
$GBGSV,5,1,17,48,79,279,,29,44,204,49,05,24,128,38,39,26,045,42*6D
$GBGSV,5,2,17,37,12,099,40,32,18,065,43,16,32,055,43,35,42,293,48*60
$GBGSV,5,3,17,06,33,058,41,09,38,074,43,22,50,242,,19,51,256,49*62
$GBGSV,5,4,17,20,74,044,52,30,03,166,,44,07,326,39,02,08,105,33*6F
$GBGSV,5,5,17,60,09,110,39*58
$GPGGA,014522.00,,,,,0,00,,,M,,M,,*48
$PTNL,GGK,014522.00,010125,4742.1603207,N,01618.1002066,E,1,39,0.8,EHT750.9693,M*46
$GPGGQ,014522.00,010125,4742.1603207,N,01618.1002066,E,1,39,0.924,707.7627,M*3C
$GPGFA,014522.00,3.330,6.580,0.350,0.297,5.088,0.802,,VVV*0E
$GPLLK,014522.00,010125,,M,,M,1,39,0.9,,M*08
$GNGMP,014522.00,,,,,DAAA,39,0.4,,,,*58
$GPGMP,014522.00,,,,,,10,,,,2.9,136*73
$GLGMP,014522.00,,,,,,08,,,,,*77
$GAGMP,014522.00,,,,,,08,,,,,*7A
$GBGMP,014522.00,,,,,,13,,,,,*73
$PSSN,SNC,[0,265540000,2347]*44
$GPZDA,014527.00,01,01,2025,,*66
$GPDTM,W84,,00.0000000,N,00.0000000,E,00.0000000,W84*5F
$PSSN,TFM,014527.00,,,,*6A
$GPRMC,014527.00,A,4742.1603211,N,01618.1002049,E,0.0,,010125,5.1,E,D*1B
$GPGLL,4742.1603211,N,01618.1002049,E,014527.00,A,D*6A
$GPGGA,014527.00,4742.1603211,N,01618.1002049,E,2,39,0.4,707.7567,M,43.2066,M,1.9,0136*43
$GNGNS,014527.00,4742.1603211,N,01618.1002049,E,DAAA,39,0.4,707.7567,43.2066,,*53
$GPGNS,014527.00,,,,,,10,,,,1.9,136*75
$GLGNS,014527.00,,,,,,08,,,,,*72
$GAGNS,014527.00,,,,,,08,,,,,*7F
$GBGNS,014527.00,,,,,,13,,,,,*76
$GPLLQ,014527.00,010125,,M,,M,1,39,0.920,,M*15
$GPVTG,,T,,M,0.00,N,0.00,K,D*26
$GPHDT,,T*1B
$GPTHS,,V*0E
$GPROT,,V*08
$PSSN,HRP,014527.00,010125,,,,,,,00,0,,*64
$PTNL,AVR,014527.00,,Yaw,,Tilt,,,,0,,00*32
$GPGSA,A,3,02,03,04,06,09,17,19,21,28,31,,,0.8,0.4,0.6*37
$GPGSA,A,3,69,70,71,78,79,84,85,86,,,,,0.8,0.4,0.6*38
$GPGSA,A,3,04,05,06,09,10,11,34,36,,,,,0.8,0.4,0.6*35
$GPGSA,A,3,05,06,09,16,19,20,29,32,35,37,39,44,0.8,0.4,0.6*3D
$GPGSA,A,3,60,,,,,,,,,,,,0.8,0.4,0.6*3E
$GPGST,014527.00,0.877,0.348,0.294,8.544,0.347,0.296,0.799*5D
$GPGBS,014527.00,1.590,1.742,6.165,09,0.0001,-0.370,0.736*70
$GPGRS,014527.00,1,-0.1,0.0,0.1,-0.5,-0.4,0.0,0.1,0.2,-0.2,0.4,,*4F
$GPGRS,014527.00,1,0.3,-0.6,0.6,-2.6,0.9,0.7,1.9,-1.1,,,,*67
$GPGRS,014527.00,1,-0.3,0.0,-0.1,0.1,0.2,0.0,0.1,-0.1,,,,*67
$GPGRS,014527.00,1,0.9,0.1,0.9,0.5,-0.3,-1.6,0.5,1.3,-0.7,0.0,-0.5,1.0*4F
$GPGRS,014527.00,1,-1.2,,,,,,,,,,,*4B
$GPGSV,5,1,20,03,77,027,50,06,16,313,39,28,25,052,43,19,30,297,44*7C
$GPGSV,5,2,20,21,25,151,39,09,30,221,43,31,33,082,45,02,44,158,47*7F
$GPGSV,5,3,20,17,35,262,46,01,49,147,,04,58,207,47,36,35,170,45*7C
$GPGSV,5,4,20,58,13,245,38,40,24,132,36,34,31,208,43,49,34,195,44*75
$GPGSV,5,5,20,57,09,110,38,41,07,108,34,61,03,257,38*48
$GLGSV,2,1,08,85,72,266,53,84,37,169,38,78,14,034,45,86,24,326,47*6F
$GLGSV,2,2,08,71,15,242,46,69,44,041,50,70,60,264,41,79,10,083,44*66
$GAGSV,3,1,10,36,76,287,48,05,20,217,40,10,21,139,40,18,20,301,*6D
$GAGSV,3,2,10,04,50,058,45,34,24,312,42,11,48,144,44,09,70,186,48*62
$GAGSV,3,3,10,06,74,092,48,27,01,349,34*66
$GBGSV,5,1,17,48,79,279,,29,44,204,49,05,24,128,38,39,26,045,42*6D
$GBGSV,5,2,17,37,12,099,41,32,18,065,43,16,32,055,43,35,42,293,48*61
$GBGSV,5,3,17,06,33,058,41,09,38,074,43,22,50,242,,19,51,256,49*62
$GBGSV,5,4,17,20,74,044,52,30,03,166,,44,07,326,39,02,08,105,34*68
$GBGSV,5,5,17,60,09,110,39*58
$GPGGA,014527.00,,,,,0,00,,,M,,M,,*4D
$PTNL,GGK,014527.00,010125,4742.1603211,N,01618.1002049,E,1,39,0.8,EHT750.9632,M*42
$GPGGQ,014527.00,010125,4742.1603211,N,01618.1002049,E,1,39,0.920,707.7567,M*30
$GPGFA,014527.00,3.312,6.549,0.348,0.294,8.544,0.799,,VVV*01
$GPLLK,014527.00,010125,,M,,M,1,39,0.9,,M*0D
$GNGMP,014527.00,,,,,DAAA,39,0.4,,,,*5D
$GPGMP,014527.00,,,,,,10,,,,1.9,136*75
$GLGMP,014527.00,,,,,,08,,,,,*72
$GAGMP,014527.00,,,,,,08,,,,,*7F
$GBGMP,014527.00,,,,,,13,,,,,*76
$PSSN,SNC,[0,265545000,2347]*41
$GPZDA,014532.00,01,01,2025,,*62
$GPDTM,W84,,00.0000000,N,00.0000000,E,00.0000000,W84*5F
$PSSN,TFM,014532.00,,,,*6E
$GPRMC,014532.00,A,4742.1603193,N,01618.1002039,E,0.0,,010125,5.1,E,D*11
$GPGLL,4742.1603193,N,01618.1002039,E,014532.00,A,D*60
$GPGGA,014532.00,4742.1603193,N,01618.1002039,E,2,39,0.4,707.7571,M,43.2066,M,2.1,0136*45
$GNGNS,014532.00,4742.1603193,N,01618.1002039,E,DAAA,39,0.4,707.7571,43.2066,,*5E
$GPGNS,014532.00,,,,,,10,,,,2.1,136*7A
$GLGNS,014532.00,,,,,,08,,,,,*76
$GAGNS,014532.00,,,,,,08,,,,,*7B
$GBGNS,014532.00,,,,,,13,,,,,*72
$GPLLQ,014532.00,010125,,M,,M,1,39,0.908,,M*1B
$GPVTG,,T,,M,0.01,N,0.01,K,D*26
$GPHDT,,T*1B
$GPTHS,,V*0E
$GPROT,,V*08
$PSSN,HRP,014532.00,010125,,,,,,,00,0,,*60
$PTNL,AVR,014532.00,,Yaw,,Tilt,,,,0,,00*36
$GPGSA,A,3,02,03,04,06,09,17,19,21,28,31,,,0.8,0.4,0.6*37
$GPGSA,A,3,69,70,71,78,79,84,85,86,,,,,0.8,0.4,0.6*38
$GPGSA,A,3,04,05,06,09,10,11,34,36,,,,,0.8,0.4,0.6*35
$GPGSA,A,3,05,06,09,16,19,20,29,32,35,37,39,44,0.8,0.4,0.6*3D
$GPGSA,A,3,60,,,,,,,,,,,,0.8,0.4,0.6*3E
$GPGST,014532.00,0.882,0.344,0.294,7.438,0.343,0.295,0.787*52
$GPGBS,014532.00,1.625,1.756,6.323,06,0.0001,-0.647,1.197*7E
$GPGRS,014532.00,1,0.0,-0.0,-0.1,-0.6,0.3,-0.0,0.3,-0.4,0.1,-0.2,,*4F
$GPGRS,014532.00,1,-0.3,-0.4,0.4,-2.3,0.9,1.6,2.2,-1.0,,,,*42
$GPGRS,014532.00,1,-0.1,-0.1,-0.1,0.1,-0.1,-0.4,-0.1,-0.1,,,,*67
$GPGRS,014532.00,1,0.8,0.3,1.1,0.4,-0.2,-1.6,0.5,1.4,-0.8,0.3,-0.6,0.7*4F
$GPGRS,014532.00,1,-0.8,,,,,,,,,,,*44
$GPGSV,5,1,20,03,77,027,50,06,16,313,40,28,25,052,43,19,30,297,44*72
$GPGSV,5,2,20,21,25,151,40,09,30,221,44,31,33,082,46,02,44,158,47*75
$GPGSV,5,3,20,17,35,262,45,01,49,147,,04,58,207,47,36,35,170,45*7F
$GPGSV,5,4,20,58,13,245,38,40,24,132,36,34,31,208,43,49,34,195,44*75
$GPGSV,5,5,20,57,09,110,38,41,07,108,34,61,03,257,38*48
$GLGSV,2,1,08,85,72,266,53,84,37,169,38,78,14,034,44,86,24,326,47*6E
$GLGSV,2,2,08,71,15,242,45,69,44,041,50,70,60,264,41,79,10,083,44*65
$GAGSV,3,1,10,36,76,287,48,05,20,217,39,10,21,139,40,18,20,301,*63
$GAGSV,3,2,10,04,50,058,45,34,24,312,42,11,48,144,43,09,70,186,48*65
$GAGSV,3,3,10,06,74,092,48,27,01,349,34*66
$GBGSV,5,1,18,48,79,279,,29,44,204,48,05,24,128,38,39,26,045,42*63
$GBGSV,5,2,18,37,13,099,40,32,18,065,42,16,32,055,43,35,42,293,48*6F
$GBGSV,5,3,18,06,33,058,41,09,38,074,43,22,50,242,,19,51,256,49*6D
$GBGSV,5,4,18,20,74,044,52,21,00,240,,30,03,166,,44,07,326,39*6B
$GBGSV,5,5,18,02,08,105,34,60,09,110,39*6E
$GPGGA,014532.00,,,,,0,00,,,M,,M,,*49
$PTNL,GGK,014532.00,010125,4742.1603193,N,01618.1002039,E,1,39,0.8,EHT750.9637,M*4D
$GPGGQ,014532.00,010125,4742.1603193,N,01618.1002039,E,1,39,0.908,707.7571,M*37
$GPGFA,014532.00,3.270,6.455,0.344,0.294,7.438,0.787,,VVV*0A
$GPLLK,014532.00,010125,,M,,M,1,39,0.9,,M*09
$GNGMP,014532.00,,,,,DAAA,39,0.4,,,,*59
$GPGMP,014532.00,,,,,,10,,,,2.1,136*7A
$GLGMP,014532.00,,,,,,08,,,,,*76
$GAGMP,014532.00,,,,,,08,,,,,*7B
$GBGMP,014532.00,,,,,,13,,,,,*72
$PSSN,SNC,[0,265550000,2347]*45
$GPZDA,014537.00,01,01,2025,,*67
$GPDTM,W84,,00.0000000,N,00.0000000,E,00.0000000,W84*5F
$PSSN,TFM,014537.00,,,,*6B
$GPRMC,014537.00,A,4742.1603210,N,01618.1002074,E,0.0,,010125,5.1,E,D*15
$GPGLL,4742.1603210,N,01618.1002074,E,014537.00,A,D*64
$GPGGA,014537.00,4742.1603210,N,01618.1002074,E,2,39,0.4,707.7555,M,43.2066,M,3.1,0136*46
$GNGNS,014537.00,4742.1603210,N,01618.1002074,E,DAAA,39,0.4,707.7555,43.2066,,*5C
$GPGNS,014537.00,,,,,,10,,,,3.1,136*7E
$GLGNS,014537.00,,,,,,08,,,,,*73
$GAGNS,014537.00,,,,,,08,,,,,*7E
$GBGNS,014537.00,,,,,,13,,,,,*77
$GPLLQ,014537.00,010125,,M,,M,1,39,0.922,,M*16
$GPVTG,,T,,M,0.00,N,0.00,K,D*26
$GPHDT,,T*1B
$GPTHS,,V*0E
$GPROT,,V*08
$PSSN,HRP,014537.00,010125,,,,,,,00,0,,*65
$PTNL,AVR,014537.00,,Yaw,,Tilt,,,,0,,00*33
$GPGSA,A,3,02,03,04,06,09,17,19,21,28,31,,,0.8,0.4,0.6*37
$GPGSA,A,3,69,70,71,78,79,84,85,86,,,,,0.8,0.4,0.6*38
$GPGSA,A,3,04,05,06,09,10,11,34,36,,,,,0.8,0.4,0.6*35
$GPGSA,A,3,05,06,09,16,19,20,29,32,35,37,39,44,0.8,0.4,0.6*3D
$GPGSA,A,3,60,,,,,,,,,,,,0.8,0.4,0.6*3E
$GPGST,014537.00,0.927,0.348,0.296,4.052,0.348,0.296,0.801*55
$GPGBS,014537.00,1.650,1.783,6.454,03,0.0001,-0.302,0.614*7A
$GPGRS,014537.00,1,0.2,-0.3,-0.1,0.2,0.3,-0.0,0.0,-0.1,0.1,-0.1,,*67
$GPGRS,014537.00,1,0.2,-0.2,0.3,-2.8,1.2,-0.4,2.1,-1.6,,,,*40
$GPGRS,014537.00,1,0.0,0.1,-0.0,0.2,-0.5,-0.2,0.0,-0.0,,,,*4E
$GPGRS,014537.00,1,1.1,0.0,0.8,0.3,-0.2,-1.6,0.4,1.2,-1.0,0.7,-0.8,1.1*4D
$GPGRS,014537.00,1,-0.8,,,,,,,,,,,*41
$GPGSV,5,1,20,03,77,028,50,06,16,313,39,28,25,052,42,19,30,297,44*72
$GPGSV,5,2,20,21,25,151,40,09,30,221,43,31,33,082,46,02,44,158,48*7D
$GPGSV,5,3,20,17,35,262,45,01,49,147,,04,58,207,47,36,35,170,44*7E
$GPGSV,5,4,20,58,13,245,38,40,24,132,36,34,31,208,43,49,34,195,44*75
$GPGSV,5,5,20,57,09,110,38,41,07,108,35,61,03,257,38*49
$GLGSV,2,1,08,85,72,266,53,84,37,169,37,78,14,034,44,86,24,326,47*61
$GLGSV,2,2,08,71,15,242,45,69,43,041,50,70,60,264,41,79,10,083,45*63
$GAGSV,3,1,10,36,76,287,48,05,20,217,40,10,21,139,40,18,20,301,*6D
$GAGSV,3,2,10,04,50,058,45,34,24,312,42,11,48,144,43,09,71,186,48*64
$GAGSV,3,3,10,06,74,091,48,27,01,349,34*65
$GBGSV,5,1,18,48,79,279,,29,44,204,48,05,24,128,38,39,26,045,42*63
$GBGSV,5,2,18,37,13,099,41,32,18,065,42,16,32,055,43,35,43,293,48*6F
$GBGSV,5,3,18,06,33,058,41,09,38,074,43,22,50,242,,19,51,256,49*6D
$GBGSV,5,4,18,20,74,044,52,21,00,240,,30,03,166,,44,07,326,39*6B
$GBGSV,5,5,18,02,08,105,34,60,09,110,39*6E
$GPGGA,014537.00,,,,,0,00,,,M,,M,,*4C
$PTNL,GGK,014537.00,010125,4742.1603210,N,01618.1002074,E,1,39,0.8,EHT750.9620,M*4F
$GPGGQ,014537.00,010125,4742.1603210,N,01618.1002074,E,1,39,0.922,707.7555,M*3D
$GPGFA,014537.00,3.311,6.571,0.348,0.296,4.052,0.801,,VVV*0A
$GPLLK,014537.00,010125,,M,,M,1,39,0.9,,M*0C
$GNGMP,014537.00,,,,,DAAA,39,0.4,,,,*5C
$GPGMP,014537.00,,,,,,10,,,,3.1,136*7E
$GLGMP,014537.00,,,,,,08,,,,,*73
$GAGMP,014537.00,,,,,,08,,,,,*7E
$GBGMP,014537.00,,,,,,13,,,,,*77
$PSSN,SNC,[0,265555000,2347]*40
$GPZDA,014542.00,01,01,2025,,*65
$GPDTM,W84,,00.0000000,N,00.0000000,E,00.0000000,W84*5F
$PSSN,TFM,014542.00,,,,*69
$GPRMC,014542.00,A,4742.1603239,N,01618.1002068,E,0.0,,010125,5.1,E,D*11
$GPGLL,4742.1603239,N,01618.1002068,E,014542.00,A,D*60
$GPGGA,014542.00,4742.1603239,N,01618.1002068,E,2,39,0.4,707.7615,M,43.2066,M,2.9,0136*4C
$GNGNS,014542.00,4742.1603239,N,01618.1002068,E,DAAA,39,0.4,707.7615,43.2066,,*5F
$GPGNS,014542.00,,,,,,10,,,,2.9,136*75
$GLGNS,014542.00,,,,,,08,,,,,*71
$GAGNS,014542.00,,,,,,08,,,,,*7C
$GBGNS,014542.00,,,,,,13,,,,,*75
$GPLLQ,014542.00,010125,,M,,M,1,39,0.937,,M*10
$GPVTG,,T,,M,0.00,N,0.00,K,D*26
$GPHDT,,T*1B
$GPTHS,,V*0E
$GPROT,,V*08
$PSSN,HRP,014542.00,010125,,,,,,,00,0,,*67
$PTNL,AVR,014542.00,,Yaw,,Tilt,,,,0,,00*31
$GPGSA,A,3,02,03,04,06,09,17,19,21,28,31,,,0.8,0.4,0.6*37
$GPGSA,A,3,69,70,71,78,79,84,85,86,,,,,0.8,0.4,0.6*38
$GPGSA,A,3,04,05,06,09,10,11,34,36,,,,,0.8,0.4,0.6*35
$GPGSA,A,3,05,06,09,16,19,20,29,32,35,37,39,44,0.8,0.4,0.6*3D
$GPGSA,A,3,60,,,,,,,,,,,,0.8,0.4,0.6*3E
$GPGST,014542.00,0.962,0.353,0.297,6.205,0.352,0.298,0.816*5C
$GPGBS,014542.00,1.635,1.758,6.534,78,0.0001,-3.242,6.660*75
$GPGRS,014542.00,1,0.2,-0.2,0.2,-0.3,0.2,0.0,0.2,0.2,-0.1,-0.2,,*48
$GPGRS,014542.00,1,-0.4,0.3,0.4,-3.2,1.2,-0.4,2.0,-1.6,,,,*48
$GPGRS,014542.00,1,-0.2,0.4,-0.1,0.2,-0.4,-0.4,0.0,-0.1,,,,*61
$GPGRS,014542.00,1,0.8,0.5,0.5,0.2,-0.5,-1.8,0.3,1.0,-0.9,0.6,-0.5,1.3*44
$GPGRS,014542.00,1,-0.9,,,,,,,,,,,*42
$GPGSV,5,1,20,03,77,028,50,06,16,313,39,28,25,052,42,19,30,297,44*72
$GPGSV,5,2,20,21,25,151,40,09,30,221,43,31,33,082,45,02,44,158,48*7E
$GPGSV,5,3,20,17,35,262,45,01,49,147,,04,58,207,47,36,35,170,44*7E
$GPGSV,5,4,20,58,13,245,37,40,24,132,36,34,31,208,42,49,34,195,44*7B
$GPGSV,5,5,20,57,09,110,38,41,07,108,34,61,03,257,38*48
$GLGSV,2,1,08,85,72,266,53,84,37,169,37,78,14,034,44,86,24,326,47*61
$GLGSV,2,2,08,71,15,242,46,69,43,041,50,70,60,264,41,79,10,083,44*61
$GAGSV,3,1,10,36,76,287,48,05,20,217,40,10,21,139,40,18,20,301,*6D
$GAGSV,3,2,10,04,50,058,45,34,24,312,42,11,48,144,43,09,71,186,48*64
$GAGSV,3,3,10,06,74,091,48,27,01,349,34*65
$GBGSV,5,1,18,48,79,279,,29,44,204,49,05,24,128,38,39,26,045,43*63
$GBGSV,5,2,18,37,13,099,41,32,18,065,42,16,32,055,43,35,43,293,48*6F
$GBGSV,5,3,18,06,33,058,41,09,38,074,42,22,50,242,,19,51,256,49*6C
$GBGSV,5,4,18,20,74,044,52,21,00,240,,30,03,166,,44,07,326,40*65
$GBGSV,5,5,18,02,08,105,34,60,09,110,39*6E
$GPGGA,014542.00,,,,,0,00,,,M,,M,,*4E
$PTNL,GGK,014542.00,010125,4742.1603239,N,01618.1002068,E,1,39,0.8,EHT750.9680,M*41
$GPGGQ,014542.00,010125,4742.1603239,N,01618.1002068,E,1,39,0.937,707.7615,M*3A
$GPGFA,014542.00,3.352,6.693,0.353,0.297,6.205,0.816,,VVV*0F
$GPLLK,014542.00,010125,,M,,M,1,39,0.9,,M*0E
$GNGMP,014542.00,,,,,DAAA,39,0.4,,,,*5E
$GPGMP,014542.00,,,,,,10,,,,2.9,136*75
$GLGMP,014542.00,,,,,,08,,,,,*71
$GAGMP,014542.00,,,,,,08,,,,,*7C
$GBGMP,014542.00,,,,,,13,,,,,*75
$PSSN,SNC,[0,265560000,2347]*46
$GPZDA,014547.00,01,01,2025,,*60
$GPDTM,W84,,00.0000000,N,00.0000000,E,00.0000000,W84*5F
$PSSN,TFM,014547.00,,,,*6C
$GPRMC,014547.00,A,4742.1603255,N,01618.1002108,E,0.0,,010125,5.1,E,D*19
$GPGLL,4742.1603255,N,01618.1002108,E,014547.00,A,D*68
$GPGGA,014547.00,4742.1603255,N,01618.1002108,E,2,39,0.4,707.7643,M,43.2066,M,1.9,0136*44
$GNGNS,014547.00,4742.1603255,N,01618.1002108,E,DAAA,39,0.4,707.7643,43.2066,,*54
$GPGNS,014547.00,,,,,,10,,,,1.9,136*73
$GLGNS,014547.00,,,,,,08,,,,,*74
$GAGNS,014547.00,,,,,,08,,,,,*79
$GBGNS,014547.00,,,,,,13,,,,,*70
$GPLLQ,014547.00,010125,,M,,M,1,39,0.927,,M*14
$GPVTG,,T,,M,0.00,N,0.00,K,D*26
$GPHDT,,T*1B
$GPTHS,,V*0E
$GPROT,,V*08
$PSSN,HRP,014547.00,010125,,,,,,,00,0,,*62
$PTNL,AVR,014547.00,,Yaw,,Tilt,,,,0,,00*34
$GPGSA,A,3,02,03,04,06,09,17,19,21,28,31,,,0.8,0.4,0.6*37
$GPGSA,A,3,69,70,71,78,79,84,85,86,,,,,0.8,0.4,0.6*38
$GPGSA,A,3,04,05,06,09,10,11,34,36,,,,,0.8,0.4,0.6*35
$GPGSA,A,3,05,06,09,16,19,20,29,32,35,37,39,44,0.8,0.4,0.6*3D
$GPGSA,A,3,60,,,,,,,,,,,,0.8,0.4,0.6*3E
$GPGST,014547.00,0.926,0.350,0.295,9.047,0.348,0.296,0.806*57
$GPGBS,014547.00,1.595,1.740,6.158,09,0.0001,0.561,0.734*56
$GPGRS,014547.00,1,-0.5,-0.2,0.1,-0.4,0.6,0.3,0.2,-0.3,0.1,0.0,,*4A
$GPGRS,014547.00,1,-0.5,-1.3,1.5,-2.4,0.7,0.2,1.8,-1.4,,,,*41
$GPGRS,014547.00,1,-0.3,0.3,-0.1,0.2,0.0,-0.2,-0.3,-0.1,,,,*63
$GPGRS,014547.00,1,1.1,0.7,1.0,0.3,-0.4,-1.7,0.3,0.7,-0.9,-0.0,-0.7,1.1*6D
$GPGRS,014547.00,1,-1.2,,,,,,,,,,,*4D
$GPGSV,5,1,20,03,77,028,50,06,16,313,40,28,25,052,42,19,30,297,44*7C
$GPGSV,5,2,20,21,25,151,39,09,30,221,44,31,33,082,45,02,44,158,48*77
$GPGSV,5,3,20,17,35,262,45,01,48,147,,04,58,207,47,36,35,170,44*7F
$GPGSV,5,4,20,58,13,245,37,40,24,132,36,34,31,208,42,49,34,195,44*7B
$GPGSV,5,5,20,57,09,110,38,41,07,108,34,61,03,257,38*48
$GLGSV,2,1,08,85,72,266,53,84,37,169,38,78,14,034,45,86,24,326,47*6F
$GLGSV,2,2,08,71,15,242,46,69,43,041,49,70,60,264,41,79,10,083,44*69
$GAGSV,3,1,10,36,76,287,48,05,20,217,40,10,20,139,40,18,20,301,*6C
$GAGSV,3,2,10,04,50,058,45,34,24,312,41,11,48,144,43,09,71,186,48*67
$GAGSV,3,3,10,06,74,091,48,27,01,349,33*62
$GBGSV,5,1,18,48,79,280,,29,44,204,49,05,24,128,38,39,26,045,42*64
$GBGSV,5,2,18,37,13,099,40,32,18,065,42,16,32,055,43,35,43,293,48*6E
$GBGSV,5,3,18,06,33,058,41,09,38,074,42,22,50,242,,19,51,256,49*6C
$GBGSV,5,4,18,20,74,044,52,21,00,240,,30,03,166,,44,08,326,40*6A
$GBGSV,5,5,18,02,08,105,34,60,09,110,39*6E
$GPGGA,014547.00,,,,,0,00,,,M,,M,,*4B
$PTNL,GGK,014547.00,010125,4742.1603255,N,01618.1002108,E,1,39,0.8,EHT750.9709,M*49
$GPGGQ,014547.00,010125,4742.1603255,N,01618.1002108,E,1,39,0.927,707.7643,M*30
$GPGFA,014547.00,3.325,6.613,0.350,0.295,9.047,0.806,,VVV*09
$GPLLK,014547.00,010125,,M,,M,1,39,0.9,,M*0B
$GNGMP,014547.00,,,,,DAAA,39,0.4,,,,*5B
$GPGMP,014547.00,,,,,,10,,,,1.9,136*73
$GLGMP,014547.00,,,,,,08,,,,,*74
$GAGMP,014547.00,,,,,,08,,,,,*79
$GBGMP,014547.00,,,,,,13,,,,,*70
$PSSN,SNC,[0,265565000,2347]*43
$GPZDA,014552.00,01,01,2025,,*64
$GPDTM,W84,,00.0000000,N,00.0000000,E,00.0000000,W84*5F
$PSSN,TFM,014552.00,,,,*68
$GPRMC,014552.00,A,4742.1603246,N,01618.1002155,E,0.0,,010125,5.1,E,D*17
$GPGLL,4742.1603246,N,01618.1002155,E,014552.00,A,D*66
$GPGGA,014552.00,4742.1603246,N,01618.1002155,E,2,39,0.4,707.7630,M,43.2066,M,2.1,0136*45
$GNGNS,014552.00,4742.1603246,N,01618.1002155,E,DAAA,39,0.4,707.7630,43.2066,,*5E
$GPGNS,014552.00,,,,,,10,,,,2.1,136*7C
$GLGNS,014552.00,,,,,,08,,,,,*70
$GAGNS,014552.00,,,,,,08,,,,,*7D
$GBGNS,014552.00,,,,,,13,,,,,*74
$GPLLQ,014552.00,010125,,M,,M,1,39,0.906,,M*13
$GPVTG,,T,,M,0.00,N,0.00,K,D*26
$GPHDT,,T*1B
$GPTHS,,V*0E
$GPROT,,V*08
$PSSN,HRP,014552.00,010125,,,,,,,00,0,,*66
$PTNL,AVR,014552.00,,Yaw,,Tilt,,,,0,,00*30
$GPGSA,A,3,02,03,04,06,09,17,19,21,28,31,,,0.8,0.4,0.6*37
$GPGSA,A,3,69,70,71,78,79,84,85,86,,,,,0.8,0.4,0.6*38
$GPGSA,A,3,04,05,06,09,10,11,34,36,,,,,0.8,0.4,0.6*35
$GPGSA,A,3,05,06,09,16,19,20,29,32,35,37,39,44,0.8,0.4,0.6*3D
$GPGSA,A,3,60,,,,,,,,,,,,0.8,0.4,0.6*3E
$GPGST,014552.00,0.891,0.342,0.293,5.855,0.342,0.294,0.786*53
$GPGBS,014552.00,1.633,1.694,6.340,02,0.0001,-0.507,0.651*7A
$GPGRS,014552.00,1,-0.5,-0.2,0.2,-0.0,0.3,0.2,0.3,-0.4,0.2,0.3,,*4B
$GPGRS,014552.00,1,0.0,-0.6,1.1,-2.5,1.0,0.7,1.8,-1.5,,,,*6E
$GPGRS,014552.00,1,-0.0,0.3,-0.1,0.4,-0.1,-0.1,-0.3,-0.1,,,,*4D
$GPGRS,014552.00,1,1.1,0.8,0.6,0.3,-0.1,-1.6,0.5,0.9,-0.9,-0.3,-1.0,0.9*61
$GPGRS,014552.00,1,-0.9,,,,,,,,,,,*43
$GPGSV,5,1,20,03,77,028,50,06,16,313,39,28,25,052,43,19,30,297,44*73
$GPGSV,5,2,20,21,25,151,39,09,30,221,44,31,33,082,46,02,44,158,48*74
$GPGSV,5,3,20,17,35,262,46,01,48,147,,04,58,207,47,36,35,170,44*7C
$GPGSV,5,4,20,58,13,245,38,40,24,132,36,34,31,208,42,49,34,195,44*74
$GPGSV,5,5,20,57,09,110,38,41,07,108,34,61,03,257,37*47
$GLGSV,2,1,08,85,72,265,53,84,36,169,38,78,14,034,45,86,24,326,47*6D
$GLGSV,2,2,08,71,15,242,46,69,43,041,50,70,60,264,40,79,10,083,44*60
$GAGSV,3,1,10,36,76,286,48,05,20,217,40,10,20,139,40,18,20,301,*6D
$GAGSV,3,2,10,04,50,058,45,34,24,312,42,11,48,144,43,09,71,186,48*64
$GAGSV,3,3,10,06,74,091,48,27,01,349,34*65
$GBGSV,5,1,18,48,79,280,,29,43,204,49,05,24,128,38,39,26,045,42*63
$GBGSV,5,2,18,37,13,099,40,32,18,065,42,16,32,055,43,35,43,293,48*6E
$GBGSV,5,3,18,06,33,058,41,09,38,074,42,22,50,242,,19,51,256,49*6C
$GBGSV,5,4,18,20,74,044,52,21,00,240,,30,03,166,,44,08,326,40*6A
$GBGSV,5,5,18,02,08,105,33,60,09,110,39*69
$GPGGA,014552.00,,,,,0,00,,,M,,M,,*4F
$PTNL,GGK,014552.00,010125,4742.1603246,N,01618.1002155,E,1,39,0.8,EHT750.9695,M*43
$GPGGQ,014552.00,010125,4742.1603246,N,01618.1002155,E,1,39,0.906,707.7630,M*39
$GPGFA,014552.00,3.254,6.441,0.342,0.293,5.855,0.786,,VVV*0A
$GPLLK,014552.00,010125,,M,,M,1,39,0.9,,M*0F
$GNGMP,014552.00,,,,,DAAA,39,0.4,,,,*5F
$GPGMP,014552.00,,,,,,10,,,,2.1,136*7C
$GLGMP,014552.00,,,,,,08,,,,,*70
$GAGMP,014552.00,,,,,,08,,,,,*7D
$GBGMP,014552.00,,,,,,13,,,,,*74
$PSSN,SNC,[0,265570000,2347]*47
$GPZDA,014557.00,01,01,2025,,*61
$GPDTM,W84,,00.0000000,N,00.0000000,E,00.0000000,W84*5F
$PSSN,TFM,014557.00,,,,*6D
$GPRMC,014557.00,A,4742.1603234,N,01618.1002184,E,0.0,,010125,5.1,E,D*1B
$GPGLL,4742.1603234,N,01618.1002184,E,014557.00,A,D*6A
$GPGGA,014557.00,4742.1603234,N,01618.1002184,E,2,39,0.4,707.7672,M,43.2066,M,3.1,0136*4E
$GNGNS,014557.00,4742.1603234,N,01618.1002184,E,DAAA,39,0.4,707.7672,43.2066,,*54
$GPGNS,014557.00,,,,,,10,,,,3.1,136*78
$GLGNS,014557.00,,,,,,08,,,,,*75
$GAGNS,014557.00,,,,,,08,,,,,*78
$GBGNS,014557.00,,,,,,13,,,,,*71
$GPLLQ,014557.00,010125,,M,,M,1,39,0.917,,M*16
$GPVTG,,T,,M,0.00,N,0.01,K,D*27
$GPHDT,,T*1B
$GPTHS,,V*0E
$GPROT,,V*08
$PSSN,HRP,014557.00,010125,,,,,,,00,0,,*63
$PTNL,AVR,014557.00,,Yaw,,Tilt,,,,0,,00*35
$GPGSA,A,3,02,03,04,06,09,17,19,21,28,31,,,0.8,0.4,0.6*37
$GPGSA,A,3,69,70,71,78,79,84,85,86,,,,,0.8,0.4,0.6*38
$GPGSA,A,3,04,05,06,09,10,11,34,36,,,,,0.8,0.4,0.6*35
$GPGSA,A,3,05,06,09,16,19,20,29,32,35,37,39,44,0.8,0.4,0.6*3D
$GPGSA,A,3,60,,,,,,,,,,,,0.8,0.4,0.6*3E
$GPGST,014557.00,0.869,0.345,0.294,0.678,0.345,0.294,0.797*52
$GPGBS,014557.00,1.656,1.720,6.471,02,0.0001,-0.340,0.668*78
$GPGRS,014557.00,1,-0.3,-0.2,0.0,0.3,0.2,0.0,0.2,0.3,-0.2,0.2,,*60
$GPGRS,014557.00,1,0.0,-0.1,0.0,-2.4,1.6,0.1,1.9,-1.6,,,,*6F
$GPGRS,014557.00,1,-0.4,0.2,-0.3,0.1,-0.4,-0.3,-0.1,-0.2,,,,*4C
$GPGRS,014557.00,1,0.5,0.6,0.0,0.3,-0.2,-1.7,0.6,0.6,-1.2,0.5,-0.9,0.1*46
$GPGRS,014557.00,1,-1.2,,,,,,,,,,,*4C
$GPGSV,5,1,20,03,77,028,50,06,16,313,39,28,25,052,42,19,30,297,44*72
$GPGSV,5,2,20,21,25,151,39,09,30,221,44,31,33,082,46,02,44,158,48*74
$GPGSV,5,3,20,17,35,262,46,01,48,147,,04,58,207,47,36,35,170,44*7C
$GPGSV,5,4,20,58,13,245,38,40,24,132,36,34,31,208,43,49,34,195,44*75
$GPGSV,5,5,20,57,09,110,38,41,07,108,34,61,03,257,37*47
$GLGSV,2,1,08,85,72,265,53,84,36,169,37,78,14,034,45,86,24,326,46*63
$GLGSV,2,2,08,71,15,242,46,69,43,041,50,70,60,264,40,79,10,083,44*60
$GAGSV,3,1,10,36,76,286,48,05,20,217,39,10,20,139,40,18,20,301,*63
$GAGSV,3,2,10,04,50,058,45,34,24,312,41,11,48,144,43,09,71,186,48*67
$GAGSV,3,3,10,06,74,091,48,27,01,349,34*65
$GBGSV,5,1,18,48,79,280,,29,43,204,49,05,24,128,38,39,26,045,43*62
$GBGSV,5,2,18,37,13,099,40,32,18,065,42,16,32,055,43,35,43,293,48*6E
$GBGSV,5,3,18,06,33,058,41,09,38,074,42,22,50,242,,19,51,256,49*6C
$GBGSV,5,4,18,20,74,044,52,21,00,240,,30,03,166,,44,08,326,39*64
$GBGSV,5,5,18,02,08,105,34,60,09,110,39*6E
$GPGGA,014557.00,,,,,0,00,,,M,,M,,*4A
$PTNL,GGK,014557.00,010125,4742.1603234,N,01618.1002184,E,1,39,0.8,EHT750.9737,M*46
$GPGGQ,014557.00,010125,4742.1603234,N,01618.1002184,E,1,39,0.917,707.7672,M*33
$GPGFA,014557.00,3.279,6.538,0.345,0.294,0.678,0.797,,VVV*0B
$GPLLK,014557.00,010125,,M,,M,1,39,0.9,,M*0A
$GNGMP,014557.00,,,,,DAAA,39,0.4,,,,*5A
$GPGMP,014557.00,,,,,,10,,,,3.1,136*78
$GLGMP,014557.00,,,,,,08,,,,,*75
$GAGMP,014557.00,,,,,,08,,,,,*78
$GBGMP,014557.00,,,,,,13,,,,,*71
$PSSN,SNC,[0,265575000,2347]*42
$GPZDA,014602.00,01,01,2025,,*62
$GPDTM,W84,,00.0000000,N,00.0000000,E,00.0000000,W84*5F
$PSSN,TFM,014602.00,,,,*6E
$GPRMC,014602.00,A,4742.1603235,N,01618.1002218,E,0.0,,010125,5.1,E,D*1F
$GPGLL,4742.1603235,N,01618.1002218,E,014602.00,A,D*6E
$GPGGA,014602.00,4742.1603235,N,01618.1002218,E,2,39,0.4,707.7711,M,43.2066,M,2.9,0136*47
$GNGNS,014602.00,4742.1603235,N,01618.1002218,E,DAAA,39,0.4,707.7711,43.2066,,*54
$GPGNS,014602.00,,,,,,10,,,,2.9,136*72
$GLGNS,014602.00,,,,,,08,,,,,*76
$GAGNS,014602.00,,,,,,08,,,,,*7B
$GBGNS,014602.00,,,,,,13,,,,,*72
$GPLLQ,014602.00,010125,,M,,M,1,39,0.919,,M*1B
$GPVTG,,T,,M,0.00,N,0.01,K,D*27
$GPHDT,,T*1B
$GPTHS,,V*0E
$GPROT,,V*08
$PSSN,HRP,014602.00,010125,,,,,,,00,0,,*60
$PTNL,AVR,014602.00,,Yaw,,Tilt,,,,0,,00*36
$GPGSA,A,3,02,03,04,06,09,17,19,21,28,31,,,0.8,0.4,0.6*37
$GPGSA,A,3,69,70,71,78,79,84,85,86,,,,,0.8,0.4,0.6*38
$GPGSA,A,3,04,05,06,09,10,11,34,36,,,,,0.8,0.4,0.6*35
$GPGSA,A,3,05,06,09,16,19,20,29,32,35,37,39,44,0.8,0.4,0.6*3D
$GPGSA,A,3,60,,,,,,,,,,,,0.8,0.4,0.6*3E
$GPGST,014602.00,0.944,0.347,0.294,1.705,0.347,0.294,0.798*5A
$GPGBS,014602.00,1.649,1.688,6.263,02,0.0001,-0.385,0.688*74
$GPGRS,014602.00,1,-0.4,-0.1,0.1,0.4,0.3,-0.0,-0.1,-0.1,-0.0,-0.1,,*60
$GPGRS,014602.00,1,-0.1,-0.4,0.1,-2.6,1.8,0.4,2.0,-1.8,,,,*49
$GPGRS,014602.00,1,-0.2,0.7,-0.1,0.2,-0.3,-0.0,-0.7,-0.1,,,,*4C
$GPGRS,014602.00,1,1.0,0.5,-0.1,0.4,-0.2,-1.7,0.6,0.6,-1.1,0.6,-1.2,-0.2*4D
$GPGRS,014602.00,1,-1.0,,,,,,,,,,,*4D
$GPGSV,5,1,20,03,77,028,50,06,16,313,39,28,25,052,42,19,30,297,44*72
$GPGSV,5,2,20,21,25,151,40,09,30,221,44,31,34,082,46,02,44,158,48*7D
$GPGSV,5,3,20,17,35,262,45,01,48,147,,04,58,207,47,36,35,170,44*7F
$GPGSV,5,4,20,58,13,245,37,40,24,132,36,34,31,208,43,49,34,195,44*7A
$GPGSV,5,5,20,57,09,110,38,41,07,108,34,61,03,257,37*47
$GLGSV,2,1,08,85,72,265,53,84,36,169,38,78,14,034,45,86,25,326,47*6C
$GLGSV,2,2,08,71,15,242,47,69,43,041,50,70,60,264,40,79,10,083,44*61
$GAGSV,3,1,10,36,76,286,48,05,20,217,40,10,20,139,40,18,20,301,*6D
$GAGSV,3,2,10,04,50,058,45,34,24,312,41,11,48,144,43,09,71,186,48*67
$GAGSV,3,3,10,06,74,091,48,27,01,349,34*65
$GBGSV,5,1,18,48,79,280,,29,43,204,49,05,24,128,38,39,26,045,43*62
$GBGSV,5,2,18,37,13,099,41,32,18,065,43,16,32,055,43,35,43,293,48*6E
$GBGSV,5,3,18,06,33,058,41,09,38,074,42,22,50,242,,19,51,256,49*6C
$GBGSV,5,4,18,20,74,044,52,21,00,240,,30,03,166,,44,08,326,38*65
$GBGSV,5,5,18,02,08,105,34,60,09,110,39*6E
$GPGGA,014602.00,,,,,0,00,,,M,,M,,*49
$PTNL,GGK,014602.00,010125,4742.1603235,N,01618.1002218,E,1,39,0.8,EHT750.9777,M*46
$GPGGQ,014602.00,010125,4742.1603235,N,01618.1002218,E,1,39,0.919,707.7711,M*3D
$GPGFA,014602.00,3.296,6.544,0.347,0.294,1.705,0.798,,VVV*05
$GPLLK,014602.00,010125,,M,,M,1,39,0.9,,M*09
$GNGMP,014602.00,,,,,DAAA,39,0.4,,,,*59
$GPGMP,014602.00,,,,,,10,,,,2.9,136*72
$GLGMP,014602.00,,,,,,08,,,,,*76
$GAGMP,014602.00,,,,,,08,,,,,*7B
$GBGMP,014602.00,,,,,,13,,,,,*72
$PSSN,SNC,[0,265580000,2347]*48
$GPZDA,014607.00,01,01,2025,,*67
$GPDTM,W84,,00.0000000,N,00.0000000,E,00.0000000,W84*5F
$PSSN,TFM,014607.00,,,,*6B
$GPRMC,014607.00,A,4742.1603244,N,01618.1002222,E,0.0,,010125,5.1,E,D*15
$GPGLL,4742.1603244,N,01618.1002222,E,014607.00,A,D*64
$GPGGA,014607.00,4742.1603244,N,01618.1002222,E,2,39,0.4,707.7688,M,43.2066,M,1.9,0136*4F
$GNGNS,014607.00,4742.1603244,N,01618.1002222,E,DAAA,39,0.4,707.7688,43.2066,,*5F
$GPGNS,014607.00,,,,,,10,,,,1.9,136*74
$GLGNS,014607.00,,,,,,08,,,,,*73
$GAGNS,014607.00,,,,,,08,,,,,*7E
$GBGNS,014607.00,,,,,,13,,,,,*77
$GPLLQ,014607.00,010125,,M,,M,1,39,0.906,,M*10
$GPVTG,,T,,M,0.00,N,0.01,K,D*27
$GPHDT,,T*1B
$GPTHS,,V*0E
$GPROT,,V*08
$PSSN,HRP,014607.00,010125,,,,,,,00,0,,*65
$PTNL,AVR,014607.00,,Yaw,,Tilt,,,,0,,00*33
$GPGSA,A,3,02,03,04,06,09,17,19,21,28,31,,,0.8,0.4,0.6*37
$GPGSA,A,3,69,70,71,78,79,84,85,86,,,,,0.8,0.4,0.6*38
$GPGSA,A,3,04,05,06,09,10,11,34,36,,,,,0.8,0.4,0.6*35
$GPGSA,A,3,05,06,09,16,19,20,29,32,35,37,39,44,0.8,0.4,0.6*3D
$GPGSA,A,3,60,,,,,,,,,,,,0.8,0.4,0.6*3E
$GPGST,014607.00,0.858,0.343,0.292,5.134,0.342,0.292,0.787*5C
$GPGBS,014607.00,1.534,1.673,5.886,78,0.0001,-2.271,6.658*70
$GPGRS,014607.00,1,-0.0,-0.1,0.1,0.0,0.1,-0.2,-0.0,0.0,0.1,-0.2,,*67
$GPGRS,014607.00,1,0.2,0.3,1.7,-2.3,1.5,-0.1,1.9,-0.8,,,,*64
$GPGRS,014607.00,1,0.1,0.6,0.1,0.4,0.4,0.2,-0.3,0.1,,,,*61
$GPGRS,014607.00,1,0.9,0.9,0.4,0.4,-0.2,-1.5,0.5,0.7,-0.7,0.2,-0.9,0.7*45
$GPGRS,014607.00,1,-0.9,,,,,,,,,,,*40
$GPGSV,5,1,20,03,77,029,50,06,16,313,40,28,25,052,42,19,30,297,44*7D
$GPGSV,5,2,20,21,25,151,39,09,30,221,43,31,34,082,46,02,43,158,48*73
$GPGSV,5,3,20,17,35,262,46,01,48,147,,04,58,207,47,36,35,170,44*7C
$GPGSV,5,4,20,58,13,245,38,40,24,132,36,34,31,208,43,49,34,195,44*75
$GPGSV,5,5,20,57,09,110,38,41,07,108,34,61,03,257,37*47
$GLGSV,2,1,08,85,72,265,52,84,36,169,38,78,14,034,45,86,25,326,47*6D
$GLGSV,2,2,08,71,15,242,47,69,43,042,50,70,60,265,41,79,10,083,43*65
$GAGSV,3,1,10,36,76,286,48,05,20,217,41,10,20,139,40,18,20,301,*6C
$GAGSV,3,2,10,04,50,058,45,34,24,312,41,11,48,144,43,09,71,186,48*67
$GAGSV,3,3,10,06,74,091,48,27,01,349,35*64
$GBGSV,5,1,18,48,80,280,,29,43,204,49,05,24,128,38,39,26,045,43*64
$GBGSV,5,2,18,37,13,099,41,32,18,065,43,16,32,054,43,35,43,293,48*6F
$GBGSV,5,3,18,06,33,058,41,09,38,074,42,22,50,242,,19,51,256,49*6C
$GBGSV,5,4,18,20,74,044,52,21,00,240,,30,03,166,,44,08,326,39*64
$GBGSV,5,5,18,02,08,105,34,60,09,110,39*6E
$GPGGA,014607.00,,,,,0,00,,,M,,M,,*4C
$PTNL,GGK,014607.00,010125,4742.1603244,N,01618.1002222,E,1,39,0.8,EHT750.9754,M*4D
$GPGGQ,014607.00,010125,4742.1603244,N,01618.1002222,E,1,39,0.906,707.7688,M*38
$GPGFA,014607.00,3.260,6.452,0.343,0.292,5.134,0.787,,VVV*03
$GPLLK,014607.00,010125,,M,,M,1,39,0.9,,M*0C
$GNGMP,014607.00,,,,,DAAA,39,0.4,,,,*5C
$GPGMP,014607.00,,,,,,10,,,,1.9,136*74
$GLGMP,014607.00,,,,,,08,,,,,*73
$GAGMP,014607.00,,,,,,08,,,,,*7E
$GBGMP,014607.00,,,,,,13,,,,,*77
$PSSN,SNC,[0,265585000,2347]*4D
$GPZDA,014612.00,01,01,2025,,*63
$GPDTM,W84,,00.0000000,N,00.0000000,E,00.0000000,W84*5F
$PSSN,TFM,014612.00,,,,*6F
$GPRMC,014612.00,A,4742.1603246,N,01618.1002234,E,0.0,,010125,5.1,E,D*14
$GPGLL,4742.1603246,N,01618.1002234,E,014612.00,A,D*65
$GPGGA,014612.00,4742.1603246,N,01618.1002234,E,2,39,0.4,707.7717,M,43.2066,M,2.1,0136*42
$GNGNS,014612.00,4742.1603246,N,01618.1002234,E,DAAA,39,0.4,707.7717,43.2066,,*59
$GPGNS,014612.00,,,,,,10,,,,2.1,136*7B
$GLGNS,014612.00,,,,,,08,,,,,*77
$GAGNS,014612.00,,,,,,08,,,,,*7A
$GBGNS,014612.00,,,,,,13,,,,,*73
$GPLLQ,014612.00,010125,,M,,M,1,39,0.886,,M*1D
$GPVTG,,T,,M,0.00,N,0.00,K,D*26
$GPHDT,,T*1B
$GPTHS,,V*0E
$GPROT,,V*08
$PSSN,HRP,014612.00,010125,,,,,,,00,0,,*61
$PTNL,AVR,014612.00,,Yaw,,Tilt,,,,0,,00*37
$GPGSA,A,3,02,03,04,06,09,17,19,21,28,31,,,0.8,0.4,0.6*37
$GPGSA,A,3,69,70,71,78,79,84,85,86,,,,,0.8,0.4,0.6*38
$GPGSA,A,3,04,05,06,09,10,11,34,36,,,,,0.8,0.4,0.6*35
$GPGSA,A,3,05,06,09,16,19,20,29,32,35,37,39,44,0.8,0.4,0.6*3D
$GPGSA,A,3,60,,,,,,,,,,,,0.8,0.4,0.6*3E
$GPGST,014612.00,0.868,0.336,0.291,3.387,0.336,0.291,0.766*59
$GPGBS,014612.00,1.571,1.692,6.039,78,0.0001,-1.977,6.657*74
$GPGRS,014612.00,1,-0.0,-0.1,0.1,0.3,0.0,0.1,-0.1,0.0,-0.0,0.1,,*4C
$GPGRS,014612.00,1,-0.5,0.2,1.3,-2.0,1.2,-0.3,1.7,-1.6,,,,*48
$GPGRS,014612.00,1,-0.1,-0.0,-0.1,0.3,0.3,0.1,-0.2,-0.1,,,,*61
$GPGRS,014612.00,1,0.8,0.9,0.3,0.7,-0.5,-1.7,0.5,1.0,-0.8,-0.3,-0.9,1.2*60
$GPGRS,014612.00,1,-1.3,,,,,,,,,,,*4F
$GPGSV,5,1,20,03,77,029,50,06,16,313,40,28,25,052,42,19,30,296,44*7C
$GPGSV,5,2,20,21,25,151,39,09,30,221,44,31,34,082,46,02,43,158,48*74
$GPGSV,5,3,20,17,35,262,46,01,48,147,,04,58,207,47,36,35,170,44*7C
$GPGSV,5,4,20,58,13,245,38,40,24,132,36,34,31,208,43,49,34,195,44*75
$GPGSV,5,5,20,57,09,110,38,41,07,108,34,61,03,257,37*47
$GLGSV,2,1,08,85,72,265,53,84,36,169,37,78,14,034,45,86,25,326,47*63
$GLGSV,2,2,08,71,15,242,46,69,43,042,49,70,60,265,41,79,10,083,44*6B
$GAGSV,3,1,10,36,76,286,48,05,20,217,40,10,20,139,40,18,20,301,*6D
$GAGSV,3,2,10,04,50,058,45,34,24,312,41,11,48,144,43,09,71,186,48*67
$GAGSV,3,3,10,06,74,091,48,27,01,349,34*65
$GBGSV,5,1,18,48,80,280,,29,43,204,49,05,24,128,38,39,26,045,43*64
$GBGSV,5,2,18,37,13,099,40,32,18,065,43,16,32,054,43,35,43,293,48*6E
$GBGSV,5,3,18,06,33,058,41,09,38,074,42,22,50,242,,19,51,256,49*6C
$GBGSV,5,4,18,20,74,044,52,21,00,240,,30,03,166,,44,08,326,39*64
$GBGSV,5,5,18,02,08,105,34,60,09,110,39*6E
$GPGGA,014612.00,,,,,0,00,,,M,,M,,*48
$PTNL,GGK,014612.00,010125,4742.1603246,N,01618.1002234,E,1,39,0.8,EHT750.9783,M*46
$GPGGQ,014612.00,010125,4742.1603246,N,01618.1002234,E,1,39,0.886,707.7717,M*37
$GPGFA,014612.00,3.197,6.280,0.336,0.291,3.387,0.766,,VVV*07
$GPLLK,014612.00,010125,,M,,M,1,39,0.9,,M*08
$GNGMP,014612.00,,,,,DAAA,39,0.4,,,,*58
$GPGMP,014612.00,,,,,,10,,,,2.1,136*7B
$GLGMP,014612.00,,,,,,08,,,,,*77
$GAGMP,014612.00,,,,,,08,,,,,*7A
$GBGMP,014612.00,,,,,,13,,,,,*73
$PSSN,SNC,[0,265590000,2347]*49
$GPZDA,014617.00,01,01,2025,,*66
$GPDTM,W84,,00.0000000,N,00.0000000,E,00.0000000,W84*5F
$PSSN,TFM,014617.00,,,,*6A
$GPRMC,014617.00,A,4742.1603231,N,01618.1002249,E,0.0,,010125,5.1,E,D*1B
$GPGLL,4742.1603231,N,01618.1002249,E,014617.00,A,D*6A
$GPGGA,014617.00,4742.1603231,N,01618.1002249,E,2,39,0.4,707.7721,M,43.2066,M,3.1,0136*49
$GNGNS,014617.00,4742.1603231,N,01618.1002249,E,DAAA,39,0.4,707.7721,43.2066,,*53
$GPGNS,014617.00,,,,,,10,,,,3.1,136*7F
$GLGNS,014617.00,,,,,,08,,,,,*72
$GAGNS,014617.00,,,,,,08,,,,,*7F
$GBGNS,014617.00,,,,,,13,,,,,*76
$GPLLQ,014617.00,010125,,M,,M,1,39,0.900,,M*17
$GPVTG,,T,,M,0.00,N,0.00,K,D*26
$GPHDT,,T*1B
$GPTHS,,V*0E
$GPROT,,V*08
$PSSN,HRP,014617.00,010125,,,,,,,00,0,,*64
$PTNL,AVR,014617.00,,Yaw,,Tilt,,,,0,,00*32
$GPGSA,A,3,02,03,04,06,09,17,19,21,28,31,,,0.8,0.4,0.6*37
$GPGSA,A,3,69,70,71,78,79,84,85,86,,,,,0.8,0.4,0.6*38
$GPGSA,A,3,04,05,06,09,10,11,34,36,,,,,0.8,0.4,0.6*35
$GPGSA,A,3,05,06,09,16,19,20,29,32,35,37,39,44,0.8,0.4,0.6*3D
$GPGSA,A,3,60,,,,,,,,,,,,0.8,0.4,0.6*3E
$GPGST,014617.00,0.957,0.341,0.292,0.224,0.341,0.292,0.780*52
$GPGBS,014617.00,1.594,1.717,6.165,21,0.0001,-0.870,0.911*7E
$GPGRS,014617.00,1,-0.3,-0.1,-0.0,0.0,0.6,-0.0,0.2,-0.9,0.3,0.3,,*69
$GPGRS,014617.00,1,-0.2,-0.3,0.6,-2.6,1.4,-1.3,1.8,-1.7,,,,*6D
$GPGRS,014617.00,1,-0.0,-0.2,-0.2,0.2,0.2,-0.1,-0.0,0.0,,,,*67
$GPGRS,014617.00,1,1.0,0.8,0.1,0.3,-0.6,-1.5,0.4,0.8,-1.0,-0.9,-1.2,1.0*69
$GPGRS,014617.00,1,-1.2,,,,,,,,,,,*4B
$GPGSV,5,1,20,03,77,029,50,06,16,313,39,28,25,052,42,19,30,296,45*73
$GPGSV,5,2,20,21,25,151,39,09,30,221,43,31,34,082,45,02,43,158,48*70
$GPGSV,5,3,20,17,35,262,46,01,48,147,,04,58,207,47,36,35,170,44*7C
$GPGSV,5,4,20,58,13,245,38,40,24,132,36,34,31,208,42,49,34,195,44*74
$GPGSV,5,5,20,57,09,110,38,41,07,108,34,61,03,257,37*47
$GLGSV,2,1,08,85,72,265,52,84,36,169,37,78,14,033,45,86,25,326,47*65
$GLGSV,2,2,08,71,15,242,46,69,43,042,50,70,61,265,41,79,10,083,43*65
$GAGSV,3,1,10,36,76,286,48,05,20,217,40,10,20,139,40,18,20,301,*6D
$GAGSV,3,2,10,04,50,058,45,34,24,312,41,11,48,144,43,09,71,186,48*67
$GAGSV,3,3,10,06,73,091,48,27,01,349,35*63
$GBGSV,5,1,18,48,80,280,,29,43,204,49,05,24,128,38,39,26,045,43*64
$GBGSV,5,2,18,37,13,099,40,32,18,065,43,16,32,054,43,35,43,293,48*6E
$GBGSV,5,3,18,06,33,058,41,09,38,074,42,22,50,242,,19,51,257,49*6D
$GBGSV,5,4,18,20,74,044,52,21,00,240,,30,02,166,,44,08,326,40*6B
$GBGSV,5,5,18,02,08,105,34,60,09,110,39*6E
$GPGGA,014617.00,,,,,0,00,,,M,,M,,*4D
$PTNL,GGK,014617.00,010125,4742.1603231,N,01618.1002249,E,1,39,0.8,EHT750.9787,M*4D
$GPGGQ,014617.00,010125,4742.1603231,N,01618.1002249,E,1,39,0.900,707.7721,M*32
$GPGFA,014617.00,3.242,6.395,0.341,0.292,0.224,0.780,,VVV*0C
$GPLLK,014617.00,010125,,M,,M,1,39,0.9,,M*0D
$GNGMP,014617.00,,,,,DAAA,39,0.4,,,,*5D
$GPGMP,014617.00,,,,,,10,,,,3.1,136*7F
$GLGMP,014617.00,,,,,,08,,,,,*72
$GAGMP,014617.00,,,,,,08,,,,,*7F
$GBGMP,014617.00,,,,,,13,,,,,*76
$PSSN,SNC,[0,265595000,2347]*4C
$GPZDA,014622.00,01,01,2025,,*60
$GPDTM,W84,,00.0000000,N,00.0000000,E,00.0000000,W84*5F
$PSSN,TFM,014622.00,,,,*6C
$GPRMC,014622.00,A,4742.1603216,N,01618.1002271,E,0.0,,010125,5.1,E,D*13
$GPGLL,4742.1603216,N,01618.1002271,E,014622.00,A,D*62
$GPGGA,014622.00,4742.1603216,N,01618.1002271,E,2,39,0.4,707.7721,M,43.2066,M,2.9,0136*48
$GNGNS,014622.00,4742.1603216,N,01618.1002271,E,DAAA,39,0.4,707.7721,43.2066,,*5B
$GPGNS,014622.00,,,,,,10,,,,2.9,136*70
$GLGNS,014622.00,,,,,,08,,,,,*74
$GAGNS,014622.00,,,,,,08,,,,,*79
$GBGNS,014622.00,,,,,,13,,,,,*70
$GPLLQ,014622.00,010125,,M,,M,1,39,0.914,,M*14
$GPVTG,,T,,M,0.00,N,0.01,K,D*27
$GPHDT,,T*1B
$GPTHS,,V*0E
$GPROT,,V*08
$PSSN,HRP,014622.00,010125,,,,,,,00,0,,*62
$PTNL,AVR,014622.00,,Yaw,,Tilt,,,,0,,00*34
$GPGSA,A,3,02,03,04,06,09,17,19,21,28,31,,,0.8,0.4,0.7*36
$GPGSA,A,3,69,70,71,78,79,84,85,86,,,,,0.8,0.4,0.7*39
$GPGSA,A,3,04,05,06,09,10,11,34,36,,,,,0.8,0.4,0.7*34
$GPGSA,A,3,05,06,09,16,19,20,29,32,35,37,39,44,0.8,0.4,0.7*3C
$GPGSA,A,3,60,,,,,,,,,,,,0.8,0.4,0.7*3F
$GPGST,014622.00,0.949,0.345,0.294,2.682,0.345,0.294,0.794*54
$GPGBS,014622.00,1.646,1.691,6.237,21,0.0001,-0.447,0.865*75
$GPGRS,014622.00,1,-0.0,-0.0,0.2,-0.1,0.0,0.1,-0.0,-0.4,0.2,-0.2,,*4B
$GPGRS,014622.00,1,0.7,-1.9,0.9,-2.6,1.0,0.1,1.9,-1.5,,,,*6E
$GPGRS,014622.00,1,0.0,0.3,0.0,0.4,0.2,0.1,0.1,0.1,,,,*49
$GPGRS,014622.00,1,1.4,0.8,-0.0,0.2,-0.5,-1.4,0.9,0.9,-1.1,-0.0,-1.0,0.6*45
$GPGRS,014622.00,1,-0.7,,,,,,,,,,,*49
