     3.05           OBSERVATION DATA    M (MIXED)           RINEX VERSION / TYPE
ssrcrin-15.6.1x                         20250101 000000 UTC PGM / RUN BY / DATE 
gfzrnx-2.1.8        FILE PROCESSING     20250423 231818 UTC COMMENT             
INITIAL_RINEX_VERSION: 3.04                                 COMMENT             
mg50                                                        MARKER NAME         
mg50                                                        MARKER NUMBER       
maram               maRam                                   OBSERVER / AGENCY   
3692209             SEPT MOSAIC-X5      4.14.0              REC # / TYPE / VERS 
Unknown             Unknown         NONE                    ANT # / TYPE        
        0.0000        0.0000        0.0000                  ANTENNA: DELTA H/E/N
  3948881.1019   728473.3036  4939499.9671                  APPROX POSITION XYZ 
C    6 S1P S2I S5P S6I S7D S7I                              SYS / # / OBS TYPES 
E    5 S1C S5Q S6C S7Q S8Q                                  SYS / # / OBS TYPES 
G    5 S1C S1W S2L S2W S5Q                                  SYS / # / OBS TYPES 
I    1 S5A                                                  SYS / # / OBS TYPES 
J    3 S1C S2L S5Q                                          SYS / # / OBS TYPES 
R    4 S1C S2C S2P S3Q                                      SYS / # / OBS TYPES 
S    2 S1C S5I                                              SYS / # / OBS TYPES 
(00000000019184418271010004) Septentrio proprietary         COMMENT             
GEODETIC                                                    MARKER TYPE         
SEPTENTRIO RECEIVERS OUTPUT ALIGNED CARRIER PHASES.         COMMENT             
NO FURTHER PHASE SHIFT APPLIED IN THE RINEX ENCODER.        COMMENT             
 C1C    0.000 C2C    0.000 C2P    0.000                     GLONASS COD/PHS/BIS 
DBHZ                                                        SIGNAL STRENGTH UNIT
    18                                                      LEAP SECONDS        
 26 R01  1 R02 -4 R03  5 R04  6 R05  1 R06 -4 R07  5 R08  6 GLONASS SLOT / FRQ #
    R09 -2 R10 -7 R11  0 R12 -1 R13 -2 R14 -7 R15  0 R16 -1 GLONASS SLOT / FRQ #
    R17  4 R18 -3 R19  3 R20  2 R21  4 R22 -3 R23  3 R24  2 GLONASS SLOT / FRQ #
    R25 -5 R26 -6                                           GLONASS SLOT / FRQ #
GFZRNX.NUM_EPOCHS: 0                                        COMMENT
     0                                                      # OF SATELLITES     
     0.000                                                  INTERVAL            
  2025     1     1     0     0    0.0000000     GPS         TIME OF FIRST OBS   
  2025     1     1    23    59   59.0000000     GPS         TIME OF LAST OBS    
                                                            END OF HEADER      
> 2025 01 01 00 00 00.0000000  0 60
C02                        31.955                                                          39.486
C05                        37.713                                                          38.793
C06                        39.510                                                          32.623
C09                        38.048                                                          42.449
C13                        37.474                                                          29.412
C16                        41.139                                                          33.623
C19        40.629          41.938          42.758
C20        49.904          52.282          51.337
C24        33.431          36.352          40.141
C29        49.113          51.663          52.159
C30        46.947          49.970          47.087
C32        49.628          50.598          51.091
C35        39.997          42.552          44.272
E02        38.796          44.787                          42.722          46.807
E04        46.141          50.693                          48.952          52.854
E06        46.416          48.538                          47.700          51.096
E09        44.009          42.178                          45.059          46.716
E10        47.414          50.713                          48.349          52.588
E11        44.698          46.418                          51.206          52.167
E12        39.961          40.379                          41.075          43.748
E19        36.227          42.093                          43.791          45.997
E25        35.448          33.683                          39.910          40.317
E30        39.210          42.796                          43.526          46.214
E36        46.305          46.305                          49.699          51.125
G01        49.918          47.380          52.945          47.380          54.703
G02        49.644          46.729                          46.729
G03        46.477          48.236          43.810          48.236          51.780
G04        39.162          22.667          38.670          22.667          41.490
G08        43.991          34.162          31.441          34.162          44.948
G10        39.459          30.453          34.943          30.453          42.332
G14        38.958          23.448          38.538          23.448          43.581
G17        46.068          44.638          42.066          44.638
G19        38.886          27.305                          27.305
G21        45.792          40.076                          40.076
G22        36.488          18.687                          18.687
G28        40.338          25.880          40.389          25.880          42.100
G31        41.454          33.880          36.526          33.880
G32        46.736          44.959          41.132          44.959          47.439
I01        43.001
I03        38.069
I06        37.236
I09        41.609
R03        45.594          40.226          40.052
R04        52.184          50.988          50.184          49.047
R05        53.829          52.315          53.216          54.961
R06        37.225
R11        39.336          35.405          35.462          38.243
R12        48.279          47.854          46.751          44.166
R13        39.799
R19        39.417          41.471          41.106
R20        42.252          50.708          51.364
R21        50.426          43.953          43.600          45.138
S21        43.608          35.529
S23        44.676          39.378
S27        36.684          32.269
S28        34.881          32.066
S36        43.263          38.147
S44        37.694
S45        35.000
S48        39.462
> 2025 01 01 00 00 01.0000000  0 60
C02                        31.683                                                          39.207
C05                        37.614                                                          38.616
C06                        39.048                                                          33.275
C09                        37.440                                                          42.863
C13                        36.318                                                          28.654
C16                        41.025                                                          34.452
C19        41.309          42.205          42.337
C20        49.812          52.243          51.395
C24        35.419          37.372          40.222
C29        49.062          51.762          52.104
C30        47.023          49.672          47.088
C32        49.416          50.644          51.102
C35        40.021          42.480          44.253
E02        38.712          44.951                          42.878          46.950
E04        46.183          50.654                          48.995          52.857
E06        46.261          48.590                          47.726          51.150
E09        43.742          42.015                          45.056          46.636
E10        47.491          50.633                          48.301          52.516
E11        44.605          46.488                          51.238          52.229
E12        39.982          40.408                          41.518          44.008
E19        36.136          42.284                          43.710          46.077
E25        35.276          33.377                          39.577          40.036
E30        39.264          42.942                          43.473          46.265
E36        46.594          46.447                          49.842          51.272
G01        49.829          47.377          52.851          47.377          54.684
G02        49.625          46.723                          46.723
G03        46.606          48.239          44.280          48.239          51.789
G04        39.150          22.686          39.099          22.686          41.507
G08        44.330          34.186          32.599          34.186          44.870
G10        39.279          30.483          35.605          30.483          42.525
G14        38.931          23.371          38.414          23.371          43.427
G17        46.222          44.492          41.788          44.492
G19        38.616          27.257                          27.257
G21        45.750          40.076                          40.076
G22        35.967          18.507                          18.507
G28        40.191          25.729          40.772          25.729          42.256
G31        39.814          33.635          36.340          33.635
G32        46.985          44.906          41.478          44.906          47.357
I01        42.519
I03        37.860
I06        37.826
I09        40.984
R03        45.138          40.253          39.835
R04        52.057          50.716          50.186          49.056
R05        53.915          52.186          53.207          54.964
R06        37.437
R11        39.204          35.190          34.990          38.384
R12        47.821          47.227          46.501          44.191
R13        41.692
R19        39.132          40.558          40.296
R20        42.053          51.011          51.415
R21        50.721          44.026          43.645          45.219
S21        43.560          35.624
S23        45.073          39.228
S27        35.971          32.796
S28        33.796          32.557
S36        43.054          38.042
S44        36.964
S45        35.319
S48        39.520
> 2025 01 01 00 00 02.0000000  0 60
C02                        31.894                                                          38.715
C05                        37.682                                                          39.144
C06                        38.859                                                          32.599
C09                        36.983                                                          42.781
C13                        36.072                                                          27.796
C16                        41.273                                                          34.762
C19        41.259          42.097          42.540
C20        50.020          52.387          51.302
C24        35.357          36.461          39.928
C29        49.151          51.521          52.083
C30        46.968          49.623          47.164
C32        49.642          50.528          51.126
C35        39.652          42.798          44.129
E02        38.955          44.868                          42.591          46.796
E04        46.212          50.661                          48.877          52.807
E06        46.219          48.716                          47.666          51.179
E09        44.143          42.290                          45.324          46.898
E10        47.366          50.703                          48.203          52.516
E11        44.679          46.509                          51.220          52.206
E12        39.895          40.396                          41.290          43.867
E19        36.060          42.466                          43.604          46.092
E25        34.529          33.737                          39.529          40.107
E30        39.492          42.840                          43.818          46.363
E36        46.257          46.355                          49.716          51.135
G01        49.610          47.420          52.940          47.420          54.595
G02        49.582          46.710                          46.710
G03        46.785          48.325          43.862          48.325          51.763
G04        39.144          23.105          39.213          23.105          41.709
G08        44.363          34.148          31.079          34.148          45.127
G10        38.961          30.694          36.295          30.694          42.404
G14        38.943          23.505          38.904          23.505          43.393
G17        46.149          44.453          41.814          44.453
G19        38.138          27.174                          27.174
G21        45.404          40.064                          40.064
G22        36.654          18.448                          18.448
G28        39.817          25.639          40.710          25.639          41.933
G31        39.348          33.287          36.665          33.287
G32        46.983          44.903          41.573          44.903          47.341
I01        42.650
I03        37.372
I06        36.775
I09        41.201
R03        43.384          40.024          39.901
R04        52.238          50.697          50.295          48.973
R05        54.055          52.345          53.276          54.957
R06        37.062
R11        39.189          35.224          34.757          38.327
R12        48.296          47.848          47.683          44.552
R13        39.976
R19        39.378          40.768          40.391
R20        41.819          50.937          51.375
R21        50.870          43.943          44.045          45.106
S21        43.668          35.581
S23        44.966          39.267
S27        36.204          32.407
S28        33.772          32.551
S36        42.265          38.306
S44        37.414
S45        35.505
S48        39.201
> 2025 01 01 00 00 03.0000000  0 60
C02                        31.653                                                          38.880
C05                        37.391                                                          37.962
C06                        38.949                                                          32.521
C09                        37.482                                                          42.569
C13                        37.244                                                          27.317
C16                        40.484                                                          34.081
C19        40.534          42.229          42.908
C20        50.093          52.277          51.256
C24        35.090          36.310          39.967
C29        49.036          51.515          52.095
C30        46.833          49.716          47.145
C32        49.583          50.650          51.067
C35        39.577          41.645          43.850
E02        39.354          44.916                          42.576          46.808
E04        46.336          50.708                          48.832          52.835
E06        46.103          48.708                          47.662          51.179
E09        44.197          42.254                          45.180          46.824
E10        47.445          50.675                          48.062          52.434
E11        44.689          46.540                          51.055          52.132
E12        39.622          40.372                          40.980          43.685
E19        36.026          42.421                          43.477          46.016
E25        34.795          33.287                          39.625          40.026
E30        39.907          43.145                          43.788          46.483
E36        46.114          46.234                          49.618          51.017
G01        49.755          47.424          52.741          47.424          54.553
G02        49.491          46.766                          46.766
G03        46.689          48.343          43.977          48.343          51.808
G04        38.580          23.181          39.378          23.181          41.397
G08        44.292          34.114          32.329          34.114          45.421
G10        38.189          30.792          34.881          30.792          42.980
G14        38.619          23.619          38.871          23.619          43.295
G17        46.016          44.512          41.905          44.512
G19        37.474          27.162                          27.162
G21        45.237          40.110                          40.110
G22        36.631          18.418                          18.418
G28        39.405          25.579          40.799          25.579          41.783
G31        38.826          32.880          35.519          32.880
G32        47.272          45.022          41.647          45.022          47.331
I01        42.728
I03        37.724
I06        37.149
I09        41.025
R03        44.182          39.327          37.955
R04        51.995          50.595          50.229          48.888
R05        53.911          52.310          53.279          54.889
R06        37.221
R11        39.132          34.467          34.138          37.962
R12        48.048          46.614          46.117          43.253
R13        39.649
R19        39.198          40.946          40.427
R20        42.102          50.908          51.354
R21        50.352          43.843          43.752          45.016
S21        43.240          35.486
S23        44.936          39.147
S27        35.790          32.066
S28        33.695          31.638
S36        43.020          38.288
S44        37.270
S45        35.138
S48        39.378
> 2025 01 01 00 00 04.0000000  0 60
C02                        30.921                                                          38.865
C05                        37.180                                                          37.705
C06                        39.117                                                          32.257
C09                        37.531                                                          41.933
C13                        37.690                                                          23.162
C16                        41.173                                                          32.725
C19        40.033          42.423          42.732
C20        49.996          52.225          51.184
C24        35.357          37.512          40.255
C29        48.915          51.567          52.022
C30        47.123          49.868          47.216
C32        49.535          50.301          50.911
C35        39.547          42.730          44.129
E02        38.718          44.858                          41.666          46.412
E04        46.149          50.736                          48.078          52.495
E06        46.123          48.618                          46.919          50.788
E09        44.272          42.299                          44.614          46.479
E10        47.448          50.626                          47.389          52.171
E11        44.612          46.491                          50.347          51.615
E12        39.757          40.451                          40.269          43.323
E19        35.819          42.154                          42.455          45.290
E25        35.038          34.057                          38.895          39.829
E30        39.910          43.136                          42.931          46.091
E36        46.296          46.218                          48.753          50.539
G01        49.764          47.461          52.873          47.461          54.643
G02        49.518          46.781                          46.781
G03        46.415          48.382          44.185          48.382          51.789
G04        38.784          23.124          38.498          23.124          41.483
G08        44.286          34.067          32.491          34.067          45.211
G10        38.510          30.966          37.051          30.966          42.832
G14        39.315          23.657          38.748          23.657          43.348
G17        45.579          44.500          41.683          44.500
G19        38.249          27.078                          27.078
G21        45.397          40.133                          40.133
G22        37.013          18.179                          18.179
G28        40.117          25.699          40.293          25.699          42.127
G31        36.888          32.150          34.176          32.150
G32        47.050          45.013          41.349          45.013          47.376
I01        42.203
I03        37.565
I06        36.193
I09        41.020
R03        44.412          38.372          37.459
R04        52.027          50.932          50.304          48.095
R05        53.738          52.207          53.163          54.054
R06        36.892
R11        38.273          35.586          35.338          36.567
R12        48.505          47.013          46.557          43.234
R13        42.468
R19        39.246          40.927          40.474
R20        42.076          50.840          51.401
R21        50.637          44.161          44.059          44.217
S21        43.708          35.495
S23        45.074          39.255
S27        35.643          32.557
S28        34.167          32.066
S36        42.798          38.444
S44        37.626
S45        34.905
S48        38.652
> 2025 01 01 00 00 05.0000000  0 60
C02                        31.381                                                          39.009
C05                        37.921                                                          39.018
C06                        39.171                                                          33.144
C09                        37.119                                                          42.753
C13                        36.590                                                          26.790
C16                        40.865                                                          33.341
C19        40.915          42.861          42.400
C20        49.989          52.244          51.087
C24        36.299          37.512          40.903
C29        48.926          51.511          52.000
C30        47.105          49.968          47.249
C32        49.441          50.396          50.911
C35        39.643          42.504          44.283
E02        38.787          44.932                          42.453          46.811
E04        46.331          50.949                          48.856          52.951
E06        46.372          48.607                          47.619          51.095
E09        44.039          42.417                          45.205          46.944
E10        47.266          50.705                          48.054          52.452
E11        44.736          46.543                          51.121          52.101
E12        39.913          40.493                          40.555          43.503
E19        35.605          42.227                          43.132          45.705
E25        35.343          33.551                          39.919          40.267
E30        39.901          42.777                          43.134          46.050
E36        46.251          46.155                          49.311          50.845
G01        49.953          47.484          53.006          47.484          54.661
G02        49.507          46.812                          46.812
G03        46.555          48.402          43.941          48.402          51.813
G04        39.294          23.390          38.156          23.390          41.514
G08        44.321          34.133          32.611          34.133          45.144
G10        38.919          31.117          36.439          31.117          42.952
G14        38.721          23.543          39.772          23.543          43.591
G17        45.926          44.477          42.070          44.477
G19        38.486          27.066                          27.066
G21        45.065          40.174                          40.174
G22        37.089          18.269                          18.269
G28        39.213          25.504          40.362          25.504          42.019
G31        36.643          31.245          32.898          31.245
G32        47.142          45.035          40.579          45.035          47.359
I01        42.514
I03        37.947
I06        37.558
I09        40.799
R03        41.251          38.045          37.807
R04        52.203          51.025          50.183          48.346
R05        53.971          52.363          53.261          54.236
R06        36.922
R11        38.354          33.838          34.562          37.270
R12        48.491          47.247          46.796          43.575
R13        39.733
R19        38.796          41.101          40.853
R20        42.013          50.659          51.516
R21        50.183          43.786          43.507          44.534
S21        43.342          35.619
S23        44.634          39.240
S27        35.629          32.198
S28        34.410          31.487
S36        43.090          38.291
S44        37.372
S45        35.233
S48        39.165
> 2025 01 01 00 00 06.0000000  0 60
C02                        30.725                                                          39.393
C05                        38.093                                                          38.910
C06                        39.054                                                          32.216
C09                        37.493                                                          42.918
C13                        35.605                                                          24.602
C16                        41.118                                                          33.838
C19        41.080          43.145          42.356
C20        49.858          52.244          50.905
C24        36.060          37.747          40.992
C29        49.057          51.517          52.011
C30        47.172          50.002          47.346
C32        49.403          50.469          50.856
C35        39.874          41.976          44.096
E02        39.108          44.968                          42.679          46.887
E04        46.475          50.993                          49.196          53.133
E06        46.073          48.540                          47.568          51.034
E09        44.111          42.226                          45.177          46.808
E10        47.342          50.690                          47.988          52.410
E11        44.808          46.555                          51.056          52.134
E12        40.248          40.832                          40.260          43.577
E19        35.210          42.328                          43.221          45.818
E25        35.167          34.305                          39.417          40.253
E30        39.742          43.035                          43.355          46.246
E36        46.132          46.287                          49.434          50.966
G01        49.865          47.498          52.874          47.498          54.707
G02        49.728          46.827                          46.827
G03        46.577          48.445          44.284          48.445          51.911
G04        39.324          23.314          38.535          23.314          41.487
G08        44.232          34.243          33.695          34.243          45.356
G10        38.535          31.275          34.495          31.275          42.974
G14        38.240          23.619          39.246          23.619          43.295
G17        45.682          44.489          42.106          44.489
G19        37.985          27.425                          27.425
G21        45.660          40.181                          40.181
G22        36.983          18.239                          18.239
G28        40.250          25.549          40.400          25.549          42.500
G31        34.957          30.204          33.335          30.204
G32        46.842          44.984          41.151          44.984          47.302
I01        42.779
I03        38.159
I06        38.135
I09        40.672
R03        38.517          37.603          36.397
R04        52.101          50.978          50.180          48.378
R05        53.710          52.491          53.307          54.274
R06        36.983
R11        39.054          33.760          34.181          37.580
R12        48.447          47.488          46.814          43.530
R13        40.010
R19        38.907          41.082          40.806
R20        42.154          50.906          51.372
R21        50.570          43.954          43.685          44.617
S21        43.443          35.533
S23        44.656          39.303
S27        35.848
S28        34.233          31.502
S36        43.082          38.357
S44        37.376
S45        35.162
S48        38.682
> 2025 01 01 00 00 07.0000000  0 60
C02                        31.155                                                          39.312
C05                        37.629                                                          38.009
C06                        39.324                                                          31.155
C09                        37.372                                                          42.408
C13                        36.786                                                          26.982
C16                        41.154                                                          34.776
C19        40.067          43.350          42.639
C20        50.002          52.349          51.014
C24        35.419          37.849          40.355
C29        49.151          51.561          52.025
C30        47.065          50.002          47.359
C32        49.385          50.512          50.802
C35        40.021          42.171          43.845
E02        39.057          44.664                          42.343          46.593
E04        46.317          50.930                          48.891          52.965
E06        46.147          48.587                          47.499          50.991
E09        44.242          42.317                          45.216          46.856
E10        47.273          50.601                          47.827          52.309
E11        44.811          46.426                          50.943          52.017
E12        40.064          40.543                          40.162          43.327
E19        35.710          42.347                          43.295          45.854
E25        34.924          33.742                          39.003          39.799
E30        40.124          43.217                          43.524          46.360
E36        46.373          46.192                          49.348          50.880
G01        49.758          47.515          52.872          47.515          54.666
G02        49.435          46.832                          46.832
G03        46.935          48.478          44.050          48.478          51.908
G04        38.856          23.295          38.495          23.295          41.695
G08        43.352          34.319          31.902          34.319          45.532
G10        38.033          31.298          35.548          31.298          42.976
G14        38.817          23.448          39.703          23.448          43.094
G17        45.947          44.537          41.576          44.537
G19        39.270          27.569                          27.569
G21        45.412          40.198                          40.198
G22        37.225          18.388                          18.388
G28        40.701          25.654          40.968          25.654          42.711
G31        31.479          28.986          32.401          28.986
G32        46.667          44.947          41.445          44.947          47.427
I01        42.445
I03        38.766
I06        37.939
I09        40.887
R03        41.468          35.514          34.819
R04        52.223          50.938          50.306          48.339
R05        53.934          52.510          53.292          54.148
R06        36.476
R11        37.482          32.731          32.611          37.285
R12        47.865          46.889          46.520          43.164
R13        42.421
R19        38.646          41.383          40.477
R20        42.089          50.934          51.451
R21        50.453          43.111          43.562          44.451
S21        43.543          35.719
S23        44.480          39.498
S27        36.718
S28        34.752          31.396
S36        43.111          38.318
S44        37.611
S45        34.900
S48        38.685
> 2025 01 01 00 00 08.0000000  0 60
C02                        32.168                                                          39.498
C05                        37.059                                                          38.718
C06                        39.402                                                          32.245
C09                        37.312                                                          42.190
C13                        37.550                                                          30.068
C16                        41.113                                                          32.802
C19        40.729          42.929          42.282
C20        50.075          52.238          51.066
C24        34.943          36.718          39.736
C29        48.983          51.466          52.054
C30        46.985          49.525          47.248
C32        49.415          50.134          50.921
C35        39.883          42.707          43.911
E02        38.886          44.673                          42.087          46.452
E04        46.494          50.843                          48.679          52.818
E06        46.268          48.532                          47.308          50.918
E09        43.788          42.298                          45.002          46.686
E10        47.170          50.627                          47.796          52.312
E11        44.820          46.491                          50.805          51.970
E12        40.067          40.446                          40.498          43.458
E19        36.374          42.408                          43.166          45.804
E25        35.357          33.832                          39.309          39.994
E30        39.604          42.482                          43.200          45.917
E36        46.338          46.191                          49.179          50.776
G01        49.828          47.472          52.942          47.472          54.705
G02        49.629          46.788                          46.788
G03        46.885          48.421          43.949          48.421          51.851
G04        38.988          23.257          37.860          23.257          41.554
G08        43.936          34.248          32.132          34.248          45.470
G10        39.213          31.185          35.976          31.185          42.971
G14        39.021          23.352          39.453          23.352          43.109
G17        46.145          44.528          41.340          44.528
G19        39.414          27.521                          27.521
G21        45.499          40.136                          40.136
G22        36.635          18.328                          18.328
G28        40.915          25.865          40.155          25.865          42.303
G31        31.804          27.545          32.192          27.545
G32        46.904          44.895          41.166          44.895          47.378
I01        42.849
I03        38.880
I06        36.847
I09        41.211
R03        44.494          33.731          33.665
R04        52.086          50.892          50.260          48.195
R05        53.911          52.506          53.315          54.016
R06        37.323
R11        38.039          33.880          33.754          36.904
R12        48.184          47.583          46.667          43.280
R13        39.315
R19        38.504          40.539          40.112
R20        42.030          50.835          51.528
R21        50.603          43.562          43.585          44.251
S21        43.551          35.714
S23        44.938          39.387
S27        36.628
S28        34.914          31.857
S36        43.450          38.465
S44        37.958
S45        34.562
S48        39.360
> 2025 01 01 00 00 09.0000000  0 60
C02                        31.275                                                          39.787
C05                        37.679                                                          39.550
C06                        38.679                                                          33.257
C09                        36.563                                                          41.914
C13                        37.089                                                          30.098
C16                        41.418                                                          32.455
C19        40.861          42.758          42.317
C20        49.782          52.041          50.876
C24        35.557          35.348          39.535
C29        48.952          51.436          52.065
C30        46.992          49.588          47.408
C32        49.352          50.473          50.755
C35        40.567          42.341          44.275
E02        39.081          44.745                          42.328          46.611
E04        46.649          50.938                          49.422          53.210
E06        46.232          48.470                          47.635          51.027
E09        43.122          42.186                          45.407          46.880
E10        47.010          50.686                          48.024          52.425
E11        44.856          46.534                          51.104          52.153
E12        39.946          40.510                          40.577          43.536
E19        35.190          42.459                          43.456          46.012
E25        35.371          33.120                          40.069          40.217
E30        39.366          42.167                          42.978          45.606
E36        46.255          46.178                          49.453          50.931
G01        49.931          47.490          52.942          47.490          54.657
G02        49.802          46.779                          46.779
G03        47.065          48.432          43.714          48.432          51.919
G04        38.592          23.276          38.862          23.276          41.590
G08        44.017          34.257          33.323          34.257          45.410
G10        38.240          31.117          35.248          31.117          43.136
G14        39.096          23.467          39.354          23.467          43.253
G17        45.824          44.536          41.816          44.536
G19        39.012          27.964                          27.964
G21        45.698          40.141                          40.141
G22        36.915          18.328                          18.328
G28        40.334          26.012          39.829          26.012          42.362
G31        29.403          26.108          31.079          26.108
G32        46.684          44.876          40.953          44.876          47.504
I01        42.842
I03        39.778
I06        37.142
I09        41.340
R03        44.227          34.486          34.233
R04        52.004          50.617          50.106          48.266
R05        53.717          52.644          53.327          54.153
R06        36.363
R11        38.510          33.287          34.224          36.979
R12        47.885          47.912          47.338          43.596
R13        39.688
R19        38.931          41.197          40.682
R20        42.047          50.677          51.482
R21        50.444          43.638          43.615          44.533
S21        43.054          35.814
S23        44.834          39.264
S27        36.004          32.401
S28        35.133          30.974
S36        43.300          38.402
S44        37.214
S45        34.852
S48        39.387
> 2025 01 01 00 00 10.0000000  0 60
C02                        30.732                                                          39.814
C05                        38.267                                                          39.964
C06                        39.075                                                          34.114
C09                        37.115                                                          42.093
C13                        36.265                                                          28.578
C16                        41.437                                                          31.932
C19        40.889          42.845          42.474
C20        49.696          51.999          50.767
C24        35.305          37.622          40.722
C29        49.055          51.438          52.052
C30        47.138          49.733          47.310
C32        49.322          50.534          50.706
C35        40.195          42.421          44.004
E02        39.156          44.813                          42.150          46.552
E04        46.495          50.991                          49.504          53.275
E06        46.120          48.527                          47.655          51.069
E09        43.219          42.354                          45.371          46.943
E10        47.314          50.688                          47.903          52.388
E11        44.758          46.526                          51.188          52.195
E12        39.306          40.610                          40.215          43.390
E19        35.567          42.459                          43.534          46.042
E25        35.224          33.838                          39.607          40.215
E30        39.691          42.603                          43.509          46.122
E36        46.149          46.237                          49.499          50.975
G01        49.783          47.522          53.056          47.522          54.565
G02        49.556          46.795                          46.795
G03        47.167          48.462          43.915          48.462          51.846
G04        39.090          22.952          38.778          22.952          41.843
G08        43.755          34.410          33.509          34.410          45.257
G10        37.856          31.102          34.609          31.102          43.003
G14        39.432          23.371          38.982          23.371          43.388
G17        46.426          44.528          41.533          44.528
G19        38.216          28.000                          28.000
G21        45.664          40.167                          40.167
G22        36.858          18.298                          18.298
G28        39.670          25.865          40.036          25.865          42.375
G31        23.067          24.376          30.181          24.376
G32        46.794          44.829          40.636          44.829          47.427
I01        42.428
I03        38.096
I06        37.769
I09        41.380
R03        43.465          35.757          36.117
R04        52.506          50.770          50.152          48.326
R05        53.799          52.560          53.219          54.153
R06        37.323
R11        38.898          32.611          32.958          36.631
R12        47.309          46.558          45.287          42.519
R13        40.772
R19        39.102          41.240          41.397
R20        42.201          50.770          51.390
R21        50.514          43.289          43.316          44.522
S21        43.589          35.681
S23        44.889          39.315
S27        35.924          32.186
S28        35.010
S36        43.156          38.411
S44        37.459
S45        34.938
S48        38.697