     3.05           OBSERVATION DATA    M (MIXED)           RINEX VERSION / TYPE
ssrcrin-15.6.1x                         20250101 000000 UTC PGM / RUN BY / DATE
gfzrnx-2.1.8        FILE PROCESSING     20250622 165732 UTC COMMENT
INITIAL_RINEX_VERSION: 3.04                                 COMMENT
mg48                                                        MARKER NAME
mg48                                                        MARKER NUMBER
maram               maRam                                   OBSERVER / AGENCY
3813271             SEPT MOSAIC-X5      4.14.0              REC # / TYPE / VERS
Unknown             Unknown         NONE                    ANT # / TYPE
        0.0000        0.0000        0.0000                  ANTENNA: DELTA H/E/N
  3948943.4848   728365.1029  4939422.7608                  APPROX POSITION XYZ
C    6 S1P S2I S5P S6I S7D S7I                              SYS / # / OBS TYPES
E    5 S1C S5Q S6C S7Q S8Q                                  SYS / # / OBS TYPES
G    5 S1C S1W S2L S2W S5Q                                  SYS / # / OBS TYPES
I    1 S5A                                                  SYS / # / OBS TYPES
J    3 S1C S2L S5Q                                          SYS / # / OBS TYPES
R    4 S1C S2C S2P S3Q                                      SYS / # / OBS TYPES
S    2 S1C S5I                                              SYS / # / OBS TYPES
(00000000019184418271010004) Septentrio proprietary         COMMENT
GEODETIC                                                    MARKER TYPE
SEPTENTRIO RECEIVERS OUTPUT ALIGNED CARRIER PHASES.         COMMENT
NO FURTHER PHASE SHIFT APPLIED IN THE RINEX ENCODER.        COMMENT
 C1C    0.000 C2C    0.000 C2P    0.000                     GLONASS COD/PHS/BIS
DBHZ                                                        SIGNAL STRENGTH UNIT
    18                                                      LEAP SECONDS
 25 R01  1 R02 -4 R03  5 R04  6 R05  1 R06 -4 R07  5 R08  6 GLONASS SLOT / FRQ #
    R09 -2 R10 -7 R11  0 R12 -1 R13 -2 R14 -7 R15  0 R16 -1 GLONASS SLOT / FRQ #
    R17  4 R18 -3 R19  3 R20  2 R21  4 R22 -3 R23  3 R24  2 GLONASS SLOT / FRQ #
    R26 -6                                                  GLONASS SLOT / FRQ #
GFZRNX.NUM_EPOCHS: 0                                        COMMENT
     0                                                      # OF SATELLITES
     0.000                                                  INTERVAL
  2025     1     1     0     0    0.0000000     GPS         TIME OF FIRST OBS
  2025     1     1    23    59   59.0000000     GPS         TIME OF LAST OBS
                                                            END OF HEADER
> 2025 01 01 00 00 00.0000000  0 37
C09                        28.986
C13                        24.301                                                          21.643
C16                        25.308                                                          33.958
C20        46.581          46.220          35.824
C29        49.095          51.525          50.943
C30        46.136          44.503          41.073
C32        38.928          43.744          43.518
C35        33.210          36.336          33.389
E02                        34.295                          29.858          34.976
E04        45.965          43.153                          48.877          49.417
E06        44.355          44.226                          45.521          47.847
E09        30.777          38.009                          36.975          40.441
E10        32.497          39.057                          42.049          43.606
E11        44.620          46.048                          48.511          50.315
E12        34.929          35.924                          39.210          40.694
E19        32.790          37.278                          36.998          40.184
E30        26.180          30.083                          26.228
E36        37.448          40.358                          45.827          46.385
G01        49.923          41.776          52.020          41.776          54.356
G02        49.387          40.162                          40.162
G03        42.825          36.280          36.060          36.280          49.434
G08        28.398          13.818          28.019          13.818          27.126
G10        27.581
G14        31.887                          26.527
G17        42.063          26.347          34.519          26.347
G21        47.132          35.286                          35.286
G22        35.452
G32        43.202          26.958          36.023          26.958          43.367
I09        40.391
R03                        22.362
R04        41.321          48.325          48.118          48.875
R05        52.450          42.593          44.810          51.901
R12        31.638          30.641                          32.826
R19                        30.838
R20        37.792          44.236          44.000
R21        47.111          40.741          40.372          41.290
S36        37.603
> 2025 01 01 00 00 01.0000000  0 36
C09                        30.083                                                          31.464
C13                        24.346                                                          22.419
C16                        29.270                                                          39.754
C20        44.394          47.418          38.372
C29        48.759          50.094          51.636
C30        47.016          42.745          40.405
C32        38.102          45.223          44.084
C35        33.976          31.034          35.167
E02                        30.460                          24.632          31.049
E04        47.168          46.429                          48.249          50.375
E06        45.604          45.196                          47.664          49.441
E09        35.210          38.402                          38.994          41.378
E10        36.941          38.598                          45.273          45.478
E11        43.158          46.418                          46.314          49.284
E12        38.243          35.657                          37.459          39.577
E19        37.720          38.820                          36.964          40.872
E30        27.808          25.579                          34.357
E36        41.473          41.099                          46.420          47.108
G01        47.034          42.093          51.008          42.093          53.606
G02        47.941          39.550                          39.550
G03        43.132          36.567          42.083          36.567          47.154
G08        29.820                          33.174                          24.887
G10        27.916
G14        24.000                          34.019
G17        41.731          26.419          34.057          26.419
G21        46.428          36.121                          36.121
G32        43.196          27.425          36.503          27.425          41.769
I09        38.709
R03                        24.060
R04        43.027          48.095          46.946          49.911
R05        52.330          43.651          44.501          52.281
R12        32.832          28.844                          34.124
R19                        32.701
R20        37.081          42.514          42.997
R21        45.506          35.614          35.152          41.144
S36        34.529
> 2025 01 01 00 00 02.0000000  0 37
C09                        33.820                                                          32.677
C13                        20.571                                                          22.876
C16                        34.400                                                          36.953
C20        43.630          49.462          45.180
C29        47.438          50.804          52.826
C30        42.855          40.272          39.946
C32        37.996          48.072          43.352
C35        28.464          39.090          33.796
E02                        34.024                          33.814
E04        48.157          44.184                          47.211          48.844
E06        44.599          46.000                          46.447          49.232
E09        26.228          38.628                          39.414          41.831
E10        41.778          39.517                          46.466          46.580
E11        44.777          44.582                          46.740          48.697
E12        38.039          37.648                          37.301          40.613
E19        35.005          39.429                          38.673          42.049
E30        23.010          21.357                          28.540
E36        37.512          42.360                          47.419          48.286
G01        40.927          41.623          52.999          41.623          54.447
G02        46.562          39.285                          39.285
G03        45.389          36.873          36.616          36.873          46.290
G08        34.629                          31.358                          27.677
G10        25.624                          23.257
G14        25.624                          31.064
G17        39.408          26.551          32.946          26.551
G21        44.590          36.261                          36.261
G22        33.084
G32        37.577          26.970          35.848          26.970          41.762
I09        38.231
R03        21.286          22.762
R04        42.354          42.476          42.121          47.946
R05        50.748          45.038          46.559          53.443
R12        32.635          36.446                          28.882
R19                        35.943
R20        38.652          45.580          46.379
R21        42.982          38.781          37.686          42.440
S36        43.092
> 2025 01 01 00 00 03.0000000  0 38
C09                        35.881                                                          30.823
C13                        23.524                                                          20.667
C16                        31.298                                                          31.879
C20        47.963          47.347          39.417
C29        48.970          50.833          52.280
C30        46.653          42.654          39.288
C32        37.845          48.382          41.681
C35        30.785          31.660          30.091
E02                        31.819                          35.390
E04        46.613          42.334                          47.981          48.518
E06        44.736          45.627                          47.317          49.433
E09        31.125          37.353                          36.166          39.739
E10        41.602          40.060                          43.281          44.867
E11        46.938          44.450                          46.967          48.655
E12        38.513          36.026                          37.244          39.691
E19        33.808          41.743                          37.467          42.717
E25        20.095
E30        29.716          23.429                          32.784
E36        37.830          40.832                          48.822          48.405
G01        42.754          40.775          51.598          40.775          53.490
G02        49.500          38.985                          38.985
G03        38.799          36.367          40.687          36.367          45.303
G08        31.804                          33.030                          33.617
G10        25.744                          20.286
G14                                        26.455
G17        41.156          26.503          32.108          26.503
G21        45.985          36.299                          36.299
G22        28.464
G32        39.760          27.030          39.742          27.030          44.193
I09        37.977
R03        26.707
R04        45.228          45.663          44.172          46.997
R05        51.719          44.954          45.655          51.504
R12        32.605          30.030                          25.248
R19        22.762          36.367
R20        37.028          47.001          46.940
R21        42.461          37.335          36.091          43.064
S36        40.756
> 2025 01 01 00 00 04.0000000  0 39
C09                        32.305                                                          32.994
C13                        22.229                                                          22.819
C16                        31.177                                                          35.705
C20        48.506          46.616          36.302
C29        48.861          49.542          51.309
C30        45.440          42.569          40.343
C32        38.213          47.461          44.227
C35        30.604                          30.536
E02        25.293          33.174                          33.228
E04        47.559          43.501                          48.610          49.283
E06        44.271          46.054                          47.131          49.660
E09        27.976          38.480                          38.652          41.416
E10        41.971          39.315                          40.720          42.700
E11        45.822          46.203                          46.400          49.303
E12        37.440          36.446                          38.198          40.322
E19        36.280          40.412                          37.168          42.025
E25        20.905
E30        24.737          28.009                          31.864
E36        35.019          42.245                          49.942          49.707
G01        44.528          40.365          50.766          40.365          53.333
G02        49.965          39.360                          39.360
G03        39.760          36.106          42.535          36.106          48.400
G08        34.724                          32.772                          33.150
G10        26.742                          18.119
G14        28.682                          33.653
G17        38.685          26.611          35.014          26.611
G21        44.989          36.499                          36.499
G22        32.120
G32        40.698          28.028          40.286          28.028          43.824
I09        38.039
R03        22.457          25.910
R04        45.562          44.659          44.141          48.316
R05        52.517          41.275          42.209          50.653
R12        34.067          35.933                          29.194
R19        31.864          33.605
R20        37.868          46.012          45.536
R21        44.561          37.981          39.063          43.507
S21        40.427
S36        39.679
> 2025 01 01 00 00 05.0000000  0 38
C09                        29.052                                                          33.000
C13                                                                                        25.263
C16                        32.701                                                          42.690
C20        47.925          44.029          32.054
C29        48.877          50.511          51.090
C30        44.381          43.170          39.492
C32        38.033          47.504          44.236
C35        19.164          30.936          32.659
E02        26.539          33.958                          32.353
E04        46.354          44.266                          48.456          49.528
E06        46.220          45.839                          46.458          49.075
E09        32.545          37.652                          41.750          42.660
E10        42.694          38.667                          42.294          43.549
E11        43.837          46.656                          46.618          49.575
E12        36.922          36.030                          38.483          40.336
E19        34.014          38.150                          38.057          41.035
E25        23.010
E30        25.173          28.341                          33.707
E36        37.830          39.703                          49.918          48.940
G01        45.965          40.260          50.396          40.260          54.225
G02        48.610          39.592                          39.592
G03        42.152          35.562          39.556          35.562          47.652
G08        34.314                          33.737                          32.557
G14        27.701                          31.479
G17        41.356          26.072          31.751          26.072
G21        44.966          36.597                          36.597
G22        30.498
G32        41.971          28.663          37.032          28.663          40.343
I09        38.183
R03        18.896          20.405
R04        42.108          45.153          45.315          49.450
R05        52.658          43.249          45.025          50.352
R12        36.064          37.191                          32.473
R19        26.431          36.832          33.689
R20        38.538          43.835          45.028
R21        47.240          36.068          37.304          43.024
S21        39.826
S36        38.697
> 2025 01 01 00 00 06.0000000  0 39
C09                        30.219                                                          34.157
C13                                                                                        20.929
C16                        31.977                                                          42.271
C20        44.596          47.167          40.076
C29        48.262          50.570          50.852
C30        45.539          44.004          40.417
C32        43.098          45.543          43.441
C35        32.796          29.545          32.611
E02        31.721          34.290                          32.671
E04        46.577          46.313                          47.443          49.915
E06        46.589          46.344                          45.565          48.952
E09                        38.991                          39.946          42.239
E10        42.409          38.529                          43.621          44.119
E11        44.522          46.720                          47.597          50.159
E12        38.435          36.975                          37.879          40.412
E19        34.486          35.757                          36.132          38.742
E25        19.134
E30        25.068          23.829                          31.298
E36        31.102          40.527                          49.791          49.092
G01        41.940          39.991          50.528          39.991          54.453
G02        47.611          39.778                          39.778
G03        44.971          35.962          40.946          35.962          48.028
G08        34.067                          31.381                          26.731
G10        26.862                          24.120
G14        31.653                          28.114
G17        36.563          26.455          35.090          26.455
G21        45.806          36.915                          36.915
G22        24.887
G32        40.141          29.422          41.268          29.422          40.796
I09        38.123
R03        22.724
R04        40.658          46.347          45.746          50.614
R05        52.623          46.122          46.891          50.542
R12        34.343          33.737                          32.671
R19        30.521          33.144          28.161
R20        38.679          43.092          43.956
R21        43.007          38.063          38.387          42.838
S21        38.153
S36        39.366
> 2025 01 01 00 00 07.0000000  0 38
C09                        32.952                                                          33.677
C13                                                                                        29.052
C16                        31.011                                                          40.262
C20        40.901          48.395          45.124
C29        47.261          50.163          51.557
C30        44.527          42.459          38.856
C32        41.135          47.337          42.485
C35        32.245          33.138          32.910
E02        28.512          34.967                          33.311
E04        47.114          47.235                          47.339          50.301
E06        44.295          45.753                          47.360          49.511
E09        27.689          39.099                          39.390          41.948
E10        43.098          38.760                          43.941          44.146
E11        45.899          46.265                          46.997          49.635
E12        39.291          37.675                          38.943          41.309
E19        35.881          38.928                          38.243          41.664
E30        30.438
E36        40.810          43.645                          48.554          49.524
G01        40.210          39.291          50.276          39.291          53.656
G02        46.862          39.459                          39.459
G03        44.271          37.043          41.223          37.043          47.042
G08        34.405                          28.635
G10        23.429                          22.876
G14        27.689                          28.502
G17        33.251                          33.186
G21        45.570          36.987                          36.987
G22        34.186
G32        42.354          29.678          36.435          29.678          42.063
I09        39.264
R03        24.662
R04        43.109          43.136          42.531          49.330
R05        51.347          44.983          45.004          52.933
R12        31.879          30.030                          29.526
R19        28.209          32.455          32.856
R20        38.871          43.807          44.897
R21        44.950          35.281          32.251          41.704
S21        41.313
S36        40.477
> 2025 01 01 00 00 08.0000000  0 39
C09                        30.604                                                          34.129
C13                        23.448                                                          23.276
C16                        31.509                                                          37.146
C20        45.872          50.714          44.728
C29        46.695          49.958          51.498
C30        44.796          37.943          40.875
C32        45.296          48.805          45.565
C35        29.668          34.948          33.497
E02        29.554          33.934                          35.719          37.270
E04        47.886          43.772                          47.150          48.648
E06        45.112          45.549                          48.085          49.844
E09        31.525          37.788                          39.168          41.383
E10        43.422          38.910                          43.869          44.676
E11        45.720          47.054                          45.378          49.179
E12        38.087          36.348                          37.637          40.193
E19        37.369          40.856                          37.164          42.195
E25        18.627
E30        28.559          28.256                          25.368
E36        39.150          44.084                          49.321          50.043
G01        39.132          38.261          50.763          38.261          53.699
G02        50.340          39.562                          39.562
G03        44.543          37.346          38.168          37.346          46.448
G08        34.962                          31.404                          30.777
G10                                        24.722
G14                                        29.820                          28.483
G17        30.468                          31.140
G21        45.010          36.745                          36.745
G22        35.881
G32        39.748          29.450          34.967          29.450          42.557
I09        38.670
R03        22.914
R04        47.900          44.071          43.991          47.264
R05        50.705          42.286          43.007          52.213
R12        35.924          34.119
R19        29.374          34.862          33.066
R20        37.338          44.930          46.099
R21        46.182          36.605          37.648          42.019
S21        42.715
S36        39.084
> 2025 01 01 00 00 09.0000000  0 39
C09                        31.464                                                          32.479
C13                                                                                        19.493
C16                        28.066                                                          37.569
C20        49.393          47.476          42.853
C29        47.302          51.424          51.433
C30        43.801          40.422          41.225
C32        42.197          51.374          44.263
C35        34.624          38.027          33.527
E02        24.887          31.223                          36.242          36.575
E04        48.229          43.109                          48.004          48.730
E06        44.156          45.848                          47.986          49.968
E09        34.981          38.901                          39.006          41.998
E10        41.907          38.880                          42.317          43.858
E11        45.907          46.899                          45.877          49.388
E12        35.933          36.597                          39.508          41.099
E19        34.819          40.634                          37.841          42.267
E25        18.925
E30                                                        31.487
E36        38.607          42.159                          49.090          49.186
G01        42.582          37.535          49.649          37.535          53.334
G02        52.392          40.217                          40.217
G03        44.023          37.947          41.011          37.947          47.952
G08        35.581                          32.856
G10        20.048                          21.071
G14        30.755                          31.291                          27.389
G17        36.181                          33.335
G21        45.774          37.055                          37.055
G22        31.932
G32        42.430          29.270          38.237          29.270          40.951
I09        37.958
R03        19.791
R04        51.728          44.280          43.983          47.097
R05        52.554          46.024          46.412          50.328
R12        38.928          37.660                          32.707
R19        25.368          32.880          31.404
R20        36.321          44.903          45.881
R21        44.102          36.938          39.342          45.071
S21        40.698
S36        38.931
> 2025 01 01 00 00 10.0000000  0 37
C09                        30.725
C13                                                                                        20.310
C16                        26.491                                                          41.650
C20        48.364          45.652          37.369
C29        48.604          50.184          51.707
C30        44.153          43.608          39.799
C32        40.677          48.189          43.729
C35        35.238          30.626          30.604
E02                        34.024                          35.890
E04        46.696          45.722                          47.429          49.476
E06        43.839          45.997                          46.219          49.036
E09        35.233          38.868                          40.625          42.645
E10        43.839          38.042                          41.840          43.136
E11        44.649          47.463                          46.048          49.730
E12        36.597          36.484                          37.062          39.862
E19        33.257          38.907                          38.679          41.824
E30        34.148                                          33.683
E36        40.002          43.450                          50.211          50.366
G01        43.661          37.629          50.556          37.629          53.297
G02        49.850          40.455                          40.455
G03        41.220          37.845          37.887          37.845          48.298
G08        33.772                          31.208                          31.864
G10        26.371                          18.896
G14        34.390                          26.240                          32.228
G17        35.443                          30.166
G21        45.123          37.263                          37.263
G32        44.238          30.943          38.562          30.943          36.405
I09        36.801
R03        24.000          19.761
R04        51.078          43.395          42.546          48.334
R05        51.971          46.142          45.526          50.953
R12                        35.024                          30.317
R19        29.137          34.029          32.365
R20        36.234          43.843          44.330
R21        41.657          38.742          38.228          45.081
S21        39.357
S36        39.949