     3.04           OBSERVATION DATA    M                   RINEX VERSION / TYPE
ssrcrin-15.6.1x                         20250101 014500 UTC PGM / RUN BY / DATE 
(00000000023479385599111004) Septentrio proprietary         COMMENT             
ract                                                        MARKER NAME         
01                                                          MARKER NUMBER       
geodetic                                                    MARKER TYPE         
NFB                 CLIMERS@TUW                             OBSERVER / AGENCY   
3296359             SEPT ASTERX SB3 PROB4.14.4              REC # / TYPE / VERS 
Unknown             Unknown                                 ANT # / TYPE        
  4127446.1825  1206914.6282  4695542.9041                  APPROX POSITION XYZ 
        0.0000        0.0000        0.0000                  ANTENNA: DELTA H/E/N
G   23 X1  C1C L1C D1C S1C C1W S1W C2W L2W D2W S2W C2L L2L  SYS / # / OBS TYPES 
       D2L S2L C5Q L5Q D5Q S5Q C1L L1L D1L S1L              SYS / # / OBS TYPES 
E   21 X1  C1C L1C D1C S1C C6C L6C D6C S6C C5Q L5Q D5Q S5Q  SYS / # / OBS TYPES 
       C7Q L7Q D7Q S7Q C8Q L8Q D8Q S8Q                      SYS / # / OBS TYPES 
S    9 X1  C1C L1C D1C S1C C5I L5I D5I S5I                  SYS / # / OBS TYPES 
R   17 X1  C1C L1C D1C S1C C2P L2P D2P S2P C2C L2C D2C S2C  SYS / # / OBS TYPES 
       C3Q L3Q D3Q S3Q                                      SYS / # / OBS TYPES 
C   25 X1  C1P L1P D1P S1P C5P L5P D5P S5P C2I L2I D2I S2I  SYS / # / OBS TYPES 
       C7I L7I D7I S7I C6I L6I D6I S6I C7D L7D D7D S7D      SYS / # / OBS TYPES 
J   17 X1  C1C L1C D1C S1C C2L L2L D2L S2L C5Q L5Q D5Q S5Q  SYS / # / OBS TYPES 
       C1L L1L D1L S1L                                      SYS / # / OBS TYPES 
I    5 X1  C5A L5A D5A S5A                                  SYS / # / OBS TYPES 
SEPTENTRIO RECEIVERS OUTPUT ALIGNED CARRIER PHASES.         COMMENT             
NO FURTHER PHASE SHIFT APPLIED IN THE RINEX ENCODER.        COMMENT             
G L1C                                                       SYS / PHASE SHIFT   
G L2W                                                       SYS / PHASE SHIFT   
G L2L  0.00000                                              SYS / PHASE SHIFT   
G L5Q  0.00000                                              SYS / PHASE SHIFT   
G L1L  0.00000                                              SYS / PHASE SHIFT   
E L1C  0.00000                                              SYS / PHASE SHIFT   
E L6C  0.00000                                              SYS / PHASE SHIFT   
E L5Q  0.00000                                              SYS / PHASE SHIFT   
E L7Q  0.00000                                              SYS / PHASE SHIFT   
E L8Q  0.00000                                              SYS / PHASE SHIFT   
S L1C                                                       SYS / PHASE SHIFT   
S L5I                                                       SYS / PHASE SHIFT   
R L1C                                                       SYS / PHASE SHIFT   
R L2P  0.00000                                              SYS / PHASE SHIFT   
R L2C                                                       SYS / PHASE SHIFT   
R L3Q  0.00000                                              SYS / PHASE SHIFT   
C L1P  0.00000                                              SYS / PHASE SHIFT   
C L5P  0.00000                                              SYS / PHASE SHIFT   
C L2I                                                       SYS / PHASE SHIFT   
C L7I                                                       SYS / PHASE SHIFT   
C L6I                                                       SYS / PHASE SHIFT   
C L7D                                                       SYS / PHASE SHIFT   
J L1C                                                       SYS / PHASE SHIFT   
J L2L  0.00000                                              SYS / PHASE SHIFT   
J L5Q  0.00000                                              SYS / PHASE SHIFT   
J L1L  0.00000                                              SYS / PHASE SHIFT   
I L5A                                                       SYS / PHASE SHIFT   
  2025     1     1     1    45    0.0000000     GPS         TIME OF FIRST OBS   
 C1C    0.000 C2C    0.000 C2P    0.000                     GLONASS COD/PHS/BIS 
DBHZ                                                        SIGNAL STRENGTH UNIT
    18                                                      LEAP SECONDS        
 24 R01  1 R02 -4 R03  5 R04  6 R05  1 R06 -4 R07  5 R08  6 GLONASS SLOT / FRQ #
    R09 -2 R10 -7 R11  0 R12 -1 R13 -2 R14 -7 R15  0 R16 -1 GLONASS SLOT / FRQ #
    R17  4 R18 -3 R19  3 R20  2 R21  4 R22 -3 R23  3 R24  2 GLONASS SLOT / FRQ #
                                                            END OF HEADER       
> 2025 01 01 01 45  0.0000000  0 39
G21         3.000    23636530.248 5                     -3904.866 5        33.042
G31         4.000    22181460.872 7 116563871.20107      -251.689 7        42.643                                    22181454.780 4  90829318.43804      -196.121 4        29.280    22181461.123 6  90829449.43006      -195.803 6        36.193
G02         5.000    22003265.241 5 115628020.92205     -3341.515 5        30.694                                    22003263.360 2  90099591.30102     -2603.786 2        16.830
E34         6.000    26448074.133 7 138985558.81607      1830.535 7        43.386                                                                    26448070.486 6 103787964.05206      1366.872 6        37.890    26448071.485 6 106495444.49006      1402.631 6        41.578
E04         7.000    24371179.022 7 128071497.92607     -2471.111 7        43.162                                                                    24371177.434 7  95637727.50207     -1845.269 7        44.653    24371177.735 7  98132624.61807     -1893.529 7        44.387
G03         8.000    19881193.676 7 104476373.93707     -1166.796 7        46.698                                    19881192.439 7  81410196.30207      -909.192 7        43.771    19881192.708 7  81410186.32707      -909.203 7        42.828
G09         9.000    22602778.430 6 118778443.55206      2484.210 6        40.553                                    22602773.741 4  92554591.58004      1935.759 4        25.744    22602776.734 5  92554612.62805      1935.779 5        31.615
G04        11.000    20774710.433 6 109171855.82906      1247.370 6        39.994                                    20774708.828 4  85068924.80504       971.979 4        26.707    20774708.397 7  85068951.80507       971.960 7        45.928
E09        12.000    23624291.033 7 124146581.25707       227.922 7        45.366                                                                    23624290.151 7  92706854.71107       170.107 7        47.956    23624289.047 8  95125271.37508       174.676 8        48.691
E10        13.000                                                                                                                                    26807806.984 5                     -2734.600 5        31.517    26807800.892 5 107943937.19605     -2805.838 5        31.924
E06        14.000    23333228.364 8 122617009.73408     -1106.513 8        49.090                                                                    23333227.466 7  91564612.91007      -826.266 7        46.207    23333226.491 7  93953257.25107      -847.858 7        46.593
E11        15.000    24444031.523 6 128454297.42706     -2888.280 6        38.976                                                                    24444026.728 6  95923624.03106     -2156.749 6        41.716    24444026.369 7  98425945.85407     -2213.199 7        43.410
G19        16.000    22289613.065 7 117132908.49307       -83.511 7        42.645                                    22289601.517 3  91272249.18603       -65.070 3        22.629
G28        17.000    23291425.501 5 122397244.16605     -2079.604 5        34.538                                                                                                    23291439.532 4                     -1620.210 4        25.444
G06        19.000    24061598.077 6 126444623.71606      2588.382 6        36.280                                    24061587.312 2  98528172.04902      2016.950 2        16.151    24061594.726 5                      2016.712 5        31.200
E36        20.000    23392886.326 6 122930592.36206      -294.153 6        36.087                                                                    23392886.687 6  91798700.78606      -219.459 6        40.596    23392888.535 7  94193480.61007      -225.178 7        45.130
E05        21.000    25311028.120 6 133010365.93006      2083.129 6        36.488                                                                    25311032.215 5  99325917.29005      1555.529 5        35.457    25311029.823 5 101917033.74505      1596.331 5        34.029
G17        22.000    22387488.382 7 117647025.63007     -2013.819 7        42.768                                    22387480.940 4  91673075.86104     -1569.212 4        28.076    22387482.170 5  91672998.89805     -1569.121 5        32.742
R07        23.000                                                                                                                                    23053000.285 4                      2102.445 4        26.503
S23        24.000    38086200.126 6 200144272.01906      -824.619 6        41.266
S36        25.000    38137749.251 6 200415138.00206      -828.448 6        36.181
R20        27.000    21089471.893 5                     -4585.728 5        31.691                                                                    21089475.519 5                     -3566.422 5        34.910
R06        29.000    19745139.102 6 105363837.61206       671.860 6        36.223
R14        30.000    23140174.263 4                      -532.598 4        29.498                                                                    23140229.103 4                      -414.253 4        27.341
C19        33.000                                                                                                                                    22869646.804 8 119088363.49008       964.495 8        49.255                                                                    22869641.941 7  96768931.08707       783.910 7        46.145
R21        34.000    19302383.803 8 103291063.58908      -781.273 8        51.375                                                                    19302381.443 7  80337397.11507      -607.666 7        45.132
R05        36.000    20537741.976 7 109786101.67907     -3668.251 7        47.552                                                                    20537739.970 6  85389518.63206     -2852.970 6        41.571
R22        37.000    22198073.937 6 118494784.62206      2934.933 6        41.318                                                                    22198068.377 6  92162649.79206      2282.605 6        38.562
C39        38.000                                                                                                                                    38892836.795 5                     -1195.258 5        30.558
C06        41.000                                                                                                                                    38209704.684 6 198967965.16506      -639.265 6        40.236    38209699.302 7 153854617.35907      -494.314 7        43.336    38209698.185 6 161677734.00806      -519.377 6        38.018
C29        43.000                                                                                                                                    22870045.026 7 119090180.71807     -3243.275 7        43.727                                                                    22870036.966 7  96770638.11507     -2635.337 7        43.445
C16        45.000                                                                                                                                    38662780.030 6 201327298.36206      -754.260 6        39.333    38662776.503 6 155678965.77306      -583.125 6        40.963    38662774.102 5 163594846.64305      -612.772 5        30.792
C09        46.000                                                                                                                                    38661052.068 6 201318248.13206      -138.134 6        41.681    38661049.040 7 155672038.17007      -106.874 7        46.935    38661044.840 6 163587527.28206      -112.078 6        40.613
C32        47.000                                                                                                                                    25396971.516 5 132248644.21005     -3650.317 5        33.126                                                                    25396974.375 4                     -2966.307 4        29.327
C44        48.000                                                                                                                                    26065768.956 5 135731326.07005      2102.392 5        34.500                                                                    26065789.701 5 110292805.00205      1708.332 5        30.272
C35        51.000                                                                                                                                    23057623.567 6 120067130.08406       174.230 6        41.344                                                                    23057622.502 7  97564356.35807       141.590 7        43.600
I09        54.000    37138118.280 7 145737953.18807      -769.421 7        42.555
C20        55.000                                                                                                                                    21882983.930 7 113950433.86007     -1639.186 7        47.883                                                                    21882978.685 7  92594140.43307     -1331.881 7        46.630
I01        56.000   332991926.209 5   3591046.30505     -2896.540 5        33.653
> 2025 01 01 01 45  5.0000000  0 39
G21         3.000    23640244.262 5                     -3905.703 5        31.879
G31         4.000    22181700.873 6 116565138.21606      -255.037 6        40.949                                    22181698.140 4  90830305.75504      -198.737 4        29.735    22181697.621 6  90830436.75406      -198.920 6        36.159
G02         5.000    22006446.541 5 115644734.46605     -3343.449 5        30.543                                    22006443.507 2  90112614.86102     -2605.285 2        17.358
E34         6.000    26446332.893 7 138976407.18307      1830.130 7        43.295                                                                    26446328.146 6 103781130.05006      1366.636 6        36.730    26446329.861 6 106488432.20206      1402.312 6        41.297
E04         7.000    24373531.036 7 128083857.40707     -2472.650 7        42.360                                                                    24373529.624 7  95646956.98707     -1846.498 7        44.862    24373529.912 7  98142094.86007     -1894.608 7        45.074
G03         8.000    19882305.074 7 104482212.82507     -1168.768 7        47.164                                    19882303.624 7  81414746.08807      -910.725 7        44.110    19882303.533 7  81414736.11007      -910.722 7        43.488
G09         9.000    22600417.181 6 118766025.79106      2483.049 6        41.168                                    22600410.211 4  92544915.40404      1934.838 4        26.287    22600412.977 5  92544936.46105      1934.397 5        31.668
G04        11.000    20773524.101 6 109165624.96506      1245.009 6        40.698                                    20773523.190 4  85064069.58204       970.137 4        26.946    20773522.829 7  85064096.57407       970.162 7        46.037
E09        12.000    23624075.207 7 124145446.85607       225.946 7        45.583                                                                    23624074.312 8  92706007.59008       168.700 8        48.181    23624073.022 8  95124402.16008       173.145 8        48.272
E10        13.000                                                                                                                                    26811289.667 5                     -2735.205 5        31.691    26811285.474 5 107957968.85605     -2806.683 5        31.517
E06        14.000    23334282.199 8 122622547.46108     -1108.463 8        49.438                                                                    23334281.428 7  91568748.23007      -827.782 7        46.283    23334280.136 7  93957500.44907      -849.380 7        46.465
E11        15.000    24446779.868 6 128468743.09506     -2889.759 6        39.186                                                                    24446775.622 6  95934411.38906     -2158.004 6        41.893    24446775.341 7  98437014.61007     -2214.261 7        43.683
G19        16.000    22289694.091 6 117133334.79006       -87.012 6        41.969                                    22289683.057 3  91272581.34703       -67.802 3        22.248
G28        17.000    23293404.494 5 122407649.81305     -2082.572 5        34.943                                                                                                    23293414.768 4                     -1622.749 4        27.617
G06        19.000    24059135.993 6 126431685.15606      2587.470 6        36.367                                    24059125.228 2  98518090.05602      2016.204 2        16.453    24059134.471 5                      2016.390 5        31.441
E36        20.000    23393167.855 6 122932066.56006      -295.547 6        36.333                                                                    23393167.324 6  91799801.65706      -220.761 6        41.461    23393168.778 7  94194610.19107      -226.607 7        44.862
E05        21.000    25309045.972 6 132999951.22906      2082.884 6        36.669                                                                    25309050.288 5  99318140.07205      1555.346 5        35.381    25309047.378 5 101909053.65205      1595.837 5        33.808
G17        22.000    22389405.379 7 117657101.66907     -2016.480 7        42.138                                    22389399.007 4  91680927.29504     -1571.283 4        28.607    22389401.003 5  91680850.36905     -1571.602 5        32.551
R07        23.000    23050461.683 5 123391282.17715      2701.451 5        31.849                                                                    23050475.455 4                      2100.849 4        28.076
S23        24.000    38086983.537 6 200148394.66206      -824.456 6        41.430
S36        25.000    38138538.215 6 200419280.40206      -828.689 6        36.291
R20        27.000    21093760.711 5                     -4588.050 5        33.635                                                                    21093761.331 5  87731635.85015     -3568.531 5        34.700
R06        29.000    19744509.063 6 105360483.74006       669.623 6        36.219
R14        30.000    23140680.147 4                      -536.423 4        29.640
C19        33.000                                                                                                                                    22868721.729 8 119083544.42208       963.171 8        49.837                                                                    22868716.358 7  96765015.21907       782.585 7        46.415
R21        34.000    19303115.879 8 103294981.21508      -785.696 8        50.968                                                                    19303113.070 7  80340444.14407      -611.082 7        45.016
R05        36.000    20541173.991 7 109804446.28207     -3669.659 7        46.943                                                                    20541172.495 7  85403786.65907     -2854.120 7        42.201
R22        37.000    22195325.021 6 118480115.02306      2933.012 6        41.661                                                                    22195320.514 6  92151240.11106      2281.311 6        37.871
C39        38.000                                                                                                                                    38893985.765 5                     -1195.868 5        30.400
C06        41.000                                                                                                                                    38210318.713 6 198971163.92506      -640.204 6        39.943    38210313.472 7 153857090.85007      -495.060 7        43.247    38210312.264 6 161680333.27706      -520.136 6        37.996
C29        43.000                                                                                                                                    22873159.918 7 119106402.06207     -3245.093 7        45.169                                                                    22873151.906 7  96783819.31507     -2637.073 7        43.026
C16        45.000                                                                                                                                    38663504.827 6 201331072.07706      -755.112 6        39.276    38663501.918 6 155681883.85706      -583.971 6        41.206    38663499.012 5 163597913.08405      -613.523 5        31.215
C09        46.000                                                                                                                                    38661185.286 6 201318941.26206      -138.821 6        41.876    38661182.188 7 155672574.16907      -107.495 7        47.111    38661178.046 6 163588090.53106      -113.093 6        40.739
C32        47.000                                                                                                                                    25400482.123 5 132266897.53005     -3650.825 5        34.381                                                                    25400480.238 4                     -2966.519 4        28.654
C44        48.000                                                                                                                                    26063752.745 5 135720817.32605      2101.437 5        35.105                                                                    26063768.636 5 110284265.80105      1707.031 5        30.528
C35        51.000                                                                                                                                    23057456.836 6 120066265.97006       171.554 6        41.163                                                                    23057456.168 7  97563654.18307       139.293 7        43.371
I09        54.000    37139099.034 7 145741800.93807      -769.506 7        42.715
C20        55.000                                                                                                                                    21884558.857 7 113958633.59807     -1640.639 7        47.401                                                                    21884553.153 7  92600803.40107     -1333.260 7        46.428
I01        56.000   332995618.639 5   3605530.05905     -2896.618 5        34.038
> 2025 01 01 01 45 10.0000000  0 39
G21         3.000    23643959.621 5                     -3906.393 5        30.679
G31         4.000    22181944.049 6 116566422.40106      -258.544 6        40.346                                    22181944.463 4  90831306.44804      -201.474 4        29.602    22181944.335 5  90831437.40905      -201.634 5        35.152
G02         5.000    22009630.970 5 115661456.88805     -3345.583 5        33.174                                    22009625.335 2  90125645.33302     -2606.898 2        17.132
E34         6.000    26444591.121 7 138967257.92107      1829.643 7        42.519                                                                    26444586.293 5 103774297.82505      1366.108 5        35.929    26444588.503 6 106481421.72806      1402.036 6        41.268
E04         7.000    24375884.735 6 128096223.96006     -2473.981 6        41.383                                                                    24375883.063 7  95656191.73407     -1847.517 7        45.053    24375883.231 7  98151570.52807     -1895.675 7        45.446
G03         8.000    19883417.708 7 104488061.31607     -1170.635 7        47.479                                    19883416.602 7  81419303.35607      -912.181 7        44.482    19883416.071 7  81419293.37507      -912.186 7        43.494
G09         9.000    22598055.747 6 118753614.29206      2481.712 6        41.023                                    22598048.112 4  92535244.11704      1933.790 4        26.299    22598051.632 5  92535265.15805      1933.292 5        31.230
G04        11.000    20772340.512 6 109159405.75506      1242.672 6        40.501                                    20772339.704 4  85059223.43604       968.318 4        27.257    20772338.877 7  85059250.43007       968.269 7        45.670
E09        12.000    23623860.900 7 124144321.79007       223.969 7        45.464                                                                    23623860.101 8  92705167.43908       167.296 8        48.257    23623858.965 7  95123540.10207       171.644 7        47.986
E10        13.000                                                                                                                                    26814773.624 5                     -2735.691 5        31.049    26814771.204 5 107972003.26805     -2807.218 5        31.517
E06        14.000    23335337.828 8 122628094.65608     -1110.396 8        49.138                                                                    23335337.191 7  91572890.61107      -829.155 7        46.280    23335335.681 7  93961750.89007      -850.788 7        46.607
E11        15.000    24449529.750 6 128483195.86806     -2891.139 6        39.315                                                                    24449526.061 7  95945204.03807     -2159.059 7        42.154    24449525.655 7  98448088.81307     -2215.369 7        43.702
G19        16.000    22289778.159 6 117133778.26106       -90.405 6        41.209                                    22289768.223 3  91272926.89603       -70.454 3        21.952
G28        17.000    23295390.377 6 122418070.60306     -2085.729 6        36.416                                                                                                    23295401.349 4                     -1625.151 4        29.270
G06        19.000    24056672.582 6 126418749.64006      2586.867 6        36.113                                    24056663.993 2  98508010.43602      2015.728 2        17.736    24056671.639 5                      2015.713 5        30.974
E36        20.000    23393450.595 5 122933549.66505      -297.679 5        35.833                                                                    23393449.641 7  91800909.18607      -222.234 7        42.034    23393450.727 7  94195746.59207      -227.966 7        44.485
E05        21.000    25307065.035 6 132989539.58606      2082.074 6        36.518                                                                    25307069.242 5  99310365.14805      1554.557 5        34.729    25307064.968 5 101901075.91305      1595.223 5        33.683
G17        22.000    22391324.789 6 117667190.96806     -2019.172 6        41.464                                    22391319.627 4  91688789.07204     -1573.375 4        28.739    22391322.592 5  91688712.11205     -1573.248 5        32.575
R07        23.000                                                                                                                                    23047952.762 4                      2099.992 4        28.910
S23        24.000    38087769.040 6 200152516.87806      -824.327 6        41.292
S36        25.000    38139328.874 6 200423422.58006      -828.654 6        36.541
R20        27.000    21098055.222 5 112820771.38815     -4590.328 5        34.748                                                                    21098054.596 5  87749482.87505     -3570.485 5        33.862
R06        29.000    19743883.430 5 105357142.98305       667.079 5        35.452
R14        30.000    23141188.592 4                      -540.441 4        25.323
C19        33.000                                                                                                                                    22867797.637 8 119078732.10708       961.754 8        50.051                                                                    22867792.264 7  96761104.82807       781.521 7        46.687
R21        34.000    19303851.306 8 103298920.95808      -790.196 8        50.913                                                                    19303849.485 7  80343508.38307      -614.550 7        45.029
R05        36.000    20544605.615 7 109822798.12607     -3671.127 7        45.801                                                                    20544605.133 7  85418060.31707     -2855.314 7        42.400
R22        37.000    22192577.105 6 118465454.06606      2931.325 6        41.602                                                                    22192573.832 6  92139837.16506      2280.041 6        36.480
C39        38.000                                                                                                                                    38895134.002 5                     -1196.697 5        30.196
C06        41.000                                                                                                                                    38210933.726 6 198974366.74906      -640.928 6        39.913    38210928.590 7 153859567.47607      -495.668 7        43.183    38210927.192 6 161682935.84306      -520.827 6        37.841
C29        43.000                                                                                                                                    22876276.573 7 119122632.81307     -3247.085 7        45.880                                                                    22876268.794 7  96797008.12407     -2638.518 7        42.423
C16        45.000                                                                                                                                    38664228.837 6 201334849.69006      -755.892 6        39.658    38664226.860 6 155684804.92406      -584.427 6        41.204    38664224.351 5 163600982.69505      -613.887 5        32.036
C09        46.000                                                                                                                                    38661319.354 7 201319638.16907      -139.804 7        42.087    38661316.153 7 155673113.04007      -108.086 7        47.042    38661311.944 6 163588656.81406      -113.583 6        40.803
C32        47.000                                                                                                                                    25403988.222 5 132285151.40805     -3650.806 5        35.533                                                                    25403985.069 4                     -2966.607 4        26.539
C44        48.000                                                                                                                                    26061736.741 5 135710314.05905      2099.866 5        35.019                                                                    26061749.599 5 110275731.00705      1706.507 5        30.792
C35        51.000                                                                                                                                    23057292.703 6 120065414.79706       168.871 6        41.313                                                                    23057292.248 7  97562962.53107       137.198 7        42.940
I09        54.000    37140079.413 7 145745649.06107      -769.703 7        42.656
C20        55.000                                                                                                                                    21886135.376 7 113966840.89107     -1642.223 7        47.339                                                                    21886129.161 7  92607472.50107     -1334.501 7        45.920
I01        56.000   332999309.326 5   3620014.09405     -2896.856 5        34.719
> 2025 01 01 01 45 15.0000000  0 39
G21         3.000    23647675.848 4                     -3907.359 4        28.682
G31         4.000    22182192.358 6 116567724.12306      -262.145 6        41.120                                    22182193.877 4  90832320.80004      -204.273 4        28.284    22182195.640 5  90832451.72105      -204.448 5        33.060
G02         5.000    22012820.374 5 115678188.49705     -3347.375 5        33.928                                    22012808.946 2  90138682.95602     -2608.336 2        17.547
E34         6.000    26442849.378 6 138958111.39606      1829.026 6        41.731                                                                    26442845.715 5 103767467.62405      1365.984 5        35.086    26442847.671 6 106474413.36706      1401.369 6        41.008
E04         7.000    24378239.705 6 128108597.94906     -2475.650 6        41.082                                                                    24378237.999 7  95665432.03607     -1848.690 7        45.371    24378237.820 7  98161051.88407     -1896.947 7        45.770
G03         8.000    19884532.092 7 104493919.76607     -1172.761 7        47.848                                    19884531.485 7  81423868.38507      -913.841 7        44.522    19884530.703 7  81423858.41707      -913.888 7        42.959
G09         9.000    22595694.147 6 118741209.38706      2480.398 6        40.505                                    22595687.480 4  92525577.97004      1932.761 4        25.925    22595690.680 5  92525599.01005      1932.673 5        31.434
G04        11.000    20771160.048 6 109153198.57006      1240.101 6        38.619                                    20771158.426 4  85054386.65504       966.310 4        27.329    20771157.436 7  85054413.65307       966.311 7        45.368
E09        12.000    23623648.347 7 124143206.41507       222.073 7        45.541                                                                    23623647.870 8  92704334.53108       165.865 8        48.308    23623646.740 7  95122685.46207       170.174 7        47.432
E10        13.000                                                                                                                                    26818258.167 5                     -2736.401 5        31.117    26818257.395 5 107986040.72205     -2808.036 5        31.562
E06        14.000    23336395.215 8 122633651.68608     -1112.467 8        48.845                                                                    23336394.686 7  91577040.34007      -830.744 7        46.127    23336393.212 7  93966008.87107      -852.441 7        46.574
E11        15.000    24452281.249 6 128497656.12606     -2892.914 6        39.216                                                                    24452277.897 7  95956002.26207     -2160.193 7        42.345    24452277.535 7  98459168.74107     -2216.610 7        43.634
G19        16.000    22289866.176 6 117134239.22406       -94.024 6        40.749                                    22289856.788 3  91273286.06203       -73.252 3        21.429
G28        17.000    23297378.018 6 122428506.95306     -2088.700 6        37.047                                                                                                    23297394.347 4                     -1627.515 4        28.654
G06        19.000    24054210.556 5 126405817.52805      2586.117 5        35.609                                    24054203.733 3  98497933.48003      2015.150 3        18.209    24054207.999 5                      2015.078 5        30.045
E36        20.000    23393734.712 5 122935042.06205      -299.485 5        34.600                                                                    23393733.819 7  91802023.64507      -223.750 7        42.434    23393734.352 7  94196890.10507      -229.428 7        43.886
E05        21.000    25305084.641 6 132979131.30306      2081.195 6        36.306                                                                    25305089.342 5  99302592.73405      1554.004 5        34.033    25305084.471 5 101893100.76805      1594.726 5        32.940
G17        22.000    22393247.453 6 117677293.83206     -2022.018 6        40.858                                    22393242.505 4  91696661.41904     -1575.599 4        28.085    22393246.342 5  91696584.52405     -1575.642 5        32.683
R07        23.000    23045443.561 5 123364279.65915      2699.417 5        31.253                                                                    23045435.744 5                      2099.402 5        30.604
S23        24.000    38088552.160 6 200156639.06306      -824.461 6        41.337
S36        25.000    38140116.112 6 200427564.84506      -828.331 6        36.484
R20        27.000    21102348.046 5 112843729.71705     -4593.020 5        34.648                                                                    21102348.624 5  87767339.30705     -3572.289 5        33.617
R06        29.000    19743260.878 5 105353815.70505       663.717 5        34.771
R14        30.000    23141687.894 5                      -544.923 5        30.309                                                                    23141702.279 4                      -423.915 4        29.318
C19        33.000                                                                                                                                    22866875.113 8 119073926.88808       960.212 8        49.987                                                                    22866869.670 7  96757200.19007       780.296 7        46.978
R21        34.000    19304592.606 8 103302883.26508      -794.818 8        51.215                                                                    19304589.862 7  80346590.17807      -618.166 7        44.408
R05        36.000    20548040.116 7 109841157.50307     -3672.745 7        45.702                                                                    20548039.833 7  85432339.84607     -2856.547 7        42.828
R22        37.000    22189831.723 7 118450802.20207      2929.508 7        43.263                                                                    22189829.112 6  92128441.25506      2278.666 6        36.325
C39        38.000                                                                                                                                    38896283.249 5                     -1197.343 5        30.453
C06        41.000                                                                                                                                    38211549.139 6 198977573.99806      -641.932 6        39.186    38211544.428 7 153862047.52407      -496.424 7        43.551    38211543.302 6 161685542.00506      -521.773 6        37.263
C29        43.000                                                                                                                                    22879394.156 7 119138873.30607     -3249.123 7        45.959                                                                    22879387.302 7  96810204.84707     -2640.258 7        42.047
C16        45.000                                                                                                                                    38664956.147 6 201338631.56406      -756.935 6        39.231    38664953.350 6 155687729.34206      -585.411 6        41.275    38664950.670 5 163604055.80205      -615.035 5        31.857
C09        46.000                                                                                                                                    38661454.093 6 201320339.14606      -140.631 6        41.874    38661450.884 7 155673655.09507      -108.855 7        47.199    38661446.518 6 163589226.41406      -114.408 6        40.720
C32        47.000                                                                                                                                    25407493.697 5 132303406.25605     -3651.160 5        35.671                                                                    25407487.097 4                     -2967.152 4        26.048
C44        48.000                                                                                                                                    26059721.404 5 135699816.56005      2098.698 5        32.904                                                                    26059732.524 5 110267200.90605      1705.328 5        30.566
C35        51.000                                                                                                                                    23057131.842 6 120064576.96806       166.202 6        41.657                                                                    23057131.165 7  97562281.72607       135.065 7        42.470
I09        54.000    37141060.416 7 145749497.81207      -769.969 7        43.010
C20        55.000                                                                                                                                    21887713.451 7 113975056.07707     -1643.922 7        47.546                                                                    21887706.759 7  92614148.00907     -1335.896 7        45.236
I01        56.000   333003000.402 5   3634498.56305     -2896.632 5        34.876
> 2025 01 01 01 45 20.0000000  0 39
G21         3.000    23651396.225 4                     -3908.722 4        25.414
G31         4.000    22182444.580 6 116569043.75206      -265.881 6        41.111                                    22182446.609 4  90833349.11004      -207.182 4        26.874    22182446.693 5  90833479.94305      -206.993 5        30.875
G02         5.000    22016004.888 5 115694929.60705     -3349.363 5        32.521                                    22015994.284 2  90151728.02002     -2609.914 2        16.641
E34         6.000    26441107.805 6 138948968.02406      1828.270 6        40.601                                                                    26441105.804 5 103760639.81405      1365.246 5        33.832    26441107.635 6 106467407.39406      1400.907 6        40.675
E04         7.000    24380596.009 6 128120979.73006     -2477.193 6        40.958                                                                    24380594.391 7  95674678.17407     -1849.871 7        45.734    24380593.958 7  98170539.23207     -1898.195 7        46.123
G03         8.000    19885648.869 8 104499788.56808     -1174.872 8        48.127                                    19885648.309 7  81428441.48807      -915.488 7        44.573    19885647.136 7  81428431.51407      -915.594 7        42.866
G09         9.000    22593334.648 6 118728811.50606      2478.862 6        40.646                                    22593328.466 4  92515917.30804      1931.574 4        25.895    22593331.675 5  92515938.31205      1931.569 5        31.751
G04        11.000    20769981.877 6 109147003.79806      1237.574 6        38.138                                    20769979.649 4  85049559.55504       964.344 4        27.162    20769978.706 7  85049586.56407       964.334 7        45.258
E09        12.000    23623437.865 7 124142101.14307       219.967 7        45.795                                                                    23623437.577 8  92703509.16708       164.233 8        48.344    23623436.576 7  95121838.57007       168.539 7        47.022
E10        13.000    26821745.825 3                     -3666.767 3        23.390                                                                    26821743.958 5                     -2737.212 5        30.921    26821744.875 5 108000081.45305     -2808.346 5        30.694
E06        14.000    23337454.533 8 122639218.93208     -1114.517 8        48.646                                                                    23337454.057 7  91581197.69707      -832.295 7        46.123    23337452.649 7  93970274.68107      -854.043 7        46.426
E11        15.000    24455034.507 6 128512124.23406     -2894.590 6        39.258                                                                    24455031.114 7  95966806.37107     -2161.527 7        42.466    24455030.786 7  98470254.69207     -2217.783 7        43.877
G19        16.000    22289959.056 7 117134718.13607       -97.707 7        42.315                                    22289948.551 3  91273659.23103       -76.121 3        20.500
G28        17.000    23299364.349 6 122438959.21806     -2092.071 6        36.612                                                                                                    23299388.623 4                     -1630.322 4        25.774
G06        19.000    24051751.184 5 126392889.27105      2585.174 5        35.957                                    24051744.126 3  98487859.53503      2014.410 3        19.224    24051747.851 4                      2014.213 4        27.976
E36        20.000    23394020.759 5 122936544.11305      -301.180 5        33.228                                                                    23394019.816 7  91803145.31807      -225.121 7        42.508    23394019.748 7  94198041.03907      -231.036 7        43.391
E05        21.000    25303104.669 5 132968726.81205      2080.559 5        35.810                                                                    25303110.834 5  99294823.13505      1553.631 5        32.413    25303105.255 5 101885128.54705      1594.377 5        32.826
G17        22.000    22395172.336 6 117687410.69306     -2024.938 6        39.216                                    22395167.825 4  91704544.68104     -1577.880 4        27.509    22395173.001 5  91704467.81005     -1577.611 5        32.359
R07        23.000    23042925.224 5 123350787.20405      2697.762 5        33.521                                                                    23042917.407 5                      2098.269 5        30.332
S23        24.000    38089337.046 6 200160761.25006      -824.370 6        41.042
S36        25.000    38140901.315 6 200431707.01406      -828.616 6        36.798
R20        27.000    21106643.463 5 112866700.58305     -4595.497 5        33.228                                                                    21106643.877 5  87785205.55905     -3574.383 5        33.096
R06        29.000    19742639.151 5 105350502.23705       661.166 5        35.519
R14        30.000    23142210.072 5                      -549.166 5        34.267                                                                    23142215.487 4                      -427.234 4        28.635
C19        33.000                                                                                                                                    22865954.022 8 119069129.16008       958.778 8        49.997                                                                    22865948.700 7  96753301.65607       779.098 7        47.500
R21        34.000    19305337.014 8 103306868.42908      -799.461 8        49.694                                                                    19305334.328 7  80349689.74707      -621.810 7        44.065
R05        36.000    20551476.535 7 109859524.76507     -3674.305 7        46.452                                                                    20551476.583 7  85446625.49307     -2857.761 7        43.295
R22        37.000    22187089.262 7 118436159.79107      2927.469 7        45.020                                                                    22187087.451 6  92117052.71406      2276.966 6        38.048
C39        38.000                                                                                                                                    38897435.461 5                     -1198.320 5        30.709
C06        41.000                                                                                                                                    38212166.524 6 198980786.04106      -643.086 6        38.958    38212161.431 7 153864531.28607      -497.143 7        43.765    38212159.874 6 161688152.04706      -522.248 6        37.403
C29        43.000                                                                                                                                    22882513.646 7 119155123.90207     -3251.186 7        46.506                                                                    22882507.593 6  96823409.78606     -2641.922 6        41.526
C16        45.000                                                                                                                                    38665683.826 6 201342418.08106      -757.728 6        39.763    38665680.381 6 155690657.32206      -586.029 6        41.325    38665678.120 5 163607132.66505      -615.924 5        32.228
C09        46.000                                                                                                                                    38661589.943 6 201321044.60906      -141.572 6        41.678    38661586.400 7 155674200.60607      -109.473 7        47.231    38661582.024 6 163589799.67806      -115.069 6        40.980
C32        47.000                                                                                                                                    25411000.026 5 132321662.52405     -3651.637 5        34.876
C44        48.000                                                                                                                                    26057707.887 5 135689325.27205      2097.357 5        30.513                                                                    26057716.509 4 110258675.88604      1704.233 4        29.441
C35        51.000                                                                                                                                    23056974.201 7 120063752.88607       163.388 7        42.049                                                                    23056972.626 7  97561612.09307       132.930 7        42.356
I09        54.000    37142041.317 7 145753347.49207      -770.114 7        43.007
C20        55.000                                                                                                                                    21889292.813 7 113983279.54907     -1645.616 7        47.594                                                                    21889285.898 7  92620830.25007     -1337.109 7        44.879
I01        56.000   333006691.184 5   3648983.83705     -2897.275 5        34.671
> 2025 01 01 01 45 25.0000000  0 39
G21         3.000    23655112.679 3                     -3912.638 3        20.214
G31         4.000    22182698.204 6 116570380.86606      -269.367 6        41.189                                    22182702.645 4  90834391.03504      -209.899 4        24.872    22182702.859 4  90834521.84504      -210.412 4        27.078
G02         5.000    22019190.851 5 115711679.98405     -3351.403 5        33.078                                    22019181.617 2  90164780.22902     -2611.455 2        15.905
E34         6.000    26439367.766 6 138939827.39706      1827.658 6        40.045                                                                    26439366.524 5 103753814.00405      1364.880 5        33.467    26439368.084 6 106460403.54106      1400.425 6        40.408
E04         7.000    24382953.729 6 128133368.95506     -2478.896 6        40.961                                                                    24382952.172 7  95683929.85307     -1851.132 7        45.929    24382951.425 7  98180032.27307     -1899.433 7        46.360
G03         8.000    19886767.447 7 104505667.33807     -1177.090 7        47.756                                    19886767.028 7  81433022.35807      -917.212 7        44.754    19886765.846 7  81433012.37707      -917.301 7        42.758
G09         9.000    22590976.476 6 118716420.26406      2477.420 6        40.224                                    22590970.973 4  92506261.81104      1930.453 4        26.156    22590975.128 5  92506282.84005      1930.211 5        32.281
G04        11.000    20768804.763 6 109140821.04806      1235.052 6        37.282                                    20768803.111 4  85044741.83204       962.378 4        27.497    20768802.149 7  85044768.85107       962.403 7        45.074
E09        12.000    23623229.579 7 124141005.58707       217.835 7        45.898                                                                    23623229.086 8  92702691.05008       162.642 8        48.168    23623228.334 7  95120999.10807       166.913 7        46.789
E10        13.000    26825233.168 4                     -3665.878 4        24.932                                                                    26825231.082 5                     -2737.564 5        31.072    26825233.794 5 108014125.24505     -2809.274 5        30.332
E06        14.000    23338516.061 8 122644796.00508     -1116.663 8        48.351                                                                    23338515.346 7  91585362.40007      -833.874 7        45.970    23338514.014 7  93974548.02307      -855.684 7        46.613
E11        15.000    24457789.093 6 128526599.83406     -2896.087 6        39.072                                                                    24457785.877 7  95977616.06907     -2162.800 7        42.499    24457785.757 7  98481346.40907     -2219.289 7        44.080
G19        16.000    22290056.633 7 117135214.60007      -101.240 7        43.172                                    22290043.251 3  91274046.04403       -78.883 3        20.310
G28        17.000                                                                                                                                                                    23301383.808 3                     -1631.630 3        21.690
G06        19.000    24049294.089 6 126379964.48706      2584.273 6        36.597                                    24049285.096 3  98477788.28103      2013.710 3        20.262    24049285.731 4                      2013.661 4        26.467
E36        20.000    23394308.540 5 122938055.49405      -303.487 5        33.293                                                                    23394307.701 7  91804273.93807      -226.628 7        42.815    23394306.999 7  94199199.09107      -232.433 7        42.921
E05        21.000    25301124.927 5 132958325.77305      2079.676 5        34.638                                                                    25301134.704 5  99287056.12005      1553.023 5        30.302    25301126.579 5 101877158.94005      1593.733 5        32.311
G17        22.000    22397099.990 6 117697541.17406     -2027.747 6        36.586                                    22397095.715 4  91712438.56104     -1580.066 4        26.742    22397097.838 5  91712361.64605     -1580.036 5        32.102
R07        23.000    23040406.997 5                      2696.607 5        32.383                                                                    23040391.441 5                      2097.436 5        30.498
S23        24.000    38090121.882 6 200164883.34706      -824.650 6        40.875
S36        25.000    38141693.047 6 200435849.49806      -828.900 6        36.287
R20        27.000    21110939.309 5 112889683.55805     -4598.294 5        31.140                                                                    21110942.458 5  87803081.24105     -3576.167 5        32.443
R06        29.000    19742018.652 5 105347202.22705       658.344 5        35.938
R14        30.000    23142728.853 5 123363752.37515      -553.228 5        34.167                                                                    23142734.665 4                      -430.341 4        26.671
C19        33.000                                                                                                                                    22865034.459 8 119064338.56208       957.103 8        49.787                                                                    22865029.061 8  96749408.89908       777.801 8        48.014
R21        34.000    19306084.046 8 103310876.09708      -804.090 8        48.061                                                                    19306083.855 7  80352806.84907      -625.386 7        44.321
R05        36.000    20554913.930 7 109877899.61607     -3676.088 7        47.030                                                                    20554914.066 7  85460917.03107     -2859.136 7        43.437
R22        37.000    22184348.586 7 118421526.49607      2925.542 7        45.171                                                                    22184346.778 6  92105671.27206      2275.323 6        39.018
C39        38.000                                                                                                                                    38898585.916 5                     -1198.943 5        31.170
C06        41.000                                                                                                                                    38212783.921 6 198984002.49506      -643.867 6        38.931    38212779.550 7 153867018.46407      -498.051 7        44.009    38212777.505 6 161690765.68806      -523.191 6        37.100
C29        43.000                                                                                                                                    22885636.547 7 119171384.24307     -3253.383 7        47.010                                                                    22885629.959 6  96836622.63206     -2643.578 6        40.841
C16        45.000                                                                                                                                    38666412.237 6 201346208.89406      -758.920 6        39.661    38666408.424 6 155693588.61506      -586.784 6        41.676    38666406.363 5 163610213.03205      -616.808 5        32.072
C09        46.000                                                                                                                                    38661726.386 6 201321754.20906      -142.516 6        41.533    38661722.576 7 155674749.31907      -110.351 7        47.256    38661718.441 6 163590376.28106      -115.879 6        41.108
C32        47.000                                                                                                                                    25414505.316 5 132339919.76705     -3651.832 5        34.252                                                                    25414484.962 5                     -2967.005 5        30.053
C44        48.000                                                                                                                                    26055698.240 4 135678839.87304      2096.191 4        29.081                                                                    26055699.315 5 110250155.59505      1703.739 5        30.279
C35        51.000                                                                                                                                    23056818.333 6 120062942.17206       160.441 6        41.323                                                                    23056816.820 7  97560953.32507       130.436 7        42.269
I09        54.000    37143022.385 7 145757197.85107      -770.297 7        42.899
