     3.04           OBSERVATION DATA    M                   RINEX VERSION / TYPE
ssrcrin-15.6.1x                         20250101 004500 UTC PGM / RUN BY / DATE 
(00000000023479385599111004) Septentrio proprietary         COMMENT             
ract                                                        MARKER NAME         
01                                                          MARKER NUMBER       
geodetic                                                    MARKER TYPE         
NFB                 CLIMERS@TUW                             OBSERVER / AGENCY   
3296359             SEPT ASTERX SB3 PROB4.14.4              REC # / TYPE / VERS 
Unknown             Unknown                                 ANT # / TYPE        
  4127446.7458  1206914.5682  4695543.1828                  APPROX POSITION XYZ 
        0.0000        0.0000        0.0000                  ANTENNA: DELTA H/E/N
G   23 X1  C1C L1C D1C S1C C1W S1W C2W L2W D2W S2W C2L L2L  SYS / # / OBS TYPES 
       D2L S2L C5Q L5Q D5Q S5Q C1L L1L D1L S1L              SYS / # / OBS TYPES 
E   21 X1  C1C L1C D1C S1C C6C L6C D6C S6C C5Q L5Q D5Q S5Q  SYS / # / OBS TYPES 
       C7Q L7Q D7Q S7Q C8Q L8Q D8Q S8Q                      SYS / # / OBS TYPES 
S    9 X1  C1C L1C D1C S1C C5I L5I D5I S5I                  SYS / # / OBS TYPES 
R   17 X1  C1C L1C D1C S1C C2P L2P D2P S2P C2C L2C D2C S2C  SYS / # / OBS TYPES 
       C3Q L3Q D3Q S3Q                                      SYS / # / OBS TYPES 
C   25 X1  C1P L1P D1P S1P C5P L5P D5P S5P C2I L2I D2I S2I  SYS / # / OBS TYPES 
       C7I L7I D7I S7I C6I L6I D6I S6I C7D L7D D7D S7D      SYS / # / OBS TYPES 
J   17 X1  C1C L1C D1C S1C C2L L2L D2L S2L C5Q L5Q D5Q S5Q  SYS / # / OBS TYPES 
       C1L L1L D1L S1L                                      SYS / # / OBS TYPES 
I    5 X1  C5A L5A D5A S5A                                  SYS / # / OBS TYPES 
SEPTENTRIO RECEIVERS OUTPUT ALIGNED CARRIER PHASES.         COMMENT             
NO FURTHER PHASE SHIFT APPLIED IN THE RINEX ENCODER.        COMMENT             
G L1C                                                       SYS / PHASE SHIFT   
G L2W                                                       SYS / PHASE SHIFT   
G L2L  0.00000                                              SYS / PHASE SHIFT   
G L5Q  0.00000                                              SYS / PHASE SHIFT   
G L1L  0.00000                                              SYS / PHASE SHIFT   
E L1C  0.00000                                              SYS / PHASE SHIFT   
E L6C  0.00000                                              SYS / PHASE SHIFT   
E L5Q  0.00000                                              SYS / PHASE SHIFT   
E L7Q  0.00000                                              SYS / PHASE SHIFT   
E L8Q  0.00000                                              SYS / PHASE SHIFT   
S L1C                                                       SYS / PHASE SHIFT   
S L5I                                                       SYS / PHASE SHIFT   
R L1C                                                       SYS / PHASE SHIFT   
R L2P  0.00000                                              SYS / PHASE SHIFT   
R L2C                                                       SYS / PHASE SHIFT   
R L3Q  0.00000                                              SYS / PHASE SHIFT   
C L1P  0.00000                                              SYS / PHASE SHIFT   
C L5P  0.00000                                              SYS / PHASE SHIFT   
C L2I                                                       SYS / PHASE SHIFT   
C L7I                                                       SYS / PHASE SHIFT   
C L6I                                                       SYS / PHASE SHIFT   
C L7D                                                       SYS / PHASE SHIFT   
J L1C                                                       SYS / PHASE SHIFT   
J L2L  0.00000                                              SYS / PHASE SHIFT   
J L5Q  0.00000                                              SYS / PHASE SHIFT   
J L1L  0.00000                                              SYS / PHASE SHIFT   
I L5A                                                       SYS / PHASE SHIFT   
  2025     1     1     0    45    0.0000000     GPS         TIME OF FIRST OBS   
 C1C    0.000 C2C    0.000 C2P    0.000                     GLONASS COD/PHS/BIS 
DBHZ                                                        SIGNAL STRENGTH UNIT
    18                                                      LEAP SECONDS        
 24 R01  1 R02 -4 R03  5 R04  6 R05  1 R06 -4 R07  5 R08  6 GLONASS SLOT / FRQ #
    R09 -2 R10 -7 R11  0 R12 -1 R13 -2 R14 -7 R15  0 R16 -1 GLONASS SLOT / FRQ #
    R17  4 R18 -3 R19  3 R20  2 R21  4 R22 -3 R23  3 R24  2 GLONASS SLOT / FRQ #
                                                            END OF HEADER       
> 2025 01 01 00 45  0.0000000  0 39
E19         1.000                                                                                                                                                                                                    26886939.773 4                     -2713.057 4        24.286
G32         2.000    24051312.256 5 126390265.38205     -3959.499 5        31.117                                                                                                    24051296.608 3                     -3087.469 3        22.686
G21         3.000    21842708.812 6 114784196.48706     -2993.653 6        40.989                                    21842714.499 2  89442167.62302     -2332.719 2        17.321
G31         4.000    23380736.233 4                      1809.936 4        27.569
G02         5.000    20829167.690 7 109458033.16007     -1783.130 7        46.729                                    20829162.071 5  85291917.97505     -1389.451 5        35.019
E34         6.000    28375314.840 5                      1959.663 5        33.647                                                                    28375304.601 4                      1463.027 4        29.659    28375307.607 5 114255655.41205      1501.468 5        32.826
E04         7.000    23720359.323 7 124651455.03807     -1091.359 7        44.170                                                                    23720357.636 7  93083766.59707      -814.932 7        42.442    23720357.092 7  95512038.75607      -836.189 7        42.694
G03         8.000    20183567.807 8 106065424.69208       299.121 8        50.315                                    20183563.456 7  82648393.62307       233.081 7        44.108    20183566.633 6  82648393.62806       233.004 6        40.024
E02         9.000    28441205.203 4                     -3217.639 4        25.759                                                                    28441238.260 5                     -2402.654 5        30.151
E12        10.000    27376799.237 4                     -3465.733 4        26.395
G04        11.000    22749024.581 5 119546924.70105      2627.864 5        33.048                                    22749026.942 1  93153469.74701      2047.732 1         5.857    22749020.879 5  93153429.77305      2047.776 5        31.826
E09        12.000    24845245.886 6 130562734.49806      1536.372 6        41.440                                                                    24845246.638 7  97498141.92307      1147.378 7        44.254    24845246.093 7 100041548.84607      1177.212 7        44.972
E10        13.000    25141356.826 6 132118757.53006     -2905.029 6        41.857                                                                    25141359.032 7  98660086.67007     -2169.233 7        42.085    25141361.584 5 101233809.41305     -2225.947 5        32.503
E06        14.000    23691697.269 7 124500776.48507       416.572 7        43.683                                                                    23691698.315 8  92971321.01508       311.084 8        50.768    23691696.986 8  95396662.20108       319.182 8        49.243
E11        15.000    23458976.201 6 123277820.00406     -1726.891 6        39.189                                                                    23458966.063 5  92058039.29205     -1289.630 5        30.762    23458970.332 6  94459552.01606     -1323.134 6        37.951
G19        16.000    23625362.440 6 124152107.76206      2072.103 6        39.664                                    23625356.186 3  96741890.38603      1614.626 3        20.357
E30        17.000    28537288.912 5                     -1572.594 5        31.072                                                                    28537262.467 5 111986363.74305     -1174.019 5        34.871    28537255.016 4 114907744.00304     -1204.760 4        25.293
G28        18.000    23267845.806 4 122273331.37004       242.627 4        29.640
E36        20.000    24195905.366 7 127150340.37307       796.030 7        46.966                                                                    24195905.533 7  94949921.08407       594.448 7        47.741    24195904.535 8  97426900.45308       609.949 8        49.471
G17        22.000    22335674.147 5 117374723.49205       133.875 5        35.776                                    22335669.710 4  91460783.19304       104.320 4        24.797    22335671.560 6  91460838.20306       104.371 6        37.365
S23        24.000    38121149.787 6 200327988.16206      -823.571 6        40.524
S36        25.000    38170310.193 6 200586179.63106      -826.990 6        37.123
R20        27.000    19349334.531 6 103469593.64906     -2194.064 6        38.090                                                                    19349335.181 7  80476310.60807     -1706.531 7        43.462
R04        28.000    22130576.967 4                     -4638.221 4        27.665                                                                    22130586.167 5  92173134.22105     -3607.311 5        35.324
R12        32.000    24631355.100 3                     -3376.591 3        21.000
C19        33.000                                                                                                                                    24477617.491 6 127461427.85106      1915.419 6        36.801                                                                    24477651.899 5 103572798.99805      1556.005 5        32.263
R21        34.000    20369814.974 8 109003054.54308      1954.445 8        48.067                                                                    20369811.218 7  84780249.88607      1520.122 7        45.622
R05        36.000    19187023.561 8 102565745.70308     -1904.595 8        51.472                                                                    19187021.559 6  79773254.95906     -1481.137 6        40.782
C39        38.000                                                                                                                                    38888463.031 3                      -533.617 3        23.448                                                                    38888471.234 5 164549868.40205      -432.664 5        35.414
C06        41.000                                                                                                                                    38599451.354 5 200997464.04605        35.173 5        32.742    38599443.110 6 155424072.87106        27.110 6        39.138    38599438.504 6 163326837.92306        28.510 6        38.417
C29        43.000                                                                                                                                    21804160.540 8 113539879.75108     -1483.737 8        50.892                                                                    21804158.008 7  92260566.11307     -1205.746 7        46.758
C16        45.000                                                                                                                                    38967929.002 5                       -90.874 5        30.868    38967932.975 6 156907743.86306       -70.219 6        39.009    38967927.140 4 164886071.67504       -73.259 4        28.502
C09        46.000                                                                                                                                    39372087.690 5 205020821.39305       449.679 5        31.147    39372077.839 6 158535035.32406       347.904 6        37.025    39372066.982 3                       365.166 3        23.295
C32        47.000                                                                                                                                    23585816.840 7 122817534.04207     -3227.501 7        42.692                                                                    23585815.043 7  99799340.22507     -2622.546 7        43.903
C35        51.000                                                                                                                                    24368863.411 7 126895260.02707      1747.981 7        44.799                                                                    24368860.381 6 103112650.27806      1420.437 6        38.655
I09        54.000    37084842.954 6 145528887.69706      -648.954 6        40.431
C20        55.000                                                                                                                                    21796778.838 8 113501539.69008      -284.942 8        49.789                                                                    21796773.297 8  92229376.97908      -231.524 8        48.983
I01        56.000   330976925.195 5 995683741.26305     -2798.545 5        32.557
C30        58.000                                                                                                                                    24342376.054 6 126757126.44506     -4054.909 6        41.244                                                                    24342373.714 6 103000592.07706     -3294.828 6        41.912
> 2025 01 01 00 45  5.0000000  0 39
E19         1.000                                                                                                                                                                                                    26890309.369 4                     -2714.133 4        24.135
G32         2.000    24055074.828 5 126410067.51905     -3960.826 5        30.921                                                                                                    24055062.913 4                     -3086.495 4        24.692
G21         3.000    21845558.573 6 114799170.07406     -2995.317 6        40.434                                    21845564.622 2  89453835.37702     -2334.021 2        17.585
G31         4.000    23379015.352 5                      1808.387 5        30.257
G02         5.000    20830865.432 7 109466955.51707     -1785.480 7        45.952                                    20830860.157 5  85298870.46405     -1391.283 5        34.390
E34         6.000    28373448.568 5 149103481.28615      1959.725 5        33.311                                                                    28373439.590 4                      1463.283 4        28.739    28373443.069 5 114248147.90305      1501.639 5        33.000
E04         7.000    23721398.665 7 124656917.74807     -1093.510 7        44.318                                                                    23721397.202 7  93087845.90107      -816.667 7        42.990    23721396.694 7  95516224.45407      -837.758 7        42.502
G03         8.000    20183284.634 8 106063935.01508       297.099 8        50.283                                    20183280.174 7  82647232.84107       231.505 7        44.080    20183282.394 6  82647232.83306       231.411 6        40.107
E02         9.000    28444266.016 3                     -3218.664 3        22.419                                                                    28444302.037 4                     -2403.654 4        29.924
E12        10.000    27380096.415 4                     -3466.154 4        24.256
G04        11.000    22746524.277 5 119533790.56105      2626.276 5        32.120                                    22746526.974 1  93143235.38401      2046.292 1         4.000    22746520.868 5  93143195.32505      2046.755 5        31.411
E09        12.000    24843785.004 6 130555057.34506      1534.651 6        41.135                                                                    24843785.804 7  97492409.00407      1146.111 7        44.596    24843785.384 7 100035666.36907      1175.961 7        44.822
E10        13.000    25144122.277 7 132133285.68307     -2906.114 7        42.773                                                                    25144123.768 6  98670935.63906     -2170.171 6        41.576    25144135.922 5 101244941.46605     -2226.694 5        31.396
E06        14.000    23691302.081 7 124498699.70907       414.357 7        43.581                                                                    23691303.132 8  92969770.17808       309.476 8        50.647    23691301.855 8  95395070.90808       317.533 8        49.455
E11        15.000    23460620.597 6 123286459.05406     -1728.445 6        38.510                                                                    23460610.920 5  92064490.55505     -1290.797 5        31.509    23460614.273 6  94466171.55206     -1324.551 6        37.724
G19        16.000    23623391.330 6 124141753.86506      2069.740 6        38.547                                    23623386.597 3  96733822.43903      1612.786 3        19.761
E30        17.000    28538783.284 5                     -1574.972 5        30.936                                                                    28538760.025 5 111992239.69505     -1175.934 5        34.838
G28        18.000    23267614.202 3                       239.426 3        21.952                                                                                                    23267619.084 5  95277015.33315       186.708 5        33.814
E36        20.000    24195148.581 7 127146364.04607       794.827 7        46.946                                                                    24195148.879 7  94946951.74907       593.584 7        47.597    24195147.981 8  97423853.65908       609.054 8        49.545
G17        22.000    22335547.484 5 117374062.19705       130.697 5        35.000                                    22335544.021 4  91460267.88704       101.839 4        24.977    22335544.077 6  91460322.88906       102.095 6        36.616
S23        24.000    38121935.697 6 200332106.82306      -823.654 6        40.355
S36        25.000    38171095.710 6 200590315.29206      -826.948 6        36.767
R20        27.000    19351387.617 6 103480575.10906     -2198.076 6        36.635                                                                    19351388.941 7  80484851.72407     -1709.662 7        43.543
R04        28.000    22134909.379 5                     -4639.056 5        30.317                                                                    22134917.422 5  92191172.73715     -3607.771 5        35.519
R12        32.000    24634510.111 3                     -3380.608 3        20.619
C19        33.000                                                                                                                                    24475778.357 5 127451855.33105      1914.336 5        35.071                                                                    24475805.597 5 103565020.48705      1555.437 5        33.683
R21        34.000    20367991.578 8 108993290.33808      1951.578 8        49.256                                                                    20367986.706 7  84772655.48207      1517.916 7        45.275
R05        36.000    19188807.051 8 102575277.94008     -1908.009 8        52.153                                                                    19188804.436 6  79780668.91906     -1484.028 6        40.646
C39        38.000                                                                                                                                    38888974.522 3                      -533.483 3        22.362                                                                    38888983.387 5 164552034.16905      -433.506 5        35.767
C06        41.000                                                                                                                                    38599415.536 5 200997291.96205        34.128 5        33.078    38599409.989 6 155423939.80906        26.119 6        39.060    38599405.518 6 163326698.09406        27.601 6        38.333
C29        43.000                                                                                                                                    21805586.567 8 113547306.20008     -1486.575 8        51.468                                                                    21805584.144 7  92266600.70007     -1207.943 7        46.508
C16        45.000                                                                                                                                    38968019.879 5                       -92.072 5        31.540    38968020.750 6 156908097.59406       -71.041 6        38.898    38968014.036 4 164886443.40704       -74.039 4        28.834
C09        46.000                                                                                                                                    39371656.042 5 205018575.92705       448.876 5        30.928    39371647.656 6 158533298.98506       347.227 6        37.754    39371634.276 3                       363.679 3        22.438
C32        47.000                                                                                                                                    23588916.069 7 122833675.25107     -3228.620 7        42.641                                                                    23588914.757 7  99812456.28607     -2623.519 7        44.066
C35        51.000                                                                                                                                    24367185.824 7 126886524.67507      1746.341 7        44.560                                                                    24367181.329 6 103105552.11106      1419.092 6        37.085
I09        54.000    37085670.362 6 145532134.07606      -649.169 6        40.677
C20        55.000                                                                                                                                    21797053.644 8 113502970.41908      -287.085 8        49.944                                                                    21797047.859 8  92230539.57208      -233.283 8        48.631
I01        56.000   330980490.537 5 995697734.87605     -2798.511 5        32.748
C30        58.000                                                                                                                                    24346270.164 6 126777404.59906     -4056.036 6        41.983                                                                    24346268.043 6 103017069.73606     -3295.764 6        41.919
> 2025 01 01 00 45 10.0000000  0 39
E19         1.000                                                                                                                                                                                                    26893679.944 4                     -2714.574 4        24.526
G32         2.000    24058834.227 5 126429875.45105     -3962.125 5        31.909                                                                                                    24058829.919 4                     -3086.690 4        24.135
G21         3.000    21848409.572 6 114814151.89206     -2996.969 6        40.212                                    21848415.979 3  89465509.55003     -2335.319 3        18.925
G31         4.000    23377295.990 5                      1806.358 5        32.683
G02         5.000    20832565.465 7 109475889.67307     -1787.889 7        45.767                                    20832560.330 5  85305832.14205     -1393.160 5        34.048
E34         6.000    28371581.823 5 149093682.81305      1959.938 5        33.581                                                                    28371574.660 4                      1463.201 4        28.341    28371578.604 5 114240640.10705      1501.786 5        33.814
E04         7.000    23722440.860 7 124662391.88807     -1095.876 7        44.918                                                                    23722438.815 7  93091933.72807      -818.291 7        43.558    23722438.344 7  95520418.92807      -839.610 7        42.091
G03         8.000    20183002.724 8 106062455.65008       295.121 8        49.945                                    20182998.833 7  82646080.09307       229.962 7        44.450    20183000.810 6  82646080.09506       229.846 6        40.002
E02         9.000                                                                                                                                    28447365.505 4                     -2404.392 4        29.611
E12        10.000    27383389.466 3                     -3469.293 3        21.952
G04        11.000    22744025.703 5 119520663.08805      2625.060 5        31.970                                    22744028.701 1  93133006.14001      2045.544 1         3.400    22744021.180 5  93132966.16505      2045.479 5        31.411
E09        12.000    24842326.080 6 130547388.20806      1533.162 6        40.713                                                                    24842326.354 7  97486682.06607      1144.920 7        45.067    24842326.074 7 100029790.03907      1174.857 7        44.683
E10        13.000    25146888.496 7 132147820.21007     -2907.406 7        43.526                                                                    25146889.692 6  98681789.34006     -2171.101 6        41.116    25146903.781 4 101256078.27404     -2227.852 4        29.450
E06        14.000    23690908.759 7 124496633.69707       412.317 7        43.401                                                                    23690909.892 8  92968227.38808       307.901 8        50.709    23690908.762 8  95393487.87108       315.921 8        49.768
E11        15.000    23462266.064 6 123295106.43606     -1730.165 6        37.996                                                                    23462257.832 5  92070947.96805     -1292.060 5        32.940    23462259.917 6  94472797.44306     -1325.626 6        37.357
G19        16.000    23621423.704 6 124131411.28706      2067.549 6        40.205                                    23621418.842 3  96725763.30003      1611.083 3        18.925
E30        17.000                                                                                                                                    28540259.763 5 111998124.12205     -1177.790 5        34.276    28540251.174 4 114919811.11904     -1207.336 4        24.752
G28        18.000                                                                                                                                                                    23267389.542 5  95276088.84305       184.274 5        33.970
E36        20.000    24194393.050 7 127142393.60007       793.648 7        47.099                                                                    24194393.350 7  94943986.80407       592.695 7        47.456    24194392.456 8  97420811.37508       608.120 8        49.714
G17        22.000    22335422.497 6 117373415.74106       127.920 6        37.603                                    22335421.145 4  91459764.16004        99.687 4        25.474    22335420.737 6  91459819.18106        99.586 6        36.004
S23        24.000    38122719.613 6 200336225.64106      -823.484 6        40.791
S36        25.000    38171879.665 6 200594451.36306      -827.050 6        37.093
R20        27.000    19353444.649 5 103491576.11705     -2202.136 5        35.076                                                                    19353446.010 7  80493408.07107     -1712.671 7        42.766
R04        28.000                                                                                                                                    22139250.131 5  92209214.79505     -3608.398 5        35.881
R12        32.000    24637671.397 3                     -3381.490 3        19.284
C19        33.000                                                                                                                                    24473942.153 5 127442288.70705      1913.135 5        34.295                                                                    24473960.640 5 103557246.81005      1554.255 5        34.352
R21        34.000    20366170.141 8 108983540.12208      1948.868 8        49.689                                                                    20366164.745 7  84765071.98207      1515.779 7        45.639
R05        36.000    19190593.260 8 102584827.28708     -1911.302 8        52.005                                                                    19190591.045 6  79788096.17906     -1486.575 6        40.267
C39        38.000                                                                                                                                    38889488.996 3                      -533.796 3        22.648                                                                    38889496.409 5 164554204.20805      -434.265 5        35.538
C06        41.000                                                                                                                                    38599382.258 5 200997124.79905        32.765 5        32.551    38599377.395 6 155423810.52906        25.610 6        38.532    38599373.350 6 163326562.25806        26.848 6        38.297
C29        43.000                                                                                                                                    21807015.646 8 113554746.49808     -1489.270 8        51.928                                                                    21807013.021 7  92272646.56607     -1210.202 7        46.542
C16        45.000                                                                                                                                    38968108.283 5                       -92.867 5        31.487    38968109.487 6 156908455.13106       -71.715 6        39.096    38968103.081 4 164886819.17804       -75.452 4        29.081
C09        46.000                                                                                                                                    39371224.476 5 205016334.45305       448.004 5        31.615    39371217.041 6 158531565.76706       346.543 6        38.378    39371202.577 3                       364.545 3        22.210
C32        47.000                                                                                                                                    23592016.214 7 122849821.82207     -3229.677 7        42.510                                                                    23592015.751 7  99825576.71607     -2624.599 7        44.220
C35        51.000                                                                                                                                    24365510.161 7 126877797.44207      1744.785 7        44.141                                                                    24365504.025 5 103098460.55305      1417.747 5        35.724
I09        54.000    37086497.458 6 145535381.56006      -649.440 6        40.513
C20        55.000                                                                                                                                    21797330.613 8 113504411.86708      -289.148 8        49.859                                                                    21797324.469 8  92231710.89508      -235.081 8        48.345
I01        56.000   330984057.761 5 995711729.51405     -2798.928 5        32.341
C30        58.000                                                                                                                                    24350165.389 7 126797688.01307     -4056.913 7        42.269                                                                    24350163.372 6 103033551.69906     -3296.665 6        41.709
> 2025 01 01 00 45 15.0000000  0 39
E19         1.000                                                                                                                                                                                                    26897052.473 4                     -2716.330 4        24.241
G32         2.000    24062599.749 5 126449689.20305     -3963.358 5        32.293                                                                                                    24062601.241 4                     -3088.238 4        24.602
G21         3.000    21851262.062 6 114829141.83506     -2998.730 6        40.553                                    21851268.396 3  89477190.07203     -2336.687 3        19.403
G31         4.000    23375579.732 5                      1804.312 5        33.090
G02         5.000    20834268.034 7 109484835.55607     -1790.209 7        45.440                                    20834262.637 5  85312802.96405     -1394.971 5        33.587
E34         6.000    28369715.249 5 149083883.91105      1959.960 5        33.976                                                                    28369710.382 4                      1463.732 4        28.493    28369714.000 5 114233131.83605      1501.625 5        34.357
E04         7.000    23723485.281 7 124667877.37607     -1098.063 7        45.601                                                                    23723482.627 7  93096030.03207      -820.008 7        43.881    23723482.036 6  95524622.09206      -841.452 6        41.812
G03         8.000    20182723.072 8 106060986.54508       293.037 8        49.554                                    20182719.383 7  82644935.34107       228.342 7        44.650    20182721.529 6  82644935.32906       228.381 6        40.675
E02         9.000    28450423.704 4                     -3220.404 4        24.180                                                                    28450428.786 4                     -2404.747 4        28.597
E12        10.000    27386691.043 3                     -3467.538 3        20.500
G04        11.000    22741528.630 5 119507542.19505      2623.356 5        32.245                                    22741531.685 1  93122782.08601      2044.207 1         3.000    22741527.179 5  93122742.15605      2044.547 5        31.472
E09        12.000    24840868.899 6 130539727.02206      1531.689 6        40.286                                                                    24840868.581 7  97480961.06307      1143.694 7        45.437    24840868.194 7 100023919.80007      1173.589 7        44.602
E10        13.000    25149655.361 7 132162360.98907     -2908.552 7        44.093                                                                    25149656.506 6  98692647.73306     -2172.065 6        40.596    25149665.863 4 101267219.94704     -2228.763 4        27.701
E06        14.000    23690517.944 7 124494578.40307       410.164 7        43.666                                                                    23690518.830 8  92966692.58908       306.286 8        50.465    23690517.617 8  95391913.03508       314.225 8        50.021
E11        15.000    23463912.427 6 123303762.06106     -1731.681 6        37.153                                                                    23463906.441 5  92077411.55505     -1293.031 5        33.880    23463907.155 6  94479429.68806     -1327.008 6        37.508
G19        16.000    23619458.402 6 124121079.98606      2065.288 6        40.944                                    23619452.920 2  96717712.92302      1609.328 2        16.981
E30        17.000    28541755.580 4                     -1579.635 4        29.782                                                                    28541761.979 5 112004016.90105     -1179.128 5        34.352    28541752.550 4 114925857.67604     -1210.228 4        25.985
G28        18.000    23267169.070 3                       232.204 3        22.990                                                                                                    23267167.727 5  95275174.12205       181.969 5        34.133
E36        20.000    24193638.392 7 127138428.94907       792.483 7        47.207                                                                    24193638.856 7  94941026.19207       591.828 7        47.292    24193638.077 8  97417773.53308       607.209 8        49.957
G17        22.000    22335305.493 6 117372784.21606       124.999 6        40.212                                    22335301.100 4  91459272.06104        97.409 4        26.371    22335300.378 6  91459327.05106        97.489 6        36.439
S23        24.000    38123504.691 6 200340344.77306      -823.728 6        40.787
S36        25.000    38172669.113 6 200598587.08406      -826.961 6        36.983
R20        27.000    19355507.559 5 103502596.59305     -2205.736 5        33.659                                                                    19355506.817 6  80501979.55206     -1715.700 6        41.974
R04        28.000    22143604.981 5                     -4640.541 5        33.976                                                                    22143584.555 5  92227260.24105     -3609.172 5        35.433
R12        32.000    24640832.091 3                     -3382.564 3        20.786
C19        33.000                                                                                                                                    24472107.702 5 127432727.92905      1911.525 5        34.210
R21        34.000    20364349.032 8 108973803.96008      1945.970 8        48.848                                                                    20364345.281 7  84757499.40807      1513.553 7        45.621
R05        36.000    19192382.703 8 102594393.38808     -1914.721 8        51.353                                                                    19192380.804 6  79795536.48106     -1489.230 6        39.949
C39        38.000                                                                                                                                    38890002.436 3                      -536.491 3        22.686                                                                    38890010.549 5 164556378.36105      -435.112 5        35.757
C06        41.000                                                                                                                                    38599351.035 5 200996962.43005        32.248 5        32.228    38599345.757 6 155423685.00006        24.972 6        38.354    38599342.312 6 163326430.30406        26.223 6        38.042
C29        43.000                                                                                                                                    21808447.532 8 113562200.58808     -1491.996 8        52.023                                                                    21808444.722 7  92278703.60707     -1212.320 7        46.424
C16        45.000                                                                                                                                    38968199.298 5                       -93.875 5        31.525    38968199.197 6 156908816.39906       -72.580 6        39.243    38968192.684 4 164887198.76204       -76.189 4        28.559
C09        46.000                                                                                                                                    39370797.777 5 205014096.94605       447.256 5        31.419    39370787.588 6 158529835.60406       345.655 6        39.090    39370771.320 3                       364.542 3        21.024
C32        47.000                                                                                                                                    23595117.494 7 122865973.67407     -3230.705 7        42.633                                                                    23595117.616 7  99838701.38507     -2625.155 7        44.399
C35        51.000                                                                                                                                    24363836.060 7 126869078.27007      1743.155 7        43.958                                                                    24363828.885 5 103091375.51905      1416.508 5        34.443
I09        54.000    37087325.838 6 145538630.13306      -649.632 6        40.722
C20        55.000                                                                                                                                    21797609.968 8 113505863.97608      -291.286 8        49.662                                                                    21797603.129 7  92232890.84707      -236.669 7        47.901
I01        56.000   330987622.849 5 995725725.11905     -2799.295 5        32.084
C30        58.000                                                                                                                                    24354061.594 7 126817976.66207     -4058.065 7        42.535                                                                    24354059.715 6 103050037.87506     -3297.454 6        41.592
> 2025 01 01 00 45 20.0000000  0 39
E19         1.000                                                                                                                                                                                                    26900425.923 3                     -2717.007 3        21.929
G32         2.000    24066369.229 5 126469508.93405     -3964.154 5        32.150                                                                                                    24066372.509 4                     -3088.599 4        25.068
G21         3.000    21854116.804 6 114844140.06106     -3000.206 6        41.080                                    21854121.948 3  89488877.03803     -2337.818 3        20.214
G31         4.000    23373864.190 5                      1802.544 5        32.653
G02         5.000    20835973.098 7 109493793.30007     -1792.474 7        45.806                                    20835967.090 5  85319783.02505     -1396.735 5        33.497
E34         6.000    28367849.926 5 149074084.63305      1959.879 5        33.808                                                                    28367845.036 4                      1463.719 4        27.341    28367849.243 5 114225623.32405      1501.833 5        34.371
E04         7.000    23724531.501 7 124673374.36007     -1100.253 7        46.528                                                                    23724528.830 7  93100134.92107      -821.731 7        44.236    23724527.695 6  95528834.05506      -843.109 6        41.421
G03         8.000    20182445.913 8 106059527.85508       290.939 8        49.268                                    20182441.919 7  82643798.70707       226.705 7        44.703    20182443.836 6  82643798.69206       226.632 6        40.965
E02         9.000    28453486.770 4                     -3220.978 4        26.024                                                                    28453492.992 4                     -2405.227 4        28.521
E12        10.000    27389996.838 3                     -3466.855 3        21.786
G04        11.000    22739035.689 5 119494428.11205      2622.362 5        33.695                                    22739035.285 1  93112563.37601      2043.373 1         4.286    22739031.749 5  93112523.45605      2043.449 5        31.291
E09        12.000    24839413.418 6 130532073.96106      1530.078 6        40.398                                                                    24839412.274 7  97475246.11707      1142.618 7        45.875    24839411.994 7 100018055.77207      1172.442 7        44.409
E10        13.000    25152423.520 7 132176908.22207     -2909.866 7        44.379                                                                    25152424.481 6  98703510.93506     -2172.937 6        39.916    25152430.219 4 101278366.55804     -2229.679 4        24.602
E06        14.000    23690129.224 7 124492533.97607       408.049 7        44.268                                                                    23690129.757 8  92965165.90708       304.708 8        50.284    23690128.450 8  95390346.52308       312.662 8        49.958
E11        15.000    23465561.396 6 123312426.13806     -1733.353 6        37.225                                                                    23465556.282 5  92083881.45305     -1294.616 5        35.448    23465556.026 6  94486068.35906     -1328.252 6        36.870
G19        16.000    23617496.282 6 124110760.18306      2063.099 6        41.085                                    23617489.430 2  96709671.53802      1607.570 2        15.000
E30        17.000    28543262.759 4                     -1581.250 4        28.502                                                                    28543265.902 5 112009918.28705     -1181.049 5        32.922
G28        18.000                                                                                                                                                                    23266950.957 5  95274271.27905       179.737 5        32.287
E36        20.000    24192885.378 7 127134470.26307       791.338 7        47.577                                                                    24192885.475 7  94938070.04707       590.946 7        47.254    24192884.844 8  97414740.26508       606.342 8        49.851
G17        22.000    22335192.021 6 117372167.75806       122.057 6        41.282                                    22335183.854 4  91458791.70004        95.108 4        27.485    22335183.160 6  91458846.70806        95.029 6        37.251
S23        24.000    38124287.717 6 200344464.33906      -823.702 6        40.660
S36        25.000    38173459.476 6 200602722.83406      -826.857 6        36.809
R20        27.000    19357570.542 5 103513636.72305     -2209.900 5        32.958                                                                    19357572.658 7  80510566.31607     -1718.652 7        42.199
R04        28.000    22147932.241 5 118601208.26415     -4641.557 5        33.114                                                                    22147918.640 5  92245309.08005     -3610.088 5        34.605
R06        29.000    21421993.515 6 114311861.92516      2465.878 6        37.089
C19        33.000                                                                                                                                    24470277.185 6 127423173.13206      1910.575 6        36.144                                                                    24470268.175 6 103541713.69806      1552.451 6        37.478
R21        34.000    20362530.453 7 108964081.99607      1943.222 7        47.759                                                                    20362528.654 7  84749937.90407      1511.350 7        46.038
R05        36.000    19194175.201 8 102603976.37108     -1918.037 8        51.442                                                                    19194173.473 6  79802989.91906     -1491.842 6        40.188
C39        38.000                                                                                                                                    38890521.238 3                      -539.488 3        20.976                                                                    38890525.547 5 164558556.80405      -435.851 5        35.286
C06        41.000                                                                                                                                    38599322.379 5 200996805.09305        31.342 5        32.024    38599314.693 6 155423563.34906        24.141 6        38.240    38599311.798 6 163326302.48206        25.377 6        37.626
C29        43.000                                                                                                                                    21809881.988 8 113569668.63408     -1494.707 8        51.538                                                                    21809879.011 7  92284772.00907     -1214.559 7        46.421
C16        45.000                                                                                                                                    38968291.347 5                       -94.676 5        32.240    38968290.448 6 156909181.51306       -73.217 6        39.465    38968284.315 4 164887582.50604       -77.124 4        28.739
C09        46.000                                                                                                                                    39370366.523 5 205011863.58805       446.706 5        30.634    39370359.006 6 158528108.62006       345.231 6        39.859    39370342.890 3                       363.798 3        20.857
C32        47.000                                                                                                                                    23598220.194 7 122882130.93507     -3231.769 7        42.988                                                                    23598220.531 7  99851830.51007     -2626.085 7        44.661
C35        51.000                                                                                                                                    24362163.151 7 126860367.32207      1741.587 7        43.810                                                                    24362156.035 5 103084297.16005      1415.321 5        34.129
I09        54.000    37088153.721 6 145541879.88606      -649.810 6        40.701
C20        55.000                                                                                                                                    21797891.163 8 113507326.88508      -293.433 8        49.329                                                                    21797884.035 7  92234079.60807      -238.473 7        47.325
I01        56.000   330991190.212 5 995739721.69105     -2799.241 5        31.909
C30        58.000                                                                                                                                    24357959.071 7 126838270.66707     -4059.044 7        42.377                                                                    24357957.188 6 103066528.43706     -3298.370 6        41.621
> 2025 01 01 00 45 25.0000000  0 38
E19         1.000                                                                                                                                                                                                    26903798.041 3                     -2717.087 3        22.552
G32         2.000    24070138.726 5 126489333.66305     -3965.240 5        31.094                                                                                                    24070144.698 4                     -3089.275 4        25.383
G21         3.000    21856972.691 6 114859145.62506     -3001.879 6        41.836                                    21856976.382 3  89500569.73803     -2339.137 3        20.762
G31         4.000    23372147.659 5                      1800.773 5        30.808
G02         5.000    20837680.226 7 109502761.99707     -1794.887 7        46.261                                    20837673.559 5  85326771.62205     -1398.608 5        33.695
E34         6.000    28365985.041 5 149064284.05705      1960.224 5        34.062                                                                    28365980.088 4                      1464.160 4        26.814    28365983.864 5 114218113.81705      1501.926 5        34.714
E04         7.000    23725579.732 7 124678881.93107     -1102.590 7        46.432                                                                    23725576.891 7  93104247.71007      -823.401 7        44.254    23725575.503 6  95533054.13306      -844.745 6        40.949
G03         8.000    20182170.263 8 106058078.66708       288.807 8        49.409                                    20182166.306 7  82642669.47607       225.047 7        44.798    20182167.858 6  82642669.45006       225.045 6        40.503
E02         9.000    28456545.292 4                     -3222.529 4        25.789                                                                    28456558.209 4                     -2406.148 4        28.246
G04        11.000    22736544.701 5 119481319.94005      2620.799 5        35.338                                    22736539.731 1  93102349.25101      2042.188 1         5.000    22736534.647 5  93102309.32205      2042.821 5        30.279
E09        12.000    24837958.909 6 130524428.10706      1528.381 6        39.513                                                                    24837957.188 7  97469536.54607      1141.291 7        46.025    24837957.157 7 100012197.26807      1171.027 7        44.399
E10        13.000    25155192.467 7 132191460.96907     -2911.249 7        43.693                                                                    25155193.539 6  98714378.26206     -2174.077 6        38.919
E06        14.000    23689742.277 7 124490499.48907       405.891 7        44.193                                                                    23689742.477 8  92963646.64108       303.065 8        49.877    23689741.112 8  95388787.62508       310.941 8        49.943
E11        15.000    23467212.513 6 123321097.67606     -1734.816 6        36.393                                                                    23467207.080 6  92090356.94906     -1295.628 6        36.355    23467206.325 6  94492712.78906     -1329.470 6        36.968
G19        16.000    23615537.198 6 124100450.97606      2060.737 6        40.984                                    23615527.881 2  96701638.39502      1605.815 2        12.364
E30        17.000    28544767.200 4                     -1583.749 4        26.754                                                                    28544771.178 5 112015827.46105     -1182.736 5        32.946    28544764.673 4 114937976.30104     -1213.424 4        26.695
G28        18.000    23266713.966 4                       227.932 4        25.248                                                                                                    23266731.808 4  95273379.65304       177.611 4        29.896
E36        20.000    24192133.180 7 127130516.62507       790.177 7        47.585                                                                    24192133.031 7  94935117.66707       590.048 7        47.001    24192132.455 8  97411710.87208       605.394 8        49.846
G17        22.000    22335076.745 6 117371565.34306       118.975 6        40.677                                    22335069.081 4  91458322.28304        92.706 4        28.768    22335069.315 6  91458377.31706        92.475 6        36.862
S23        24.000    38125071.825 6 200348583.47106      -823.831 6        40.517
S36        25.000    38174242.064 6 200606857.22306      -826.735 6        36.881
R20        27.000    19359638.320 5 103524695.54005     -2213.674 5        32.695                                                                    19359641.088 7  80519167.65107     -1721.865 7        42.491
R04        28.000    22152263.139 5 118624417.45605     -4642.085 5        34.029                                                                    22152251.907 5  92263360.70805     -3610.750 5        33.048
R06        29.000    21419682.680 5 114299537.36305      2463.810 5        35.814
C19        33.000                                                                                                                                    24468444.530 6 127413623.43106      1909.246 6        37.384                                                                    24468436.204 6 103533953.81306      1551.298 6        38.417
R21        34.000    20360716.050 7 108954373.24707      1940.393 7        46.745                                                                    20360714.647 7  84742386.65707      1509.147 7        46.658
R05        36.000    19195971.037 8 102613575.51208     -1921.569 8        51.274                                                                    19195969.949 6  79810455.91106     -1494.529 6        40.613
C39        38.000                                                                                                                                                                                                                                                                    38891041.643 5 164560738.78205      -436.743 5        35.333
C06        41.000                                                                                                                                    38599293.867 5 200996651.82005        30.028 5        31.291    38599284.950 6 155423444.82506        23.337 6        37.599    38599282.438 6 163326177.93106        24.419 6        37.338
C29        43.000                                                                                                                                    21811318.561 8 113577149.71708     -1497.622 8        51.070                                                                    21811315.639 7  92290850.98407     -1216.908 7        46.550
C16        45.000                                                                                                                                    38968383.936 5                       -95.705 5        32.461    38968381.768 6 156909549.81506       -74.155 6        39.501    38968375.112 4 164887969.54104       -78.154 4        28.720
C09        46.000                                                                                                                                    39369937.200 5 205009633.44605       445.461 5        30.151    39369930.782 6 158526384.10406       344.459 6        40.389    39369914.334 3                       362.887 3        20.786
C32        47.000                                                                                                                                    23601323.604 7 122898292.69907     -3232.885 7        43.350                                                                    23601324.531 7  99864963.26407     -2627.012 7        45.099
C35        51.000                                                                                                                                    24360490.948 7 126851663.69107      1739.833 7        43.816                                                                    24360486.222 5 103077224.76505      1413.656 5        34.438
I09        54.000    37088982.249 6 145545130.14606      -650.189 6        40.703
C20        55.000                                                                                                                                    21798173.992 8 113508799.68908      -295.627 8        49.103                                                                    21798166.778 7  92235276.37507      -240.250 7        46.870
I01        56.000   330994756.502 5 995753718.62205     -2799.760 5        31.487
C30        58.000                                                                                                                                    24361856.418 7 126858569.10507     -4060.146 7        42.019                                                                    24361855.349 6 103083022.57806     -3299.180 6        41.685
> 2025 01 01 00 45 30.0000000  0 39
