     3.04           OBSERVATION DATA    M                   RINEX VERSION / TYPE
ssrcrin-15.6.1x                         20250101 023000 UTC PGM / RUN BY / DATE 
(00000000023479385599111004) Septentrio proprietary         COMMENT             
ract                                                        MARKER NAME         
01                                                          MARKER NUMBER       
geodetic                                                    MARKER TYPE         
NFB                 CLIMERS@TUW                             OBSERVER / AGENCY   
3296359             SEPT ASTERX SB3 PROB4.14.4              REC # / TYPE / VERS 
Unknown             Unknown                                 ANT # / TYPE        
  4127445.1203  1206914.9423  4695542.0161                  APPROX POSITION XYZ 
        0.0000        0.0000        0.0000                  ANTENNA: DELTA H/E/N
G   23 X1  C1C L1C D1C S1C C1W S1W C2W L2W D2W S2W C2L L2L  SYS / # / OBS TYPES 
       D2L S2L C5Q L5Q D5Q S5Q C1L L1L D1L S1L              SYS / # / OBS TYPES 
E   21 X1  C1C L1C D1C S1C C6C L6C D6C S6C C5Q L5Q D5Q S5Q  SYS / # / OBS TYPES 
       C7Q L7Q D7Q S7Q C8Q L8Q D8Q S8Q                      SYS / # / OBS TYPES 
S    9 X1  C1C L1C D1C S1C C5I L5I D5I S5I                  SYS / # / OBS TYPES 
R   17 X1  C1C L1C D1C S1C C2P L2P D2P S2P C2C L2C D2C S2C  SYS / # / OBS TYPES 
       C3Q L3Q D3Q S3Q                                      SYS / # / OBS TYPES 
C   25 X1  C1P L1P D1P S1P C5P L5P D5P S5P C2I L2I D2I S2I  SYS / # / OBS TYPES 
       C7I L7I D7I S7I C6I L6I D6I S6I C7D L7D D7D S7D      SYS / # / OBS TYPES 
J   17 X1  C1C L1C D1C S1C C2L L2L D2L S2L C5Q L5Q D5Q S5Q  SYS / # / OBS TYPES 
       C1L L1L D1L S1L                                      SYS / # / OBS TYPES 
I    5 X1  C5A L5A D5A S5A                                  SYS / # / OBS TYPES 
SEPTENTRIO RECEIVERS OUTPUT ALIGNED CARRIER PHASES.         COMMENT             
NO FURTHER PHASE SHIFT APPLIED IN THE RINEX ENCODER.        COMMENT             
G L1C                                                       SYS / PHASE SHIFT   
G L2W                                                       SYS / PHASE SHIFT   
G L2L  0.00000                                              SYS / PHASE SHIFT   
G L5Q  0.00000                                              SYS / PHASE SHIFT   
G L1L  0.00000                                              SYS / PHASE SHIFT   
E L1C  0.00000                                              SYS / PHASE SHIFT   
E L6C  0.00000                                              SYS / PHASE SHIFT   
E L5Q  0.00000                                              SYS / PHASE SHIFT   
E L7Q  0.00000                                              SYS / PHASE SHIFT   
E L8Q  0.00000                                              SYS / PHASE SHIFT   
S L1C                                                       SYS / PHASE SHIFT   
S L5I                                                       SYS / PHASE SHIFT   
R L1C                                                       SYS / PHASE SHIFT   
R L2P  0.00000                                              SYS / PHASE SHIFT   
R L2C                                                       SYS / PHASE SHIFT   
R L3Q  0.00000                                              SYS / PHASE SHIFT   
C L1P  0.00000                                              SYS / PHASE SHIFT   
C L5P  0.00000                                              SYS / PHASE SHIFT   
C L2I                                                       SYS / PHASE SHIFT   
C L7I                                                       SYS / PHASE SHIFT   
C L6I                                                       SYS / PHASE SHIFT   
C L7D                                                       SYS / PHASE SHIFT   
J L1C                                                       SYS / PHASE SHIFT   
J L2L  0.00000                                              SYS / PHASE SHIFT   
J L5Q  0.00000                                              SYS / PHASE SHIFT   
J L1L  0.00000                                              SYS / PHASE SHIFT   
I L5A                                                       SYS / PHASE SHIFT   
  2025     1     1     2    30    0.0000000     GPS         TIME OF FIRST OBS   
 C1C    0.000 C2C    0.000 C2P    0.000                     GLONASS COD/PHS/BIS 
DBHZ                                                        SIGNAL STRENGTH UNIT
    18                                                      LEAP SECONDS        
 24 R01  1 R02 -4 R03  5 R04  6 R05  1 R06 -4 R07  5 R08  6 GLONASS SLOT / FRQ #
    R09 -2 R10 -7 R11  0 R12 -1 R13 -2 R14 -7 R15  0 R16 -1 GLONASS SLOT / FRQ #
    R17  4 R18 -3 R19  3 R20  2 R21  4 R22 -3 R23  3 R24  2 GLONASS SLOT / FRQ #
                                                            END OF HEADER       
> 2025 01 01 02 30  0.0000000  0 38
G02         1.000    23644324.864 5                     -4136.590 5        30.641
G31         4.000    22509125.382 7 118286138.23007     -2179.004 7        46.165                                    22509115.344 5  92170983.37205     -1697.920 5        34.814    22509120.305 5  92171110.35605     -1697.947 5        34.629
E34         6.000    25321191.181 7 133063760.01107      1320.092 7        46.453                                                                    25321189.765 7  99365842.73607       985.762 7        46.997    25321189.195 7 101957963.39907      1011.536 7        46.846
E04         7.000    25519538.796 6 134106064.29906     -3104.365 6        41.044                                                                    25519536.733 7 100144130.78007     -2318.212 7        42.226    25519535.189 6 102756586.34406     -2378.566 6        41.902
G03         8.000    20456229.620 7 107498431.79807     -2226.692 7        45.514                                    20456229.530 6  83764803.51206     -1735.087 6        41.080    20456229.026 7  83764863.51707     -1735.069 7        42.339
G09         9.000    21248505.276 7 111661630.75807      1559.367 7        47.027                                    21248501.012 7  87009071.56807      1215.089 7        42.370    21248501.135 6  87009062.58206      1215.086 6        39.670
R14        10.000    23676910.857 4                     -2728.947 4        29.858                                                                    23676911.456 5                     -2122.764 5        33.096
G04        11.000    20189162.371 7 106094788.60507      -155.617 7        47.683                                    20189156.698 6  82671210.11206      -121.255 6        36.715    20189158.582 7  82671229.11407      -121.261 7        45.685
E09        12.000    23477827.534 7 123376915.92107      -811.308 7        46.801                                                                    23477826.348 7  92132105.44807      -605.775 7        45.595    23477826.026 7  94535528.52507      -621.649 7        45.962
E06        14.000    23858762.482 7 125378664.54407     -2061.765 7        46.290                                                                    23858761.612 7  93626923.57007     -1539.552 7        45.342    23858761.501 7  96069333.31407     -1579.765 7        46.159
E11        15.000    25823557.179 5 135703727.60605     -3610.808 5        32.413                                                                    25823554.771 5 101337196.11905     -2696.239 5        33.521    25823556.234 5                     -2766.969 5        31.125
G19        16.000    22524044.643 5 118364782.49305     -1969.540 5        32.551                                    22524041.413 2  92232190.27102     -1534.674 2        13.273
G28        17.000                                                                                                                                                                    24457153.988 4                     -2754.358 4        26.395
G06        19.000    22584092.056 7 118680309.68407      1887.291 7        46.055                                    22584091.613 7  92478058.74007      1470.617 7        43.494    22584091.606 7  92478131.75107      1470.638 7        43.524
E36        20.000    23523557.836 8 123617269.83008     -1409.223 8        48.129                                                                    23523558.156 8  92311479.05408     -1052.328 8        49.542    23523556.452 7  94719635.62507     -1079.744 7        45.944
E05        21.000    24060043.767 5 126436380.04905      1582.435 5        34.433                                                                    24060038.786 4  94416823.78604      1182.161 4        26.934    24060041.728 6  96879858.94506      1212.527 6        36.896
G17        22.000                                                                                                                                                                    23460179.573 3                     -2515.637 3        23.581
R07        23.000    21570418.868 6 115467941.57506      1945.379 6        40.868                                                                    21570387.315 6  89808414.58806      1512.901 6        40.100
S23        24.000    38210435.748 6 200797103.84906      -825.994 6        40.880
S36        25.000    38264022.202 5 201078784.61105      -830.083 5        35.671
R06        29.000    19471790.519 6 103905217.52606      -755.221 6        38.441
C05        32.000                                                                                                                                                                                                    39190857.244 6 157805344.20406      -653.992 6        37.028
C19        33.000                                                                                                                                    22275435.688 6 115994162.16706       168.587 6        37.584                                                                    22275432.295 7  94254639.95707       136.722 7        47.105
R21        34.000    20011060.605 8 107083331.74308     -3170.305 8        48.882                                                                    20011057.545 6  83286937.86506     -2465.790 6        40.558
R05        36.000    22247415.751 6 118925205.32406     -4193.041 6        36.771                                                                    22247428.151 5  92497337.72705     -3261.145 5        33.419
R22        37.000    20753134.333 8 110781616.73508      1421.235 8        52.325                                                                    20753130.004 7  86163519.47407      1105.405 7        42.216
C39        38.000                                                                                                                                    39319141.702 6 204745157.33206     -1586.867 6        36.208                                                                    39319134.234 5 166372151.66205     -1288.910 5        31.706
C22        39.000                                                                                                                                    25572658.261 6 133163501.62706      1927.601 6        36.885                                                                    25572640.603 5 108206229.05705      1566.038 5        33.898
C06        41.000                                                                                                                                    38363826.942 6 199770599.29206     -1099.584 6        36.389    38363812.556 5 154475166.17505      -849.509 5        31.419    38363817.420 4                      -893.668 4        28.455
C29        43.000                                                                                                                                    24481152.487 6 127479852.31506     -4029.552 6        38.826                                                                    24481146.205 6 103587744.33206     -3274.482 6        36.975
C16        45.000                                                                                                                                    38871343.526 5                     -1193.045 5        31.494    38871352.878 6 156518941.58406      -922.420 6        40.412
C09        46.000                                                                                                                                    38550750.297 6 200743894.85606      -588.260 6        38.492    38550750.565 7 155227911.59907      -454.944 7        44.734    38550740.873 4                      -478.156 4        26.060
C44        48.000                                                                                                                                    24890700.005 5 129612502.07405      1183.022 5        34.486                                                                    24890693.333 5 105320674.60305       960.949 5        32.078
C37        49.000                                                                                                                                    25122342.175 4                       543.016 4        29.355                                                                    25122326.602 4                       441.529 4        29.261
C35        51.000                                                                                                                                    23060770.087 8 120083692.00108     -1355.828 8        48.316                                                                    23060767.991 7  97577720.37307     -1101.759 7        45.096
C20        55.000                                                                                                                                    22637249.944 7 117878114.52607     -2386.630 7        45.725                                                                    22637248.207 7  95785702.43107     -1939.415 7        47.228
C12        56.000                                                                                                                                                                                                    26945325.360 4 108497659.67704      1651.892 4        29.621
I09        59.000    37394251.786 4 146743098.28504      -844.501 4        27.473
> 2025 01 01 02 30  5.0000000  0 39
G02         1.000    23648262.217 5                     -4137.379 5        32.144
G31         4.000    22511200.517 7 118297042.46707     -2182.280 7        46.136                                    22511189.989 5  92179480.17405     -1700.476 5        34.605    22511195.502 5  92179607.16405     -1700.493 5        35.138
E34         6.000    25319936.238 7 133057163.50707      1318.932 7        46.936                                                                    25319934.500 7  99360916.78207       984.877 7        47.095    25319934.164 7 101952908.94207      1010.582 7        47.079
E04         7.000    25522493.096 6 134121588.79706     -3105.015 6        41.604                                                                    25522491.171 7 100155723.73807     -2318.728 7        42.315    25522489.467 7 102768481.74207     -2379.262 7        42.123
G03         8.000    20458349.184 7 107509570.16307     -2228.336 7        44.718                                    20458349.424 6  83773482.75606     -1736.365 6        40.393    20458348.287 7  83773542.77407     -1736.477 7        42.121
G09         9.000    21247022.554 7 111653839.57407      1557.434 7        47.588                                    21247018.088 6  87003000.52106      1213.583 6        41.740    21247018.089 6  87002991.52606      1213.558 6        38.952
R14        10.000    23679480.229 5 126224926.77315     -2732.575 5        35.324                                                                    23679475.534 5                     -2125.438 5        31.781
G04        11.000    20189311.605 7 106095573.84307      -158.133 7        46.929                                    20189306.157 6  82671821.98406      -123.216 6        36.280    20189307.944 7  82671840.98607      -123.186 7        45.222
E09        12.000    23478600.267 7 123380977.55207      -812.967 7        46.904                                                                    23478599.270 7  92135138.48307      -607.149 7        45.226    23478598.956 7  94538640.68107      -622.894 7        45.973
E06        14.000    23860724.979 7 125388977.64807     -2063.153 7        46.381                                                                    23860723.923 7  93634624.92107     -1540.639 7        44.831    23860724.184 7  96077235.56307     -1580.815 7        46.342
E11        15.000    25826993.551 5 135721783.85605     -3611.371 5        31.917                                                                    25826991.048 5 101350679.63905     -2696.979 5        33.036    25826992.488 5                     -2767.382 5        31.751
G19        16.000    22525921.361 5 118374639.93105     -1972.575 5        33.856                                    22525917.250 1  92239871.40301     -1537.042 1        10.815
G28        17.000                                                                                                                                                                    24460516.147 4                     -2755.904 4        26.635
G06        19.000    22582297.644 7 118670878.31507      1885.580 7        46.158                                    22582296.637 7  92470709.62107      1469.280 7        43.268    22582297.064 7  92470782.63707      1469.242 7        43.272
E36        20.000    23524900.042 8 123624321.97708     -1411.254 8        48.290                                                                    23524900.181 8  92316745.26308     -1053.864 8        49.507    23524898.354 7  94725039.21407     -1081.368 7        46.072
E05        21.000    24058538.553 5 126428471.67805      1581.482 5        34.605                                                                    24058533.338 4  94410918.27804      1180.734 4        27.006    24058536.377 6  96873799.30006      1211.727 6        36.215
G17        22.000    23463287.505 6 123300425.56316     -3230.190 6        36.760                                                                                                    23463254.592 4                     -2516.507 4        24.481
R07        23.000    21568609.276 6 115458219.53406      1943.891 6        37.422                                                                    21568571.887 6  89800853.01406      1512.017 6        40.329
S23        24.000    38211216.645 6 200801234.44906      -825.893 6        40.713
S36        25.000    38264816.147 5 201082935.44505      -830.123 5        35.671
R15        28.000    22516771.175 6 120322934.17316       553.654 6        38.517                                                                    22516783.099 4                       430.297 4        26.000
R06        29.000    19472498.841 6 103908999.98806      -757.464 6        37.913
C05        32.000                                                                                                                                                                                                    39191670.189 6 157808613.80606      -653.805 6        37.172
C19        33.000                                                                                                                                    22275274.563 5 115993324.65005       166.983 5        35.548                                                                    22275271.400 7  94253959.40307       135.571 7        47.301
R21        34.000    20014025.149 8 107099193.89208     -3174.227 8        48.867                                                                    20014021.145 6  83299275.11106     -2468.857 6        41.552
R05        36.000    22251334.266 5 118946172.26705     -4193.344 5        35.781                                                                    22251352.431 5  92513645.33005     -3261.395 5        32.222
R22        37.000    20751804.501 8 110774520.50908      1417.685 8        51.845                                                                    20751800.972 7  86158000.20507      1102.626 7        42.792
C39        38.000                                                                                                                                    39320663.122 6 204753092.75206     -1587.230 6        36.068                                                                    39320658.598 5 166378599.85605     -1289.491 5        31.517
C22        39.000                                                                                                                                    25570807.649 5 133153866.01005      1927.192 5        35.148                                                                    25570790.926 5 108198399.33005      1565.872 5        34.329
C06        41.000                                                                                                                                    38364883.341 6 199776099.43106     -1100.190 6        36.711    38364869.822 5 154479419.25105      -850.594 5        32.287    38364872.929 4                      -893.850 4        27.737
C29        43.000                                                                                                                                    24485022.565 6 127500003.27106     -4030.267 6        38.492                                                                    24485016.122 6 103604118.62806     -3275.303 6        37.365
C16        45.000                                                                                                                                    38872488.315 5                     -1193.711 5        31.358    38872498.436 6 156523555.67006      -922.856 6        40.200
C09        46.000                                                                                                                                    38551315.729 6 200746839.17006      -588.965 6        38.279    38551316.159 7 155230188.31807      -455.428 7        44.659    38551307.423 4                      -478.301 4        26.862
C44        48.000                                                                                                                                    24889561.722 5 129606593.84005      1180.746 5        33.287                                                                    24889558.548 5 105315873.62405       959.386 5        32.964
C37        49.000                                                                                                                                    25121818.396 4                       540.528 4        25.684                                                                    25121812.495 4                       439.780 4        28.986
C35        51.000                                                                                                                                    23062072.375 7 120090478.76807     -1358.536 7        47.687                                                                    23062071.592 7  97583235.18207     -1104.062 7        45.725
C20        55.000                                                                                                                                    22639542.290 7 117890051.24607     -2387.644 7        43.518                                                                    22639540.581 7  95795401.99007     -1940.296 7        47.008
C12        56.000                                                                                                                                    26943271.723 4                      2135.071 4        25.233    26943275.681 4 108489403.08404      1650.926 4        25.985
I09        59.000    37395327.752 4 146747322.25904      -844.768 4        27.665
> 2025 01 01 02 30 10.0000000  0 40
G02         1.000    23652200.836 5                     -4138.049 5        34.167
G31         4.000    22513278.900 7 118307963.86607     -2186.188 7        46.374                                    22513268.193 5  92187990.34505     -1703.518 5        34.829    22513273.421 5  92188117.34605     -1703.182 5        34.124
E34         6.000    25318682.154 7 133050573.86207      1317.129 7        47.517                                                                    25318680.547 7  99355995.95307       983.541 7        47.056    25318680.237 7 101947859.74507      1009.229 7        47.108
E04         7.000    25525447.943 6 134137117.65106     -3106.306 6        41.905                                                                    25525446.313 7 100167319.95407     -2319.641 7        42.337    25525444.483 7 102780380.47207     -2380.270 7        42.406
G03         8.000    20460470.431 7 107520718.13307     -2230.724 7        44.492                                    20460471.115 6  83782169.48906     -1738.223 6        40.036    20460469.884 6  83782229.50506     -1738.149 6        41.676
G09         9.000    21245541.459 7 111646058.69407      1555.076 7        47.577                                    21245536.916 6  86996937.49506      1211.746 6        41.449    21245536.732 6  86996928.50406      1211.763 6        38.438
R14        10.000    23682044.806 5 126238600.21505     -2736.890 5        33.551
G04        11.000    20189463.433 7 106096372.55107      -161.273 7        47.047                                    20189458.170 6  82672444.34806      -125.667 6        36.023    20189459.846 7  82672463.34607      -125.578 7        44.829
E09        12.000    23479374.949 7 123385048.45607      -815.276 7        46.961                                                                    23479373.882 7  92138178.44107      -608.786 7        44.746    23479373.806 7  94541759.94907      -624.683 7        46.037
E06        14.000    23862688.948 7 125399298.45707     -2065.045 7        46.509                                                                    23862687.715 7  93642332.01807     -1542.158 7        44.435    23862688.369 7  96085143.71707     -1582.314 7        46.377
E11        15.000    25830430.913 5 135739845.79105     -3613.006 5        30.000                                                                    25830428.481 5 101364167.42005     -2697.885 5        33.509    25830430.660 5                     -2768.365 5        32.000
G19        16.000    22527801.286 6 118384513.78006     -1976.610 6        36.873                                    22527796.167 1  92247565.31401     -1540.207 1        10.963
G28        17.000                                                                                                                                                                    24463881.634 4                     -2757.894 4        27.150
G06        19.000    22580504.919 7 118661456.69907      1883.258 7        46.244                                    22580503.489 7  92463368.10407      1467.474 7        43.168    22580504.136 7  92463441.11207      1467.433 7        42.993
E36        20.000    23526244.420 8 123631385.22308     -1413.954 8        48.664                                                                    23526244.224 8  92322019.76508     -1055.883 8        49.454    23526242.602 7  94730451.31107     -1083.390 7        46.128
E05        21.000    24057035.338 5 126420569.07805      1579.768 5        34.871                                                                    24057028.857 4  94405016.89904      1179.694 4        26.527    24057033.336 5  96867744.07705      1210.380 5        35.981
G17        22.000    23466362.993 6 123316581.99906     -3232.146 6        37.841
R07        23.000                                                                                                                                    21566758.098 6  89793297.70806      1510.222 6        40.875
S23        24.000    38212005.999 6 200805365.07806      -826.193 6        40.532
S36        25.000    38265610.017 5 201087086.19805      -830.439 5        35.195
R20        27.000                                                                                                                                    23373452.037 3                     -4240.319 3        19.552
R15        28.000    22516257.105 6 120320176.92416       549.269 6        38.396                                                                    22516258.506 3                       425.840 3        18.627
R06        29.000    19473209.343 6 103912795.12406      -760.344 6        38.601
C05        32.000                                                                                                                                                                                                    39192481.927 6 157811883.61906      -654.113 6        36.900
C19        33.000                                                                                                                                    22275113.258 5 115992494.78105       164.641 5        30.151                                                                    22275111.997 7  94253284.99907       134.253 7        47.670
R21        34.000    20016992.880 8 107115076.36508     -3178.656 8        48.962                                                                    20016989.909 7  83311628.13307     -2472.227 7        42.988
R05        36.000    22255255.652 5 118967141.72805     -4194.586 5        35.643                                                                    22255272.737 5  92529954.98505     -3262.159 5        32.024
R22        37.000    20750478.266 8 110767443.11408      1413.424 8        51.916                                                                    20750475.212 7  86152495.55107      1099.351 7        44.179
C39        38.000                                                                                                                                    39322185.136 5 204761031.42805     -1588.360 5        35.595                                                                    39322183.171 5 166385050.67205     -1290.578 5        31.562
C22        39.000                                                                                                                                    25568958.358 5 133144233.06705      1926.299 5        32.982                                                                    25568941.202 5 108190571.79205      1565.429 5        35.024
C06        41.000                                                                                                                                    38365941.372 6 199781603.61506     -1101.178 6        36.858    38365927.785 5 154483675.45305      -851.633 5        31.872    38365930.092 4                      -895.108 4        28.095
C29        43.000                                                                                                                                    24488892.592 6 127520158.85006     -4031.640 6        38.039                                                                    24488886.618 6 103620496.69806     -3275.989 6        37.664
C16        45.000                                                                                                                                    38873634.222 5                     -1194.613 5        30.664    38873642.970 6 156528172.72606      -923.780 6        39.889
C09        46.000                                                                                                                                    38551882.106 6 200749787.69406      -590.272 6        37.588    38551882.292 7 155232468.31207      -456.348 7        44.618    38551873.521 4                      -479.703 4        27.365
C44        48.000                                                                                                                                    24888427.947 5 129600696.62705      1178.124 5        34.648                                                                    24888425.350 5 105311081.75205       957.028 5        33.030
C37        49.000                                                                                                                                    25121295.096 4                       538.358 4        26.862                                                                    25121300.115 4                       437.260 4        28.957
C35        51.000                                                                                                                                    23063377.192 7 120097279.87107     -1361.781 7        47.525                                                                    23063377.926 7  97588761.64507     -1106.442 7        46.084
C20        55.000                                                                                                                                    22641837.127 6 117901993.98206     -2389.271 6        41.402                                                                    22641834.028 7  95805106.42607     -1941.404 7        46.834
C12        56.000                                                                                                                                    26941224.744 4                      2133.917 4        28.028    26941224.272 3                      1649.696 3        22.019
I09        59.000    37396403.919 4 146751547.01204      -845.185 4        27.545
> 2025 01 01 02 30 15.0000000  0 38
G02         1.000    23656143.247 5 124313848.95615     -4139.753 5        34.810
G31         4.000    22515360.622 7 118318902.26107     -2189.564 7        46.789                                    22515349.917 5  92196513.77505     -1706.159 5        35.424    22515355.193 5  92196640.77405     -1706.075 5        33.018
E34         6.000    25317429.134 7 133043990.96407      1315.773 7        47.973                                                                    25317427.931 7  99351080.15107       982.520 7        47.467    25317427.741 7 101942815.70607      1008.259 7        47.060
E04         7.000    25528403.152 6 134152650.69406     -3107.098 6        41.092                                                                    25528402.197 7 100178919.30707     -2320.312 7        42.739    25528400.338 7 102792282.40307     -2380.735 7        42.258
G03         8.000    20462593.910 7 107531875.57907     -2232.595 7        45.193                                    20462594.603 6  83790863.60706     -1739.684 6        39.949    20462593.264 6  83790923.62406     -1739.592 6        41.554
G09         9.000    21244062.308 7 111638287.99007      1552.968 7        47.444                                    21244057.739 6  86990882.40206      1210.106 6        41.876    21244058.454 6  86990873.40406      1210.162 6        39.468
R14        10.000    23684609.792 4                     -2740.161 4        29.687                                                                    23684622.107 4                     -2132.877 4        24.872
G04        11.000    20189618.036 7 106097184.58507      -163.846 7        46.565                                    20189612.741 5  82673077.10505      -127.670 5        35.981    20189615.076 7  82673096.12607      -127.805 7        45.273
E09        12.000    23480151.098 7 123389128.51107      -817.031 7        47.152                                                                    23480150.414 7  92141225.23707      -610.161 7        44.983    23480150.301 7  94544886.22407      -626.017 7        45.821
E06        14.000    23864654.378 7 125409626.83807     -2066.552 7        46.317                                                                    23864653.200 7  93650044.77307     -1543.280 7        44.823    23864653.710 7  96093057.67107     -1583.434 7        46.012
E11        15.000    25833869.534 4 135757913.22804     -3614.296 4        27.186                                                                    25833867.448 5 101377659.32505     -2698.701 5        34.233    25833869.709 5                     -2769.120 5        32.641
G19        16.000    22529683.131 6 118394403.85506     -1979.822 6        37.871                                    22529678.144 1  92255271.87501     -1542.799 1         9.714
G28        17.000    24467288.077 4                     -3541.279 4        27.916                                                                                                    24467248.747 4                     -2759.118 4        29.280
G06        19.000    22578713.797 7 118652044.73207      1881.364 7        44.685                                    22578712.086 7  92456034.10807      1465.996 7        42.986    22578712.539 7  92456107.11507      1465.960 7        42.514
E36        20.000    23527590.628 8 123638459.43108     -1416.126 8        48.338                                                                    23527590.355 8  92327302.45008     -1057.425 8        49.358    23527588.844 7  94735871.80407     -1085.037 7        45.970
E05        21.000    24055532.374 5 126412672.08105      1578.717 5        34.290                                                                    24055528.527 4  94399119.83904      1178.796 4        28.559    24055532.007 5  96861693.16405      1209.576 5        35.671
G17        22.000    23469436.403 6 123332746.75806     -3233.875 6        37.531                                                                                                    23469438.242 4                     -2519.464 4        24.526
R07        23.000    21564947.551 5                      1940.862 5        34.424                                                                    21564944.455 6  89785748.78706      1509.146 6        40.415
S23        24.000    38212791.001 6 200809495.72406      -826.310 6        40.617
S36        25.000    38266395.703 5 201091237.26905      -830.416 5        35.362
R06        29.000    19473924.580 6 103916602.70806      -762.963 6        39.003
C05        32.000                                                                                                                                                                                                    39193292.127 6 157815153.57606      -654.016 6        36.586
C19        33.000                                                                                                                                    22274954.113 4 115991672.30004       163.673 4        29.460                                                                    22274953.978 7  94252616.63207       133.102 7        47.516
R21        34.000    20019963.744 8 107130978.99408     -3182.674 8        48.624                                                                    20019961.832 7  83323996.86607     -2475.465 7        44.160
R05        36.000    22259180.439 6 118988113.71406     -4195.002 6        36.314
R22        37.000    20749156.385 8 110760384.41208      1409.690 8        52.005                                                                    20749152.839 7  86147005.47907      1096.433 7        45.509
C39        38.000                                                                                                                                    39323709.782 6 204768973.22706     -1588.825 6        36.930                                                                    39323708.396 5 166391503.99605     -1290.508 5        31.238
C22        39.000                                                                                                                                    25567113.630 5 133134602.53905      1925.907 5        31.094                                                                    25567091.962 5 108182746.28205      1564.813 5        34.886
C06        41.000                                                                                                                                    38367001.271 6 199787111.78406     -1102.198 6        36.253    38366984.219 5 154487934.73005      -852.525 5        30.113    38366989.826 5                      -895.397 5        30.000
C29        43.000                                                                                                                                    24492762.829 6 127540318.97406     -4032.756 6        37.229                                                                    24492758.266 6 103636878.40306     -3276.726 6        37.905
C16        45.000                                                                                                                                    38874783.429 5                     -1195.088 5        31.042    38874787.858 6 156532792.63006      -924.342 6        40.050
C09        46.000                                                                                                                                    38552448.906 6 200752740.22706      -591.124 6        36.771    38552449.397 7 155234751.38807      -457.007 7        44.816    38552441.055 4                      -480.040 4        26.359
C44        48.000                                                                                                                                    24887299.533 6 129594810.50706      1175.885 6        37.622                                                                    24887295.552 5 105306298.74905       955.721 5        33.862
C37        49.000                                                                                                                                    25120781.467 5                       536.301 5        30.219                                                                    25120784.452 4                       436.233 4        27.102
C35        51.000                                                                                                                                    23064685.587 7 120104095.22607     -1364.632 7        47.221                                                                    23064686.747 7  97594299.66707     -1108.736 7        46.347
C20        55.000                                                                                                                                    22644132.980 6 117913942.57606     -2390.474 6        41.297                                                                    22644128.684 7  95814815.62107     -1942.310 7        46.844
C12        56.000                                                                                                                                    26939180.707 4                      2132.800 4        29.289
I09        59.000    37397482.381 4 146755772.39904      -844.875 4        26.299
> 2025 01 01 02 30 20.0000000  0 39
G02         1.000    23660083.578 6 124334549.52006     -4140.635 6        36.405
G31         4.000    22517445.665 7 118329857.27807     -2192.631 7        47.188                                    22517434.856 6  92205050.15106     -1708.549 6        36.212    22517438.437 5  92205177.12005     -1708.495 5        31.464
E34         6.000    25316177.644 8 133037414.42108      1314.723 8        48.590                                                                    25316176.320 7  99346169.09707       981.775 7        47.363    25316176.296 7 101937776.54207      1007.379 7        47.230
E04         7.000    25531359.287 6 134168187.56006     -3107.792 6        40.489                                                                    25531358.997 7 100190521.50907     -2320.709 7        43.109    25531357.103 7 102804187.27407     -2381.264 7        42.912
G03         8.000    20464719.077 7 107543042.08607     -2234.122 7        44.975                                    20464719.813 6  83799564.78706     -1740.874 6        39.652    20464718.061 6  83799624.80906     -1741.031 6        41.333
G09         9.000    21242585.674 7 111630527.07507      1551.169 7        47.969                                    21242580.512 7  86984834.94607      1208.701 7        42.106    21242581.727 6  86984825.94706      1208.763 6        38.685
R14        10.000    23687184.438 4 126266002.16214     -2744.000 4        28.483                                                                    23687197.024 4                     -2134.154 4        28.237
G04        11.000    20189775.060 7 106098009.57407      -166.339 7        46.294                                    20189769.873 5  82673719.95505      -129.615 5        35.981    20189772.094 7  82673738.96507      -129.575 7        45.937
E09        12.000    23480929.093 7 123393217.31607      -818.626 7        46.968                                                                    23480928.565 7  92144278.55507      -611.335 7        45.002    23480928.559 7  94548019.20507      -627.274 7        45.846
E06        14.000    23866621.248 7 125419962.38907     -2067.817 7        46.251                                                                    23866619.903 7  93657762.87507     -1544.106 7        44.420    23866620.391 7  96100977.10507     -1584.411 7        45.801
E11        15.000    25837308.959 4 135775985.78804     -3615.311 4        26.000                                                                    25837307.380 5 101391155.10905     -2699.318 5        34.205    25837307.819 5                     -2769.855 5        31.706
G19        16.000    22531567.549 6 118404309.79306     -1982.678 6        38.444                                    22531563.071 1  92262990.74001     -1544.920 1        10.593
G28        17.000    24470651.162 4                     -3542.772 4        26.072                                                                                                    24470614.873 4                     -2760.899 4        28.256
G06        19.000    22576924.610 7 118642642.03207      1879.589 7        43.706                                    22576922.417 7  92448707.33607      1464.614 7        42.760    22576923.494 6  92448780.33806      1464.620 6        41.897
E36        20.000    23528938.743 8 123645544.21608     -1417.992 8        48.039                                                                    23528938.435 8  92332593.03708     -1058.887 8        49.158    23528936.969 7  94741300.40707     -1086.516 7        45.889
E05        21.000    24054030.860 5 126404780.35805      1577.878 5        34.233                                                                    24054026.000 4  94393226.66004      1178.251 4        28.066    24054032.386 6  96855646.25406      1209.113 6        37.694
G17        22.000    23472508.523 5 123348919.37205     -3235.107 5        34.095                                    23472512.858 1  96116020.85111     -2520.807 1        10.148
R07        23.000    21563139.246 6 115429154.09116      1938.674 6        37.437                                                                    21563131.415 6  89778205.88006      1508.063 6        38.243
S23        24.000    38213575.042 6 200813626.04406      -826.005 6        40.286
S36        25.000    38267185.812 5 201095388.93705      -830.446 5        34.810
R15        28.000    22515255.981 5 120314721.04305       541.555 5        33.024
R06        29.000    19474640.116 6 103920422.34806      -765.120 6        39.144
C05        32.000                                                                                                                                                                                                    39194102.832 6 157818423.37006      -654.070 6        36.242
C19        33.000                                                                                                                                    22274797.557 5 115990856.83005       162.327 5        30.400                                                                    22274797.354 7  94251954.03207       131.784 7        47.340
R21        34.000    20022938.747 7 107146901.27707     -3186.393 7        46.882                                                                    20022936.890 7  83336380.87207     -2478.384 7        44.763
R05        36.000    22263105.791 6 119009087.67606     -4194.961 6        36.726                                                                    22263097.028 5  92562579.67005     -3262.824 5        32.581
R22        37.000    20747837.806 8 110753344.02708      1406.266 8        52.004                                                                    20747833.845 7  86141529.60707      1093.791 7        45.904
C39        38.000                                                                                                                                    39325239.327 5 204776917.69405     -1589.291 5        35.957                                                                    39325233.075 5 166397959.62405     -1291.989 5        31.072
C22        39.000                                                                                                                                    25565271.078 5 133124974.07205      1925.334 5        32.647                                                                    25565243.646 5 108174922.48305      1564.734 5        35.152
C06        41.000                                                                                                                                    38368061.245 5 199792623.49105     -1102.721 5        35.886    38368042.505 4 154492196.68504      -852.787 4        29.469    38368048.125 4                      -895.749 4        28.474
C29        43.000                                                                                                                                    24496636.525 6 127560483.15406     -4033.206 6        38.477                                                                    24496630.810 6 103653263.51006     -3277.533 6        38.363
C16        45.000                                                                                                                                    38875931.214 5                     -1195.956 5        31.245    38875933.604 6 156537415.09106      -924.739 6        39.730
C09        46.000                                                                                                                                    38553016.121 5 200755696.45405      -591.746 5        35.776    38553016.979 7 155237037.31607      -457.363 7        44.284    38553008.285 4                      -480.766 4        26.635
C44        48.000                                                                                                                                    24886171.888 6 129588935.01606      1173.856 6        39.147                                                                    24886167.344 5 105301524.45105       953.788 5        34.429
C37        49.000                                                                                                                                    25120272.386 4                       533.918 4        28.692                                                                    25120267.814 4                       433.714 4        27.090
C35        51.000                                                                                                                                    23065996.712 7 120110924.41007     -1367.244 7        46.986                                                                    23065998.132 7  97599848.95907     -1111.156 7        46.588
C20        55.000                                                                                                                                    22646430.294 6 117925896.62006     -2391.345 6        41.685                                                                    22646424.321 7  95824529.29707     -1943.302 7        46.888
C12        56.000                                                                                                                                    26937135.239 4                      2131.220 4        28.938
I09        59.000    37398558.928 4 146759998.26004      -845.369 4        26.168
> 2025 01 01 02 30 25.0000000  0 38
G02         1.000    23664024.002 6 124355255.34606     -4141.663 6        37.977
G31         4.000    22519533.531 7 118340829.49007     -2196.150 7        47.674                                    22519523.014 6  92213599.93206     -1711.288 6        36.563    22519526.596 5  92213726.90705     -1711.413 5        30.506
E34         6.000    25314927.399 8 133030844.80108      1313.202 8        49.205                                                                    25314926.067 7  99341263.22107       980.655 7        47.800    25314926.227 7 101932742.67907      1006.291 7        47.519
E04         7.000    25534316.911 6 134183728.82406     -3108.773 6        40.768                                                                    25534316.377 7 100202126.97907     -2321.444 7        43.122    25534314.377 7 102816095.50007     -2381.962 7        43.175
G03         8.000    20466845.415 7 107554218.24207     -2236.056 7        45.643                                    20466846.817 6  83808273.48906     -1742.385 6        39.405    20466845.410 6  83808333.50906     -1742.385 6        41.106
G09         9.000    21241111.429 7 111622776.51307      1548.997 7        47.922                                    21241105.203 6  86978795.56106      1207.006 6        41.712    21241107.076 6  86978786.56306      1207.176 6        37.497
R14        10.000    23689763.681 4 126279731.17714     -2747.448 4        28.863
G04        11.000    20189934.311 7 106098848.07507      -169.128 7        46.222                                    20189929.573 5  82674373.33405      -131.785 5        35.886    20189931.841 7  82674392.33407      -131.730 7        46.561
E09        12.000    23481709.219 7 123397315.43807      -820.506 7        46.770                                                                    23481708.340 7  92147338.83407      -612.692 7        44.638    23481708.540 7  94551159.31707      -628.695 7        46.079
E06        14.000    23868589.508 7 125430305.67507     -2069.379 7        46.328                                                                    23868588.033 7  93665486.74907     -1545.286 7        44.060    23868588.628 7  96108902.48207     -1585.631 7        45.782
E11        15.000    25840746.627 4 135794064.17604     -3616.320 4        24.286                                                                    25840748.001 5 101404655.14205     -2700.200 5        34.638    25840747.552 5                     -2770.946 5        32.144
G19        16.000    22533455.729 6 118414232.13506     -1986.058 6        37.834                                    22533451.174 2  92270722.41102     -1547.559 2        12.121
G28        17.000    24474015.226 3                     -3544.278 3        23.162
G06        19.000    22575137.917 7 118633249.15007      1877.582 7        43.291                                    22575134.712 7  92441388.21307      1463.052 7        42.527    22575136.577 6  92441461.22206      1462.982 6        41.433
E36        20.000    23530289.165 8 123652640.14208     -1420.322 8        48.138                                                                    23530288.670 8  92337891.93908     -1060.605 8        49.293    23530287.415 7  94746737.54607     -1088.284 7        46.047
E05        21.000    24052530.242 5 126396894.43705      1576.468 5        35.276                                                                    24052527.539 4  94387337.83804      1176.996 4        28.161    24052533.064 6  96849603.82106      1207.860 6        38.276
G17        22.000    23475579.884 5 123365100.45305     -3237.108 5        31.230                                    23475590.993 1  96128629.47101     -2522.387 1         8.476    23475584.165 3                     -2522.454 3        20.048
R07        23.000    21561330.227 6 115419464.42306      1937.002 6        41.249                                                                    21561319.261 5  89770669.42505      1506.603 5        34.895
S23        24.000    38214362.226 6 200817756.90006      -826.321 6        40.429
S36        25.000    38267977.982 5 201099540.51105      -830.447 5        35.281
R06        29.000    19475357.170 6 103924254.60006      -767.602 6        39.192
C05        32.000                                                                                                                                                                                                    39194915.053 6 157821693.42306      -654.048 6        36.110
C19        33.000                                                                                                                                    22274642.830 5 115990048.99805       160.642 5        33.545                                                                    22274642.130 7  94251297.58507       130.605 7        47.487
R21        34.000    20025918.583 7 107162843.91307     -3190.610 7        45.237                                                                    20025915.977 7  83348780.69007     -2481.583 7        44.313
R05        36.000    22267025.987 5 119030064.30005     -4195.549 5        34.952                                                                    22267021.426 5  92578894.83405     -3263.271 5        32.725
R22        37.000    20746522.276 8 110746322.54808      1402.454 8        51.607                                                                    20746518.354 7  86136068.45607      1090.853 7        45.920
C39        38.000                                                                                                                                    39326771.766 5 204784865.47905     -1589.974 5        35.690                                                                    39326758.949 5 166404417.80105     -1291.722 5        30.415
C22        39.000                                                                                                                                    25563427.324 5 133115348.29605      1924.764 5        32.108                                                                    25563395.316 5 108167100.90005      1563.910 5        35.205
C06        41.000                                                                                                                                    38369122.337 5 199798139.29505     -1103.572 5        35.771    38369098.827 4 154496461.88004      -853.454 4        29.128    38369107.676 4                      -896.801 4        28.379
C29        43.000                                                                                                                                    24500511.318 6 127580652.03606     -4034.162 6        38.009                                                                    24500504.331 6 103669652.34606     -3278.117 6        38.892
C16        45.000                                                                                                                                    38877077.393 5                     -1196.666 5        31.894    38877081.031 6 156542040.54706      -925.418 6        39.186
C09        46.000                                                                                                                                    38553584.793 6 200758656.88206      -592.458 6        36.888    38553585.025 7 155239326.52407      -458.118 7        44.179    38553577.657 4                      -481.172 4        26.934
