     3.04           OBSERVATION DATA    M                   RINEX VERSION / TYPE
ssrcrin-15.6.1x                         20250101 020000 UTC PGM / RUN BY / DATE 
(00000000023479385599111004) Septentrio proprietary         COMMENT             
ract                                                        MARKER NAME         
01                                                          MARKER NUMBER       
geodetic                                                    MARKER TYPE         
NFB                 CLIMERS@TUW                             OBSERVER / AGENCY   
3296359             SEPT ASTERX SB3 PROB4.14.4              REC # / TYPE / VERS 
Unknown             Unknown                                 ANT # / TYPE        
  4127446.4176  1206914.2361  4695543.2089                  APPROX POSITION XYZ 
        0.0000        0.0000        0.0000                  ANTENNA: DELTA H/E/N
G   23 X1  C1C L1C D1C S1C C1W S1W C2W L2W D2W S2W C2L L2L  SYS / # / OBS TYPES 
       D2L S2L C5Q L5Q D5Q S5Q C1L L1L D1L S1L              SYS / # / OBS TYPES 
E   21 X1  C1C L1C D1C S1C C6C L6C D6C S6C C5Q L5Q D5Q S5Q  SYS / # / OBS TYPES 
       C7Q L7Q D7Q S7Q C8Q L8Q D8Q S8Q                      SYS / # / OBS TYPES 
S    9 X1  C1C L1C D1C S1C C5I L5I D5I S5I                  SYS / # / OBS TYPES 
R   17 X1  C1C L1C D1C S1C C2P L2P D2P S2P C2C L2C D2C S2C  SYS / # / OBS TYPES 
       C3Q L3Q D3Q S3Q                                      SYS / # / OBS TYPES 
C   25 X1  C1P L1P D1P S1P C5P L5P D5P S5P C2I L2I D2I S2I  SYS / # / OBS TYPES 
       C7I L7I D7I S7I C6I L6I D6I S6I C7D L7D D7D S7D      SYS / # / OBS TYPES 
J   17 X1  C1C L1C D1C S1C C2L L2L D2L S2L C5Q L5Q D5Q S5Q  SYS / # / OBS TYPES 
       C1L L1L D1L S1L                                      SYS / # / OBS TYPES 
I    5 X1  C5A L5A D5A S5A                                  SYS / # / OBS TYPES 
SEPTENTRIO RECEIVERS OUTPUT ALIGNED CARRIER PHASES.         COMMENT             
NO FURTHER PHASE SHIFT APPLIED IN THE RINEX ENCODER.        COMMENT             
G L1C                                                       SYS / PHASE SHIFT   
G L2W                                                       SYS / PHASE SHIFT   
G L2L  0.00000                                              SYS / PHASE SHIFT   
G L5Q  0.00000                                              SYS / PHASE SHIFT   
G L1L  0.00000                                              SYS / PHASE SHIFT   
E L1C  0.00000                                              SYS / PHASE SHIFT   
E L6C  0.00000                                              SYS / PHASE SHIFT   
E L5Q  0.00000                                              SYS / PHASE SHIFT   
E L7Q  0.00000                                              SYS / PHASE SHIFT   
E L8Q  0.00000                                              SYS / PHASE SHIFT   
S L1C                                                       SYS / PHASE SHIFT   
S L5I                                                       SYS / PHASE SHIFT   
R L1C                                                       SYS / PHASE SHIFT   
R L2P  0.00000                                              SYS / PHASE SHIFT   
R L2C                                                       SYS / PHASE SHIFT   
R L3Q  0.00000                                              SYS / PHASE SHIFT   
C L1P  0.00000                                              SYS / PHASE SHIFT   
C L5P  0.00000                                              SYS / PHASE SHIFT   
C L2I                                                       SYS / PHASE SHIFT   
C L7I                                                       SYS / PHASE SHIFT   
C L6I                                                       SYS / PHASE SHIFT   
C L7D                                                       SYS / PHASE SHIFT   
J L1C                                                       SYS / PHASE SHIFT   
J L2L  0.00000                                              SYS / PHASE SHIFT   
J L5Q  0.00000                                              SYS / PHASE SHIFT   
J L1L  0.00000                                              SYS / PHASE SHIFT   
I L5A                                                       SYS / PHASE SHIFT   
  2025     1     1     2     0    0.0000000     GPS         TIME OF FIRST OBS   
 C1C    0.000 C2C    0.000 C2P    0.000                     GLONASS COD/PHS/BIS 
DBHZ                                                        SIGNAL STRENGTH UNIT
    18                                                      LEAP SECONDS        
 24 R01  1 R02 -4 R03  5 R04  6 R05  1 R06 -4 R07  5 R08  6 GLONASS SLOT / FRQ #
    R09 -2 R10 -7 R11  0 R12 -1 R13 -2 R14 -7 R15  0 R16 -1 GLONASS SLOT / FRQ #
    R17  4 R18 -3 R19  3 R20  2 R21  4 R22 -3 R23  3 R24  2 GLONASS SLOT / FRQ #
                                                            END OF HEADER       
> 2025 01 01 02 00  0.0000000  0 39
G02         1.000    22603171.271 7 118780520.78507     -3656.561 7        42.573                                    22603166.447 4  92556195.82704     -2849.271 4        27.377
G21         3.000    24317304.882 4                     -4038.049 4        28.171
G31         4.000    22279591.936 7 117079929.08107      -897.502 7        46.911                                    22279584.693 6  91231079.52006      -699.353 6        40.114    22279587.401 6  91231202.52706      -699.342 6        40.625
E34         6.000    26144578.814 7 137390692.22807      1706.155 7        44.265                                                                    26144577.907 7 102596992.67907      1274.047 7        42.438    26144576.263 6 105273404.23306      1307.277 6        40.236
E04         7.000    24816564.648 7 130412005.75107     -2723.154 7        43.530                                                                    24816561.610 6  97385508.94206     -2033.556 6        41.840    24816562.228 6  99926000.49706     -2086.564 6        41.356
G03         8.000    20111973.512 7 105689137.93107     -1527.535 7        43.367                                    20111971.352 7  82355207.11207     -1190.285 7        43.403    20111973.061 7  82355197.10207     -1190.250 7        44.020
G09         9.000    22199433.573 5 116658768.43205      2217.922 5        33.269                                    22199433.628 4  90902963.40004      1728.233 4        27.737    22199434.628 6  90902970.44606      1728.375 6        39.444
G04        11.000    20599357.037 5 108250364.78805       795.783 5        35.990                                    20599355.452 2  84350879.97602       620.084 2        17.208    20599351.910 5  84350898.06905       619.988 5        34.590
E09        12.000    23615584.038 8 124100824.92208      -126.080 8        50.371                                                                    23615580.495 6  92672686.23706       -94.129 6        38.048    23615582.072 7  95090211.45307       -96.597 7        47.322
E10        13.000                                                                                                                                    27446805.144 4                     -2833.517 4        25.534    27446801.201 4                     -2908.219 4        27.976
E06        14.000    23552804.713 7 123770843.55807     -1453.635 7        44.617                                                                    23552803.586 7  92426277.84807     -1085.553 7        46.399    23552804.072 8  94837366.38308     -1113.862 8        48.970
E11        15.000    24961657.924 7 131174443.22907     -3153.338 7        42.140                                                                    24961654.128 7  97954901.02907     -2354.766 7        45.199    24961653.728 7 100510212.75807     -2416.226 7        45.970
G19        16.000    22358743.820 4 117496168.60104      -725.496 4        28.919                                    22358739.557 3  91555289.52403      -565.350 3        19.970
G28        17.000    23694729.572 4                     -2622.751 4        27.796
C23        18.000                                                                                                                                    26202509.502 4                      -951.644 4        24.617
G06        19.000    23631172.344 6 124182736.24706      2426.802 6        40.639                                    23631170.541 6  96765663.05206      1891.016 6        36.798    23631169.580 6  96765736.04106      1891.138 6        40.198
E36        20.000    23472977.662 7 123351470.46707      -645.876 7        42.665                                                                    23472976.707 6  92112992.87906      -482.328 6        36.892    23472977.092 6  94515971.56506      -494.790 6        38.351
E05        21.000    24965926.211 4 131196844.54604      1942.093 4        28.720                                                                    24965935.173 3                      1449.827 3        23.067    24965937.188 5 100527493.41905      1487.729 5        34.148
G17        22.000    22773349.168 7 119674736.31607     -2483.346 7        43.299                                    22773346.313 5  93253109.66805     -1935.070 5        30.279    22773347.068 6  93253034.68006     -1934.923 6        36.843
R07        23.000                                                                                                                                    22616892.969 5  94165572.92205      1928.474 5        30.038
S23        24.000    38227422.906 7 200886411.71307      -824.838 7        42.074
S36        25.000    38279629.381 6 201160781.64306      -828.423 6        36.484
R20        27.000    21895812.279 5                     -4979.210 5        30.981                                                                    21895813.461 6  91067460.55506     -3872.745 6        38.508
R06        29.000    19673003.044 5 104978900.49105       183.873 5        33.168
R14        30.000    23293630.086 3                     -1287.343 3        20.929                                                                    23293641.274 4                     -1000.594 4        24.556
C19        33.000                                                                                                                                    22725587.877 8 118338212.96308       701.541 8        48.505                                                                    22725583.610 8  96159372.43808       570.135 8        48.380
R21        34.000    19502686.165 8 104362921.95108     -1601.946 8        52.649                                                                    19502684.065 7  81171064.55707     -1245.960 7        43.918
R05        36.000    21176554.966 6 113200799.06506     -3908.222 6        38.117                                                                    21176555.752 6  88045309.05206     -3039.828 6        39.946
R22        37.000    21734345.301 8 116019380.26108      2546.273 8        48.623                                                                    21734342.674 6  90237334.77206      1980.479 6        41.759
C39        38.000                                                                                                                                    39111867.167 3                     -1336.416 3        21.738                                                                    39111889.845 5                     -1086.872 5        30.294
C06        41.000                                                                                                                                    38334180.192 6 199616140.38606      -800.324 6        39.237    38334171.224 5 154355827.55405      -618.528 5        33.275    38334173.479 6 162204429.46506      -650.151 6        36.355
C29        43.000                                                                                                                                    23459662.762 6 122160581.54506     -3569.692 6        38.949                                                                    23459658.017 6  99265525.55206     -2900.590 6        41.101
C16        45.000                                                                                                                                    38806640.236 5 202076370.13505      -909.213 5        32.341    38806623.306 5 156258160.47005      -702.892 5        34.629    38806622.907 4                      -738.351 4        26.240
C09        46.000                                                                                                                                    38698109.325 6 201511223.55806      -290.817 6        39.823    38698107.091 7 155821259.12507      -224.761 7        47.192    38698103.180 6 163744335.73206      -236.003 6        39.420
C32        47.000                                                                                                                                    26030750.335 4                     -3679.444 4        25.083
C44        48.000                                                                                                                                    25722667.934 4 133944638.38504      1857.135 4        24.722                                                                    25722680.938 5 108840979.64205      1509.468 5        30.091
C35        51.000                                                                                                                                    23070213.577 6 120132704.49506      -324.204 6        39.523                                                                    23070210.843 6  97617632.58006      -263.415 6        36.620
I09        54.000    37317608.732 6 146442307.00906      -795.681 6        39.871
C20        55.000                                                                                                                                    22190507.288 8 115551786.64108     -1914.950 8        51.572                                                                    22190501.008 7  93895370.54307     -1556.004 7        46.984
> 2025 01 01 02 00  5.0000000  0 38
G02         1.000    22606650.655 6 118798806.72706     -3657.951 6        41.576                                    22606646.014 4  92570444.60204     -2850.360 4        26.587
G21         3.000    24321143.564 4                     -4038.575 4        24.947
G31         4.000    22280447.545 7 117084424.61307      -900.823 7        46.251                                    22280440.557 6  91234582.53006      -701.942 6        40.725    22280443.294 6  91234705.55606      -701.988 6        41.495
E34         6.000    26142955.944 7 137382162.35507      1705.722 7        44.593                                                                    26142954.971 7 102590622.96307      1273.733 7        42.559    26142952.938 6 105266868.35206      1306.962 6        39.354
E04         7.000    24819156.337 7 130425624.12107     -2724.188 7        43.695                                                                    24819153.608 6  97395678.50906     -2034.299 6        41.993    24819153.716 6  99936435.36806     -2087.442 6        41.151
G03         8.000    20113427.655 7 105696779.15807     -1529.072 7        44.606                                    20113425.341 7  82361161.30707     -1191.478 7        43.507    20113427.086 7  82361151.30207     -1191.632 7        44.536
G09         9.000    22197323.031 5 116647681.53905      2216.576 5        33.359                                    22197324.006 4  90894324.26004      1727.197 4        26.671    22197325.354 6  90894331.31106      1727.267 6        39.613
G04        11.000    20598599.821 6 108246391.26406       793.596 6        36.684                                    20598599.529 2  84347783.65802       618.623 2        14.476    20598591.202 4  84347801.91404       617.808 4        25.068
E09        12.000    23615704.830 8 124101459.21608      -127.762 8        50.563                                                                    23615701.729 6  92673159.90106       -95.258 6        38.198    23615702.743 7  95090697.48007       -97.870 7        47.079
E10        13.000                                                                                                                                    27450417.424 4                     -2834.643 4        24.812    27450414.129 4                     -2908.307 4        27.269
E06        14.000    23554188.646 7 123778115.44107     -1455.231 7        44.196                                                                    23554187.358 7  92431708.15607     -1086.659 7        46.316    23554187.748 8  94842938.34508     -1115.029 8        49.263
E11        15.000    24964658.639 7 131190212.23507     -3154.425 7        42.296                                                                    24964654.884 7  97966676.58407     -2355.586 7        45.403    24964654.422 7 100522295.50107     -2417.050 7        45.834
G19        16.000    22359431.283 4                      -728.267 4        24.180
G28        17.000    23697216.541 4                     -2625.473 4        25.880
C23        18.000                                                                                                                                    26203424.704 4                      -952.503 4        25.459
G06        19.000    23628863.768 6 124170603.98906      2426.007 6        41.416                                    23628862.039 6  96756209.35506      1890.397 6        36.563    23628860.575 6  96756282.34406      1890.449 6        39.231
E36        20.000    23473592.776 7 123354703.58307      -647.494 7        42.262                                                                    23473591.887 6  92115407.23106      -483.552 6        36.794    23473592.557 6  94518448.91506      -496.306 6        38.916
E05        21.000    24964072.727 3                      1939.707 3        19.940                                                                    24964082.852 4                      1449.730 4        24.316    24964089.374 5 100520054.80105      1487.403 5        34.405
G17        22.000    22775712.966 7 119687158.37207     -2485.600 7        43.363                                    22775710.848 5  93262789.17705     -1936.826 5        31.525    22775710.887 6  93262714.20306     -1936.858 6        36.370
R07        23.000    22614569.748 5 121057735.48815      2478.490 5        35.243                                                                    22614576.468 4  94155932.10104      1927.893 4        29.156
S23        24.000    38228209.048 7 200890534.73207      -824.550 7        42.245
S36        25.000    38280432.104 6 201164923.40306      -828.313 6        36.631
R20        27.000    21900464.787 4                     -4980.760 4        28.607                                                                    21900468.947 6  91086827.57216     -3873.941 6        37.187
R06        29.000    19672832.449 5 104977987.16405       181.233 5        32.569
C19        33.000                                                                                                                                    22724915.115 7 118334707.80107       700.376 7        47.678                                                                    22724910.508 8  96156524.22008       569.128 8        48.330
R21        34.000    19504184.666 8 104370941.85908     -1606.146 8        52.538                                                                    19504183.049 7  81177302.26307     -1249.256 7        44.501
R05        36.000    21180211.990 6 113220342.39206     -3909.268 6        38.688                                                                    21180210.565 6  88060509.40206     -3040.575 6        38.252
R22        37.000    21731960.739 7 116006654.20107      2544.027 7        47.327                                                                    21731958.106 6  90227436.73506      1978.837 6        41.945
C39        38.000                                                                                                                                    39113155.196 3                     -1337.270 3        20.143                                                                    39113174.837 5                     -1087.471 5        31.313
C06        41.000                                                                                                                                    38334948.272 6 199620142.63406      -800.830 6        39.135    38334940.492 5 154358922.34705      -619.347 5        32.946    38334942.217 6 162207681.64706      -650.757 6        36.767
C29        43.000                                                                                                                                    23463085.024 6 122178433.39906     -3570.999 6        38.153                                                                    23463085.877 6  99280031.64506     -2901.849 6        40.880
C16        45.000                                                                                                                                    38807510.996 5 202080916.80605      -909.412 5        34.667    38807496.976 5 156261676.27805      -703.725 5        35.109    38807498.066 4                      -739.212 4        27.341
C09        46.000                                                                                                                                    38698388.358 6 201512677.81606      -291.222 6        39.712    38698386.205 7 155822383.66007      -225.158 7        46.619    38698382.591 6 163745517.46206      -236.698 6        39.577
C32        47.000                                                                                                                                    26034281.946 3                     -3678.642 3        22.990
C44        48.000                                                                                                                                                                                                                                                                    25720892.794 4 108833435.76604      1508.109 4        27.305
C35        51.000                                                                                                                                    23070526.692 6 120134331.16606      -326.682 6        39.925                                                                    23070523.214 6  97618954.43306      -265.518 6        36.480
I09        54.000    37318621.962 6 146446284.83606      -795.538 6        40.129
C20        55.000                                                                                                                                    22192346.547 8 115561364.15108     -1916.093 8        51.262                                                                    22192340.270 7  93903153.06507     -1557.024 7        46.941
> 2025 01 01 02 00 10.0000000  0 36
G02         1.000    22610132.140 7 118817100.62307     -3659.582 7        42.188                                    22610126.997 4  92584699.58504     -2851.631 4        25.820
G31         4.000    22281306.479 7 117088938.11507      -904.509 7        46.066                                    22281299.940 6  91238099.54506      -704.812 6        41.230    22281301.719 6  91238222.56406      -704.839 6        41.886
E34         6.000    26141333.154 7 137373636.36207      1704.869 7        44.405                                                                    26141332.452 6 102584256.16106      1273.090 6        41.681    26141330.680 6 105260335.46106      1306.271 6        39.180
E04         7.000    24821748.483 7 130439248.73007     -2725.471 7        42.946                                                                    24821746.708 7  97405852.72107     -2035.338 7        42.248    24821746.238 6  99946875.00606     -2088.368 6        40.610
G03         8.000    20114884.502 7 105704430.13607     -1531.120 7        44.948                                    20114881.328 7  82367123.09907     -1193.079 7        44.009    20114882.858 7  82367113.09907     -1193.130 7        44.659
G09         9.000    22195215.808 5 116636602.52805      2215.048 5        35.276                                    22195215.860 4  90885691.26204      1725.990 4        25.549    22195216.992 6  90885698.31206      1725.986 6        39.477
G04        11.000    20597845.839 6 108242430.43106       791.072 6        36.299                                    20597845.944 1  84344697.27701       616.584 1        10.815
E09        12.000    23615827.286 8 124102103.11708      -129.688 8        50.883                                                                    23615823.892 6  92673640.75306       -96.888 6        37.989    23615825.285 7  95091190.87407       -99.398 7        46.968
E10        13.000                                                                                                                                    27454026.367 4                     -2835.145 4        25.143    27454028.859 4                     -2908.654 4        25.263
E06        14.000    23555574.831 7 123785396.42707     -1457.072 7        44.280                                                                    23555573.009 7  92437145.25307     -1088.009 7        46.489    23555573.156 8  94848517.28308     -1116.437 8        49.100
E11        15.000    24967660.786 7 131205988.12307     -3155.907 7        42.643                                                                    24967656.863 7  97978457.28407     -2356.642 7        45.356    24967656.461 7 100534383.52207     -2418.057 7        45.713
G19        16.000    22360125.399 4                      -732.211 4        29.431
G28        17.000    23699711.340 4                     -2628.974 4        25.880
G06        19.000    23626555.989 6 124158477.02606      2424.823 6        41.282                                    23626554.396 6  96746759.77006      1889.474 6        36.439    23626553.922 6  96746832.74906      1889.539 6        39.267
E36        20.000    23474209.748 7 123357946.64507      -649.610 7        42.182                                                                    23474209.901 6  92117828.97206      -485.042 6        37.244    23474209.664 6  94520933.81806      -497.550 6        39.517
E05        21.000                                                                                                                                    24962239.090 4                      1448.493 4        25.549    24962243.458 6 100512619.35606      1486.831 6        36.401
G17        22.000    22778079.127 7 119699592.47907     -2488.026 7        44.041                                    22778077.455 5  93272478.06805     -1938.714 5        32.126    22778077.033 5  93272403.09105     -1938.915 5        34.281
R07        23.000    22612260.312 6 121045346.51006      2477.132 6        37.474                                                                    22612267.159 4  94146296.25704      1926.751 4        29.052
S23        24.000    38228992.360 6 200894657.74506      -824.669 6        41.535
S36        25.000    38281205.932 6 201169065.58006      -828.551 6        36.711
R20        27.000    21905123.914 4                     -4982.271 4        27.090                                                                    21905128.512 6                     -3875.577 6        37.338
R06        29.000    19672661.481 5 104977087.16905       178.714 5        32.036
R14        30.000    23296070.389 4                     -1294.308 4        26.970                                                                    23296084.193 3                     -1006.889 3        22.990
C19        33.000                                                                                                                                    22724243.051 7 118331209.80807       698.855 7        47.827                                                                    22724238.815 8  96153681.82708       567.906 8        48.300
R21        34.000    19505687.667 8 104378984.29508     -1610.727 8        53.027                                                                    19505686.192 7  81183557.50207     -1252.782 7        45.336
R05        36.000    21183870.731 6 113239891.14306     -3910.268 6        39.375                                                                    21183868.226 6  88075713.93806     -3041.339 6        37.384
R22        37.000    21729578.084 7 115993940.42707      2541.576 7        46.562                                                                    21729576.953 7  90217548.25207      1976.722 7        43.227
C39        38.000                                                                                                                                    39114446.113 4                     -1340.040 4        24.421                                                                    39114462.575 4                     -1088.484 4        29.972
C06        41.000                                                                                                                                    38335717.658 6 199624149.05806      -801.551 6        40.012    38335710.530 5 154362020.37205      -619.579 5        34.429    38335710.962 6 162210937.19206      -651.441 6        36.280
C29        43.000                                                                                                                                    23466512.522 6 122196293.27806     -3572.630 6        36.681                                                                    23466515.289 6  99294544.24306     -2903.165 6        40.779
C16        45.000                                                                                                                                    38808388.788 5 202085467.51305      -910.406 5        34.290    38808371.814 5 156265195.12705      -703.966 5        35.019    38808372.335 4                      -739.969 4        27.916
C09        46.000                                                                                                                                    38698668.757 6 201514136.13706      -292.013 6        38.946    38698666.206 7 155823511.32807      -225.846 7        46.406    38698662.610 6 163746702.45906      -237.234 6        39.553
C32        47.000                                                                                                                                    26037821.754 3                     -3679.174 3        20.762
C35        51.000                                                                                                                                    23070841.834 6 120135971.83406      -329.392 6        39.628                                                                    23070838.336 6  97620287.59906      -267.719 6        36.189
I09        54.000    37319635.560 6 146450263.19406      -795.580 6        40.072
C20        55.000                                                                                                                                    22194186.638 8 115570948.76108     -1917.550 8        51.610                                                                    22194180.712 7  93910941.35007     -1558.185 7        46.790
> 2025 01 01 02 00 15.0000000  0 37
G02         1.000    22613614.657 7 118835402.32607     -3661.244 7        42.085                                    22613609.381 4  92598960.66104     -2852.924 4        24.436
G21         3.000    24328811.851 5                     -4039.463 5        30.264
G31         4.000    22282169.050 7 117093469.45207      -908.104 7        45.704                                    22282162.682 6  91241630.46906      -707.612 6        41.321    22282164.038 6  91241753.48806      -707.656 6        41.747
E34         6.000    26139711.359 7 137365114.16607      1703.964 7        44.029                                                                    26139710.553 6 102577892.18306      1272.403 6        41.347    26139709.361 6 105253805.46706      1305.587 6        38.952
E04         7.000    24824342.114 7 130452879.45707     -2726.920 7        42.152                                                                    24824340.575 7  97416031.51307     -2036.379 7        42.633    24824340.217 6  99957319.34006     -2089.570 6        40.246
G03         8.000    20116342.292 7 105712090.73807     -1533.075 7        45.630                                    20116339.184 7  82373092.39607     -1194.603 7        44.588    20116340.904 7  82373082.40107     -1194.701 7        44.855
G09         9.000    22193109.473 5 116625531.27205      2213.347 5        33.383                                    22193109.109 4  90877064.27404      1724.674 4        25.459    22193110.531 6  90877071.34906      1724.750 6        39.153
G04        11.000    20597095.639 6 108238482.17706       788.189 6        38.715                                    20597095.146 1  84341620.49101       614.122 1         6.250
E09        12.000    23615951.630 8 124102756.52408      -131.734 8        50.996                                                                    23615948.313 6  92674128.70306       -98.322 6        37.682    23615949.502 7  95091691.53507      -100.972 7        46.692
E10        13.000                                                                                                                                    27457639.371 4                     -2835.777 4        25.008    27457641.859 4                     -2909.419 4        28.057
E06        14.000    23556961.963 7 123792686.39407     -1459.062 7        44.489                                                                    23556960.269 7  92442589.05107     -1089.496 7        46.796    23556960.373 8  94854103.10008     -1117.985 8        48.919
E11        15.000    24970663.780 7 131221770.79107     -3157.245 7        43.107                                                                    24970660.391 7  97990243.03307     -2357.708 7        45.446    24970659.745 7 100546476.73007     -2419.250 7        45.287
G19        16.000    22360822.767 5                      -735.752 5        30.143
G28        17.000    23702217.845 5                     -2630.809 5        30.332                                                                                                    23702260.064 5                     -2049.944 5        33.120
G06        19.000    23624249.628 6 124146355.20506      2423.759 6        41.695                                    23624247.553 6  96737314.19306      1888.636 6        36.257    23624247.164 6  96737387.20906      1888.614 6        39.565
E36        20.000    23474828.814 7 123361199.52607      -651.732 7        42.027                                                                    23474829.049 6  92120258.06306      -486.804 6        37.728    23474829.384 6  94523426.28706      -499.341 6        40.021
E05        21.000    24960409.587 4                      1940.062 4        26.275                                                                    24960392.207 4                      1449.476 4        24.556    24960398.688 6 100505187.00006      1486.121 6        36.178
G17        22.000    22780447.306 7 119712038.57507     -2490.563 7        43.407                                    22780446.069 5  93282176.29705     -1940.692 5        31.630    22780443.456 5  93282101.33305     -1940.682 5        32.677
R07        23.000    22609947.744 5 121032963.87105      2475.612 5        33.581                                                                    22609956.654 4  94136665.36104      1925.318 4        25.729
S23        24.000    38229780.188 6 200898780.52006      -824.719 6        41.845
S36        25.000    38282005.798 6 201173207.60606      -828.530 6        37.728
R20        27.000    21909784.333 4                     -4984.836 4        29.175                                                                    21909788.421 6  91125583.30616     -3877.203 6        38.108
R06        29.000    19672493.470 4 104976200.22004       176.101 4        29.649
R14        30.000    23297283.773 3                     -1299.998 3        22.400                                                                    23297296.991 4                     -1008.894 4        26.287
C19        33.000                                                                                                                                    22723572.247 8 118327718.90308       697.300 8        48.135                                                                    22723568.375 8  96150845.16608       566.681 8        48.493
R21        34.000    19507194.689 8 104387049.23008     -1615.396 8        53.379                                                                    19507193.303 7  81189830.21407     -1256.420 7        45.407
R05        36.000    21187529.656 6 113259445.19606     -3911.469 6        38.156                                                                    21187528.792 5  88090922.71505     -3042.504 5        35.748
R22        37.000    21727198.876 7 115981238.82807      2538.984 7        45.400                                                                    21727198.663 7  90207669.23507      1974.790 7        43.941
C39        38.000                                                                                                                                    39115733.015 4                     -1339.717 4        26.096                                                                    39115752.692 5                     -1088.961 5        30.257
C06        41.000                                                                                                                                    38336488.599 6 199628159.58506      -802.493 6        40.553    38336480.651 5 154365121.61505      -620.906 5        32.880    38336481.164 6 162214196.06106      -652.170 6        36.246
C29        43.000                                                                                                                                    23469945.364 5 122214161.08305     -3574.735 5        30.898                                                                    23469946.434 6  99309063.26006     -2904.521 6        40.920
C16        45.000                                                                                                                                    38809264.029 5 202090022.10205      -911.459 5        34.414    38809246.853 5 156268717.03405      -704.665 5        33.772    38809247.257 4                      -740.111 4        27.748
C09        46.000                                                                                                                                    38698949.066 6 201515598.36906      -293.016 6        38.697    38698946.629 7 155824642.02407      -226.674 7        46.210    38698943.494 6 163747890.63306      -238.022 6        39.598
C44        48.000                                                                                                                                    25717308.261 3                      1854.188 3        23.943                                                                    25717308.703 5 108818366.16505      1505.807 5        33.461
C35        51.000                                                                                                                                    23071160.002 6 120137626.36706      -332.423 6        38.979                                                                    23071155.973 5  97621632.01505      -270.228 5        35.910
I09        54.000    37320649.950 6 146454242.04706      -796.083 6        39.973
C20        55.000                                                                                                                                    22196028.093 8 115580540.35808     -1919.135 8        51.462                                                                    22196022.753 7  93918735.28107     -1559.401 7        46.854
> 2025 01 01 02 00 20.0000000  0 39
G02         1.000    22617098.073 7 118853712.80907     -3663.265 7        42.370                                    22617093.544 3  92613228.57903     -2854.473 3        23.638
G21         3.000    24332658.118 4                     -4040.455 4        28.986
G31         4.000    22283035.230 7 117098019.64007      -912.136 7        44.998                                    22283028.929 6  91245176.07406      -710.757 6        41.104    22283030.013 6  91245299.09006      -710.795 6        41.795
E34         6.000    26138090.734 7 137356596.74307      1702.748 7        44.178                                                                    26138089.796 6 102571531.78006      1271.568 6        41.063    26138088.543 6 105247279.14106      1304.755 6        38.709
E04         7.000    24826937.444 6 130466517.27806     -2728.546 6        41.626                                                                    24826936.025 7  97426215.59507     -2037.627 7        42.660    24826935.862 6  99967769.10606     -2090.666 6        40.079
G03         8.000    20117801.991 7 105719761.98607     -1535.643 7        47.238                                    20117799.106 7  82379069.98707     -1196.608 7        45.543    20117800.592 7  82379060.00007     -1196.577 7        45.255
G09         9.000    22191002.837 5 116614468.78805      2211.414 5        32.695                                    22191003.981 4  90868444.16204      1723.176 4        26.251    22191004.203 6  90868451.22506      1723.152 6        38.117
G04        11.000    20596348.478 6 108234547.54606       785.392 6        41.411                                    20596347.222 2  84338554.41302       611.987 2        12.788
E09        12.000    23616077.919 8 124103420.41608      -134.111 8        51.483                                                                    23616074.961 6  92674624.48806      -100.181 6        38.132    23616075.894 7  95092200.24407      -102.747 7        46.489
E10        13.000                                                                                                                                    27461251.718 4                     -2836.215 4        25.053    27461255.954 4                     -2910.248 4        28.863
E06        14.000    23558350.747 7 123799986.33007     -1461.216 7        44.113                                                                    23558349.480 7  92448040.31107     -1091.163 7        46.729    23558349.487 8  94859696.56008     -1119.614 8        48.742
E11        15.000    24973668.899 7 131237561.21707     -3159.151 7        43.215                                                                    24973665.304 7  98002034.57807     -2358.996 7        45.437    24973664.283 7 100558575.88607     -2420.604 7        44.992
G19        16.000    22361525.867 4                      -739.748 4        28.635
G28        17.000    23704720.196 4                     -2634.516 4        29.972                                                                                                    23704760.047 5  97067049.90415     -2052.819 5        33.772
C23        18.000                                                                                                                                    26206229.937 4                      -962.164 4        29.100
G06        19.000    23621944.039 7 124134239.57707      2422.243 7        42.315                                    23621941.823 5  96727873.44905      1887.458 5        35.771    23621941.024 6  96727946.45506      1887.552 6        39.871
E36        20.000    23475450.049 6 123364463.21606      -654.090 6        41.914                                                                    23475449.967 6  92122695.24606      -488.377 6        37.675    23475450.392 6  94525927.04806      -501.064 6        40.737
E05        21.000    24958555.782 5                      1938.145 5        30.823                                                                    24958544.868 4                      1447.608 4        25.368    24958554.546 6 100497758.49906      1485.119 6        36.261
G17        22.000    22782816.647 6 119724497.53606     -2493.397 6        41.554                                    22782816.842 5  93291884.56305     -1942.910 5        30.151    22782814.988 5  93291809.58205     -1942.912 5        33.617
R07        23.000    22607633.129 4 121020588.56404      2473.786 4        27.701
S23        24.000    38230563.657 6 200902903.91206      -824.938 6        41.845
S36        25.000    38282791.019 6 201177350.61806      -829.141 6        36.616
R20        27.000    21914444.417 4                     -4987.066 4        29.877                                                                    21914451.563 6  91144972.63316     -3878.972 6        38.312
R06        29.000    19672331.852 4 104975327.58604       173.305 4        28.853
R14        30.000                                                                                                                                    23298521.469 4                     -1013.691 4        24.481
C19        33.000                                                                                                                                    22722903.206 8 118324236.04008       695.549 8        48.246                                                                    22722899.517 8  96148015.06008       565.134 8        48.182
R21        34.000    19508705.818 8 104395137.72608     -1620.276 8        53.490                                                                    19508704.309 7  81196121.25207     -1260.276 7        45.145
R05        36.000    21191186.438 6 113279005.61106     -3913.078 6        37.440                                                                    21191190.458 5  88106136.34905     -3043.510 5        35.652
R22        37.000    21724821.145 7 115968550.42107      2536.097 7        45.022                                                                    21724821.807 7  90197800.47507      1972.552 7        45.091
C39        38.000                                                                                                                                    39117017.385 4                     -1341.248 4        26.419                                                                    39117041.359 5                     -1089.532 5        30.000
C06        41.000                                                                                                                                    38337259.948 6 199632175.18706      -803.847 6        40.775    38337251.664 5 154368226.70805      -621.641 5        33.557    38337252.716 6 162217459.07306      -653.349 6        36.688
C29        43.000                                                                                                                                    23473375.218 4 122232037.69104     -3577.216 4        25.744                                                                    23473379.454 6  99323589.48906     -2906.217 6        40.696
C16        45.000                                                                                                                                    38810132.626 5 202094581.48705      -912.479 5        35.119    38810121.206 5 156272242.74305      -705.826 5        32.545    38810124.429 4                      -741.644 4        28.199
C09        46.000                                                                                                                                    38699230.379 6 201517065.50106      -294.063 6        37.595    38699228.296 7 155825776.48707      -227.407 7        46.105    38699225.375 6 163749082.80006      -239.107 6        39.754
C32        47.000                                                                                                                                    26044860.495 3                     -3681.509 3        22.095
C44        48.000                                                                                                                                    25715533.469 4                      1851.055 4        28.730                                                                    25715535.949 5 108810841.34205      1503.940 5        34.881
C35        51.000                                                                                                                                    23071481.897 6 120139295.70706      -335.516 6        39.688                                                                    23071476.323 5  97622988.50705      -272.558 5        35.124
I09        54.000    37321663.744 6 146458222.13206      -796.252 6        39.724
C20        55.000                                                                                                                                    22197871.343 8 115590139.90208     -1920.941 8        50.784                                                                    22197866.221 7  93926535.69707     -1560.991 7        47.066
> 2025 01 01 02 00 25.0000000  0 36
G02         1.000    22620583.306 7 118872032.02507     -3664.747 7        42.394                                    22620579.455 3  92627503.29203     -2855.651 3        23.524
G21         3.000    24336502.658 4                     -4040.779 4        28.938
G31         4.000    22283904.856 7 117102588.67607      -915.661 7        44.575                                    22283898.615 6  91248736.36506      -713.501 6        40.927    22283898.988 6  91248859.37206      -713.421 6        40.870
E34         6.000    26136470.958 7 137348084.08907      1702.064 7        43.991                                                                    26136469.843 6 102565174.92506      1271.101 6        40.930    26136468.736 6 105240756.46106      1304.190 6        38.709
E04         7.000    24829534.017 6 130480162.19006     -2729.599 6        41.189                                                                    24829532.747 7  97436404.97107     -2038.330 7        43.092    24829532.605 6  99978224.32106     -2091.655 6        40.169
G03         8.000    20119264.049 7 105727443.83107     -1537.402 7        47.944                                    20119261.085 7  82385055.83407     -1197.977 7        46.574    20119262.561 7  82385045.84107     -1197.913 7        45.353
G09         9.000    22188901.166 5 116603415.02305      2209.892 5        33.970                                    22188900.060 4  90859830.82404      1721.983 4        26.563    22188898.120 5  90859837.88705      1722.104 5        35.943
G04        11.000    20595601.743 7 108230626.49007       782.909 7        43.772                                    20595602.402 2  84335499.04302       610.082 2        17.245    20595601.613 5  84335517.82305       609.980 5        31.245
E09        12.000    23616205.902 8 124104094.77208      -135.944 8        51.144                                                                    23616203.235 6  92675128.07306      -101.309 6        38.835    23616204.308 7  95092716.97007      -104.117 7        46.395
E10        13.000                                                                                                                                    27464867.315 4                     -2836.548 4        25.519    27464872.083 4                     -2910.630 4        28.825
E06        14.000    23559741.757 7 123807296.20607     -1462.899 7        43.873                                                                    23559740.548 7  92453498.99207     -1092.506 7        47.034    23559740.561 8  94865297.64608     -1120.984 8        48.725
E11        15.000    24976675.017 7 131253359.37407     -3160.213 7        43.403                                                                    24976671.664 7  98013831.90907     -2359.989 7        45.565    24976670.416 7 100570680.96707     -2421.508 7        44.661
G28        17.000    23707220.974 4                     -2637.097 4        26.192                                                                                                    23707262.229 5  97077318.14405     -2054.594 5        34.310
G06        19.000    23619638.676 7 124122130.12907      2421.156 7        42.167                                    23619637.238 5  96718437.51905      1886.617 5        35.495    23619636.627 6  96718510.53206      1886.604 6        39.444
E36        20.000    23476073.112 7 123367737.73907      -655.967 7        42.110                                                                    23476073.204 6  92125140.48406      -489.860 6        38.754    23476073.446 6  94528436.07506      -502.535 6        41.979
E05        21.000    24956704.360 5                      1937.562 5        32.144                                                                    24956700.257 4                      1446.932 4        29.270    24956711.006 6 100490333.85506      1484.427 6        36.798
G17        22.000    22785189.895 6 119736969.37206     -2495.590 6        37.792                                    22785189.830 4  93301602.88204     -1944.632 4        28.095    22785188.913 5  93301527.91405     -1944.761 5        32.958
R07        23.000    22605324.000 3                      2473.809 3        20.143                                                                    22605319.493 4  94117420.42204      1923.036 4        28.209
S23        24.000    38231346.804 6 200907027.87006      -824.823 6        41.144
S36        25.000    38283582.031 6 201181494.27106      -828.750 6        36.359
R20        27.000    21919109.043 5                     -4988.712 5        32.814                                                                    21919115.068 6  91164369.78406     -3880.153 6        39.682
R06        29.000    19672166.161 4 104974469.09804       170.625 4        28.464
C19        33.000                                                                                                                                    22722235.900 8 118320761.21408       694.165 8        48.354                                                                    22722232.134 7  96145191.49307       563.984 7        47.889
R21        34.000    19510221.713 8 104403249.59008     -1624.697 8        53.773                                                                    19510220.126 7  81202430.46707     -1263.671 7        44.420
R05        36.000    21194847.440 6 113298572.41806     -3913.884 6        38.372                                                                    21194852.633 5  88121354.95905     -3043.993 5        33.413
R22        37.000    21722445.683 7 115955875.22107      2533.777 7        42.639                                                                    21722447.375 7  90187942.00407      1970.744 7        46.172
C39        38.000                                                                                                                                    39118302.516 4                     -1341.191 4        27.353                                                                    39118328.905 4                     -1090.045 4        29.014
C06        41.000                                                                                                                                    38338032.461 6 199636195.80406      -804.656 6        40.865    38338024.076 5 154371335.68705      -622.265 5        34.295    38338024.870 6 162220726.12906      -653.641 6        36.348
C29        43.000                                                                                                                                    23476804.653 3                     -3578.575 3        21.167                                                                    23476813.822 6  99338122.93406     -2907.452 6        40.267
C16        45.000                                                                                                                                                                                                    38811000.478 5 156275772.16905      -706.312 5        31.955    38811002.619 4                      -742.303 4        28.275
C09        46.000                                                                                                                                    38699512.651 6 201518537.52106      -295.038 6        37.868    38699511.210 7 155826914.73807      -228.020 7        46.190    38699508.095 6 163750278.93506      -239.737 6        39.778
C32        47.000                                                                                                                                    26048418.547 3                     -3677.463 3        21.190
C44        48.000                                                                                                                                    25713756.156 4                      1849.605 4        29.488                                                                    25713760.544 5 108803323.27005      1502.805 5        35.210
C35        51.000                                                                                                                                    23071805.958 6 120140979.89306      -338.503 6        39.468                                                                    23071799.619 5  97624357.07105      -274.772 5        35.276
I09        54.000    37322678.696 6 146462203.44806      -796.370 6        39.781
C20        55.000                                                                                                                                    22199716.480 8 115599747.39108     -1922.306 8        50.502                                                                    22199711.360 7  93934342.56907     -1562.100 7        46.964
> 2025 01 01 02 00 30.0000000  0 38
G02         1.000    22624072.595 7 118890359.12707     -3666.426 7        43.147                                    22624066.315 3  92641784.14203     -2856.951 3        23.143
G21         3.000    24340347.779 5                     -4041.470 5        30.174
G31         4.000    22284778.408 7 117107175.63107      -919.442 7        45.234                                    22284771.511 6  91252310.61906      -716.448 6        40.660    22284772.083 6  91252433.63006      -716.535 6        40.062
E34         6.000    26134851.825 7 137339575.34707      1701.066 7        43.613                                                                    26134850.765 6 102558820.98906      1270.293 6        40.727    26134849.906 6 105234236.77806      1303.289 6        39.363
E04         7.000    24832131.775 6 130493813.27306     -2731.094 6        41.111                                                                    24832130.389 7  97446598.96807     -2039.492 7        43.137    24832130.816 6  99988684.25306     -2092.665 6        40.119
G03         8.000    20120727.491 8 105735135.41308     -1539.612 8        48.344                                    20120724.938 7  82391049.27307     -1199.695 7        47.555    20120726.391 7  82391039.28007     -1199.704 7        45.514
G09         9.000    22186801.578 6 116592369.12506      2208.018 6        37.119                                    22186796.752 4  90851223.62804      1720.528 4        25.940    22186793.492 5  90851230.73605      1720.449 5        32.192
