     3.04           OBSERVATION DATA    M                   RINEX VERSION / TYPE
ssrcrin-15.6.1x                         20250101 011500 UTC PGM / RUN BY / DATE 
(00000000023479385599111004) Septentrio proprietary         COMMENT             
ract                                                        MARKER NAME         
01                                                          MARKER NUMBER       
geodetic                                                    MARKER TYPE         
NFB                 CLIMERS@TUW                             OBSERVER / AGENCY   
3296359             SEPT ASTERX SB3 PROB4.14.4              REC # / TYPE / VERS 
Unknown             Unknown                                 ANT # / TYPE        
  4127446.3452  1206915.5102  4695543.5796                  APPROX POSITION XYZ 
        0.0000        0.0000        0.0000                  ANTENNA: DELTA H/E/N
G   23 X1  C1C L1C D1C S1C C1W S1W C2W L2W D2W S2W C2L L2L  SYS / # / OBS TYPES 
       D2L S2L C5Q L5Q D5Q S5Q C1L L1L D1L S1L              SYS / # / OBS TYPES 
E   21 X1  C1C L1C D1C S1C C6C L6C D6C S6C C5Q L5Q D5Q S5Q  SYS / # / OBS TYPES 
       C7Q L7Q D7Q S7Q C8Q L8Q D8Q S8Q                      SYS / # / OBS TYPES 
S    9 X1  C1C L1C D1C S1C C5I L5I D5I S5I                  SYS / # / OBS TYPES 
R   17 X1  C1C L1C D1C S1C C2P L2P D2P S2P C2C L2C D2C S2C  SYS / # / OBS TYPES 
       C3Q L3Q D3Q S3Q                                      SYS / # / OBS TYPES 
C   25 X1  C1P L1P D1P S1P C5P L5P D5P S5P C2I L2I D2I S2I  SYS / # / OBS TYPES 
       C7I L7I D7I S7I C6I L6I D6I S6I C7D L7D D7D S7D      SYS / # / OBS TYPES 
J   17 X1  C1C L1C D1C S1C C2L L2L D2L S2L C5Q L5Q D5Q S5Q  SYS / # / OBS TYPES 
       C1L L1L D1L S1L                                      SYS / # / OBS TYPES 
I    5 X1  C5A L5A D5A S5A                                  SYS / # / OBS TYPES 
SEPTENTRIO RECEIVERS OUTPUT ALIGNED CARRIER PHASES.         COMMENT             
NO FURTHER PHASE SHIFT APPLIED IN THE RINEX ENCODER.        COMMENT             
G L1C                                                       SYS / PHASE SHIFT   
G L2W                                                       SYS / PHASE SHIFT   
G L2L  0.00000                                              SYS / PHASE SHIFT   
G L5Q  0.00000                                              SYS / PHASE SHIFT   
G L1L  0.00000                                              SYS / PHASE SHIFT   
E L1C  0.00000                                              SYS / PHASE SHIFT   
E L6C  0.00000                                              SYS / PHASE SHIFT   
E L5Q  0.00000                                              SYS / PHASE SHIFT   
E L7Q  0.00000                                              SYS / PHASE SHIFT   
E L8Q  0.00000                                              SYS / PHASE SHIFT   
S L1C                                                       SYS / PHASE SHIFT   
S L5I                                                       SYS / PHASE SHIFT   
R L1C                                                       SYS / PHASE SHIFT   
R L2P  0.00000                                              SYS / PHASE SHIFT   
R L2C                                                       SYS / PHASE SHIFT   
R L3Q  0.00000                                              SYS / PHASE SHIFT   
C L1P  0.00000                                              SYS / PHASE SHIFT   
C L5P  0.00000                                              SYS / PHASE SHIFT   
C L2I                                                       SYS / PHASE SHIFT   
C L7I                                                       SYS / PHASE SHIFT   
C L6I                                                       SYS / PHASE SHIFT   
C L7D                                                       SYS / PHASE SHIFT   
J L1C                                                       SYS / PHASE SHIFT   
J L2L  0.00000                                              SYS / PHASE SHIFT   
J L5Q  0.00000                                              SYS / PHASE SHIFT   
J L1L  0.00000                                              SYS / PHASE SHIFT   
I L5A                                                       SYS / PHASE SHIFT   
  2025     1     1     1    15    0.0000000     GPS         TIME OF FIRST OBS   
 C1C    0.000 C2C    0.000 C2P    0.000                     GLONASS COD/PHS/BIS 
DBHZ                                                        SIGNAL STRENGTH UNIT
    18                                                      LEAP SECONDS        
 24 R01  1 R02 -4 R03  5 R04  6 R05  1 R06 -4 R07  5 R08  6 GLONASS SLOT / FRQ #
    R09 -2 R10 -7 R11  0 R12 -1 R13 -2 R14 -7 R15  0 R16 -1 GLONASS SLOT / FRQ #
    R17  4 R18 -3 R19  3 R20  2 R21  4 R22 -3 R23  3 R24  2 GLONASS SLOT / FRQ #
                                                            END OF HEADER       
> 2025 01 01 01 15  0.0000000  0 37
G21         3.000    22660979.509 7 119084257.27907     -3515.619 7        42.701                                    22660972.037 3  92792911.62403     -2739.448 3        20.738
G31         4.000    22602572.810 5 118777372.88605       924.347 5        32.886                                    22602564.396 3  92553732.87603       720.299 3        23.029    22602567.362 5  92553738.84305       720.281 5        35.971
G02         5.000    21281525.751 6 111835191.83806     -2602.209 6        41.395                                    21281521.770 4  87144248.89004     -2027.694 4        27.880
E34         6.000    27401175.252 5 143994185.76605      1960.169 5        32.245                                                                    27401173.394 6 107528132.81106      1463.531 6        36.896    27401171.877 6 110333182.99106      1501.688 6        38.006
E04         7.000    23926949.986 8 125737052.15208     -1847.281 8        48.844                                                                    23926947.336 8  93894472.82508     -1379.444 8        50.166    23926946.358 8  96343893.70608     -1415.410 8        49.264
G03         8.000    19906534.093 5 104609558.48605      -433.619 5        31.109                                    19906535.379 5  81513976.60605      -337.868 5        34.700    19906536.473 7  81513966.58307      -337.859 7        44.763
G09         9.000    23824680.798 4                      2865.131 4        27.748
G04        11.000    21642731.808 6 113733387.15106      2042.148 6        37.614                                    21642733.295 1  88623425.78101      1591.158 1         9.429    21642728.259 5  88623355.98205      1591.121 5        32.317
E09        12.000    24121799.512 8 126761005.88908       919.851 8        49.243                                                                    24121798.319 7  94659184.09007       686.991 7        47.002    24121799.180 8  97128531.14508       704.871 8        52.477
E10        13.000    25909221.293 6 136153836.23906     -3319.538 6        36.197                                                                    25909211.356 6 101673297.26306     -2478.922 6        36.987
E06        14.000    23380983.413 6 122867970.57306      -355.076 6        36.246                                                                    23380984.525 7  91752018.39307      -265.365 7        46.728    23380984.207 7  94145551.62707      -272.179 7        47.256
E11        15.000                                                                                                                                    23851330.466 7  93597745.30407     -1729.198 7        42.451    23851330.517 7  96039424.36507     -1774.253 7        43.481
E30        17.000    28906049.422 4                     -2307.100 4        24.030                                                                    28906032.351 4 113433519.14104     -1723.247 4        28.521    28906031.995 3                     -1768.781 3        21.833
G28        18.000    23078202.504 6 121276906.97906      -904.905 6        38.048                                    23078194.424 1  94501341.22801      -705.128 1         4.857    23078218.016 4                      -705.580 4        26.144
G06        19.000    25277367.756 5                      2721.704 5        33.892
E36        20.000    23700873.979 6 124548916.68306       320.489 6        37.195                                                                    23700872.816 7  93007302.72207       239.340 7        45.610    23700871.647 7  95433610.19307       245.581 7        44.653
G17        22.000    22175425.817 6 116532622.86806      -956.170 6        39.937                                    22175404.943 4  90804558.90204      -745.067 4        27.772    22175418.971 6  90804624.89806      -744.831 6        38.664
S23        24.000    38103579.942 6 200235625.00406      -824.118 6        41.342
S36        25.000    38153880.946 6 200499870.40606      -827.715 6        37.894
R20        27.000    20015760.774 4                     -3518.697 4        29.810                                                                    20015752.392 5  83248083.72505     -2736.703 5        35.524
R04        28.000                                                                                                                                    23422116.124 4                     -3717.516 4        24.812
R06        29.000    20434725.959 4 109043643.21504      1628.883 4        26.060
C19        33.000                                                                                                                                                                                                                                                                    23590979.351 5  99821072.92305      1193.230 5        35.071
R21        34.000    19603613.007 8 104902961.25408       751.418 8        48.595                                                                    19603608.674 6  81591288.75506       584.376 6        37.002
R05        36.000    19713725.909 6 105381272.22006     -2951.325 6        41.597                                                                    19713725.062 7  81963109.77107     -2295.380 7        43.788
R22        37.000                                                                                                                                    23573235.673 5  97872063.96005      2622.031 5        34.710
C39        38.000                                                                                                                                    38833204.081 5 202214469.71305      -878.292 5        34.714                                                                    38833167.386 4 164315808.47204      -713.525 4        29.251
C06        41.000                                                                                                                                    38346033.176 6 199677832.56506      -303.908 6        38.189    38346031.268 6 154403531.83906      -235.006 6        37.648    38346022.044 5 162254559.51905      -246.813 5        32.347
C29        43.000                                                                                                                                    22183554.749 8 115515477.69408     -2431.773 8        48.443                                                                    22183552.107 7  93865899.88007     -1975.905 7        47.425
C16        45.000                                                                                                                                    38757756.851 7 201821882.48807      -427.191 7        46.314    38757755.937 6 156061409.64406      -330.510 6        41.123    38757751.225 5 163996736.63805      -347.178 5        31.608
C09        46.000                                                                                                                                    38965512.259 5 202903660.82805       164.215 5        33.449    38965510.900 7 156897979.39307       127.055 7        43.793    38965508.037 6 164875804.55006       133.757 6        36.786
C32        47.000                                                                                                                                    24455393.941 7 127345662.90507     -3510.707 7        44.188                                                                    24455397.212 7 103478815.36107     -2852.645 7        44.260
C35        51.000                                                                                                                                    23576383.644 7 122768621.38907      1064.283 7        44.376                                                                    23576381.766 6  99759418.88706       864.871 6        41.128
I09        54.000    37097673.829 5 145579230.65705      -712.940 5        35.481
C20        55.000                                                                                                                                    21722384.950 8 113114148.77808     -1006.893 8        52.862                                                                    21722377.972 7  91914590.19407      -818.141 7        46.979
I01        56.000   331973197.736 5 999593331.38105     -2850.861 5        33.683
C30        58.000                                                                                                                                    25494349.565 4                     -4306.807 4        27.964
> 2025 01 01 01 15  5.0000000  0 38
G21         3.000    22664325.401 7 119101839.50907     -3516.871 7        42.811                                    22664318.519 3  92806612.04803     -2740.423 3        21.405
G31         4.000    22601695.940 5 118772759.21905       921.358 5        34.605                                    22601687.945 3  92550137.78003       717.953 3        23.467    22601690.059 6  92550143.74506       718.196 6        36.125
G02         5.000    21284003.255 6 111848208.89806     -2604.293 6        41.271                                    21283998.597 4  87154392.04904     -2029.313 4        28.427
E34         6.000    27399310.124 5 143984388.13705      1959.302 5        31.796                                                                    27399309.270 6 107520816.34306      1463.366 6        37.970    27399307.462 6 110325675.67306      1501.428 6        37.629
E04         7.000    23928708.379 8 125746294.02208     -1849.150 8        48.880                                                                    23928706.022 8  93901374.21208     -1380.865 8        50.214    23928705.113 8  96350975.13208     -1416.880 8        49.047
G03         8.000    19906952.051 6 104611732.32706      -435.620 6        36.904                                    19906949.277 6  81515670.51606      -339.451 6        36.423    19906950.125 7  81515660.52007      -339.449 7        45.139
G09         9.000    23821958.465 4                      2863.625 4        27.988
G04        11.000    21640789.737 6 113723183.17606      2039.985 6        36.147                                    21640791.797 1  88615474.72201      1589.605 1        10.370    21640791.705 5  88615404.84305      1589.618 5        32.329
E09        12.000    24120925.404 8 126756411.96108       918.045 8        49.643                                                                    24120924.022 7  94655753.57207       685.565 7        47.038    24120924.976 8  97125011.12408       703.409 8        52.318
E10        13.000    25912386.295 6 136170438.06006     -3320.909 6        36.181                                                                    25912370.717 6 101685694.70906     -2479.928 6        36.571
E06        14.000    23381322.696 6 122869752.94906      -357.281 6        36.597                                                                    23381323.780 7  91753349.38507      -266.927 7        46.695    23381323.243 7  94146917.34907      -273.823 7        47.023
E11        15.000    23853531.124 4                     -2317.477 4        27.940                                                                    23853534.808 7  93606394.71807     -1730.437 7        42.650    23853534.735 7  96048299.41507     -1775.484 7        43.073
G19        16.000    22770013.503 7 119657362.51317      1112.720 7        42.827                                    22770016.277 1  93239315.74411       866.946 1         8.476
E30        17.000    28908247.225 4                     -2308.617 4        24.135                                                                    28908228.262 4 113442138.50604     -1724.595 4        27.952    28908226.734 3                     -1768.399 3        20.762
G28        18.000    23079064.825 5 121281440.61205      -908.314 5        34.586                                    23079057.179 1  94504873.89901      -707.801 1         4.143    23079084.250 3                      -707.583 3        23.505
G06        19.000    25274777.558 5 132819851.27515      2721.549 5        34.000
E36        20.000    23700569.954 6 124547318.98106       318.930 6        36.189                                                                    23700568.828 7  93006109.65107       238.202 7        45.747    23700567.456 7  95432386.00507       244.366 7        44.500
G17        22.000    22176336.891 6 116537411.30006      -958.957 6        41.461                                    22176320.033 5  90808290.14105      -747.236 5        30.687    22176329.995 6  90808356.17106      -747.427 6        37.970
S23        24.000    38104363.374 6 200239745.75706      -823.994 6        41.182
S36        25.000    38154669.996 6 200504009.75206      -827.459 6        38.141
R20        27.000    20019053.967 4                     -3522.762 4        28.256                                                                    20019044.299 5  83261774.05315     -2739.236 5        34.410
R04        28.000                                                                                                                                    23426583.785 4                     -3718.600 4        24.842
R06        29.000    20433203.152 4 109035502.84804      1627.015 4        29.962
C19        33.000                                                                                                                                                                                                                                                                    23589571.075 5  99815111.02705      1191.928 5        33.162
R21        34.000    19602913.390 8 104899214.87308       747.499 8        48.511                                                                    19602907.479 5  81588374.90805       581.342 5        35.929
R05        36.000    19716496.715 7 105396035.20307     -2953.644 7        43.975                                                                    19716486.360 7  81974592.04907     -2297.172 7        43.264
R22        37.000                                                                                                                                    23570077.716 5  97858955.16205      2621.557 5        34.467
C39        38.000                                                                                                                                    38834049.453 5 202218864.23305      -879.164 5        34.505                                                                    38834013.064 4 164319379.35404      -714.802 4        28.787
C06        41.000                                                                                                                                    38346325.992 6 199679355.43006      -304.887 6        38.084    38346325.819 6 154404709.39806      -235.706 6        38.081    38346314.703 5 162255796.98005      -248.012 5        32.713
C29        43.000                                                                                                                                    22185890.744 8 115527643.23908     -2434.216 8        48.416                                                                    22185888.098 7  93875785.39107     -1978.103 7        47.338
C16        45.000                                                                                                                                    38758167.665 7 201824021.79207      -428.196 7        46.103    38758167.013 6 156063063.88306      -331.006 6        41.445    38758162.224 5 163998475.00905      -348.105 5        31.328
C09        46.000                                                                                                                                    38965354.542 5 202902842.47605       163.281 5        33.030    38965353.250 7 156897346.57907       126.443 7        43.699    38965350.662 6 164875139.60006       132.501 6        36.389
C32        47.000                                                                                                                                    24458765.019 7 127363218.71507     -3511.221 7        43.765                                                                    24458768.624 7 103493080.88907     -2853.267 7        44.676
C35        51.000                                                                                                                                    23575363.262 7 122763306.39707      1062.078 7        44.582                                                                    23575361.068 6  99755100.03306       863.006 6        41.211
I09        54.000    37098582.489 5 145582794.77705      -712.824 5        35.076
C20        55.000                                                                                                                                    21723352.792 8 113119188.58408     -1008.766 8        52.729                                                                    21723345.866 7  91918685.45907      -819.886 7        47.057
I01        56.000   331976829.837 5 999607587.54505     -2850.992 5        33.569
C30        58.000                                                                                                                                    25498482.426 4                     -4307.570 4        26.742
> 2025 01 01 01 15 10.0000000  0 37
G21         3.000    22667672.918 7 119119428.73607     -3518.618 7        42.726                                    22667666.146 3  92820317.91203     -2741.774 3        21.357
G31         4.000    22600822.867 5 118768160.72005       918.059 5        34.276                                    22600813.926 3  92546554.47003       715.355 3        23.429    22600813.978 5  92546560.49305       715.563 5        35.810
G02         5.000    21286482.785 6 111861237.50406     -2606.807 6        41.240                                    21286477.540 4  87164544.19904     -2031.276 4        28.806
E34         6.000    27397443.580 5 143974591.77105      1958.905 5        32.880                                                                    27397445.315 6 107513500.90106      1462.951 6        38.919    27397443.205 6 110318169.37406      1501.109 6        37.172
E04         7.000    23930468.804 8 125755546.09008     -1851.456 8        48.297                                                                    23930466.605 8  93908283.22408     -1382.605 8        50.100    23930465.701 8  96358064.37708     -1418.671 8        48.892
G03         8.000    19907368.475 6 104613916.96306      -438.064 6        40.198                                    19907365.133 6  81517372.82606      -341.358 6        38.174    19907365.525 7  81517362.83607      -341.414 7        44.987
G09         9.000    23819240.372 4                      2863.625 4        24.902
G04        11.000    21638850.937 6 113712989.48006      2037.701 6        36.314                                    21638852.213 1  88607531.54701      1587.796 1         9.524    21638854.491 5  88607461.68205      1587.682 5        32.275
E09        12.000    24120053.049 8 126751827.79608       915.792 8        49.783                                                                    24120051.703 7  94652330.34907       683.844 7        47.085    24120052.587 8  97121498.58408       701.666 8        52.174
E10        13.000    25915551.224 5 136187045.72605     -3322.045 5        34.686                                                                    25915531.587 6 101698096.51406     -2480.932 6        36.064    25915529.558 5 104351098.01615     -2545.564 5        34.490
E06        14.000    23381664.627 6 122871546.60806      -359.891 6        36.922                                                                    23381665.137 7  91754688.78907      -268.785 7        46.412    23381664.472 7  94148291.69207      -275.728 7        46.702
E11        15.000                                                                                                                                    23855740.684 7  93615050.63007     -1731.879 7        42.554    23855740.519 7  96057181.14007     -1777.120 7        43.179
E30        17.000    28910445.881 4                     -2311.236 4        26.850                                                                    28910426.674 4 113450765.06304     -1726.008 4        26.467
G28        18.000    23079927.935 5 121285991.37105      -912.055 5        33.054                                    23079923.265 1  94508419.86801      -710.658 1         3.200
G06        19.000    25272188.872 5 132806243.84405      2721.235 5        33.048
E36        20.000    23700265.759 5 124545729.42605       317.109 5        33.581                                                                    23700266.407 7  93004922.65307       236.714 7        45.798    23700265.049 7  95431168.04207       242.885 7        44.360
G17        22.000    22177251.784 7 116542215.54107      -962.486 7        42.017                                    22177237.194 5  90812033.70505      -749.990 5        32.257    22177243.687 6  90812099.74106      -750.045 6        36.284
S23        24.000    38105147.473 6 200243866.93306      -824.297 6        40.892
S36        25.000    38155457.797 6 200508148.87706      -827.764 6        37.531
R20        27.000    20022346.338 4                     -3525.209 4        25.068                                                                    20022340.718 5                     -2742.344 5        34.214
R04        28.000    23431059.762 3                     -4776.676 3        18.358                                                                    23431045.914 4                     -3717.711 4        24.135
R06        29.000    20431683.848 5 109027375.76205      1623.997 5        31.751
C19        33.000                                                                                                                                    23588139.649 6 122829732.07116      1465.147 6        37.641                                                                    23588163.456 5  99809154.99605      1190.651 5        30.898
R21        34.000    19602217.655 8 104895488.43908       743.275 8        49.046                                                                    19602211.920 5  81585476.57005       577.972 5        33.838
R05        36.000    19719263.053 7 105410810.95907     -2956.503 7        45.087                                                                    19719250.561 7  81986084.30207     -2299.391 7        43.335
R22        37.000                                                                                                                                    23566920.035 5  97845849.26705      2620.769 5        33.934
C39        38.000                                                                                                                                    38834893.909 5 202223263.90405      -880.561 5        34.114                                                                    38834856.924 4 164322954.40104      -715.372 4        28.787
C06        41.000                                                                                                                                    38346619.554 6 199680883.53806      -306.142 6        38.387    38346619.757 6 154405891.04706      -236.667 6        38.129    38346607.678 5 162257038.69705      -248.834 5        33.006
C29        43.000                                                                                                                                    22188229.269 8 115539821.74108     -2437.045 8        48.290                                                                    22188226.696 7  93885681.40107     -1980.176 7        47.016
C16        45.000                                                                                                                                    38758579.463 7 201826166.25407      -429.470 7        45.854    38758578.880 6 156064722.13106      -332.124 6        41.306    38758574.398 5 164000217.54705      -348.970 5        31.208
C09        46.000                                                                                                                                    38965198.791 5 202902028.72605       162.418 5        32.443    38965197.080 7 156896717.36407       125.365 7        43.475    38965194.324 6 164874478.35706       131.924 6        36.076
C32        47.000                                                                                                                                    24462136.640 7 127380777.89607     -3512.269 7        43.388                                                                    24462140.660 7 103507349.14007     -2853.944 7        44.767
C35        51.000                                                                                                                                    23574344.949 7 122758003.00307      1059.366 7        45.544                                                                    23574342.565 6  99750790.57606       860.819 6        41.182
I09        54.000    37099490.446 5 145586360.15205      -713.356 5        35.286
C20        55.000                                                                                                                                    21724322.401 8 113124238.37908     -1010.994 8        52.538                                                                    21724315.654 7  91922788.81207      -821.526 7        46.991
I01        56.000   331980463.517 5 999621844.78405     -2851.875 5        33.473
C30        58.000                                                                                                                                    25502613.544 4                     -4307.708 4        26.263
> 2025 01 01 01 15 15.0000000  0 38
G21         3.000    22671020.971 7 119137024.10807     -3519.674 7        42.373                                    22671014.948 3  92834028.57803     -2742.604 3        22.248
G31         4.000    22599950.503 5 118763576.64105       915.567 5        31.841                                    22599942.313 3  92542982.41003       713.425 3        22.267    22599942.014 5  92542988.44505       713.054 5        34.795
G02         5.000    21288964.640 6 111874276.91006     -2608.916 6        41.712                                    21288958.606 4  87174704.76604     -2032.921 4        29.716
E34         6.000    27395578.439 5 143964795.98905      1959.144 5        34.324                                                                    27395581.608 6 107506185.86206      1463.065 6        39.565    27395579.605 6 110310663.49806      1501.158 6        36.624
E04         7.000    23932231.052 7 125764807.60807     -1853.204 7        47.614                                                                    23932228.911 8  93915199.29008     -1383.851 8        49.702    23932228.270 8  96365160.86608     -1420.034 8        48.905
G03         8.000    19907785.659 6 104616111.61906      -439.998 6        41.425                                    19907782.877 6  81519082.94306      -342.856 6        39.568    19907783.425 7  81519072.93907      -342.818 7        45.090
G09         9.000    23816521.947 3                      2861.160 3        21.429
G04        11.000    21636913.127 6 113702805.28806      2035.904 6        37.096                                    21636914.386 2  88599595.85502      1586.426 2        12.182    21636911.721 5  88599525.99805      1586.205 5        30.815
E09        12.000    24119182.231 8 126747252.63208       914.177 8        49.606                                                                    24119181.190 7  94648913.82907       682.723 7        46.993    24119181.878 8  97117992.93708       700.451 8        52.175
E10        13.000    25918715.367 5 136203658.45905     -3322.571 5        31.464                                                                    25918693.283 5 101710502.11205     -2481.438 5        34.848    25918689.515 5 104363827.28805     -2546.259 5        35.338
E06        14.000    23382007.622 6 122873350.73606      -361.642 6        37.006                                                                    23382008.338 7  91756036.04707      -270.231 7        46.065    23382007.672 7  94149674.09507      -277.238 7        46.447
E11        15.000    23857961.858 5 125374436.45615     -2320.863 5        33.958                                                                    23857948.147 7  93623712.46707     -1733.089 7        42.389    23857947.962 7  96066068.94207     -1778.162 7        43.109
G19        16.000    22767878.216 6 119646268.44106      1106.431 6        37.380                                    22767904.866 1  93230670.97501       862.191 1         6.125
E30        17.000    28912644.873 4                     -2313.274 4        25.880
G28        18.000    23080799.645 5 121290558.36105      -914.998 5        35.381                                    23080792.392 1  94511978.50101      -712.901 1         2.800
G06        19.000    25269599.482 5 132792636.58605      2721.284 5        33.120
E36        20.000    23699963.368 5 124544147.23305       315.784 5        32.024                                                                    23699965.410 7  93003741.15007       235.831 7        45.794    23699963.931 7  95429955.72207       241.876 7        44.471
G17        22.000    22178168.258 6 116547034.82906      -965.267 6        39.847                                    22178156.372 5  90815788.99905      -752.152 5        32.742    22178160.415 5  90815855.03705      -752.146 5        34.281
S23        24.000    38105933.343 6 200247987.71206      -824.165 6        41.032
S36        25.000    38156242.366 6 200512287.46106      -827.666 6        37.319
R20        27.000    20025642.680 3                     -3528.753 3        22.419                                                                    20025640.122 5  83289194.94415     -2744.901 5        35.710
R04        28.000    23435550.563 3                     -4780.278 3        21.595                                                                    23435515.288 4                     -3718.194 4        25.865
R06        29.000    20430161.839 5 109019261.21005      1621.560 5        33.407
C19        33.000                                                                                                                                    23586741.140 6 122822408.74606      1464.043 6        38.195
R21        34.000    19601525.328 8 104891781.14308       739.592 8        49.109                                                                    19601521.850 5  81582593.14605       575.250 5        35.105
R05        36.000    19722023.326 7 105425598.72807     -2958.674 7        45.481                                                                    19722017.912 7  81997585.91007     -2301.219 7        43.928
R22        37.000                                                                                                                                    23563762.109 5                      2620.462 5        33.683
C39        38.000                                                                                                                                    38835736.531 5 202227667.97605      -881.044 5        34.419                                                                    38835701.795 4 164326533.02504      -715.850 4        28.123
C06        41.000                                                                                                                                    38346914.386 6 199682416.14006      -307.108 6        38.529    38346914.845 6 154407076.14906      -237.404 6        38.450    38346902.008 5 162258284.06705      -249.204 5        33.042
C29        43.000                                                                                                                                    22190569.827 7 115552012.45207     -2439.303 7        47.946                                                                    22190567.710 7  93895587.36507     -1982.086 7        46.763
C16        45.000                                                                                                                                    38758992.078 7 201828315.13007      -430.198 7        45.604    38758991.319 6 156066383.76806      -332.580 6        41.018    38758986.779 5 164001963.68305      -349.390 5        31.306
C09        46.000                                                                                                                                    38965042.469 5 202901218.89505       162.038 5        30.891    38965041.476 7 156896091.13307       124.966 7        43.153    38965038.499 5 164873820.30605       131.214 5        35.776
C32        47.000                                                                                                                                    24465509.320 7 127398339.67407     -3512.529 7        42.504                                                                    24465513.277 7 103521619.51707     -2854.228 7        44.781
C35        51.000                                                                                                                                    23573328.949 7 122752710.43007      1057.392 7        46.641                                                                    23573326.289 6  99746489.94706       859.302 6        41.197
I09        54.000    37100398.767 5 145589926.14805      -713.214 5        35.067
C20        55.000                                                                                                                                    21725293.879 8 113129297.41508     -1012.712 8        52.148                                                                    21725287.327 7  91926899.69607      -822.855 7        46.980
I01        56.000   331984096.691 5 999636102.49205     -2851.924 5        33.126
C30        58.000                                                                                                                                    25506750.519 4                     -4308.419 4        25.143
> 2025 01 01 01 15 20.0000000  0 37
G21         3.000    22674370.479 6 119154625.93806     -3520.869 6        41.681                                    22674364.940 3  92847744.28203     -2743.524 3        22.343
G31         4.000    22599079.984 5 118759007.29105       912.359 5        30.030                                    22599073.204 3  92539421.82303       710.934 3        20.119    22599071.762 5  92539427.83405       711.044 5        32.886
G02         5.000    21291448.751 7 111887327.34507     -2611.113 7        43.158                                    21291441.841 5  87184873.92605     -2034.633 5        30.808
E34         6.000    27393715.893 5 143955001.01805      1959.327 5        34.795                                                                    27393718.196 6 107498871.46906      1462.866 6        40.589    27393715.612 6 110303158.30906      1500.958 6        36.310
E04         7.000    23933995.132 7 125774078.80207     -1855.152 7        46.735                                                                    23933993.149 8  93922122.57708     -1385.322 8        49.429    23933992.445 8  96372264.76708     -1421.515 8        48.944
G03         8.000    19908204.043 6 104618316.50406      -441.929 6        41.659                                    19908202.521 6  81520801.03706      -344.358 6        40.899    19908202.731 7  81520791.03607      -344.477 7        44.733
G04        11.000    21634976.642 5 113692630.89205      2033.853 5        35.162                                    21634978.236 1  88591667.78101      1584.884 1        11.333    21634972.034 4  88591597.91804      1584.598 4        29.299
E09        12.000    24118313.320 8 126742686.73508       912.355 8        48.998                                                                    24118312.386 7  94645504.24307       681.213 7        47.438    24118313.016 8  97114494.39608       699.050 8        52.078
E10        13.000    25921880.273 4 136220276.60404     -3324.238 4        26.335                                                                    25921857.319 5 101722911.71405     -2482.016 5        33.737    25921852.411 6 104376560.59806     -2546.915 6        36.284
E06        14.000    23382352.906 6 122875165.64006      -364.085 6        37.104                                                                    23382353.623 7  91757391.33107      -271.791 7        45.688    23382352.729 7  94151064.74507      -278.938 7        46.194
E11        15.000    23860165.752 5 125386043.86905     -2322.063 5        35.090                                                                    23860156.998 7  93632380.41707     -1734.202 7        42.578    23860156.784 7  96074963.01007     -1779.364 7        43.090
G19        16.000    22766830.753 5 119640744.22305      1103.118 5        32.545                                    22766853.655 1  93226366.23801       859.614 1         7.000
E30        17.000    28914843.431 4                     -2315.191 4        24.436                                                                    28914826.865 4 113468038.31604     -1727.718 4        24.481    28914858.061 5                     -1774.095 5        30.687
G28        18.000    23081674.630 6 121295141.99206      -918.341 6        37.395                                                                                                    23081690.727 4                      -716.320 4        26.635
G06        19.000    25267009.244 5 132779029.60805      2721.325 5        32.671
E36        20.000    23699665.047 5 124542572.67205       314.470 5        30.438                                                                    23699665.855 7  93002565.35907       234.621 7        46.100    23699664.404 7  95428749.26007       240.691 7        44.445
G17        22.000    22179086.436 6 116551869.45106      -968.271 6        36.957                                    22179077.808 5  90819556.22605      -754.489 5        32.521    22179080.679 5  90819622.20605      -754.385 5        34.043
S23        24.000    38106717.670 6 200252108.50406      -824.129 6        41.323
S36        25.000    38157026.322 6 200516426.04906      -827.469 6        36.873
R20        27.000    20028934.165 4                     -3532.560 4        25.008                                                                    20028944.228 6  83302925.13606     -2747.453 6        39.165
R04        28.000    23440013.618 4                     -4780.815 4        25.504                                                                    23439989.589 4                     -3717.169 4        26.072
R06        29.000    20428643.255 5 109011159.46805      1619.542 5        35.376
C19        33.000                                                                                                                                    23585337.193 6 122815092.11806      1462.753 6        38.345                                                                    23585331.594 5  99797258.94905      1188.893 5        32.916
R21        34.000    19600835.833 8 104888093.30108       735.651 8        49.327                                                                    19600834.555 6  81579724.83406       572.193 6        38.420
R05        36.000    19724787.557 7 105440398.61707     -2961.196 7        46.194                                                                    19724786.945 7  82009096.95407     -2303.145 7        44.197
R22        37.000                                                                                                                                    23560607.683 5  97819644.40215      2619.988 5        33.443
C39        38.000                                                                                                                                    38836579.903 5 202232076.68305      -881.768 5        34.300                                                                    38836548.972 4 164330115.43204      -716.611 4        27.689
C06        41.000                                                                                                                                    38347209.082 6 199683953.45406      -307.848 6        38.417    38347211.208 6 154408264.89806      -238.104 6        38.610    38347197.630 5 162259533.27505      -249.880 5        32.719
C29        43.000                                                                                                                                    22192913.234 7 115564215.64107     -2441.799 7        47.418                                                                    22192911.096 7  93905503.45307     -1984.232 7        46.298
C16        45.000                                                                                                                                    38759405.678 7 201830468.67607      -431.148 7        45.288    38759404.756 6 156068049.04506      -333.459 6        41.046    38759400.164 5 164003713.63005      -350.583 5        30.777
C09        46.000                                                                                                                                    38964887.416 5 202900413.18005       161.209 5        30.860    38964886.819 7 156895468.12007       124.235 7        43.268    38964883.549 5 164873165.60705       130.709 5        35.114
C32        47.000                                                                                                                                    24468883.103 6 127415904.31506     -3513.296 6        41.836                                                                    24468886.495 7 103535892.21707     -2854.717 7        44.421
C35        51.000                                                                                                                                    23572314.760 7 122747428.95807      1055.323 7        47.352                                                                    23572312.160 6  99742198.33006       857.519 6        41.306
I09        54.000    37101308.771 5 145593493.01905      -713.386 5        35.776
C20        55.000                                                                                                                                    21726267.405 8 113134365.93908     -1014.578 8        51.924                                                                    21726260.839 7  91931018.29207      -824.402 7        46.722
I01        56.000   331987729.031 5 999650360.79805     -2851.567 5        33.659
C30        58.000                                                                                                                                    25510893.692 3                     -4309.250 3        23.981
> 2025 01 01 01 15 25.0000000  0 37
G21         3.000    22677721.336 6 119172234.02006     -3522.133 6        40.660                                    22677716.081 3  92861464.84403     -2744.517 3        22.781
G31         4.000    22598211.592 5 118754452.45205       909.523 5        31.623                                    22598206.889 3  92535872.52803       708.731 3        18.239    22598204.903 5  92535878.54605       709.050 5        32.042
G02         5.000    21293934.949 7 111900388.65707     -2613.338 7        44.438                                    21293927.254 5  87195051.57005     -2036.370 5        31.517
E34         6.000    27391855.548 5 143945206.78805      1958.921 5        35.052                                                                    27391854.955 6 107491557.60206      1462.724 6        40.906    27391851.736 5 110295653.63205      1500.958 5        35.657
E04         7.000    23935761.406 7 125783359.54007     -1857.026 7        46.306                                                                    23935759.102 8  93929053.00008     -1386.769 8        49.005    23935758.569 8  96379375.98408     -1422.921 8        48.842
G03         8.000    19908625.814 7 104620531.48707      -444.021 7        42.971                                    19908624.047 7  81522526.99307      -345.984 7        42.004    19908624.196 7  81522516.98207      -345.968 7        44.311
G09         9.000    23811032.923 4                      2861.072 4        26.132
G04        11.000    21633041.062 5 113682466.11005      2032.054 5        34.557                                    21633044.108 1  88583747.16401      1583.413 1        10.518    21633038.448 4  88583677.29704      1583.610 4        28.900
E09        12.000    24117446.103 8 126738129.95608       910.425 8        48.576                                                                    24117445.495 7  94642101.46107       679.849 7        47.851    24117445.749 8  97111002.83808       697.566 8        51.840
E10        13.000                                                                                                                                    25925022.070 5 101735325.25505     -2483.020 5        32.150    25925015.631 6 104389297.93306     -2547.866 6        36.378
E06        14.000    23382699.776 6 122876991.16606      -366.118 6        36.832                                                                    23382700.948 7  91758754.55207      -273.415 7        44.822    23382700.101 7  94152463.53207      -280.609 7        45.860
E11        15.000    23862372.216 5 125397659.41705     -2323.973 5        34.557                                                                    23862367.421 7  93641054.37607     -1735.357 7        42.483    23862367.236 7  96083863.25007     -1780.602 7        43.064
G19        16.000    22765781.464 5 119635235.21705      1100.406 5        30.989                                    22765805.489 1  93222073.39401       857.590 1         6.000
E30        17.000    28917047.785 4                     -2316.914 4        26.719                                                                                                                                    28917060.483 5                     -1775.086 5        30.460
G28        18.000    23082551.106 6 121299742.02506      -921.618 6        38.520                                                                                                    23082566.186 4                      -718.193 4        29.479
G06        19.000    25264420.199 5 132765422.88205      2721.657 5        32.431                                    25264435.858 1 103453640.81711      2120.690 1         7.875
E36        20.000    23699368.019 5 124541005.61105       312.631 5        30.928                                                                    23699367.683 7  93001395.15407       233.483 7        46.181    23699366.319 7  95427548.52607       239.715 7        44.436
G17        22.000    22180011.041 6 116556719.21106      -971.535 6        38.117                                    22180001.757 5  90823335.26605      -757.041 5        31.381    22180004.847 5  90823401.26905      -757.088 5        34.657
S23        24.000    38107502.225 6 200256229.19406      -824.190 6        41.216
S36        25.000    38157815.733 6 200520564.80606      -827.541 6        36.922
R20        27.000    20032243.036 4                     -3536.043 4        26.862                                                                    20032250.168 6                     -2749.942 6        41.602
R04        28.000    23444474.576 4                     -4780.051 4        26.551
R06        29.000    20427127.702 6 109003070.36906      1616.634 6        36.612
C19        33.000                                                                                                                                    23583931.619 6 122807782.05406      1461.318 6        38.997                                                                    23583931.162 5  99791318.95705      1187.454 5        34.314
R21        34.000    19600149.937 8 104884424.72208       731.788 8        49.507                                                                    19600149.717 6  81576871.52306       569.125 6        40.577
R05        36.000    19727559.097 7 105455210.74907     -2963.610 7        47.059                                                                    19727557.933 7  82020617.50107     -2305.005 7        44.420
R22        37.000                                                                                                                                    23557451.507 5  97806545.48005      2619.677 5        34.819
C39        38.000                                                                                                                                    38837425.827 5 202236489.88905      -882.927 5        34.343                                                                    38837395.456 4 164333701.53604      -717.456 4        27.689
C06        41.000                                                                                                                                    38347504.547 6 199685495.35906      -308.761 6        38.637    38347508.390 6 154409457.19706      -238.813 6        38.583    38347493.352 5 162260786.19505      -250.698 5        32.922
C29        43.000                                                                                                                                    22195258.830 7 115576431.14707     -2444.417 7        46.848                                                                    22195256.655 7  93915429.52107     -1986.208 7        46.230
C16        45.000                                                                                                                                    38759819.960 7 201832626.72207      -432.011 7        45.102    38759819.333 6 156069717.76906      -334.186 6        40.920    38759814.119 5 164005467.21505      -350.907 5        31.532
C09        46.000                                                                                                                                    38964734.140 5 202899611.51805       160.041 5        30.558    38964732.646 7 156894848.19607       123.759 7        42.851    38964728.882 5 164872514.18505       129.921 5        34.852
C32        47.000                                                                                                                                    24472257.708 6 127433471.62306     -3513.728 6        41.189                                                                    24472260.154 7 103550167.08707     -2855.261 7        44.516
C35        51.000                                                                                                                                    23571302.857 8 122742158.47808      1053.019 8        48.466                                                                    23571300.406 6  99737915.62906       855.645 6        41.938
I09        54.000    37102217.374 5 145597060.61905      -713.680 5        35.929
C20        55.000                                                                                                                                    21727242.448 8 113139443.80608     -1016.519 8        51.896                                                                    21727236.015 7  91935144.46307      -826.008 7        47.096
I01        56.000   331991363.844 5 999664619.77005     -2851.572 5        33.569
> 2025 01 01 01 15 30.0000000  0 37
G21         3.000    22681073.803 6 119189849.02606     -3523.677 6        39.279                                    22681068.774 3  92875190.80303     -2745.725 3        22.648
G31         4.000    22597348.542 5 118749912.89705       906.311 5        33.587                                    22597343.433 2  92532335.12402       706.223 2        17.472    22597340.625 4  92532341.23204       706.136 4        29.602
G02         5.000    21296422.766 7 111913461.50107     -2615.785 7        45.174                                    21296414.849 5  87205238.19305     -2038.268 5        32.126
E34         6.000    27389996.596 5 143935413.95105      1958.448 5        35.152                                                                    27389991.890 6 107484244.76906      1462.416 6        41.855    27389987.790 5 110288150.03705      1500.535 5        35.757
E04         7.000    23937529.567 7 125792650.48007     -1859.273 7        45.815                                                                    23937526.876 8  93935991.03308     -1388.461 8        48.770    23937526.682 8  96386495.01708     -1424.725 8        48.954
G03         8.000    19909049.836 7 104622757.23907      -446.203 7        44.545                                    19909047.563 7  81524261.33507      -347.687 7        43.247    19909047.997 7  81524251.32207      -347.763 7        44.260
G04        11.000    21631110.329 5 113672311.63605      2029.810 5        34.910                                    21631111.852 1  88575834.62701      1581.625 1         9.333    21631107.021 4  88575764.71604      1581.713 4        29.867
E09        12.000    24116580.710 8 126733582.94808       908.416 8        48.151                                                                    24116580.451 8  94638705.97108       678.331 8        48.472    24116580.303 8  97107518.76508       696.016 8        51.624
E10        13.000                                                                                                                                    25928188.923 4 101747743.10404     -2483.824 4        29.782    25928180.398 6 104402039.74906     -2548.805 6        36.310
E06        14.000    23383049.532 6 122878827.98306      -368.484 6        36.219                                                                    23383050.496 7  91760126.19307      -275.355 7        44.220    23383049.519 7  94153870.94607      -282.403 7        45.628
E11        15.000    23864580.515 5 125409283.70305     -2325.683 5        33.719                                                                    23864579.577 7  93649734.83907     -1736.666 7        42.705    23864579.194 7  96092770.18207     -1782.135 7        43.134
G19        16.000    22764736.191 5 119629742.00105      1097.482 5        30.513                                    22764760.372 1  93217792.95801       855.220 1         4.571
E30        17.000    28919257.464 4                     -2318.566 4        28.398                                                                    28919256.559 4 113485338.69704     -1731.361 4        28.882    28919265.610 5                     -1776.502 5        30.423
