     3.04           OBSERVATION DATA    M                   RINEX VERSION / TYPE
ssrcrin-15.6.1x                         20250101 024500 UTC PGM / RUN BY / DATE 
(00000000023479385599111004) Septentrio proprietary         COMMENT             
ract                                                        MARKER NAME         
01                                                          MARKER NUMBER       
geodetic                                                    MARKER TYPE         
NFB                 CLIMERS@TUW                             OBSERVER / AGENCY   
3296359             SEPT ASTERX SB3 PROB4.14.4              REC # / TYPE / VERS 
Unknown             Unknown                                 ANT # / TYPE        
  4127445.2402  1206914.4159  4695542.2671                  APPROX POSITION XYZ 
        0.0000        0.0000        0.0000                  ANTENNA: DELTA H/E/N
G   23 X1  C1C L1C D1C S1C C1W S1W C2W L2W D2W S2W C2L L2L  SYS / # / OBS TYPES 
       D2L S2L C5Q L5Q D5Q S5Q C1L L1L D1L S1L              SYS / # / OBS TYPES 
E   21 X1  C1C L1C D1C S1C C6C L6C D6C S6C C5Q L5Q D5Q S5Q  SYS / # / OBS TYPES 
       C7Q L7Q D7Q S7Q C8Q L8Q D8Q S8Q                      SYS / # / OBS TYPES 
S    9 X1  C1C L1C D1C S1C C5I L5I D5I S5I                  SYS / # / OBS TYPES 
R   17 X1  C1C L1C D1C S1C C2P L2P D2P S2P C2C L2C D2C S2C  SYS / # / OBS TYPES 
       C3Q L3Q D3Q S3Q                                      SYS / # / OBS TYPES 
C   25 X1  C1P L1P D1P S1P C5P L5P D5P S5P C2I L2I D2I S2I  SYS / # / OBS TYPES 
       C7I L7I D7I S7I C6I L6I D6I S6I C7D L7D D7D S7D      SYS / # / OBS TYPES 
J   17 X1  C1C L1C D1C S1C C2L L2L D2L S2L C5Q L5Q D5Q S5Q  SYS / # / OBS TYPES 
       C1L L1L D1L S1L                                      SYS / # / OBS TYPES 
I    5 X1  C5A L5A D5A S5A                                  SYS / # / OBS TYPES 
SEPTENTRIO RECEIVERS OUTPUT ALIGNED CARRIER PHASES.         COMMENT             
NO FURTHER PHASE SHIFT APPLIED IN THE RINEX ENCODER.        COMMENT             
G L1C                                                       SYS / PHASE SHIFT   
G L2W                                                       SYS / PHASE SHIFT   
G L2L  0.00000                                              SYS / PHASE SHIFT   
G L5Q  0.00000                                              SYS / PHASE SHIFT   
G L1L  0.00000                                              SYS / PHASE SHIFT   
E L1C  0.00000                                              SYS / PHASE SHIFT   
E L6C  0.00000                                              SYS / PHASE SHIFT   
E L5Q  0.00000                                              SYS / PHASE SHIFT   
E L7Q  0.00000                                              SYS / PHASE SHIFT   
E L8Q  0.00000                                              SYS / PHASE SHIFT   
S L1C                                                       SYS / PHASE SHIFT   
S L5I                                                       SYS / PHASE SHIFT   
R L1C                                                       SYS / PHASE SHIFT   
R L2P  0.00000                                              SYS / PHASE SHIFT   
R L2C                                                       SYS / PHASE SHIFT   
R L3Q  0.00000                                              SYS / PHASE SHIFT   
C L1P  0.00000                                              SYS / PHASE SHIFT   
C L5P  0.00000                                              SYS / PHASE SHIFT   
C L2I                                                       SYS / PHASE SHIFT   
C L7I                                                       SYS / PHASE SHIFT   
C L6I                                                       SYS / PHASE SHIFT   
C L7D                                                       SYS / PHASE SHIFT   
J L1C                                                       SYS / PHASE SHIFT   
J L2L  0.00000                                              SYS / PHASE SHIFT   
J L5Q  0.00000                                              SYS / PHASE SHIFT   
J L1L  0.00000                                              SYS / PHASE SHIFT   
I L5A                                                       SYS / PHASE SHIFT   
  2025     1     1     2    45    0.0000000     GPS         TIME OF FIRST OBS   
 C1C    0.000 C2C    0.000 C2P    0.000                     GLONASS COD/PHS/BIS 
DBHZ                                                        SIGNAL STRENGTH UNIT
    18                                                      LEAP SECONDS        
 24 R01  1 R02 -4 R03  5 R04  6 R05  1 R06 -4 R07  5 R08  6 GLONASS SLOT / FRQ #
    R09 -2 R10 -7 R11  0 R12 -1 R13 -2 R14 -7 R15  0 R16 -1 GLONASS SLOT / FRQ #
    R17  4 R18 -3 R19  3 R20  2 R21  4 R22 -3 R23  3 R24  2 GLONASS SLOT / FRQ #
                                                            END OF HEADER       
> 2025 01 01 02 45  0.0000000  0 42
G02         1.000    24066815.480 4                     -4286.722 4        24.481
G31         4.000    22633342.093 5 118938981.76005     -2762.814 5        34.038                                    22633333.650 3  92679717.11903     -2152.836 3        20.048    22633333.635 5  92679719.14205     -2152.860 5        35.514
E34         6.000    24817093.735 8 130414713.01408      1058.464 8        48.903                                                                    24817092.824 7  97387658.47607       790.413 7        46.186    24817091.430 7  99928174.30707       811.042 7        45.278
E04         7.000    25763037.878 6 135385676.85806     -3233.255 6        40.956                                                                    25763037.935 7 101099676.67807     -2414.427 7        44.343    25763036.147 7 103737059.58307     -2477.466 7        42.798
G03         8.000    20566329.478 7 108076834.42407     -2557.151 7        42.218                                    20566327.211 5  84215711.04405     -1992.586 5        35.109    20566326.350 6  84215666.06206     -1992.519 6        38.571
G09         9.000    20713461.528 7 108849963.04007      1184.150 7        47.445                                    20713458.214 7  84818162.47207       922.719 7        44.336    20713458.771 7  84818153.46807       922.656 7        42.722
R14        10.000    23891686.728 4                     -3351.076 4        29.972                                                                    23891714.788 4                     -2606.399 4        24.526
G04        11.000    19956576.740 8 104872545.57008      -626.662 8        49.046                                    19956573.995 6  81718813.22006      -488.304 6        39.147    19956573.633 7  81718832.21407      -488.308 7        47.237
E09        12.000    23344309.820 7 122675274.71607     -1126.215 7        46.556                                                                    23344309.396 7  91608152.84607      -841.005 7        47.944    23344306.769 7  93997907.55707      -862.930 7        44.065
E06        14.000    23934135.202 6 125774771.91006     -2312.854 6        40.591                                                                    23934135.295 8  93922703.79808     -1727.205 8        50.066    23934135.624 8  96372829.58808     -1772.219 8        49.862
E11        15.000    26157985.379 5 137461150.15905     -3789.239 5        33.084                                                                    26157981.925 6 102649552.61006     -2829.661 6        36.344    26157980.767 5 105327371.38605     -2903.363 5        31.064
G28        17.000    24793350.425 4                     -3879.091 4        28.464
G06        19.000    21992522.855 7 115571593.62307      1508.237 7        44.769                                    21992517.718 5  90055682.82005      1175.244 5        32.305    21992520.082 5  90055755.89605      1174.929 5        34.190
E36        20.000    23498689.404 7 123486586.97207     -1800.662 7        43.820                                                                    23498689.974 7  92213890.96307     -1344.702 7        44.856    23498690.145 7  94619501.88107     -1379.758 7        46.053
E05        21.000    23506770.716 7 123528926.87107      1375.797 7        45.645                                                                    23506768.827 7  92245655.58707      1027.389 7        42.427    23506771.942 6  94652051.57406      1054.217 6        39.673
G17        22.000    23736266.237 5 124734902.31805     -3481.568 5        34.029                                    23736256.527 1  97196002.18001     -2712.916 1         7.625
R07        23.000    20968257.625 8 112244679.68408      1649.102 8        48.939                                                                    20968252.299 6  87301513.62406      1282.618 6        39.372
S23        24.000    38051959.875 6 199964321.87906      -823.691 6        40.961
S36        25.000    38106280.913 5 200249785.30505      -827.573 5        35.662
G11        26.000    25293792.486 4                      2759.959 4        25.383                                                                                                    25293761.684 5                      2150.354 5        31.789
R15        28.000    22185004.908 6 118549910.06306      -180.809 6        36.503
R06        29.000    19336144.104 5 103181389.27705     -1185.736 5        33.964
C05        32.000                                                                                                                                                                                                    39037378.185 5 157187366.29705      -655.045 5        33.904
C19        33.000                                                                                                                                    21969355.894 7 114400322.39707       -94.620 7        45.395                                                                    21969352.032 7  92959514.78007       -76.935 7        45.386
R21        34.000    20302700.645 6 108643951.90106     -3846.187 6        39.910                                                                    20302700.253 6  84500763.15706     -2991.509 6        41.809
R05        36.000    22659435.348 4 121127609.52504     -4254.225 4        27.748                                                                    22659413.290 5                     -3309.030 5        33.341
R22        37.000    20272655.631 7 108216797.85207       708.272 7        47.033                                                                    20272654.006 6  84168660.48306       550.889 6        40.970
C39        38.000                                                                                                                                    39302572.686 5 204658787.05305     -1687.667 5        34.843                                                                    39302592.935 4 166302102.84704     -1371.615 4        28.768
R16        39.000    22929093.241 5 122483131.48305      2757.154 5        35.367
C06        41.000                                                                                                                                    38265702.937 5                     -1231.386 5        34.138    38265701.340 6 154080049.08906      -952.359 6        36.677    38265683.543 4 161914655.22904     -1000.609 4        28.863
C29        43.000                                                                                                                                    24889586.699 6 129606606.27206     -4153.573 6        39.595                                                                    24889585.082 6 105315976.34606     -3374.982 6        40.865
R23        44.000    23505908.919 3                      3260.379 3        23.010
C16        45.000                                                                                                                                    38788582.090 6 201982377.43406     -1315.902 6        38.144    38788581.513 6 156185702.79106     -1017.587 6        36.238    38788579.303 5                     -1069.446 5        31.540
C09        46.000                                                                                                                                    38364757.454 6 199775369.28906      -726.710 6        36.688    38364758.588 7 154478990.28407      -561.939 7        44.730    38364751.678 6 162333824.69806      -590.391 6        37.682
C44        48.000                                                                                                                                    24421795.726 7 127170802.75407       766.749 7        43.702                                                                    24421792.813 7 103336594.06607       622.961 7        42.076
C37        49.000                                                                                                                                    24765903.777 4 128962575.29604       105.201 4        29.858                                                                    24765905.561 5 104792647.09505        85.417 5        31.781
C22        50.000                                                                                                                                    24947534.387 5 129908380.42705      1835.866 5        34.362                                                                    24947550.840 4                      1491.871 4        29.156
C35        51.000                                                                                                                                    23038689.736 7 119968715.38707     -1853.104 7        47.021                                                                    23038686.338 6  97484292.16106     -1505.714 6        37.996
C20        55.000                                                                                                                                    22767285.722 7 118555216.54907     -2582.666 7        45.163                                                                    22767277.979 6  96335903.26206     -2098.691 6        40.996
C12        56.000                                                                                                                                    26296340.452 5 136931951.90905      1893.971 5        33.413    26296340.425 7 105884340.60707      1464.669 7        43.128    26296320.909 5 111268348.93805      1539.255 5        35.862
C23        57.000                                                                                                                                    26464045.970 3                     -2328.709 3        18.060
I01        60.000   335087252.969 6  11813557.16506     -2975.509 6        39.441
> 2025 01 01 02 45  5.0000000  0 40
G02         1.000    24070893.922 3                     -4287.667 3        20.833
G31         4.000    22635973.178 5 118952803.74105     -2765.880 5        34.857                                    22635963.715 3  92690487.46603     -2155.231 3        20.119    22635962.908 5  92690489.49805     -2155.166 5        34.690
E34         6.000    24816087.388 8 130409425.21408      1056.799 8        48.685                                                                    24816086.551 7  97383709.79507       789.179 7        46.069    24816085.015 7  99924122.61707       809.777 7        45.117
E04         7.000    25766114.825 7 135401845.31907     -3233.962 7        42.076                                                                    25766114.463 7 101111750.53807     -2414.972 7        44.325    25766112.906 7 103749448.41107     -2477.867 7        43.001
G03         8.000    20568764.483 7 108089625.42007     -2559.038 7        42.324                                    20568761.357 5  84225678.09105     -1994.062 5        34.852    20568760.527 6  84225633.12206     -1994.039 6        39.216
G09         9.000    20712336.036 7 108844047.98707      1182.043 7        47.060                                    20712332.917 7  84813553.33707       921.074 7        44.278    20712333.574 7  84813544.32307       921.171 7        42.967
R14        10.000    23894830.645 3                     -3354.790 3        20.262                                                                    23894857.802 3                     -2608.079 3        20.810
G04        11.000    19957174.691 8 104875685.89408      -629.338 8        48.703                                    19957171.457 6  81721260.23006      -490.398 6        38.802    19957171.187 7  81721279.23207      -490.400 7        47.173
E09        12.000    23345382.388 7 122680910.68507     -1127.987 7        46.414                                                                    23345381.862 8  91612361.52208      -842.321 8        48.047    23345379.143 7  94002226.03307      -864.355 7        43.977
E06        14.000    23936335.881 6 125786340.14706     -2314.190 6        40.756                                                                    23936336.662 8  93931342.42308     -1728.137 8        49.945    23936337.112 8  96381693.57108     -1773.275 8        50.106
E11        15.000    26161591.301 5 137480098.98205     -3789.869 5        31.698                                                                    26161587.816 5 102663702.72605     -2830.563 5        35.805    26161586.101 5 105341890.60605     -2904.136 5        30.445
G28        17.000    24797041.642 4                     -3880.575 4        28.379
G06        19.000    21991088.502 7 115564058.46807      1505.954 7        45.499                                    21991083.105 5  90049811.28305      1173.464 5        32.210    21991084.641 5  90049884.32505      1173.368 5        34.357
E36        20.000    23500404.116 7 123495596.62807     -1802.910 7        44.635                                                                    23500404.582 7  92220618.96607     -1346.366 7        45.088    23500404.651 7  94626405.39107     -1381.446 7        46.045
E05        21.000    23505462.057 7 123522051.62807      1374.567 7        45.765                                                                    23505460.488 7  92240521.49007      1026.423 7        42.413    23505463.612 6  94646783.55306      1053.203 6        41.008
G17        22.000                                                                                                                                                                    23739645.570 3                     -2715.309 3        18.687
R07        23.000    20966716.551 8 112236439.25408      1647.333 8        49.568                                                                    20966712.785 6  87295104.42706      1281.399 6        37.894
S23        24.000    38052743.473 6 199968440.64506      -823.688 6        40.839
S36        25.000    38107061.618 5 200253924.74305      -827.928 5        35.005
G11        26.000    25291171.275 4                      2758.306 4        27.641                                                                                                    25291138.246 5                      2149.866 5        31.525
R06        29.000    19337256.859 5 103187324.90705     -1188.502 5        33.742
C05        32.000                                                                                                                                                                                                    39038191.162 5 157190641.15305      -654.935 5        34.257
C19        33.000                                                                                                                                    21969447.567 7 114400799.90607       -96.149 7        44.187                                                                    21969443.594 7  92959902.82007       -78.195 7        45.264
R21        34.000    20306295.458 6 108663192.63306     -3849.773 6        39.877                                                                    20306295.384 6  84515728.18606     -2994.301 6        41.580
R05        36.000    22663419.308 5 121148883.15215     -4254.987 5        30.951                                                                    22663390.253 5                     -3309.410 5        33.018
R22        37.000    20271994.153 7 108213267.30107       704.047 7        46.091                                                                    20271991.936 6  84165914.52206       547.624 6        40.906
C39        38.000                                                                                                                                    39304193.502 5 204667226.91605     -1688.617 5        33.958                                                                    39304214.741 4 166308960.89504     -1371.477 4        28.967
R16        39.000    22926508.706 5 122469350.74705      2755.164 5        35.638
C06        41.000                                                                                                                                    38266885.605 5 199265714.75115     -1232.316 5        34.510    38266881.223 6 154084812.57806      -952.917 6        36.794    38266866.191 4 161919660.95704     -1001.219 4        28.701
C29        43.000                                                                                                                                    24893575.921 6 129627375.45206     -4153.965 6        39.841                                                                    24893573.802 6 105332853.02806     -3375.621 6        41.318
R23        44.000    23502865.385 3                      3257.419 3        22.781
C16        45.000                                                                                                                                    38789845.506 6 201988959.00106     -1316.493 6        38.291    38789844.674 6 156190792.07006     -1017.950 6        36.745    38789843.136 5                     -1070.107 5        31.336
C09        46.000                                                                                                                                    38365454.092 6 199779005.34806      -727.394 6        36.715    38365456.375 7 154481801.92007      -562.487 7        45.112    38365449.920 6 162336779.31006      -591.426 6        37.996
C44        48.000                                                                                                                                    24421059.506 7 127166976.00407       764.182 7        42.762                                                                    24421057.345 6 103333484.50606       620.910 6        41.569
C37        49.000                                                                                                                                    24765800.930 4 128962055.74804       102.821 4        27.401                                                                    24765805.569 5 104792224.93405        83.417 5        30.558
C22        50.000                                                                                                                                    24945776.563 5 129899203.03505      1835.490 5        34.224                                                                    24945788.574 4                      1490.994 4        28.284
C35        51.000                                                                                                                                    23040470.476 7 119977987.95807     -1855.868 7        46.654                                                                    23040467.853 6  97491826.85706     -1508.108 6        39.027
C20        55.000                                                                                                                                    22769766.656 7 118568133.09907     -2583.775 7        45.070                                                                    22769758.651 6  96346399.01606     -2099.434 6        41.178
C12        56.000                                                                                                                                    26294524.238 5 136922485.26705      1892.873 5        33.012    26294522.574 6 105877020.43306      1463.386 6        41.838    26294502.221 5 111260656.57105      1537.744 5        35.190
I01        60.000   335091043.608 6  11828435.10906     -2975.530 6        39.069
> 2025 01 01 02 45 10.0000000  0 39
G31         4.000    22638607.913 5 118966640.72305     -2768.333 5        32.545                                    22638596.463 3  92701269.54403     -2157.119 3        20.143    22638595.663 5  92701271.56905     -2157.592 5        34.114
E34         6.000    24815082.235 8 130404144.95008      1055.635 8        48.449                                                                    24815081.766 7  97379766.74107       788.273 7        45.806    24815079.990 7  99920076.68807       808.837 7        44.969
E04         7.000    25769192.020 7 135418016.45407     -3234.087 7        42.521                                                                    25769191.463 7 101123826.38007     -2415.078 7        44.436    25769190.089 7 103761839.27807     -2478.092 7        42.811
G03         8.000    20571200.001 6 108102425.05406     -2560.479 6        40.894                                    20571197.094 5  84235651.84305     -1995.178 5        34.114    20571195.995 6  84235606.83806     -1994.927 6        39.637
G09         9.000    20711211.231 7 108838143.31607      1180.310 7        44.974                                    20711209.673 7  84808952.28807       919.723 7        44.161    20711210.330 7  84808943.27907       919.717 7        43.410
R14        10.000                                                                                                                                    23898009.593 3                     -2608.990 3        21.000
G04        11.000    19957774.669 8 104878838.71908      -631.468 8        48.929                                    19957771.236 6  81723716.98106      -492.054 6        38.544    19957771.573 7  81723735.98607      -492.090 7        47.412
E09        12.000    23346456.232 7 122686554.69107     -1129.283 7        46.424                                                                    23346455.940 8  91616576.20208      -843.277 8        48.367    23346453.058 7  94006550.66007      -865.357 7        43.752
E06        14.000    23938537.975 6 125797914.49206     -2315.179 6        40.753                                                                    23938539.180 8  93939985.59908     -1728.856 8        49.813    23938539.736 8  96390562.21408     -1773.926 8        50.347
E11        15.000    26165197.578 5 137499051.79605     -3790.184 5        30.287                                                                    26165194.425 5 102677855.82105     -2830.666 5        35.748    26165192.637 4 105356412.94504     -2904.405 4        29.972
G28        17.000    24800735.305 4                     -3882.308 4        28.976                                                                                                    24800717.797 3                     -3024.976 3        22.000
G06        19.000    21989656.415 7 115556534.47707      1504.018 7        45.845                                    21989650.702 5  90043948.46105      1171.961 5        32.563    21989652.308 5  90044021.46105      1171.922 5        34.162
E36        20.000    23502120.824 7 123504616.76707     -1804.795 7        44.919                                                                    23502121.258 7  92227354.77107     -1347.813 7        45.451    23502121.244 7  94633316.92107     -1382.863 7        45.801
E05        21.000    23504154.460 7 123515181.94207      1373.710 7        45.567                                                                    23504153.322 7  92235391.53707      1025.795 7        42.736    23504156.271 7  94641519.77407      1052.597 7        42.199
R07        23.000    20965178.331 8 112228206.81408      1646.002 8        50.705                                                                    20965175.563 6  87288701.42406      1280.259 6        36.450
S23        24.000    38053522.032 6 199972559.04906      -823.351 6        40.899
S36        25.000    38107845.051 5 200258064.42505      -827.622 5        35.138
G11        26.000    25288549.567 5                      2758.341 5        30.325                                                                                                    25288514.628 5                      2149.375 5        33.317
R15        28.000    22185373.005 6 118551761.93206      -188.965 6        37.894
R06        29.000    19338371.789 5 103193271.63505     -1190.089 5        33.180
C05        32.000                                                                                                                                                                                                    39039005.100 5 157193915.75605      -654.566 5        34.319
C19        33.000                                                                                                                                    21969539.836 7 114401284.30807       -97.250 7        42.984                                                                    21969536.519 7  92960296.43807       -79.054 7        45.216
R21        34.000    20309892.771 6 108682450.30506     -3852.850 6        39.976                                                                    20309894.113 7  84530706.40007     -2996.743 7        42.210
R05        36.000    22667403.871 5 121170157.49215     -4254.687 5        33.671                                                                    22667371.763 5                     -3309.347 5        33.323
R22        37.000    20271336.112 7 108209757.30907       700.240 7        45.270                                                                    20271332.845 6  84163184.54906       544.574 6        39.826
C39        38.000                                                                                                                                    39305815.475 5 204675668.97105     -1688.355 5        34.171                                                                    39305837.229 4 166315820.83904     -1371.663 4        27.677
R16        39.000    22923930.845 5 122455578.10805      2754.089 5        34.638
C06        41.000                                                                                                                                    38268068.546 5 199271878.12205     -1232.843 5        34.390    38268062.123 6 154089578.47406      -953.127 6        37.096    38268049.320 4 161924669.21004     -1002.035 4        28.559
C29        43.000                                                                                                                                    24897565.227 6 129648146.72206     -4154.034 6        40.417                                                                    24897562.747 6 105349731.38306     -3375.708 6        41.685
R23        44.000    23499819.289 3                      3255.856 3        20.619
C16        45.000                                                                                                                                    38791110.132 6 201995543.42406     -1316.902 6        38.273    38791109.236 6 156195883.55806     -1018.065 6        36.488    38791107.487 5                     -1070.444 5        31.336
C09        46.000                                                                                                                                    38366153.835 6 199782644.80606      -727.909 6        37.032    38366155.331 7 154484616.16607      -562.871 7        45.079    38366148.754 6 162339736.66506      -591.681 6        37.951
C44        48.000                                                                                                                                    24420325.264 6 127163161.07506       762.211 6        41.425                                                                    24420324.516 6 103330384.53806       619.322 6        41.304
C37        49.000                                                                                                                                    24765705.582 4 128961548.59404       100.455 4        28.796                                                                    24765708.839 4 104791812.84704        81.638 4        29.336
C22        50.000                                                                                                                                    24944013.779 5 129890028.09905      1835.257 5        35.038                                                                    24944030.797 4                      1490.823 4        27.772
C35        51.000                                                                                                                                    23042253.140 7 119987273.55107     -1858.084 7        46.302                                                                    23042251.412 6  97499372.16606     -1510.036 6        40.355
C20        55.000                                                                                                                                    22772247.966 7 118581054.36207     -2584.406 7        46.094                                                                    22772240.159 6  96356898.61606     -2100.044 6        41.409
C12        56.000                                                                                                                                    26292710.364 5 136913025.97105      1891.525 5        33.527    26292706.289 6 105869705.88506      1462.573 6        41.128    26292685.665 5 111252970.10105      1536.982 5        34.386
I01        60.000   335094835.457 6  11843313.27606     -2975.509 6        39.471
> 2025 01 01 02 45 15.0000000  0 41
G31         4.000    22641244.256 5 118980492.38305     -2771.901 5        30.272                                    22641232.096 3  92712063.07503     -2159.944 3        18.806    22641231.290 5  92712065.08305     -2159.911 5        32.539
E34         6.000    24814078.338 8 130398871.98208      1053.930 8        48.359                                                                    24814078.440 7  97375829.13207       786.968 7        45.582    24814076.426 7  99916036.36107       807.537 7        44.674
E04         7.000    25772270.054 7 135434190.00107     -3234.752 7        42.993                                                                    25772269.103 7 101135904.03507     -2415.664 7        44.533    25772267.773 7 103774231.99807     -2478.715 7        43.045
G03         8.000    20573636.578 6 108115233.04406     -2562.305 6        37.524                                    20573634.316 5  84245632.09405     -1996.599 5        32.467    20573633.175 6  84245587.09106     -1996.678 6        40.029
G09         9.000    20710088.723 7 108832248.77307      1177.984 7        43.932                                    20710088.342 7  84804359.13807       917.916 7        44.077    20710088.460 7  84804350.12307       917.897 7        43.795
R14        10.000    23901147.702 4                     -3360.539 4        25.158                                                                    23901141.742 4                     -2613.510 4        24.556
G04        11.000    19958376.983 8 104882003.79708      -634.139 8        48.811                                    19958373.295 6  81726183.28006      -494.138 6        38.348    19958373.718 7  81726202.28707      -494.189 7        47.414
E09        12.000    23347531.874 7 122692206.48707     -1131.054 7        46.118                                                                    23347531.382 8  91620796.70308      -844.638 8        48.373    23347528.839 7  94010881.26507      -866.653 7        43.469
E06        14.000    23940741.982 6 125809494.66806     -2316.457 6        41.731                                                                    23940742.774 8  93948633.13108     -1729.923 8        49.554    23940743.422 8  96399435.33708     -1775.056 8        50.529
E11        15.000    26168804.066 4 137518008.54104     -3792.251 4        29.384                                                                    26168801.989 5 102692011.79605     -2831.385 5        35.333    26168800.635 4 105370938.21204     -2905.491 4        29.867
G28        17.000    24804432.250 5                     -3883.712 5        31.102                                                                                                    24804406.081 3                     -3027.045 3        22.171
G06        19.000    21988226.368 7 115549021.41307      1501.618 7        45.944                                    21988220.480 5  90038094.14005      1170.095 5        32.820    21988223.182 5  90038167.15005      1170.061 5        31.841
E36        20.000    23503838.750 7 123513647.10507     -1806.987 7        44.728                                                                    23503839.776 7  92234098.20807     -1349.450 7        45.812    23503839.728 7  94640236.27607     -1384.592 7        45.770
E05        21.000    23502848.422 7 123508317.55907      1372.347 7        45.579                                                                    23502847.024 7  92230265.52007      1024.986 7        42.586    23502849.904 7  94636260.06307      1051.579 7        42.861
G17        22.000    23746252.230 4 124787151.17504     -3484.606 4        26.563                                    23746200.173 1  97236715.82901     -2715.366 1         1.778
R07        23.000    20963642.657 8 112219982.31308      1644.173 8        50.799                                                                    20963641.737 6  87282304.59406      1278.909 6        38.066
S23        24.000    38054311.349 6 199976676.72406      -823.469 6        41.225
S36        25.000    38108633.407 6 200262202.69206      -827.536 6        36.038
G11        26.000    25285920.324 4                      2758.108 4        29.848                                                                                                    25285889.366 5 103541487.45815      2148.964 5        33.886
R15        28.000                                                                                                                                    22185584.425 5  92207707.28915      -150.175 5        31.049
R06        29.000    19339486.479 5 103199229.23505     -1192.452 5        32.156
C05        32.000                                                                                                                                                                                                    39039817.911 5 157197189.90105      -654.915 5        34.586
C19        33.000                                                                                                                                    21969634.545 6 114401775.37506       -98.946 6        41.883                                                                    21969630.702 7  92960695.46907       -80.291 7        44.906
R21        34.000    20313494.365 7 108701724.72007     -3856.437 7        43.238                                                                    20313495.975 7  84545697.62107     -2999.412 7        42.123
R05        36.000    22671382.381 5 121191432.36205     -4255.030 5        32.467                                                                    22671351.333 5                     -3309.252 5        32.072
R22        37.000    20270682.190 7 108206267.64807       695.992 7        43.890                                                                    20270677.938 6  84160470.38906       541.293 6        36.733
C39        38.000                                                                                                                                    39307436.897 5 204684113.05005     -1688.846 5        34.067                                                                    39307459.903 4 166322682.34004     -1372.736 4        27.186
R16        39.000    22921354.998 5 122441813.18705      2752.600 5        32.641
C06        41.000                                                                                                                                    38269251.622 5 199278044.37305     -1233.715 5        34.733    38269244.827 6 154094346.61106      -953.782 6        37.660    38269233.261 4 161929679.79904     -1002.489 4        28.246
C29        43.000                                                                                                                                    24901554.363 6 129668919.80406     -4154.755 6        40.796                                                                    24901551.968 6 105366611.19106     -3376.044 6        41.783
R23        44.000    23496779.243 3                      3255.366 3        22.038
C16        45.000                                                                                                                                    38792375.756 6 202002130.45906     -1317.540 6        38.309    38792374.563 6 156200977.06706     -1018.935 6        36.242    38792372.433 5                     -1070.822 5        31.094
C09        46.000                                                                                                                                    38366855.172 6 199786287.33206      -728.678 6        37.584    38366854.519 7 154487432.79307      -563.510 7        44.968    38366848.323 6 162342696.52306      -592.131 6        37.807
C44        48.000                                                                                                                                    24419594.698 6 127159357.71006       759.610 6        41.020                                                                    24419593.882 6 103327293.99406       617.204 6        41.435
C37        49.000                                                                                                                                    24765609.472 4 128961053.55404        98.394 4        24.241                                                                    24765615.194 4 104791410.61404        79.940 4        28.569
C22        50.000                                                                                                                                    24942252.974 6 129880855.16806      1834.437 6        36.567
C35        51.000                                                                                                                                    23044038.580 7 119996571.94207     -1860.905 7        46.338                                                                    23044037.434 6  97506927.86306     -1512.273 6        40.963
C20        55.000                                                                                                                                    22774729.944 7 118593980.12607     -2585.597 7        46.701                                                                    22774722.649 6  96367401.86606     -2100.958 6        41.549
C12        56.000                                                                                                                                    26290900.497 5 136903573.57505      1889.745 5        31.864    26290891.478 6 105862396.72806      1461.336 6        41.230    26290870.677 5 111245289.29605      1535.759 5        33.946
C23        57.000                                                                                                                                    26470807.211 4                     -2346.448 4        25.880
I01        60.000   335098627.007 6  11858191.44906     -2975.704 6        39.628
> 2025 01 01 02 45 20.0000000  0 38
G31         4.000    22643884.197 4 118994359.32504     -2774.635 4        29.934                                    22643870.192 2  92722868.46602     -2162.049 2        17.811    22643870.155 4  92722870.51804     -2162.063 4        28.559
E34         6.000    24813076.467 8 130393606.82908      1052.358 8        48.082                                                                    24813076.657 7  97371897.36107       785.884 7        45.386    24813074.508 7  99912002.02507       806.333 7        44.379
E04         7.000    25775348.204 7 135450366.50007     -3235.408 7        43.173                                                                    25775347.148 7 101147983.88307     -2416.072 7        44.140    25775345.952 7 103786626.96007     -2479.083 7        42.876
G03         8.000    20576074.369 5 108128049.93605     -2564.181 5        33.365                                    20576073.171 5  84255619.27705     -1998.054 5        30.249    20576072.646 6  84255574.25506     -1998.066 6        39.958
G09         9.000    20708970.959 7 108826364.84707      1175.843 7        42.783                                    20708968.951 7  84799774.26207       916.247 7        43.746    20708969.362 7  84799765.24907       916.193 7        43.778
R14        10.000    23904294.088 4                     -3363.731 4        27.677                                                                    23904293.990 4                     -2616.412 4        27.701
G04        11.000    19958981.556 8 104885181.64808      -636.686 8        48.653                                    19958977.778 6  81728659.54006      -496.122 6        38.069    19958978.286 7  81728678.52807      -496.102 7        47.276
E09        12.000    23348608.985 7 122697866.59507     -1132.657 7        45.974                                                                    23348608.329 8  91625023.41208      -845.846 8        48.135    23348606.200 7  94015218.24407      -867.881 7        43.122
E06        14.000    23942947.444 7 125821081.20007     -2317.793 7        42.663                                                                    23942947.500 8  93957285.39908     -1730.776 8        49.107    23942948.221 8  96408313.31208     -1775.927 8        50.518
E11        15.000    26172411.638 4 137536969.52104     -3792.386 4        28.351                                                                    26172410.233 5 102706170.98305     -2831.836 5        34.976    26172408.743 5 105385466.73905     -2905.863 5        30.204
G28        17.000    24808127.474 5                     -3885.284 5        31.389                                                                                                    24808106.174 3                     -3028.366 3        21.905
G06        19.000    21986799.070 7 115541519.81207      1499.368 7        45.699                                    21986792.579 5  90032248.74905      1168.337 5        32.731    21986796.098 4  90032321.78404      1168.539 4        29.251
E36        20.000    23505558.941 7 123522688.18407     -1809.077 7        44.281                                                                    23505560.414 7  92240849.65307     -1350.883 7        46.041    23505560.120 7  94647163.85707     -1386.152 7        45.601
E05        21.000    23501543.619 7 123501459.01307      1371.216 7        45.685                                                                    23501542.074 7  92225143.90307      1023.903 7        42.504    23501544.647 7  94631004.81907      1050.716 7        43.010
R07        23.000    20962107.422 8 112211766.07408      1642.643 8        49.678                                                                    20962107.716 6  87275914.23806      1277.514 6        40.548
S23        24.000    38055096.812 6 199980794.12106      -823.322 6        41.278
S36        25.000    38109420.462 5 200266341.13005      -827.441 5        35.609
G11        26.000    25283292.164 4                      2757.560 4        27.916                                                                                                    25283262.906 5 103530743.04605      2148.735 5        33.832
R06        29.000    19340606.015 5 103205198.34605     -1194.894 5        32.335
C05        32.000                                                                                                                                                                                                    39040631.639 5 157200463.97505      -654.778 5        34.648
C19        33.000                                                                                                                                    21969730.971 6 114402273.59206      -100.285 6        41.359                                                                    21969726.256 7  92961100.32307       -81.638 7        44.716
R21        34.000    20317099.335 7 108721016.37107     -3859.960 7        45.645                                                                    20317100.269 6  84560702.21706     -3002.116 6        41.831
R05        36.000    22675355.871 5 121212708.12015     -4254.982 5        30.008                                                                    22675329.709 5                     -3309.564 5        31.834
R22        37.000    20270030.954 6 108202798.86806       691.815 6        41.049                                                                    20270029.678 5  84157772.44505       538.162 5        31.879
C39        38.000                                                                                                                                    39309057.236 5 204692559.57705     -1689.532 5        33.407                                                                    39309081.562 4 166329545.83004     -1373.020 4        27.593
R16        39.000    22918781.567 4 122428057.02604      2750.624 4        29.697
C06        41.000                                                                                                                                    38270435.912 5 199284214.05105     -1234.331 5        34.124    38270428.108 6 154099117.34706      -954.340 6        37.437    38270418.482 4 161934693.07404     -1003.097 4        28.483
C29        43.000                                                                                                                                    24905544.009 6 129689695.19306     -4155.162 6        40.546                                                                    24905541.552 6 105383492.90606     -3376.654 6        41.914
C16        45.000                                                                                                                                    38793641.845 6 202008720.62406     -1318.413 6        37.482    38793639.915 6 156206073.00006     -1019.343 6        36.276    38793638.707 5                     -1071.157 5        31.540
C09        46.000                                                                                                                                    38367554.301 6 199789933.50506      -729.533 6        37.406    38367554.637 7 154490252.23907      -563.981 7        44.965    38367548.493 6 162345659.32406      -592.892 6        38.237
C44        48.000                                                                                                                                    24418867.220 6 127155566.40506       757.225 6        41.297                                                                    24418865.561 6 103324213.27106       615.116 6        41.104
C37        49.000                                                                                                                                                                                                                                                                    24765524.969 4 104791018.73004        76.583 4        27.653
C22        50.000                                                                                                                                    24940493.951 5 129871684.79605      1833.955 5        35.952                                                                    24940528.921 4                      1490.341 4        29.043
C35        51.000                                                                                                                                    23045827.186 7 120005883.61607     -1863.503 7        46.464                                                                    23045825.977 6  97514494.34706     -1514.351 6        41.712
C20        55.000                                                                                                                                    22777212.230 7 118606910.89907     -2586.510 7        46.735                                                                    22777206.204 6  96377909.19706     -2101.883 6        41.940
C12        56.000                                                                                                                                    26289089.303 5 136894128.73205      1888.610 5        30.536    26289077.673 6 105855093.41006      1460.214 6        40.453    26289056.646 5 111237614.67305      1534.236 5        33.347
C23        57.000                                                                                                                                    26473060.019 4                     -2348.399 4        27.066
I01        60.000   335102418.590 6  11873070.03606     -2975.651 6        39.739
> 2025 01 01 02 45 25.0000000  0 43
G02         1.000    24087203.517 4                     -4289.769 4        26.683
G31         4.000                                                                                                                                                                    22646505.543 3                     -2166.704 3        20.238
E34         6.000    24812076.417 8 130388349.62908      1050.651 8        48.321                                                                    24812076.339 7  97367971.53607       784.616 7        45.312    24812074.132 7  99907973.78707       805.032 7        44.214
E04         7.000    25778426.676 7 135466546.03807     -3236.259 7        43.094                                                                    25778425.777 7 101160066.01707     -2416.602 7        43.901    25778424.733 7 103799024.27507     -2479.757 7        42.785
G03         8.000                                                                                                                                                                    20578513.923 6  84265568.40106     -1999.493 6        40.474
G09         9.000    20707853.699 7 108820491.72107      1173.598 7        42.645                                    20707851.471 7  84795197.79207       914.492 7        44.047    20707851.544 7  84795188.78707       914.576 7        43.852
R14        10.000    23907453.441 5                     -3367.055 5        31.268                                                                    23907453.723 4                     -2619.217 4        28.777
G04        11.000    19959588.400 8 104888372.40508      -639.425 8        48.869                                    19959584.819 6  81731145.84206      -498.253 6        38.237    19959585.724 7  81731164.82707      -498.219 7        47.547
E09        12.000    23349687.282 7 122703535.15607     -1134.532 7        45.880                                                                    23349686.925 8  91629256.42708      -847.246 8        48.067    23349685.392 7  94019561.68807      -869.265 7        43.136
E06        14.000    23945153.734 7 125832674.19707     -2319.239 7        43.369                                                                    23945153.343 8  93965942.51308     -1731.897 8        48.701    23945154.210 8  96417196.26808     -1777.120 8        50.364
E11        15.000                                                                                                                                    26176019.494 5 102720333.50405     -2832.647 5        35.157    26176017.589 5 105399998.72205     -2906.682 5        30.219
G19        16.000    22621818.475 5 118878471.41615     -2534.587 5        34.867
G28        17.000    24811821.915 5                     -3887.073 5        31.683                                                                                                    24811804.523 3                     -3030.594 3        19.075
G06        19.000    21985374.050 7 115534029.82407      1496.902 7        45.788                                    21985367.223 5  90026412.41005      1166.419 5        33.168    21985371.788 5  90026485.36605      1166.431 5        30.551
E36        20.000    23507281.750 7 123531740.13607     -1811.440 7        44.146                                                                    23507283.120 7  92247609.22307     -1352.661 7        46.564    23507282.583 7  94654099.77507     -1388.030 7        45.302
E05        21.000    23500240.005 7 123494606.42807      1369.985 7        46.117                                                                    23500238.092 7  92220026.71807      1022.967 7        43.037    23500240.426 7  94625754.14707      1049.683 7        43.187
G17        22.000                                                                                                                                                                    23752815.473 3                     -2720.114 3        21.429
R07        23.000    20960574.505 8 112203558.16408      1640.816 8        48.766                                                                    20960574.905 7  87269530.34907      1276.144 7        42.980
S23        24.000    38055875.429 6 199984911.18806      -823.289 6        41.406
S36        25.000    38110210.969 5 200270479.49805      -827.444 5        35.924
G11        26.000                                                                                                                                                                    25280641.531 5 103520000.91705      2148.362 5        34.690
R15        28.000    22185880.588 6 118554696.53206      -201.896 6        38.195
R06        29.000    19341727.653 5 103211178.89105     -1196.978 5        32.988
C05        32.000                                                                                                                                                                                                    39041444.133 5 157203738.09405      -654.896 5        34.333
C19        33.000                                                                                                                                    21969829.314 6 114402779.06106      -101.624 6        40.443                                                                    21969823.284 7  92961511.07707       -82.847 7        44.501
R21        34.000    20320710.823 7 108740325.39407     -3863.449 7        47.689                                                                    20320708.457 6  84575720.32706     -3004.941 6        40.939
R05        36.000    22679329.453 5 121233985.11605     -4255.695 5        31.804                                                                    22679308.237 5                     -3309.746 5        30.015
R22        37.000    20269383.428 6 108199351.05506       687.411 6        39.736                                                                    20269386.485 5  84155090.82605       534.795 5        33.222
