     3.04           OBSERVATION DATA    M                   RINEX VERSION / TYPE
ssrcrin-15.6.1x                         20250101 000000 UTC PGM / RUN BY / DATE 
(00000000023479385599111004) Septentrio proprietary         COMMENT             
ract                                                        MARKER NAME         
01                                                          MARKER NUMBER       
geodetic                                                    MARKER TYPE         
NFB                 CLIMERS@TUW                             OBSERVER / AGENCY   
3296359             SEPT ASTERX SB3 PROB4.14.4              REC # / TYPE / VERS 
Unknown             Unknown                                 ANT # / TYPE        
  4127445.8715  1206915.1282  4695541.0781                  APPROX POSITION XYZ 
        0.0000        0.0000        0.0000                  ANTENNA: DELTA H/E/N
G   23 X1  C1C L1C D1C S1C C1W S1W C2W L2W D2W S2W C2L L2L  SYS / # / OBS TYPES 
       D2L S2L C5Q L5Q D5Q S5Q C1L L1L D1L S1L              SYS / # / OBS TYPES 
E   21 X1  C1C L1C D1C S1C C6C L6C D6C S6C C5Q L5Q D5Q S5Q  SYS / # / OBS TYPES 
       C7Q L7Q D7Q S7Q C8Q L8Q D8Q S8Q                      SYS / # / OBS TYPES 
S    9 X1  C1C L1C D1C S1C C5I L5I D5I S5I                  SYS / # / OBS TYPES 
R   17 X1  C1C L1C D1C S1C C2P L2P D2P S2P C2C L2C D2C S2C  SYS / # / OBS TYPES 
       C3Q L3Q D3Q S3Q                                      SYS / # / OBS TYPES 
C   25 X1  C1P L1P D1P S1P C5P L5P D5P S5P C2I L2I D2I S2I  SYS / # / OBS TYPES 
       C7I L7I D7I S7I C6I L6I D6I S6I C7D L7D D7D S7D      SYS / # / OBS TYPES 
J   17 X1  C1C L1C D1C S1C C2L L2L D2L S2L C5Q L5Q D5Q S5Q  SYS / # / OBS TYPES 
       C1L L1L D1L S1L                                      SYS / # / OBS TYPES 
I    5 X1  C5A L5A D5A S5A                                  SYS / # / OBS TYPES 
SEPTENTRIO RECEIVERS OUTPUT ALIGNED CARRIER PHASES.         COMMENT             
NO FURTHER PHASE SHIFT APPLIED IN THE RINEX ENCODER.        COMMENT             
G L1C                                                       SYS / PHASE SHIFT   
G L2W                                                       SYS / PHASE SHIFT   
G L2L  0.00000                                              SYS / PHASE SHIFT   
G L5Q  0.00000                                              SYS / PHASE SHIFT   
G L1L  0.00000                                              SYS / PHASE SHIFT   
E L1C  0.00000                                              SYS / PHASE SHIFT   
E L6C  0.00000                                              SYS / PHASE SHIFT   
E L5Q  0.00000                                              SYS / PHASE SHIFT   
E L7Q  0.00000                                              SYS / PHASE SHIFT   
E L8Q  0.00000                                              SYS / PHASE SHIFT   
S L1C                                                       SYS / PHASE SHIFT   
S L5I                                                       SYS / PHASE SHIFT   
R L1C                                                       SYS / PHASE SHIFT   
R L2P  0.00000                                              SYS / PHASE SHIFT   
R L2C                                                       SYS / PHASE SHIFT   
R L3Q  0.00000                                              SYS / PHASE SHIFT   
C L1P  0.00000                                              SYS / PHASE SHIFT   
C L5P  0.00000                                              SYS / PHASE SHIFT   
C L2I                                                       SYS / PHASE SHIFT   
C L7I                                                       SYS / PHASE SHIFT   
C L6I                                                       SYS / PHASE SHIFT   
C L7D                                                       SYS / PHASE SHIFT   
J L1C                                                       SYS / PHASE SHIFT   
J L2L  0.00000                                              SYS / PHASE SHIFT   
J L5Q  0.00000                                              SYS / PHASE SHIFT   
J L1L  0.00000                                              SYS / PHASE SHIFT   
I L5A                                                       SYS / PHASE SHIFT   
  2025     1     1     0     0    0.0000000     GPS         TIME OF FIRST OBS   
 C1C    0.000 C2C    0.000 C2P    0.000                     GLONASS COD/PHS/BIS 
DBHZ                                                        SIGNAL STRENGTH UNIT
    18                                                      LEAP SECONDS        
 24 R01  1 R02 -4 R03  5 R04  6 R05  1 R06 -4 R07  5 R08  6 GLONASS SLOT / FRQ #
    R09 -2 R10 -7 R11  0 R12 -1 R13 -2 R14 -7 R15  0 R16 -1 GLONASS SLOT / FRQ #
    R17  4 R18 -3 R19  3 R20  2 R21  4 R22 -3 R23  3 R24  2 GLONASS SLOT / FRQ #
                                                            END OF HEADER       
> 2025 01 01 00 00  0.0000000  0 35
E19         1.000    25817476.586 4                     -2880.776 4        24.707                                                                    25817471.410 5 101313297.87005     -2151.198 5        31.102    25817469.721 5                     -2207.587 5        32.054
G32         2.000    22826963.723 6 119956741.60906     -3034.662 6        41.809                                    22826957.086 4  93472572.22204     -2364.667 4        28.863    22826957.670 6  93472621.23106     -2364.750 6        37.754
G21         3.000    21138432.798 6 111083218.18606     -2061.463 6        36.998                                    21138435.198 2  86558338.02502     -1606.377 2        12.061
G14         4.000    24780285.631 4                     -2824.539 4        28.635                                                                                                    24780311.788 5 101471180.86605     -2201.057 5        32.533
G02         5.000    20825678.165 7 109439853.91407      -586.274 7        47.193                                    20825670.126 6  85277671.33206      -456.839 6        36.352
E04         7.000    24077386.310 5 126527816.51405       152.101 5        35.700                                                                    24077384.380 6  94484862.32306       113.449 6        40.200    24077383.243 7  96949635.66307       116.578 7        43.991
G03         8.000    21208966.183 7 111453921.69407      1340.737 7        45.982                                    21208963.718 6  86847221.37106      1044.730 6        40.968    21208964.597 6  86847221.38106      1044.670 6        39.150
E02         9.000    27546100.567 6 144756148.98106     -2514.447 6        36.306                                                                    27546096.900 5 108096907.72705     -1877.479 5        32.066    27546118.624 5 110916813.35605     -1926.627 5        34.233
E12        10.000    26303206.971 5 138224319.11205     -3031.100 5        31.162                                                                    26303205.247 6 103219430.93606     -2263.385 6        38.393    26303204.098 6 105912182.12506     -2322.473 6        39.330
G28        11.000    24357461.468 5                      1555.024 5        31.721
E09        12.000    26419926.626 6 138837691.31806      2197.358 6        39.417                                                                    26419926.888 6 103677518.59406      1641.003 6        38.643    26419927.854 6 106382106.90606      1683.716 6        40.164
E10        13.000    24421818.747 7 128337515.93807     -2225.226 7        45.305                                                                    24421815.833 7  95836457.99807     -1661.744 7        45.704    24421815.083 7  98336563.02807     -1705.038 7        43.359
E06        14.000    24780738.508 6 130223652.12406      1447.794 6        36.968                                                                    24780735.210 5  97244959.42605      1081.165 5        34.600    24780747.433 5  99781807.02305      1109.604 5        32.377
E11        15.000    23387016.184 6 122899597.84106      -906.268 6        39.916                                                                    23387011.878 7  91775663.90107      -676.798 7        43.136    23387012.691 7  94169810.28407      -694.408 7        45.081
E30        17.000                                                                                                                                    28649190.269 4 112425730.87604      -234.129 4        26.551
E36        20.000    25334115.973 6 133131664.73206      1254.038 6        36.208                                                                    25334115.504 6  99416497.29206       936.502 6        38.504    25334112.267 5 102009998.07505       960.868 5        34.748
G08        21.000    23701626.602 6 124552941.45806     -4438.107 6        39.778                                    23701680.212 1  97054450.66301     -3458.278 1         6.125    23701629.924 4                     -3458.604 4        28.853
G17        22.000    23378377.475 7 122854411.34607      1515.190 7        46.669                                    23378373.700 6  95730625.84706      1180.661 6        38.904    23378373.557 6  95730534.83606      1180.705 6        40.393
S23        24.000    38297315.381 6 201253703.37506      -824.524 6        41.042
S36        25.000    38344982.565 6 201504049.69806      -827.042 6        37.108
R20        27.000    19362992.732 3                      -163.843 3        22.095                                                                    19362988.968 5  80533083.02705      -127.433 5        35.114
R04        28.000    20576835.881 7 110188167.07007     -3751.146 7        46.649                                                                    20576833.965 7  85701798.04107     -2917.580 7        43.005
R12        32.000    23972579.092 5 128057132.36005     -1489.056 5        34.357                                                                    23972615.825 3                     -1159.045 3        22.990
C19        33.000                                                                                                                                    26207787.287 5                      2401.975 5        32.257
R21        34.000    22248035.958 6 119053787.48106      2954.888 6        41.690                                                                    22248033.399 6  92597484.62506      2298.133 6        38.513
R19        35.000    21983738.586 4 117598163.80604     -4372.100 4        28.464                                                                    21983730.345 5  91465243.33305     -3399.834 5        30.347
R05        36.000    19319791.004 8 103275461.72108       113.393 8        51.513                                                                    19319790.390 7  80325256.04507        88.181 7        47.782
C39        38.000                                                                                                                                    39350763.412 5 204909737.51005         2.626 5        33.748
C29        43.000                                                                                                                                    22011463.104 7 114619424.33007       -51.649 7        47.388                                                                    22011460.934 7  93137733.47607       -41.993 7        45.828
C16        45.000                                                                                                                                                                                                    39647452.944 4                       302.981 4        24.271
C32        47.000                                                                                                                                    22691281.000 8 118159524.50308     -2462.383 8        48.699                                                                    22691278.818 7  96014279.26407     -2000.817 7        42.472
C35        51.000                                                                                                                                    26047413.834 7 135635719.52507      2325.485 7        42.210                                                                    26047412.765 6 110215132.68406      1889.615 6        38.336
I09        54.000    37274035.422 6 146271319.66006      -541.005 6        40.665
C20        55.000                                                                                                                                    22545983.868 7 117402846.82907       861.526 7        44.704                                                                    22545978.925 7  95399507.83107       700.100 7        47.774
C30        58.000                                                                                                                                    23020404.141 6 119873434.26806     -3284.998 6        41.058                                                                    23020404.542 6  97406921.09406     -2669.262 6        41.857
> 2025 01 01 00 00  5.0000000  0 35
E19         1.000    25820211.243 3                     -2883.263 3        19.582                                                                    25820213.648 5 101324057.39905     -2152.639 5        32.539    25820212.011 5                     -2208.845 5        31.343
G32         2.000    22829852.258 7 119971921.65007     -3037.376 7        42.864                                    22829845.857 4  93484400.80404     -2366.781 4        29.374    22829845.562 6  93484449.77906     -2366.697 6        36.873
G21         3.000    21140397.491 6 111093530.88206     -2063.434 6        36.129                                    21140397.426 2  86566373.90902     -1607.883 2        12.242
G14         4.000                                                                                                                                                                    24783007.569 5 101482189.15205     -2202.339 5        30.830
G02         5.000    20826237.258 7 109442790.75607      -588.555 7        46.230                                    20826228.985 6  85279959.78806      -458.614 6        36.121
E04         7.000    24077244.281 6 126527062.54406       149.524 6        38.625                                                                    24077240.566 6  94484299.31006       111.498 6        39.420    24077239.613 7  96949057.94607       114.580 7        43.930
G03         8.000    21207691.635 7 111447222.67507      1338.804 7        46.219                                    21207689.068 6  86842001.36306      1043.224 6        40.756    21207689.993 6  86842001.37606      1043.120 6        39.967
E02         9.000    27548497.103 6 144768725.95806     -2516.486 6        36.975                                                                    27548491.179 5 108106299.59605     -1879.214 5        32.407    27548508.979 5 110926450.18705     -1928.104 5        34.438
E12        10.000    26306092.625 5 138239477.26405     -3032.180 5        31.396                                                                    26306089.914 6 103230750.34006     -2264.255 6        38.682    26306088.662 6 105923796.81506     -2323.405 6        39.348
G28        11.000    24355986.602 5                      1553.217 5        32.665
E09        12.000    26417836.291 6 138826706.76406      2196.335 6        39.387                                                                    26417837.213 6 103669315.86906      1639.983 6        39.081    26417837.175 6 106373690.17006      1683.001 6        40.181
E10        13.000    24423935.984 7 128348645.74407     -2226.740 7        44.340                                                                    24423933.931 7  95844769.20707     -1662.826 7        46.023    24423933.253 7  98345091.05107     -1706.211 7        43.335
E06        14.000    24779361.089 6 130216416.49606      1446.024 6        36.234                                                                    24779358.391 5  97239556.19405      1079.890 5        34.952    24779371.469 5  99776262.83605      1107.849 5        34.348
E11        15.000    23387879.750 6 122904133.40106      -907.936 6        39.820                                                                    23387874.970 7  91779050.84507      -677.937 7        43.295    23387875.736 7  94173285.57907      -695.581 7        45.160
E30        17.000                                                                                                                                    28649490.716 4 112426909.13004      -236.580 4        27.293    28649512.794 5 115359616.46515      -243.133 5        32.988
E36        20.000    25332922.940 6 133125397.20806      1252.954 6        36.393                                                                    25332923.263 6  99411816.99106       935.742 6        39.087    25332918.970 5 102005195.69205       960.027 5        33.701
G08        21.000    23705848.803 6 124575134.03106     -4439.025 6        38.895                                    23705903.534 1  97071743.49701     -3458.804 1         3.200    23705854.520 4                     -3458.763 4        29.431
G17        22.000    23376937.222 7 122846840.70507      1512.920 7        46.086                                    23376932.729 6  95724726.64806      1178.899 6        38.874    23376932.828 6  95724635.64206      1178.967 6        39.898
S23        24.000    38298098.331 6 201257825.64706      -824.633 6        40.884
S36        25.000    38345769.280 6 201508184.87906      -827.223 6        36.904
R20        27.000                                                                                                                                    19363143.612 6  80533727.93306      -130.274 6        37.146
R04        28.000    20580340.039 7 110206929.73207     -3753.969 7        46.828                                                                    20580338.674 7  85716391.22907     -2919.631 7        43.242
R12        32.000    23973971.258 4 128064590.07204     -1493.825 4        29.498                                                                    23974003.718 3                     -1162.028 3        20.976
C19        33.000                                                                                                                                    26205480.775 5                      2401.134 5        32.832
R21        34.000    22245277.967 7 119039015.94907      2953.590 7        44.396                                                                    22245273.174 6  92585995.61106      2297.202 6        37.819
R19        35.000    21987822.686 4 117620027.64804     -4374.095 4        25.594                                                                    21987819.346 4  91482248.60104     -3402.315 4        29.934
R05        36.000    19319687.450 8 103274904.88708       109.272 8        51.546                                                                    19319685.765 8  80324822.95208        84.974 8        48.205
C39        38.000                                                                                                                                    39350760.215 5 204909727.79605         1.499 5        33.251
C29        43.000                                                                                                                                    22011513.204 7 114619689.03107       -54.317 7        46.455                                                                    22011511.831 7  93137948.53007       -44.071 7        46.036
C16        45.000                                                                                                                                                                                                    39647075.665 4                       300.922 4        25.383
C32        47.000                                                                                                                                    22693645.273 8 118171841.31508     -2464.406 8        48.895                                                                    22693644.545 7  96024287.64807     -2002.419 7        42.991
C35        51.000                                                                                                                                    26045181.137 7 135624094.46907      2324.538 7        42.207                                                                    26045180.285 6 110205686.35206      1889.061 6        38.751
I09        54.000    37274725.400 6 146274025.17206      -541.243 6        40.672
C20        55.000                                                                                                                                    22545157.788 7 117398544.66207       859.233 7        46.192                                                                    22545152.529 7  95396011.96107       698.278 7        47.284
C30        58.000                                                                                                                                    23023559.379 6 119889863.55806     -3286.935 6        40.953                                                                    23023559.783 6  97420271.21706     -2670.762 6        41.847
> 2025 01 01 00 00 10.0000000  0 35
E19         1.000                                                                                                                                    25822957.488 5 101334823.07905     -2153.715 5        33.228    25822955.329 5                     -2210.133 5        31.555
G32         2.000    22832742.284 7 119987113.05007     -3039.500 7        42.660                                    22832736.524 4  93496238.25504     -2368.433 4        29.336    22832736.159 5  93496287.25805     -2368.387 5        35.838
G21         3.000    21142360.327 5 111103852.57605     -2064.945 5        31.947                                    21142361.453 1  86574416.74601     -1609.030 1        11.333
G14         4.000                                                                                                                                                                    24785701.168 4 101493204.59104     -2203.907 4        28.882
G02         5.000    20826798.149 7 109445737.83707      -590.569 7        45.616                                    20826789.865 6  85282256.21706      -460.179 6        36.185
E04         7.000    24077101.872 6 126526319.96206       147.366 6        40.391                                                                    24077099.015 6  94483744.79106       109.872 6        38.102    24077098.096 7  96948488.95107       112.826 7        43.623
G03         8.000    21206418.684 7 111440532.69307      1336.926 7        45.682                                    21206416.167 6  86836788.38606      1041.762 6        40.572    21206417.075 6  86836788.40206      1041.725 6        40.386
E02         9.000    27550896.782 6 144781311.69006     -2518.108 6        36.250                                                                    27550886.667 5 108115698.03205     -1880.087 5        32.772    27550906.859 5 110936093.81205     -1929.296 5        34.886
E12        10.000    26308978.191 5 138254639.82005     -3032.981 5        32.904                                                                    26308975.366 6 103242073.01906     -2264.949 6        38.709    26308974.351 6 105935414.84606     -2324.094 6        39.856
G28        11.000    24354508.476 5                      1551.562 5        31.992
E09        12.000    26415746.872 6 138815726.49906      2195.460 6        39.141                                                                    26415748.054 6 103661116.32206      1639.530 6        39.814    26415747.376 6 106365276.72806      1682.319 6        39.745
E10        13.000    24426054.235 7 128359781.84907     -2227.922 7        42.709                                                                    24426053.211 7  95853085.11807     -1663.682 7        46.024    24426052.564 7  98353623.90707     -1707.165 7        43.219
E06        14.000    24777985.004 5 130209189.10905      1444.612 5        34.429                                                                    24777982.906 5  97234159.10305      1079.101 5        34.757    24777996.416 5  99770724.96005      1106.807 5        35.162
E11        15.000    23388744.240 6 122908675.94906      -909.273 6        39.556                                                                    23388739.398 7  91782442.99407      -678.988 7        43.145    23388740.115 7  94176766.22807      -696.671 7        45.189
E30        17.000                                                                                                                                    28649793.450 4 112428095.94304      -238.117 4        28.550    28649810.122 5 115360834.21105      -244.582 5        33.150
E36        20.000    25331731.039 5 133119132.66705      1252.213 5        35.276                                                                    25331731.155 6  99407138.90406       935.272 6        39.429    25331726.460 5 102000395.54905       959.812 5        33.263
G08        21.000    23710072.657 6 124597329.86106     -4439.613 6        38.261                                    23710127.469 1  97089039.02801     -3459.485 1         3.200    23710079.631 4                     -3459.273 4        29.630
G17        22.000    23375498.703 7 122839280.48107      1510.901 7        44.980                                    23375493.671 6  95718835.56706      1177.331 6        38.562    23375494.470 6  95718744.54906      1177.199 6        38.321
S23        24.000    38298883.289 6 201261947.91006      -824.585 6        40.934
S36        25.000    38346557.390 6 201512321.34206      -827.261 6        37.100
R20        27.000    19363286.111 4                      -170.563 4        24.511                                                                    19363301.138 6  80534386.19706      -132.939 6        38.306
R04        28.000    20583845.887 7 110225704.96707     -3756.364 7        46.764                                                                    20583844.491 7  85730994.19107     -2921.649 7        43.024
R12        32.000    23975369.903 4 128072067.47804     -1497.928 4        25.955
C19        33.000                                                                                                                                    26203177.630 5                      2400.535 5        32.299
R21        34.000    22242519.373 7 119024249.45407      2952.711 7        45.351                                                                    22242512.745 6  92574510.55806      2296.603 6        36.450
R19        35.000                                                                                                                                    21991909.194 5  91499261.38705     -3403.480 5        30.860
R05        36.000    19319586.242 8 103274367.74908       105.376 8        50.839                                                                    19319585.522 8  80324405.18008        81.957 8        48.093
C39        38.000                                                                                                                                    39350759.880 5 204909723.00005         0.099 5        32.461
C29        43.000                                                                                                                                    22011566.377 7 114619966.04207       -56.713 7        46.236                                                                    22011565.153 7  93138173.66007       -46.197 7        46.253
C16        45.000                                                                                                                                                                                                    39646698.126 4                       300.835 4        25.639
C32        47.000                                                                                                                                    22696011.684 8 118184167.21208     -2466.175 8        48.820                                                                    22696011.974 7  96034303.46907     -2004.076 7        43.992
C35        51.000                                                                                                                                    26042949.409 6 135612472.39606      2323.929 6        41.459                                                                    26042948.544 6 110196242.50906      1888.340 6        38.883
I09        54.000    37275415.128 6 146276731.75406      -541.368 6        40.801
C20        55.000                                                                                                                                    22544335.215 7 117394252.87707       857.232 7        46.564                                                                    22544328.209 7  95392524.56807       696.520 7        47.014
C30        58.000                                                                                                                                    23026715.179 6 119906301.81806     -3288.657 6        40.329                                                                    23026716.668 7  97433628.67107     -2672.262 7        42.040
> 2025 01 01 00 00 15.0000000  0 35
E19         1.000                                                                                                                                    25825702.516 5 101345595.17505     -2155.005 5        34.181    25825699.930 5                     -2211.331 5        31.079
G32         2.000    22835635.398 6 120002316.44406     -3042.097 6        41.359                                    22835629.243 4  93508085.05104     -2370.454 4        29.081    22835629.336 5  93508134.00305     -2370.100 5        34.476
G21         3.000    21144319.536 4 111114183.94904     -2067.491 4        27.748                                    21144327.397 1  86582467.26601     -1611.015 1        10.370
G14         4.000                                                                                                                                                                    24788392.741 4 101504227.63804     -2205.815 4        28.682
G02         5.000    20827361.062 7 109448695.81007      -592.751 7        46.428                                    20827352.865 6  85284561.12606      -461.888 6        36.442
E04         7.000    24076962.287 6 126525589.34106       144.986 6        40.770                                                                    24076960.005 6  94483199.21906       108.252 6        37.342    24076958.876 7  96947929.12907       111.038 7        43.177
G03         8.000    21205147.294 7 111433852.31907      1335.089 7        45.806                                    21205145.113 6  86831582.90306      1040.329 6        40.763    21205145.983 6  86831582.92106      1040.366 6        40.808
E02         9.000    27553295.830 5 144793906.74605     -2520.043 5        34.667                                                                    27553284.701 5 108125103.41405     -1881.630 5        32.940    27553310.926 5 110945744.63805     -1930.886 5        35.381
E12        10.000    26311864.459 5 138269807.32105     -3034.081 5        33.617                                                                    26311861.904 6 103253399.42206     -2265.694 6        38.682    26311860.646 6 105947036.70806     -2324.937 6        39.991
E09        12.000    26413659.051 6 138804751.09806      2194.448 6        38.874                                                                    26413660.140 6 103652920.43706      1638.826 6        40.234    26413658.553 6 106356867.01506      1681.533 6        39.625
E10        13.000    24428174.278 6 128370924.84506     -2229.285 6        41.166                                                                    24428173.814 7  95861406.20107     -1664.764 7        46.190    24428173.120 7  98362162.05207     -1708.229 7        43.247
E06        14.000    24776610.621 5 130201970.54305      1443.036 5        33.383                                                                    24776609.096 5  97228768.60405      1077.062 5        34.652    24776621.998 5  99765193.82905      1105.670 5        35.790
E11        15.000    23389610.074 6 122913226.04406      -910.878 6        39.943                                                                    23389605.230 7  91785840.80607      -680.117 7        42.988    23389606.060 7  94180252.67307      -697.899 7        45.229
E30        17.000                                                                                                                                    28650099.002 4 112429291.67404      -239.663 4        28.000    28650110.996 5 115362061.19605      -246.793 5        32.150
E36        20.000    25330539.258 5 133112871.65305      1251.790 5        34.129                                                                    25330539.795 6  99402463.47206       934.865 6        39.673    25330535.178 5 101995598.21105       958.830 5        32.377
G08        21.000    23714298.455 6 124619529.47806     -4440.284 6        37.879                                    23714351.596 1  97106337.23301     -3459.905 1         4.000    23714304.174 5                     -3459.611 5        30.083
G17        22.000    23374062.234 7 122831731.28507      1508.705 7        44.569                                    23374056.675 6  95712953.07406      1175.615 6        38.504    23374058.160 6  95712862.07606      1175.359 6        36.922
S23        24.000    38299668.313 6 201266070.83306      -824.702 6        41.063
S36        25.000    38347344.355 6 201516458.19806      -827.580 6        37.108
R20        27.000                                                                                                                                    19363462.362 6                      -135.837 6        38.042
R04        28.000    20587354.395 7 110244493.25907     -3759.021 7        46.279                                                                    20587353.675 7  85745607.29207     -2923.580 7        42.555
R12        32.000    23976770.301 4 128079565.98804     -1501.866 4        28.398
C19        33.000                                                                                                                                    26200876.408 5                      2399.872 5        31.306
R21        34.000    22239758.850 7 119009488.48907      2951.625 7        45.055                                                                    22239752.274 5  92563029.78505      2295.528 5        34.238
R19        35.000    21996023.575 3                     -4377.409 3        23.371                                                                    21996001.237 5  91516282.46515     -3405.110 5        32.293
R05        36.000    19319489.233 8 103273850.98608       101.250 8        50.641                                                                    19319488.522 8  80324003.25108        78.769 8        48.046
C39        38.000                                                                                                                                    39350760.586 5 204909723.56105        -0.539 5        32.234
C29        43.000                                                                                                                                    22011622.753 7 114620255.98607       -59.345 7        46.806                                                                    22011620.720 7  93138409.27307       -48.199 7        46.244
C16        45.000                                                                                                                                                                                                    39646325.237 4                       301.593 4        26.108
C09        46.000                                                                                                                                    40300361.696 4                       808.954 4        25.774
C32        47.000                                                                                                                                    22698380.108 8 118196502.78008     -2468.160 8        48.774                                                                    22698381.347 7  96044327.11807     -2005.566 7        44.831
C35        51.000                                                                                                                                    26040717.665 6 135600853.80606      2323.337 6        40.770                                                                    26040717.356 6 110186801.45706      1887.847 6        39.057
I09        54.000    37276104.739 6 146279439.83806      -541.720 6        40.756
C20        55.000                                                                                                                                    22543512.231 7 117389972.07307       854.953 7        46.362                                                                    22543506.069 7  95389046.06107       694.768 7        46.644
C30        58.000                                                                                                                                    23029872.373 6 119922749.62506     -3290.563 6        38.721                                                                    23029875.428 7  97446993.86307     -2673.841 7        42.214
> 2025 01 01 00 00 20.0000000  0 34
E19         1.000                                                                                                                                    25828449.078 5 101356373.18205     -2156.025 5        34.633    25828445.596 5                     -2212.390 5        30.777
G32         2.000    22838530.143 6 120017530.92506     -3043.880 6        38.577                                    22838523.827 4  93519940.48904     -2371.845 4        28.180    22838525.718 5  93519989.48205     -2371.905 5        33.731
G21         3.000    21146288.706 4 111124524.09104     -2068.828 4        28.929                                    21146295.094 1  86590524.50801     -1612.071 1         8.571
G14         4.000    24791090.292 5                     -2831.928 5        31.917                                                                                                    24791093.116 4 101515257.50104     -2206.120 4        27.018
G02         5.000    20827925.824 7 109451663.85207      -594.315 7        47.295                                    20827917.819 6  85286873.88806      -463.104 6        36.628
E04         7.000    24076824.863 6 126524869.86706       143.258 6        40.489                                                                    24076822.812 6  94482661.95406       106.728 6        36.832    24076821.837 7  96947377.83207       109.653 7        42.307
G03         8.000    21203877.768 7 111427180.73407      1333.749 7        46.650                                    21203875.704 6  86826384.27206      1039.284 6        40.863    21203876.089 6  86826384.29106      1039.226 6        40.543
E02         9.000    27555690.944 5 144806510.26705     -2521.269 5        33.695                                                                    27555683.148 5 108134515.14005     -1882.887 5        32.904    27555711.991 5 110955401.93105     -1932.085 5        35.033
E12        10.000    26314752.097 5 138284978.93705     -3034.564 5        34.743                                                                    26314748.933 6 103264728.88206     -2265.848 6        38.556    26314747.755 6 105958661.71006     -2325.095 6        40.110
E09        12.000    26411571.778 6 138793779.76906      2194.268 6        38.556                                                                    26411572.582 6 103644727.56606      1638.597 6        40.837    26411570.533 6 106348460.42306      1681.254 6        39.483
E10        13.000    24430295.572 6 128382073.90306     -2230.229 6        39.387                                                                    24430295.591 7  95869731.79707     -1665.392 7        46.277    24430294.808 7  98370704.84007     -1708.863 7        43.433
E06        14.000    24775237.617 5 130194759.96705      1441.404 5        32.431                                                                    24775236.858 5  97223384.05205      1076.399 5        34.557    24775248.540 5  99759668.83405      1104.854 5        35.129
E11        15.000    23390477.311 6 122917782.87506      -911.720 6        40.427                                                                    23390472.380 7  91789243.63307      -680.928 7        43.039    23390473.016 7  94183744.27207      -698.765 7        45.332
E30        17.000                                                                                                                                    28650405.759 4 112430496.37604      -241.463 4        28.701    28650416.214 5 115363297.26605      -247.552 5        30.921
E36        20.000    25329348.230 5 133106613.39605      1251.422 5        33.072                                                                    25329349.072 6  99397790.08906       934.591 6        39.697    25329344.486 5 101990802.90205       958.899 5        31.834
G08        21.000    23718523.142 6 124641732.07906     -4440.521 6        38.111                                    23718576.376 1  97123637.87501     -3460.072 1         5.571    23718530.949 5                     -3460.475 5        30.015
G17        22.000    23372628.612 7 122824192.33807      1507.074 7        44.451                                    23372621.642 6  95707078.56506      1174.349 6        38.300    23372623.189 6  95706987.54806      1174.407 6        37.028
S23        24.000    38300453.664 6 201270193.57106      -824.198 6        41.046
S36        25.000    38348128.360 6 201520595.17106      -827.120 6        37.089
R20        27.000    19363634.133 4                      -178.022 4        28.493                                                                    19363626.391 6                      -138.155 6        37.138
R04        28.000    20590865.188 7 110263293.71307     -3760.987 7        46.518                                                                    20590863.342 6  85760229.84506     -2925.238 6        40.510
R12        32.000                                                                                                                                    23978205.491 4                     -1171.244 4        28.009
C19        33.000                                                                                                                                    26198577.703 5                      2399.365 5        30.174
R21        34.000    22236999.513 7 118994732.24607      2951.001 7        44.387                                                                    22236995.543 5  92551552.69705      2295.328 5        32.138
R19        35.000    22000114.524 4                     -4379.559 4        26.299                                                                    22000095.864 5  91533310.96905     -3406.058 5        34.067
R05        36.000    19319397.003 8 103273353.59608        97.779 8        51.040                                                                    19319395.103 7  80323616.39207        76.009 7        47.695
C39        38.000                                                                                                                                    39350761.436 5 204909728.79005        -1.310 5        31.479
C29        43.000                                                                                                                                    22011681.698 7 114620558.02307       -61.297 7        47.083                                                                    22011678.598 7  93138654.70407       -49.860 7        46.153
C16        45.000                                                                                                                                                                                                    39645953.820 4                       300.045 4        26.299
C32        47.000                                                                                                                                    22700750.750 8 118208847.15908     -2469.447 8        48.745                                                                    22700752.501 7  96054357.91707     -2006.638 7        45.783
C35        51.000                                                                                                                                    26038486.422 6 135589237.86906      2323.293 6        40.205                                                                    26038486.856 6 110177362.54806      1887.740 6        39.144
I09        54.000    37276795.354 6 146282148.76406      -541.712 6        40.911
C20        55.000                                                                                                                                    22542690.062 7 117385701.43207       853.353 7        46.237                                                                    22542685.962 7  95385575.78207       693.431 7        46.490
C30        58.000                                                                                                                                    23033031.689 5 119939206.14205     -3291.920 5        35.019                                                                    23033035.748 7  97460366.11107     -2675.003 7        42.667
> 2025 01 01 00 00 25.0000000  0 35
E19         1.000                                                                                                                                    25831197.118 5 101367156.93505     -2157.201 5        34.957    25831193.641 4                     -2213.564 4        29.896
G32         2.000    22841427.265 6 120032756.35406     -3045.970 6        36.136                                    22841420.312 4  93531804.45304     -2373.492 4        27.210    22841424.063 5  93531853.43805     -2373.400 5        34.467
G21         3.000    21148259.121 5 111134872.80205     -2069.982 5        31.117                                    21148264.504 1  86598588.45601     -1613.043 1         8.381
G14         4.000    24793776.203 5                     -2829.505 5        34.076
G02         5.000    20828491.968 7 109454641.82007      -596.337 7        47.641                                    20828484.722 6  85289194.38406      -464.674 6        36.873
E04         7.000    24076689.399 6 126524161.37506       140.810 6        39.631                                                                    24076688.083 6  94482132.91306       105.026 6        36.722    24076686.912 6  96946834.94706       107.944 6        41.659
G03         8.000    21202609.981 7 111420517.77707      1331.931 7        47.497                                    21202607.870 6  86821192.36306      1037.868 6        41.025    21202607.421 6  86821192.38006      1037.970 6        40.093
E02         9.000    27558086.550 5 144819122.10605     -2523.040 5        32.880                                                                    27558083.412 5 108143933.14505     -1884.384 5        31.781    27558108.290 5 110965065.61005     -1933.169 5        34.571
E12        10.000    26317640.659 5 138300154.48905     -3035.355 5        35.190                                                                    26317636.720 6 103276061.29406     -2266.475 6        38.465    26317635.457 6 105970289.72006     -2325.710 6        39.907
E09        12.000    26409485.425 6 138782812.36706      2193.146 6        38.348                                                                    26409485.912 6 103636537.62106      1637.867 6        41.440    26409483.432 6 106340056.81806      1680.666 6        39.345
E10        13.000    24432417.776 6 128393228.87806     -2231.244 6        36.979                                                                    24432418.406 7  95878061.80207     -1666.333 7        46.319    24432417.562 7  98379252.16607     -1709.791 7        43.530
E06        14.000    24773866.683 5 130187557.24705      1439.614 5        33.389                                                                    24773865.997 5  97218005.34505      1075.462 5        34.014    24773875.293 5  99754149.87005      1103.536 5        34.548
E11        15.000    23391345.369 6 122922346.28306      -913.212 6        40.644                                                                    23391340.826 7  91792651.36707      -682.042 7        42.942    23391341.294 7  94187240.89907      -699.741 7        45.129
E30        17.000                                                                                                                                    28650715.884 5 112431709.04705      -243.350 5        30.317    28650722.339 5 115364541.67405      -249.634 5        30.272
E36        20.000    25328156.541 5 133100357.71105      1250.920 5        31.004                                                                    25328158.482 6  99393118.62206       934.301 6        39.832    25328153.508 5 101986009.58305       958.432 5        30.958
G08        21.000    23722749.798 6 124663937.52006     -4441.304 6        38.844                                    23722801.795 1  97140940.78301     -3460.747 1         6.250    23722756.471 4                     -3460.729 4        29.791
G17        22.000    23371196.210 7 122816663.44207      1505.064 7        44.471                                    23371188.595 6  95701211.88306      1172.779 6        38.072    23371191.385 6  95701120.86606      1172.688 6        37.422
S23        24.000    38301236.556 6 201274315.89906      -824.233 6        40.953
S36        25.000    38348919.717 6 201524731.41306      -826.972 6        36.934
R20        27.000    19363796.909 4                      -181.212 4        29.592                                                                    19363794.638 6                      -140.791 6        37.100
R04        28.000    20594377.853 7 110282106.24607     -3763.499 7        46.746                                                                    20594376.050 6  85774861.78706     -2927.130 6        39.976
R12        32.000                                                                                                                                    23979619.919 4                     -1174.275 4        28.825
C19        33.000                                                                                                                                    26196282.808 4                      2398.784 4        28.256
R21        34.000    22234241.844 7 118979980.66607      2950.126 7        43.983                                                                    22234238.579 4  92540079.29804      2294.617 4        27.892
R19        35.000                                                                                                                                    22004191.212 5  91550346.75915     -3407.634 5        35.505
R05        36.000    19319307.902 8 103272875.59408        93.854 8        51.373                                                                    19319305.597 7  80323244.60707        73.024 7        47.347
C39        38.000                                                                                                                                    39350762.809 5 204909738.47405        -2.042 5        31.208
C29        43.000                                                                                                                                    22011741.860 7 114620872.02107       -63.758 7        46.524                                                                    22011738.752 7  93138909.86607       -51.851 7        45.797
C16        45.000                                                                                                                                                                                                    39645576.983 4                       300.136 4        26.335
C09        46.000                                                                                                                                    40298789.992 4                       807.683 4        25.865
C32        47.000                                                                                                                                    22703123.033 8 118221200.21108     -2471.274 8        48.224                                                                    22703125.070 7  96064395.76807     -2008.126 7        46.375
C35        51.000                                                                                                                                    26036256.485 6 135577624.49206      2322.537 6        40.021                                                                    26036256.354 6 110167925.71106      1887.297 6        38.598
I09        54.000    37277485.596 6 146284858.45606      -541.801 6        40.646
C20        55.000                                                                                                                                    22541872.719 7 117381440.77007       851.341 7        46.762                                                                    22541867.856 7  95382113.63107       691.784 7        46.190
C30        58.000                                                                                                                                    23036190.859 4 119955671.25004     -3293.562 4        28.161                                                                    23036198.003 7  97473745.32007     -2676.415 7        42.861
> 2025 01 01 00 00 30.0000000  0 35
E19         1.000                                                                                                                                    25833946.564 5 101377946.63005     -2158.375 5        35.471    25833943.067 5                     -2214.859 5        30.030
G32         2.000    22844327.163 5 120047993.01305     -3048.522 5        35.471                                    22844319.064 4  93543677.15104     -2375.469 4        25.850    22844322.486 6  93543726.13606     -2375.315 6        36.011
G21         3.000    21150231.610 4 111145230.42304     -2072.610 4        27.569                                    21150235.510 1  86606659.24801     -1615.028 1         6.875
G14         4.000    24796468.521 5 130306345.74715     -2835.534 5        34.100                                                                                                    24796504.667 4 101537338.14104     -2209.285 4        28.739
G02         5.000    20829060.307 7 109457629.96107      -598.659 7        47.283                                    20829053.611 6  85291522.80806      -466.487 6        37.096
E04         7.000    24076557.220 6 126523464.14206       138.321 6        39.336                                                                    24076555.483 6  94481612.24406       103.311 6        36.824    24076554.330 6  96946300.69806       106.104 6        40.901
G03         8.000    21201343.648 7 111413863.72207      1329.950 7        47.814                                    21201341.645 6  86816007.39506      1036.324 6        41.194    21201340.987 6  86816007.42906      1036.204 6        39.700
E02         9.000    27560486.661 5 144831742.48305     -2524.744 5        30.483                                                                    27560484.517 5 108153357.49305     -1885.568 5        30.981    27560504.834 5 110974735.84405     -1934.628 5        34.571
E12        10.000    26320528.726 5 138315334.32605     -3036.504 5        34.995                                                                    26320525.189 6 103287396.89706     -2267.397 6        38.396    26320523.783 6 105981921.00806     -2326.571 6        39.655
E09        12.000    26407399.261 6 138771849.11806      2192.288 6        38.090                                                                    26407400.010 7 103628350.77607      1637.181 7        42.133    26407396.837 6 106331656.41306      1679.693 6        39.105
E10        13.000    24434541.592 5 128404390.03205     -2232.690 5        34.176                                                                    24434542.424 7  95886396.41507     -1667.367 7        46.496    24434541.398 7  98387804.20207     -1710.891 7        43.464
E06        14.000    24772497.687 5 130180362.55705      1437.926 5        34.290                                                                    24772496.875 5  97212632.68905      1073.973 5        33.868    24772499.797 5  99748637.13605      1101.859 5        33.922
E11        15.000    23392214.817 6 122926916.51106      -914.866 6        40.338                                                                    23392210.648 7  91796064.20507      -683.197 7        43.111    23392210.918 7  94190742.76807      -700.854 7        44.966
G19        16.000    25514614.940 5                      2879.042 5        33.419
E30        17.000                                                                                                                                    28651031.212 5 112432930.13405      -244.942 5        30.294    28651026.397 4 115365794.68404      -251.352 4        29.498
E36        20.000    25326967.241 5 133094104.84005      1250.167 5        31.343                                                                    25326968.579 6  99388449.29206       933.606 6        39.793    25326963.222 5 101981218.42805       958.164 5        30.702
G08        21.000    23726975.968 6 124686145.97506     -4441.835 6        40.210                                    23727027.980 1  97158246.10701     -3461.284 1         8.476    23726983.116 4                     -3461.424 4        29.384
G17        22.000    23369765.708 7 122809144.84507      1502.707 7        44.819                                    23369757.608 6  95695353.23306      1170.942 6        37.955    23369760.915 6  95695262.22806      1170.710 6        38.030
S23        24.000    38302023.003 6 201278438.06906      -824.420 6        41.139
S36        25.000    38349704.012 6 201528866.85906      -827.030 6        36.881
R20        27.000    19363964.232 4                      -184.779 4        29.943                                                                    19363964.947 6  80537153.65416      -143.780 6        36.503
R04        28.000    20597893.107 7 110300931.01707     -3766.163 7        47.687                                                                    20597891.486 6  85789503.26706     -2929.219 6        40.312
C19        33.000                                                                                                                                    26193986.098 4                      2397.608 4        24.316
R21        34.000    22231485.877 7 118965233.94507      2948.727 7        43.031
R19        35.000    22008286.745 4                     -4383.543 4        28.171                                                                    22008287.497 5  91567389.93115     -3409.208 5        35.571
