     3.04           OBSERVATION DATA    M                   RINEX VERSION / TYPE
ssrcrin-15.6.1x                         20250101 013000 UTC PGM / RUN BY / DATE 
(00000000023479385599111004) Septentrio proprietary         COMMENT             
ract                                                        MARKER NAME         
01                                                          MARKER NUMBER       
geodetic                                                    MARKER TYPE         
NFB                 CLIMERS@TUW                             OBSERVER / AGENCY   
3296359             SEPT ASTERX SB3 PROB4.14.4              REC # / TYPE / VERS 
Unknown             Unknown                                 ANT # / TYPE        
  4127445.6787  1206914.8997  4695543.3403                  APPROX POSITION XYZ 
        0.0000        0.0000        0.0000                  ANTENNA: DELTA H/E/N
G   23 X1  C1C L1C D1C S1C C1W S1W C2W L2W D2W S2W C2L L2L  SYS / # / OBS TYPES 
       D2L S2L C5Q L5Q D5Q S5Q C1L L1L D1L S1L              SYS / # / OBS TYPES 
E   21 X1  C1C L1C D1C S1C C6C L6C D6C S6C C5Q L5Q D5Q S5Q  SYS / # / OBS TYPES 
       C7Q L7Q D7Q S7Q C8Q L8Q D8Q S8Q                      SYS / # / OBS TYPES 
S    9 X1  C1C L1C D1C S1C C5I L5I D5I S5I                  SYS / # / OBS TYPES 
R   17 X1  C1C L1C D1C S1C C2P L2P D2P S2P C2C L2C D2C S2C  SYS / # / OBS TYPES 
       C3Q L3Q D3Q S3Q                                      SYS / # / OBS TYPES 
C   25 X1  C1P L1P D1P S1P C5P L5P D5P S5P C2I L2I D2I S2I  SYS / # / OBS TYPES 
       C7I L7I D7I S7I C6I L6I D6I S6I C7D L7D D7D S7D      SYS / # / OBS TYPES 
J   17 X1  C1C L1C D1C S1C C2L L2L D2L S2L C5Q L5Q D5Q S5Q  SYS / # / OBS TYPES 
       C1L L1L D1L S1L                                      SYS / # / OBS TYPES 
I    5 X1  C5A L5A D5A S5A                                  SYS / # / OBS TYPES 
SEPTENTRIO RECEIVERS OUTPUT ALIGNED CARRIER PHASES.         COMMENT             
NO FURTHER PHASE SHIFT APPLIED IN THE RINEX ENCODER.        COMMENT             
G L1C                                                       SYS / PHASE SHIFT   
G L2W                                                       SYS / PHASE SHIFT   
G L2L  0.00000                                              SYS / PHASE SHIFT   
G L5Q  0.00000                                              SYS / PHASE SHIFT   
G L1L  0.00000                                              SYS / PHASE SHIFT   
E L1C  0.00000                                              SYS / PHASE SHIFT   
E L6C  0.00000                                              SYS / PHASE SHIFT   
E L5Q  0.00000                                              SYS / PHASE SHIFT   
E L7Q  0.00000                                              SYS / PHASE SHIFT   
E L8Q  0.00000                                              SYS / PHASE SHIFT   
S L1C                                                       SYS / PHASE SHIFT   
S L5I                                                       SYS / PHASE SHIFT   
R L1C                                                       SYS / PHASE SHIFT   
R L2P  0.00000                                              SYS / PHASE SHIFT   
R L2C                                                       SYS / PHASE SHIFT   
R L3Q  0.00000                                              SYS / PHASE SHIFT   
C L1P  0.00000                                              SYS / PHASE SHIFT   
C L5P  0.00000                                              SYS / PHASE SHIFT   
C L2I                                                       SYS / PHASE SHIFT   
C L7I                                                       SYS / PHASE SHIFT   
C L6I                                                       SYS / PHASE SHIFT   
C L7D                                                       SYS / PHASE SHIFT   
J L1C                                                       SYS / PHASE SHIFT   
J L2L  0.00000                                              SYS / PHASE SHIFT   
J L5Q  0.00000                                              SYS / PHASE SHIFT   
J L1L  0.00000                                              SYS / PHASE SHIFT   
I L5A                                                       SYS / PHASE SHIFT   
  2025     1     1     1    30    0.0000000     GPS         TIME OF FIRST OBS   
 C1C    0.000 C2C    0.000 C2P    0.000                     GLONASS COD/PHS/BIS 
DBHZ                                                        SIGNAL STRENGTH UNIT
    18                                                      LEAP SECONDS        
 24 R01  1 R02 -4 R03  5 R04  6 R05  1 R06 -4 R07  5 R08  6 GLONASS SLOT / FRQ #
    R09 -2 R10 -7 R11  0 R12 -1 R13 -2 R14 -7 R15  0 R16 -1 GLONASS SLOT / FRQ #
    R17  4 R18 -3 R19  3 R20  2 R21  4 R22 -3 R23  3 R24  2 GLONASS SLOT / FRQ #
                                                            END OF HEADER       
> 2025 01 01 01 30  0.0000000  0 37
G21         3.000    23281942.433 4                     -3730.525 4        26.719
G31         4.000    22491415.331 5                       363.320 5        35.124                                                                                                    22491425.225 3                       282.488 3        21.690
G02         5.000    21760562.533 7 114352523.23907     -2987.252 7        43.613                                    21760556.108 4  89105844.57704     -2327.727 4        26.599
E34         6.000                                                                                                                                    27069025.424 6 106224719.75306      1429.173 6        39.523    27069024.514 6 108995767.76106      1466.425 6        36.919
E04         7.000    24272227.735 8 127551501.04308     -2178.295 8        48.021                                                                    24272225.460 7  95249418.32407     -1626.553 7        44.385    24272223.530 6  97734185.58506     -1669.001 6        39.453
G03         8.000    20012358.154 7 105165652.79607      -801.438 7        43.613                                    20012357.129 6  81947296.87406      -624.502 6        38.883    20012355.640 6  81947286.89306      -624.317 6        39.610
G09         9.000                                                                                                                                                                    23347303.823 3                      2105.981 3        21.690
G04        11.000    21324531.062 6 112061187.04306      1666.352 6        37.660                                    21324525.401 2  87320354.95202      1298.459 2        15.190    21324528.634 5  87320376.98305      1298.472 5        35.800
E09        12.000    23993259.123 7 126085520.42107       579.207 7        47.085                                                                    23993258.283 8  94154763.47508       432.540 8        49.718    23993258.714 8  96610951.71608       443.836 8        50.585
E10        13.000    26493716.903 5 139225419.92405     -3501.856 5        32.066                                                                    26493715.539 6 103967064.35206     -2615.232 6        36.892    26493715.543 6 106679208.33306     -2683.349 6        38.718
E06        14.000    23474781.509 7 123360877.48607      -737.960 7        46.801                                                                    23474781.455 8  92120098.51208      -551.032 8        49.278    23474780.532 7  94523233.81707      -565.443 7        45.998
E11        15.000    24273014.356 5 127555598.60605     -2606.965 5        35.609                                                                    24273014.908 5  95252517.98605     -1946.601 5        30.068    24273009.204 6  97737332.76406     -1997.694 6        38.177
G19        16.000    22628736.175 6 118915046.28206       537.825 6        41.857                                    22628732.311 4  92660886.73304       419.089 4        26.275
G28        18.000    23284261.905 6 122359735.56706     -1500.036 6        40.310                                    23284252.800 2  95345102.87602     -1168.873 2        15.476    23284252.482 5  95345130.92905     -1168.988 5        34.781
G06        19.000    24813702.252 6 130396996.39906      2683.965 6        38.979                                    24813705.341 2 101607984.59602      2091.410 2        17.623    24813701.092 5 101607958.68405      2091.280 5        30.740
E36        20.000    23670454.637 6 124389212.08606        29.509 6        41.170                                                                    23670455.161 7  92887930.55407        22.108 7        42.885    23670454.506 7  95311124.09907        22.697 7        45.445
E05        21.000    25977563.896 5 136513025.68705      2194.786 5        32.605                                                                    25977561.183 4 101941553.95904      1639.198 4        26.850    25977565.945 4 104600883.16304      1681.910 4        29.014
G17        22.000    22385929.228 8 117638837.82408     -1498.769 8        48.514                                    22385924.911 5  91666696.02705     -1167.870 5        31.570    22385919.542 5  91666637.99005     -1167.808 5        32.581
S23        24.000    38244761.027 6 200977558.54806      -824.198 6        38.622
S36        25.000    38295685.256 6 201245046.87706      -827.654 6        36.306
R20        27.000                                                                                                                                    20657501.529 5  85917188.70005     -3184.564 5        31.691
R06        29.000    20199373.508 4                      1158.502 4        29.100
C19        33.000                                                                                                                                    23358416.007 7 121633507.17107      1221.268 7        42.544                                                                    23358409.151 6  98837068.39806       992.551 6        38.733
R21        34.000    19538245.477 7 104553198.69707        14.213 7        43.547
R05        36.000    20245482.690 8 108223819.33408     -3351.057 8        48.890                                                                    20245482.813 7  84173979.39307     -2606.393 7        45.895
R22        37.000    23017214.573 5 122867534.79205      3207.368 5        31.117                                                                    23017218.720 6  95563601.49806      2494.835 6        39.015
C39        38.000                                                                                                                                    38999207.202 4                     -1041.152 4        29.156
C06        41.000                                                                                                                                    38413262.434 7 200027940.43607      -473.210 7        43.264    38413257.208 7 154674257.38607      -365.913 7        45.765    38413255.324 6 162539050.69106      -384.536 6        41.616
C29        43.000                                                                                                                                    22641553.569 7 117900392.27207     -2860.781 7        42.726                                                                    22641546.492 5  95803838.17505     -2324.713 5        33.958
C16        45.000                                                                                                                                    38846017.979 6 202281500.32706      -592.996 6        38.066    38846021.999 7 156416815.38707      -458.544 7        42.521    38846017.338 6 164370213.94306      -481.778 6        36.333
C09        46.000                                                                                                                                    38950102.332 6 202823403.65406        14.070 6        40.634    38950096.330 6 156835919.67906        10.895 6        40.992    38950095.931 6 164810589.28606        11.494 6        40.984
C32        47.000                                                                                                                                    25070068.548 4 130546475.26304     -3596.024 4        29.043                                                                    25070089.171 4 106079767.45204     -2922.417 4        28.227
C44        48.000                                                                                                                                    26745509.944 4 139270962.04404      2284.556 4        26.563
C35        51.000                                                                                                                                    23428365.713 6 121997644.07806       641.053 6        37.520                                                                    23428366.794 5  99133122.12505       520.917 5        34.467
I09        54.000    37264535.735 4 146234051.44304      -741.876 4        27.868
C20        55.000                                                                                                                                    21925248.813 7 114170519.64107     -1335.964 7        47.846                                                                    21925243.987 7  92772978.17707     -1085.581 7        46.600
I01        56.000   332629849.958 6   2170174.88706     -2874.688 6        38.523
> 2025 01 01 01 30  5.0000000  0 38
G21         3.000    23285496.916 5                     -3730.802 5        30.294
G31         4.000    22491072.630 6 118191336.14316       359.955 6        38.607                                    22491079.537 1  92097210.93311       280.499 1         9.619
G02         5.000    21763406.414 7 114367464.38907     -2989.401 7        43.166                                    21763399.067 4  89117487.02904     -2329.400 4        27.293
E34         6.000    27067203.480 5 142239175.58415      1913.503 5        31.962                                                                    27067204.996 6 106217575.16406      1428.642 6        40.167    27067204.217 6 108988436.79606      1466.014 6        36.503
E04         7.000    24274301.266 8 127562397.02308     -2180.266 8        48.035                                                                    24274298.549 7  95257554.92507     -1628.129 7        43.879    24274297.185 6  97742534.44306     -1670.681 6        39.198
G03         8.000    20013122.131 7 105169665.19307      -803.640 7        45.583                                    20013119.854 6  81950423.43106      -626.214 6        37.573    20013119.378 6  81950413.46206      -626.410 6        36.858
G09         9.000                                                                                                                                                                    23344734.299 3                      2103.783 3        23.314
G04        11.000    21322946.792 5 112052860.61605      1664.219 5        34.176                                    21322940.953 2  87313866.84702      1296.781 2        13.576    21322942.932 6  87313888.84906      1296.732 6        37.108
E09        12.000    23992709.087 7 126082629.14707       577.089 7        47.068                                                                    23992708.194 8  94152604.41308       430.975 8        49.817    23992708.565 8  96608736.32408       442.165 8        50.823
E10        13.000    26497048.861 4 139242933.32404     -3503.116 4        29.867                                                                    26497048.849 6 103980142.50806     -2616.260 6        37.512    26497047.936 6 106692627.65206     -2684.236 6        38.529
E06        14.000    23475484.537 7 123364572.53907      -740.223 7        47.121                                                                    23475484.555 8  92122857.80308      -552.733 8        49.136    23475483.748 7  94526065.09107      -567.156 7        46.282
E11        15.000    24275495.822 5 127568638.00805     -2608.716 5        35.790                                                                    24275490.939 5  95262255.24305     -1947.976 5        31.268    24275490.485 6  97747323.97606     -1998.839 6        38.541
G19        16.000    22628226.910 6 118912365.85706       534.227 6        39.520                                    22628221.956 4  92658798.07804       416.279 4        25.173
G28        18.000    23285691.758 6 122367244.52606     -1503.690 6        40.100                                    23285682.029 2  95350954.01102     -1171.754 2        16.415    23285682.178 6  95350982.07306     -1171.603 6        36.397
G06        19.000    24811146.018 6 130383577.20506      2683.539 6        38.360                                    24811150.824 3 101597528.07803      2091.073 3        18.955    24811148.362 5 101597502.16505      2090.858 5        30.687
E36        20.000    23670427.998 6 124389068.49906        27.637 6        41.723                                                                    23670428.082 7  92887823.33207        20.773 7        43.082    23670426.970 7  95311014.08007        21.248 7        45.717
E05        21.000    25975475.592 5 136502054.15505      2193.813 5        32.479                                                                    25975472.482 4 101933360.90404      1639.236 4        25.789    25975479.727 4 104592476.42504      1680.849 4        28.957
G17        22.000    22387356.679 8 117646339.00608     -1501.814 8        49.342                                    22387351.104 5  91672541.09505     -1170.242 5        33.479    22387350.320 5  91672483.09805     -1170.518 5        33.701
S23        24.000    38245553.359 6 200981680.08806      -824.618 6        39.982
S36        25.000    38296466.587 5 201249185.25505      -827.971 5        35.738
R20        27.000                                                                                                                                    20661333.436 5  85933116.83005     -3186.640 5        33.240
R06        29.000    20198291.778 4                      1155.604 4        29.867
C19        33.000                                                                                                                                    23357244.767 7 121627404.28407      1219.619 7        42.736                                                                    23357237.583 6  98832109.34106       991.056 6        38.703
R21        34.000    19538234.032 7 104553138.11507         9.869 7        42.391
R05        36.000    20248618.307 8 108240579.54708     -3353.117 8        49.571                                                                    20248618.460 7  84187015.12507     -2608.071 7        45.127
R22        37.000                                                                                                                                    23014213.079 6  95551130.39006      2493.661 6        36.801
C39        38.000                                                                                                                                    39000209.735 4                     -1042.297 4        29.393
C06        41.000                                                                                                                                    38413717.836 7 200030308.94707      -474.351 7        43.270    38413712.195 7 154676088.86207      -366.793 7        46.132    38413710.110 6 162540975.34206      -385.408 6        41.220
C29        43.000                                                                                                                                    22644300.721 7 117914701.88807     -2863.290 7        43.807                                                                    22644294.432 5  95815465.95505     -2326.735 5        34.514
C16        45.000                                                                                                                                    38846588.979 6 202284467.93006      -594.028 6        38.438    38846591.262 7 156419110.12607      -459.372 7        42.677    38846586.786 5 164372625.41105      -482.874 5        35.862
C09        46.000                                                                                                                                    38950088.687 6 202823335.44306        13.060 6        40.060    38950083.468 6 156835866.95806        10.121 6        41.128    38950082.502 6 164810533.91606        10.581 6        40.484
C32        47.000                                                                                                                                    25073519.643 4 130564456.51404     -3596.550 4        29.735                                                                    25073535.887 4 106094378.55004     -2922.663 4        24.917
C44        48.000                                                                                                                                    26743316.680 4 139259543.08504      2283.021 4        28.095
C35        51.000                                                                                                                                    23427760.528 6 121994445.62706       638.297 6        37.592                                                                    23427752.940 5  99130523.22505       518.642 5        34.609
I09        54.000    37265481.301 4 146237761.22404      -742.088 4        27.772
C20        55.000                                                                                                                                    21926533.208 7 114177204.16407     -1337.920 7        46.949                                                                    21926527.871 7  92778409.92007     -1087.173 7        46.304
I01        56.000   332633512.618 6   2184548.28206     -2874.812 6        38.739
C30        58.000                                                                                                                                    26247246.077 3                     -4346.207 3        19.761
> 2025 01 01 01 30 10.0000000  0 38
G21         3.000    23289046.647 5                     -3731.635 5        32.030
G31         4.000    22490732.944 6 118189543.84406       356.892 6        37.187                                    22490740.566 1  92095814.36801       278.043 1         8.286
G02         5.000    21766250.305 7 114382416.24507     -2991.317 7        42.900                                    21766244.204 4  89129137.82004     -2330.899 4        27.257
E34         6.000    27065389.732 5 142229610.25505      1912.934 5        32.407                                                                    27065385.304 6 106210432.20506      1428.482 6        40.837    27065383.971 6 108981107.47806      1465.744 6        36.102
E04         7.000    24276376.334 7 127573302.05907     -2181.824 7        47.693                                                                    24276372.838 7  95265698.29507     -1629.346 7        43.050    24276373.142 6  97750890.26006     -1671.906 6        39.291
G03         8.000    20013888.209 7 105173688.14307      -805.566 7        45.333                                    20013884.278 5  81953558.20705      -627.717 5        35.924    20013885.166 5  81953548.22405      -627.755 5        34.781
G09         9.000    23342174.494 6 122664099.24816      2698.892 6        38.210                                    23342191.797 1  95582289.55011      2103.025 1         8.667    23342166.197 4                      2102.594 4        24.977
G04        11.000    21321364.078 5 112044545.67605      1661.877 5        34.929                                    21321358.607 1  87307387.69701      1295.000 1        11.630    21321360.908 6  87307409.70606      1295.027 6        36.749
E09        12.000    23992161.042 7 126079747.91007       575.220 7        47.093                                                                    23992159.921 8  94150452.84608       429.604 8        49.836    23992160.341 8  96606528.61808       440.801 8        50.689
E10        13.000    26500383.677 5 139260451.80805     -3504.169 5        31.849                                                                    26500382.789 6 103993224.51106     -2616.678 6        37.353    26500381.534 6 106706050.94506     -2685.012 6        38.652
E06        14.000    23476189.771 7 123368278.44307      -742.199 7        47.371                                                                    23476189.775 8  92125625.20408      -554.279 8        49.356    23476188.942 7  94528904.67807      -568.659 7        46.494
E11        15.000    24277978.067 5 127581685.75805     -2610.534 5        35.290                                                                    24277973.922 5  95271998.69805     -1949.252 5        32.084    24277973.421 6  97757321.61606     -2000.163 6        38.652
G19        16.000    22627720.447 6 118909702.56706       530.891 6        38.147                                    22627714.829 3  92656722.79103       413.666 3        23.238
G28        18.000    23287123.477 6 122374770.27306     -1506.715 6        39.643                                    23287114.562 2  95356818.25202     -1174.095 2        15.905    23287115.140 6  95356846.30906     -1174.056 6        36.435
G06        19.000    24808593.524 6 130370160.23706      2683.315 6        36.805                                    24808597.085 3 101587073.28903      2090.882 3        18.328    24808595.997 4 101587047.42504      2090.998 4        29.033
E36        20.000    23670402.630 7 124388933.86707        26.022 7        42.485                                                                    23670402.701 7  92887722.80307        19.434 7        43.077    23670401.529 7  95310910.91207        19.905 7        45.306
E05        21.000    25973387.562 5 136491085.62905      2193.523 5        33.012                                                                    25973385.408 3 101925170.16403      1638.028 3        23.829    25973393.281 4 104584071.98304      1680.709 4        29.204
G17        22.000    22388787.122 8 117653855.35608     -1504.724 8        49.594                                    22388780.650 5  91678397.98105     -1172.508 5        35.062    22388782.385 5  91678339.94405     -1172.386 5        35.152
S23        24.000    38246336.756 6 200985802.00906      -824.387 6        40.317
S36        25.000    38297256.633 6 201253323.62106      -827.768 6        36.953
R20        27.000                                                                                                                                    20665166.737 5  85949056.80205     -3189.173 5        34.752
R06        29.000    20197209.260 5                      1152.719 5        30.596
C19        33.000                                                                                                                                    23356074.475 7 121621308.76807      1218.440 7        44.176                                                                    23356067.094 6  98827156.24906       990.080 6        39.066
R21        34.000    19538221.887 7 104553099.28307         5.653 7        43.278
R05        36.000    20251755.922 8 108257350.00508     -3355.050 8        49.221                                                                    20251755.263 7  84200058.80607     -2609.486 7        45.016
R22        37.000    23011242.289 4 122835472.56004      3204.616 4        29.299                                                                    23011212.642 6  95538664.25506      2492.701 6        36.904
C39        38.000                                                                                                                                    39001210.766 4                     -1043.195 4        28.559
C06        41.000                                                                                                                                    38414173.538 7 200032682.52707      -475.164 7        43.422    38414168.020 7 154677924.26307      -367.472 7        46.171    38414166.110 6 162542904.03706      -386.043 6        41.535
C29        43.000                                                                                                                                    22647050.483 7 117929023.20107     -2865.361 7        44.001                                                                    22647044.713 5  95827103.15405     -2328.481 5        33.263
C16        45.000                                                                                                                                    38847160.503 6 202287440.46406      -594.911 6        38.465    38847162.023 7 156421408.67107      -460.082 7        42.476    38847157.659 6 164375040.80006      -483.475 6        36.106
C09        46.000                                                                                                                                    38950076.242 6 202823271.81506        12.286 6        40.732    38950070.975 6 156835817.75906         9.679 6        41.523    38950070.005 6 164810482.17406        10.135 6        40.543
C32        47.000                                                                                                                                                                                                                                                                    25076987.044 4 106108991.72504     -2923.034 4        24.977
C44        48.000                                                                                                                                    26741123.626 4 139248128.59204      2282.682 4        26.084
C35        51.000                                                                                                                                    23427156.506 6 121991259.97906       636.023 6        37.399                                                                    23427140.668 5  99127934.62005       516.887 5        33.742
I09        54.000    37266426.152 4 146241472.18204      -742.341 4        27.904
C20        55.000                                                                                                                                    21927819.303 7 114183897.85007     -1339.543 7        46.722                                                                    21927813.115 7  92783849.04707     -1088.515 7        46.372
I01        56.000   332637176.748 6   2198922.60706     -2874.926 6        38.814
C30        58.000                                                                                                                                    26251428.686 3                     -4348.257 3        21.143
> 2025 01 01 01 30 15.0000000  0 38
G21         3.000    23292599.677 5                     -3732.630 5        33.222
G31         4.000    22490399.188 6 118187767.41006       353.725 6        36.881                                    22490402.646 1  92094430.29401       275.743 1         8.095    22490377.484 4                       274.849 4        24.241
G02         5.000    21769097.660 7 114397377.78007     -2993.351 7        43.816                                    21769091.210 4  89140796.16504     -2332.482 4        27.054
E34         6.000    27063571.678 5 142220046.00505      1912.952 5        32.305                                                                    27063565.013 6 106203290.10906      1428.227 6        40.622    27063563.493 5 108973779.06605      1465.630 5        35.776
E04         7.000    24278453.286 8 127584215.12108     -2183.493 8        48.236                                                                    24278449.900 7  95273847.64707     -1630.487 7        42.550    24278449.867 6  97759252.17806     -1673.122 6        39.177
G03         8.000    20014654.924 7 105177720.69807      -807.434 7        43.536                                    20014650.432 5  81956700.46705      -629.166 5        34.424    20014653.523 5  81956690.46805      -629.336 5        34.681
G09         9.000    23339610.287 6 122650606.62906      2698.016 6        36.938                                    23339623.977 1  95571775.76401      2102.385 1         8.476    23339595.954 4                      2102.468 4        25.955
G04        11.000    21319785.813 5 112036241.23405      1659.567 5        34.324                                    21319778.152 1  87300916.65801      1293.262 1         6.375    21319779.908 6  87300938.69606      1293.480 6        36.060
E09        12.000    23991614.626 7 126076875.67707       573.532 7        47.676                                                                    23991613.469 8  94148308.00908       428.278 8        50.298    23991613.382 8  96604327.81808       439.452 8        50.662
E10        13.000    26503718.980 5 139277974.45405     -3505.051 5        31.630                                                                    26503717.011 6 104006309.60706     -2617.446 6        37.395    26503716.447 6 106719477.39306     -2685.549 6        38.865
E06        14.000    23476896.687 7 123371994.18807      -744.206 7        47.649                                                                    23476896.872 8  92128399.94208      -555.706 8        49.506    23476895.829 7  94531751.80807      -570.255 7        46.515
E11        15.000    24280462.081 5 127594740.81605     -2611.668 5        34.871                                                                    24280459.870 5  95281747.66605     -1950.591 5        34.662    24280457.709 6  97767324.87006     -2001.440 6        39.210
G19        16.000    22627217.215 6 118907055.39806       527.605 6        38.135                                    22627210.671 3  92654660.06303       411.124 3        21.952
G28        18.000    23288557.955 6 122382311.80306     -1510.019 6        38.495                                    23288549.895 2  95362694.75102     -1176.622 2        15.476    23288549.757 6  95362722.83106     -1176.672 6        36.817
G06        19.000    24806041.300 6 130356744.47706      2683.090 6        36.639                                    24806043.869 2 101576619.46702      2090.719 2        17.321    24806038.361 4 101576593.61804      2090.776 4        27.329
E36        20.000    23670378.386 7 124388807.14707        24.493 7        42.851                                                                    23670378.524 7  92887628.16407        18.231 7        43.471    23670377.597 7  95310813.80807        18.786 7        46.023
E05        21.000    25971300.914 5 136480119.13105      2192.963 5        32.234                                                                    25971299.483 4 101916980.95804      1637.939 4        24.286    25971310.792 4 104575669.08604      1680.354 4        29.801
G17        22.000    22390220.261 8 117661385.84108     -1507.546 8        49.490                                    22390213.523 6  91684265.88506     -1174.711 6        36.949    22390215.654 6  91684207.88306     -1174.694 6        36.836
S23        24.000    38247120.032 6 200989923.19606      -824.130 6        41.008
S36        25.000    38298034.297 6 201257462.00806      -827.719 6        36.287
R20        27.000    20669021.391 5                     -4103.037 5        30.309                                                                    20669002.812 5  85965007.89115     -3191.410 5        35.986
R06        29.000    20196131.125 4                      1150.512 4        29.109
C19        33.000                                                                                                                                    23354905.168 7 121615219.64407      1217.166 7        45.017                                                                    23354897.324 6  98822208.37406       988.852 6        39.000
R21        34.000    19538220.357 7 104553081.35407         1.536 7        45.406                                                                    19538208.354 4                         0.217 4        24.256
R05        36.000    20254895.139 8 108274129.65508     -3356.940 8        48.681                                                                    20254894.000 7  84213109.64007     -2610.979 7        44.071
R22        37.000                                                                                                                                    23008211.518 6  95526202.36806      2492.041 6        37.667
C39        38.000                                                                                                                                    39002215.321 5                     -1043.853 5        30.098
C06        41.000                                                                                                                                    38414629.632 7 200035060.12707      -475.984 7        43.384    38414624.608 7 154679762.77207      -368.106 7        46.427    38414622.788 6 162544836.05906      -386.810 6        41.540
C29        43.000                                                                                                                                    22649801.529 7 117943355.20207     -2867.543 7        43.390                                                                    22649797.852 5  95838749.09305     -2330.302 5        34.248
C16        45.000                                                                                                                                    38847732.074 6 202290416.93606      -595.721 6        38.733    38847733.948 6 156423710.26106      -460.667 6        41.969    38847729.295 5 164377459.45205      -484.294 5        35.857
C09        46.000                                                                                                                                    38950064.703 6 202823211.78506        11.513 6        40.255    38950059.126 6 156835771.33106         9.083 6        41.180    38950058.727 6 164810433.43006         9.191 6        40.670
C32        47.000                                                                                                                                                                                                                                                                    25080434.898 4                     -2923.446 4        26.359
C44        48.000                                                                                                                                    26738931.279 4 139236717.78304      2281.840 4        26.635
C35        51.000                                                                                                                                                                                                                                                                    23426530.842 5  99125355.70105       514.536 5        34.071
I09        54.000    37267374.150 4 146245183.31704      -742.454 4        27.365
C20        55.000                                                                                                                                    21929105.826 7 114190599.65807     -1341.270 7        47.726                                                                    21929100.038 7  92789294.84607     -1090.075 7        46.605
I01        56.000   332640838.938 6   2213297.10906     -2874.906 6        38.141
C30        58.000                                                                                                                                    26255602.024 3                     -4352.360 3        21.762
> 2025 01 01 01 30 20.0000000  0 39
G21         3.000    23296149.095 5 122422101.18415     -3733.526 5        34.395                                    23296142.225 1                     -2909.292 1        11.185
G31         4.000    22490062.634 6 118186007.78806       350.378 6        38.730                                    22490065.208 1  92093059.32301       273.003 1         8.476    22490044.647 4                       273.121 4        28.777
G02         5.000    21771948.727 7 114412349.90907     -2995.331 7        43.805                                    21771940.215 4  89152462.75504     -2334.018 4        26.455
E34         6.000    27061751.115 5 142210483.87105      1912.303 5        34.805                                                                    27061745.761 6 106196149.56206      1427.986 6        41.709    27061744.515 6 108966452.24106      1465.324 6        36.106
E04         7.000    24280531.468 8 127595137.13308     -2185.108 8        48.278                                                                    24280528.526 7  95282003.68707     -1631.748 7        42.034    24280528.215 6  97767620.97806     -1674.391 6        38.664
G03         8.000    20015422.935 6 105181763.70006      -809.570 6        41.671                                    20015418.550 5  81959850.87705      -630.825 5        33.347    20015422.087 5  81959840.85005      -631.015 5        33.407
G09         9.000    23337044.237 6 122637119.63906      2697.110 6        36.083                                    23337057.109 1  95561266.32601      2101.518 1         6.500    23337031.576 3                      2101.843 3        23.695
G04        11.000                                                                                                                                                                    21318199.359 5  87294476.58305      1291.541 5        33.862
E09        12.000    23991069.452 7 126074013.39507       571.522 7        47.701                                                                    23991068.958 8  94146170.58808       426.805 8        50.608    23991068.505 8  96602134.63908       437.966 8        50.353
E10        13.000    26507052.928 5 139295502.14205     -3505.650 5        32.748                                                                    26507053.049 6 104019398.46306     -2618.171 6        38.159    26507052.214 6 106732907.72106     -2686.249 6        39.048
E06        14.000    23477605.807 7 123375720.66307      -746.264 7        47.541                                                                    23477605.951 8  92131182.69808      -557.321 8        49.695    23477604.826 7  94534607.16407      -571.810 7        46.545
E11        15.000    24282948.362 5 127607804.23905     -2613.821 5        33.826                                                                    24282945.832 6  95291502.75206     -1951.575 6        36.817    24282943.862 6  97777334.45106     -2002.599 6        39.814
G19        16.000    22626716.724 6 118904425.26006       524.413 6        38.285                                    22626709.886 3  92652610.61203       408.630 3        20.857
G28        18.000    23289996.393 6 122389870.01206     -1513.193 6        37.130                                    23289988.376 2  95368584.30202     -1179.098 2        15.333    23289988.721 6  95368612.32006     -1178.917 6        36.053
G06        19.000    24803488.050 5 130343330.85105      2682.694 5        35.043                                    24803490.854 2 101566167.29202      2090.398 2        15.619    24803486.273 4 101566141.45104      2090.248 4        25.338
E36        20.000    23670356.283 7 124388689.25507        22.818 7        43.401                                                                    23670356.913 7  92887540.14707        16.903 7        43.587    23670355.281 7  95310723.48807        17.397 7        45.898
E05        21.000    25969215.076 5 136469155.62505      2192.370 5        30.204                                                                    25969214.573 4 101908793.85504      1637.818 4        25.504    25969230.000 5 104567268.41305      1680.205 5        30.581
G17        22.000    22391656.332 8 117668931.37408     -1510.524 8        49.479                                    22391649.607 6  91690145.52306     -1177.029 6        38.583    22391652.083 6  91690087.52306     -1177.072 6        38.601
S23        24.000    38247904.028 6 200994044.64906      -824.109 6        40.784
S36        25.000    38298816.263 5 201261601.60805      -827.926 5        35.510
R20        27.000    20672848.858 4                     -4106.508 4        29.299                                                                    20672843.686 6  85980970.84906     -3193.681 6        36.499
R06        29.000    20195053.710 4                      1147.604 4        28.844
R14        30.000    23411555.605 3 124796760.48813       181.645 3        23.581
C19        33.000                                                                                                                                    23353737.435 7 121609137.81907      1215.739 7        45.472                                                                    23353729.493 6  98817266.39406       987.852 6        38.099
R21        34.000    19538223.286 7 104553085.11007        -2.834 7        46.216                                                                    19538216.980 4                        -1.746 4        24.917
R05        36.000    20258035.634 7 108290919.66607     -3358.849 7        47.784                                                                    20258035.126 7  84226168.52007     -2612.427 7        42.165
R22        37.000    23005211.326 5                      3202.134 5        34.724                                                                    23005211.795 6  95513745.38516      2491.026 6        37.660
C39        38.000                                                                                                                                    39003220.667 5                     -1044.751 5        32.383
C06        41.000                                                                                                                                    38415087.131 7 200037442.65807      -476.954 7        43.363    38415082.313 7 154681605.09407      -368.767 7        46.806    38415080.414 6 162546772.07306      -387.715 6        41.514
C29        43.000                                                                                                                                    22652555.457 7 117957698.80607     -2869.839 7        43.014                                                                    22652552.880 5  95850404.41405     -2331.935 5        34.924
C16        45.000                                                                                                                                    38848304.613 6 202293398.20306      -596.660 6        39.222    38848306.057 7 156426015.58007      -461.347 7        42.191    38848301.710 5 164379881.98805      -484.806 5        35.324
C09        46.000                                                                                                                                    38950055.014 6 202823156.22006        10.733 6        40.832    38950049.373 6 156835728.39706         8.255 6        41.499    38950047.995 6 164810388.26806         8.687 6        40.634
C32        47.000                                                                                                                                    25083907.934 4                     -3597.692 4        25.504                                                                    25083882.086 4                     -2923.920 4        25.654
C44        48.000                                                                                                                                    26736740.609 4 139225311.61604      2280.824 4        25.489
C35        51.000                                                                                                                                                                                                                                                                    23425923.741 5  99122787.04405       512.707 5        34.690
I09        54.000    37268318.231 4 146248895.63104      -742.455 4        28.322
C20        55.000                                                                                                                                    21930394.412 8 114197310.52608     -1342.976 8        48.971                                                                    21930388.895 7  92794747.96807     -1091.265 7        46.756
I01        56.000   332644501.889 6   2227672.47006     -2875.242 6        38.243
C30        58.000                                                                                                                                    26259768.843 3                     -4347.719 3        21.500
> 2025 01 01 01 30 25.0000000  0 39
G21         3.000    23299702.841 5 122440772.58605     -3734.527 5        35.519                                    23299695.814 2  95408357.19112     -2910.020 2        13.273
G31         4.000    22489729.648 5 118184264.38405       347.591 5        34.586                                    22489730.467 1  92091700.96901       270.821 1        10.963    22489715.572 5                       270.318 5        30.936
G02         5.000    21774800.598 7 114427332.18907     -2997.313 7        43.446                                    21774791.112 4  89164137.24804     -2335.552 4        26.299
E34         6.000    27059930.243 5 142200923.32905      1912.179 5        34.867                                                                    27059926.889 6 106189010.20006      1427.865 6        41.864    27059925.264 6 108959126.65406      1465.174 6        36.420
E04         7.000    24282611.716 8 127606067.63408     -2186.741 8        48.031                                                                    24282607.865 6  95290166.07506     -1633.024 6        41.020    24282608.494 6  97775996.29606     -1675.665 6        38.829
G03         8.000    20016194.792 6 105185816.71406      -811.368 6        41.335                                    20016189.055 5  81963009.07905      -632.228 5        33.401    20016192.847 5  81962999.04605      -632.411 5        32.443
G09         9.000    23334477.054 5 122623637.84805      2696.262 5        33.186                                    23334491.274 1  95550760.83101      2101.040 1         7.875    23334466.041 4                      2100.622 4        28.104
G04        11.000                                                                                                                                                                    21316625.391 5  87288022.94105      1290.199 5        33.689
E09        12.000    23990526.619 7 126071160.59907       569.780 7        47.672                                                                    23990526.122 8  94144040.25208       425.518 8        50.680    23990525.332 8  96599948.71908       436.615 8        50.178
E10        13.000    26510388.937 5 139313034.44505     -3506.731 5        33.671                                                                    26510389.473 6 104032490.74206     -2618.614 6        38.210    26510388.663 6 106746341.54506     -2686.813 6        39.156
E06        14.000    23478317.055 7 123379457.43007      -748.141 7        47.730                                                                    23478316.983 8  92133973.14808      -558.700 8        49.852    23478315.916 7  94537470.40107      -573.294 7        46.895
E11        15.000    24285435.825 5 127620875.36305     -2615.030 5        32.132                                                                    24285433.179 6  95301263.67906     -1952.676 6        38.177    24285431.215 6  97787350.00906     -2003.568 6        40.288
G19        16.000    22626219.604 6 118901811.69206       521.267 6        38.787                                    22626212.409 3  92650574.06003       406.186 3        19.672
G28        18.000    23291436.056 5 122397444.42905     -1515.981 5        35.962                                    23291430.054 2  95374486.46002     -1181.297 2        15.000    23291430.027 5  95374514.50705     -1181.582 5        34.933
G06        19.000    24800935.948 5 130329918.89805      2682.307 5        35.329                                    24800937.982 2 101555716.43702      2090.076 2        13.636    24800932.823 4 101555690.60804      2090.071 4        25.609
E36        20.000    23670335.880 7 124388579.77107        21.331 7        43.354                                                                    23670335.998 7  92887458.38107        15.870 7        43.225    23670334.465 7  95310639.58107        16.345 7        45.746
E05        21.000    25967130.450 4 136458194.56304      2192.107 4        29.374                                                                    25967130.177 4 101900608.72704      1636.730 4        24.707    25967145.425 5 104558869.67505      1679.781 5        30.815
G17        22.000    22393094.638 8 117676491.49308     -1513.258 8        49.549                                    22393088.661 6  91696036.51806     -1179.159 6        40.017    22393091.219 6  91695978.52006     -1179.257 6        39.529
S23        24.000    38248683.593 6 200998165.90306      -824.027 6        40.672
S36        25.000    38299611.743 6 201265741.28706      -827.914 6        36.575
R20        27.000    20676685.336 4                     -4109.072 4        26.719                                                                    20676685.520 6  85996945.24516     -3195.780 6        36.178
R06        29.000    20193978.875 4                      1145.180 4        28.626
R14        30.000    23411369.162 3                       177.142 3        23.924
C19        33.000                                                                                                                                    23352571.347 7 121603062.83807      1214.607 7        46.236                                                                    23352562.824 6  98812330.00506       987.022 6        38.613
R21        34.000    19538226.604 7 104553110.03107        -6.880 7        46.454                                                                    19538227.926 4                        -5.473 4        28.076
R05        36.000    20261177.898 7 108307719.09407     -3360.654 7        47.217                                                                    20261177.955 6  84239234.74806     -2613.935 6        40.510
R22        37.000    23002217.422 6 122787365.95816      3201.650 6        39.270                                                                    23002213.151 6  95501293.03406      2490.006 6        38.583
C39        38.000                                                                                                                                    39004225.870 5                     -1045.593 5        33.994
C06        41.000                                                                                                                                    38415545.960 7 200039829.68607      -477.618 7        42.914    38415540.632 7 154683450.89807      -369.328 7        47.054    38415538.852 6 162548711.70406      -388.096 6        41.859
C29        43.000                                                                                                                                    22655312.139 7 117972053.52107     -2871.855 7        42.720                                                                    22655310.206 6  95862068.75006     -2333.589 6        36.280
C16        45.000                                                                                                                                    38848877.555 6 202296383.87006      -597.217 6        38.919    38848880.312 7 156428324.29007      -461.886 7        42.195    38848875.181 6 164382308.07606      -485.387 6        36.000
C09        46.000                                                                                                                                    38950046.173 6 202823104.67006        10.072 6        41.559    38950039.714 6 156835688.52406         8.028 6        41.800    38950038.028 6 164810346.37506         8.257 6        40.820
C32        47.000                                                                                                                                    25087361.158 5                     -3597.878 5        30.332                                                                    25087338.560 4                     -2922.943 4        25.789
C44        48.000                                                                                                                                    26734550.237 4 139213909.32404      2279.800 4        26.874
C35        51.000                                                                                                                                    23425346.939 4                       628.907 4        28.938                                                                    23425318.137 5  99120228.36605       510.971 5        33.964
I09        54.000    37269267.609 4 146252608.38304      -742.405 4        28.550
C20        55.000                                                                                                                                    21931684.563 8 114204029.98408     -1344.543 8        50.283                                                                    21931679.080 7  92800208.07407     -1092.536 7        46.861
I01        56.000   332648165.598 6   2242048.33406     -2875.122 6        38.321
C30        58.000                                                                                                                                    26263943.255 3                     -4347.534 3        21.476
> 2025 01 01 01 30 30.0000000  0 38
G21         3.000    23303255.769 5 122459449.31005     -3735.724 5        35.457                                    23303250.517 2  95422910.47002     -2910.974 2        13.273
G31         4.000                                                                                                                                                                    22489390.521 5                       267.892 5        31.781
G02         5.000    21777652.670 7 114442324.71307     -2999.499 7        42.559                                    21777644.065 4  89175819.71904     -2337.260 4        26.407
E34         6.000    27058112.222 5 142191364.54805      1911.750 5        35.533                                                                    27058107.575 7 106181872.17507      1427.499 7        42.008    27058105.978 6 108951802.42506      1464.879 6        36.938
E04         7.000    24284693.460 7 127617006.73007     -2188.546 7        47.602                                                                    24284688.933 6  95298334.87406     -1634.337 6        40.696    24284690.527 6  97784378.20406     -1676.880 6        39.844
G03         8.000    20016969.015 7 105189879.88107      -813.616 7        42.506                                    20016961.984 5  81966175.18605      -633.981 5        34.100    20016969.603 5  81966165.15905      -633.921 5        35.967
G09         9.000                                                                                                                                                                    23331904.638 4                      2099.940 4        29.972
