     3.04           OBSERVATION DATA    M                   RINEX VERSION / TYPE
ssrcrin-15.6.1x                         20250101 021500 UTC PGM / RUN BY / DATE 
(00000000023479385599111004) Septentrio proprietary         COMMENT             
ract                                                        MARKER NAME         
01                                                          MARKER NUMBER       
geodetic                                                    MARKER TYPE         
NFB                 CLIMERS@TUW                             OBSERVER / AGENCY   
3296359             SEPT ASTERX SB3 PROB4.14.4              REC # / TYPE / VERS 
Unknown             Unknown                                 ANT # / TYPE        
  4127445.9273  1206914.9604  4695542.2636                  APPROX POSITION XYZ 
        0.0000        0.0000        0.0000                  ANTENNA: DELTA H/E/N
G   23 X1  C1C L1C D1C S1C C1W S1W C2W L2W D2W S2W C2L L2L  SYS / # / OBS TYPES 
       D2L S2L C5Q L5Q D5Q S5Q C1L L1L D1L S1L              SYS / # / OBS TYPES 
E   21 X1  C1C L1C D1C S1C C6C L6C D6C S6C C5Q L5Q D5Q S5Q  SYS / # / OBS TYPES 
       C7Q L7Q D7Q S7Q C8Q L8Q D8Q S8Q                      SYS / # / OBS TYPES 
S    9 X1  C1C L1C D1C S1C C5I L5I D5I S5I                  SYS / # / OBS TYPES 
R   17 X1  C1C L1C D1C S1C C2P L2P D2P S2P C2C L2C D2C S2C  SYS / # / OBS TYPES 
       C3Q L3Q D3Q S3Q                                      SYS / # / OBS TYPES 
C   25 X1  C1P L1P D1P S1P C5P L5P D5P S5P C2I L2I D2I S2I  SYS / # / OBS TYPES 
       C7I L7I D7I S7I C6I L6I D6I S6I C7D L7D D7D S7D      SYS / # / OBS TYPES 
J   17 X1  C1C L1C D1C S1C C2L L2L D2L S2L C5Q L5Q D5Q S5Q  SYS / # / OBS TYPES 
       C1L L1L D1L S1L                                      SYS / # / OBS TYPES 
I    5 X1  C5A L5A D5A S5A                                  SYS / # / OBS TYPES 
SEPTENTRIO RECEIVERS OUTPUT ALIGNED CARRIER PHASES.         COMMENT             
NO FURTHER PHASE SHIFT APPLIED IN THE RINEX ENCODER.        COMMENT             
G L1C                                                       SYS / PHASE SHIFT   
G L2W                                                       SYS / PHASE SHIFT   
G L2L  0.00000                                              SYS / PHASE SHIFT   
G L5Q  0.00000                                              SYS / PHASE SHIFT   
G L1L  0.00000                                              SYS / PHASE SHIFT   
E L1C  0.00000                                              SYS / PHASE SHIFT   
E L6C  0.00000                                              SYS / PHASE SHIFT   
E L5Q  0.00000                                              SYS / PHASE SHIFT   
E L7Q  0.00000                                              SYS / PHASE SHIFT   
E L8Q  0.00000                                              SYS / PHASE SHIFT   
S L1C                                                       SYS / PHASE SHIFT   
S L5I                                                       SYS / PHASE SHIFT   
R L1C                                                       SYS / PHASE SHIFT   
R L2P  0.00000                                              SYS / PHASE SHIFT   
R L2C                                                       SYS / PHASE SHIFT   
R L3Q  0.00000                                              SYS / PHASE SHIFT   
C L1P  0.00000                                              SYS / PHASE SHIFT   
C L5P  0.00000                                              SYS / PHASE SHIFT   
C L2I                                                       SYS / PHASE SHIFT   
C L7I                                                       SYS / PHASE SHIFT   
C L6I                                                       SYS / PHASE SHIFT   
C L7D                                                       SYS / PHASE SHIFT   
J L1C                                                       SYS / PHASE SHIFT   
J L2L  0.00000                                              SYS / PHASE SHIFT   
J L5Q  0.00000                                              SYS / PHASE SHIFT   
J L1L  0.00000                                              SYS / PHASE SHIFT   
I L5A                                                       SYS / PHASE SHIFT   
  2025     1     1     2    15    0.0000000     GPS         TIME OF FIRST OBS   
 C1C    0.000 C2C    0.000 C2P    0.000                     GLONASS COD/PHS/BIS 
DBHZ                                                        SIGNAL STRENGTH UNIT
    18                                                      LEAP SECONDS        
 24 R01  1 R02 -4 R03  5 R04  6 R05  1 R06 -4 R07  5 R08  6 GLONASS SLOT / FRQ #
    R09 -2 R10 -7 R11  0 R12 -1 R13 -2 R14 -7 R15  0 R16 -1 GLONASS SLOT / FRQ #
    R17  4 R18 -3 R19  3 R20  2 R21  4 R22 -3 R23  3 R24  2 GLONASS SLOT / FRQ #
                                                            END OF HEADER       
> 2025 01 01 02 15  0.0000000  0 38
G02         1.000    22953243.338 6 120620161.57706     -3923.463 6        40.865                                    22953234.468 3  93989681.39003     -3057.250 3        18.478
G31         4.000    22189390.881 6 116605922.99506     -1548.271 6        39.784                                    22189385.728 5  90861724.31305     -1206.456 5        33.018    22189384.908 6  90861847.35306     -1206.596 6        39.324
E34         6.000    25566444.107 7 134352574.59107      1536.810 7        45.202                                                                    25566443.914 7 100328268.71807      1147.746 7        46.225    25566443.698 7 102945496.24807      1177.693 7        46.285
E04         7.000    25001823.773 6 131385450.80306     -2933.848 6        37.229                                                                    25001821.946 7  98112505.36307     -2190.802 7        44.060    25001821.139 7 100671962.10007     -2247.964 7        44.608
G03         8.000    20104229.474 8 105648657.76608     -1881.353 8        51.387                                    20104225.167 8  82323421.03408     -1465.989 8        48.980    20104227.754 7  82323481.04907     -1466.022 7        43.534
G09         9.000    21545814.332 5 113223916.69005      1907.944 5        35.957                                    21545796.286 4  88226437.59504      1486.715 4        28.275    21545797.152 6  88226426.62506      1486.419 6        40.086
R14        10.000    23274272.404 5 124064987.00005     -2029.640 5        33.491                                                                    23274262.130 4  96494915.76504     -1578.520 4        28.720
G04        11.000    20203510.715 8 106170186.84508       323.977 8        50.125                                    20203505.408 5  82729961.64205       252.450 5        31.381    20203505.589 6  82729980.66306       252.279 6        38.850
E09        12.000    23367399.077 7 122796607.82107      -474.734 7        45.783                                                                    23367397.584 6  91698758.25606      -354.564 6        41.669    23367397.352 6  94090876.66106      -363.729 6        39.012
E06        14.000    23529802.975 8 123649966.80408     -1773.321 8        48.927                                                                    23529801.268 8  92336012.85208     -1324.201 8        48.356    23529801.458 8  94744746.63408     -1358.754 8        49.355
E11        15.000    25223071.637 6 132548172.70906     -3395.797 6        39.709                                                                    25223067.885 6  98980735.39106     -2535.689 6        36.132    25223065.450 5 101562808.09205     -2602.120 5        30.241
G19        16.000    22238015.036 7 116861736.27807     -1362.400 7        43.647                                    22238009.226 4  91060928.10504     -1061.612 4        24.647
G28        17.000                                                                                                                                                                    23886937.439 3                     -2425.300 3        22.705
G06        19.000    22934628.780 7 120522388.50607      2194.443 7        43.378                                    22934626.151 5  93913444.34405      1709.955 5        35.571    22934626.356 6  93913517.34206      1709.906 6        38.877
E36        20.000    23315599.745 7 122524445.16407     -1020.054 7        47.243                                                                    23315599.859 7  91495408.83307      -761.751 7        47.280    23315599.892 8  93882276.65908      -781.620 8        48.392
E05        21.000    24347661.527 5 127947727.16505      1773.841 5        35.086                                                                                                                                    24347638.576 4  98037892.11804      1359.023 4        28.199
G17        22.000    22934866.508 6 120523643.59806     -2892.083 6        40.520                                    22934858.974 3  93914489.22903     -2253.564 3        20.548    22934858.424 4  93914415.24204     -2254.037 4        25.158
R07        23.000    21921223.902 6 117346407.47306      2225.316 6        38.868                                                                    21921236.381 5  91269175.32605      1730.768 5        34.852
S23        24.000    38068958.422 6 200053656.30806      -825.165 6        39.877
S36        25.000    38121860.690 6 200331639.44806      -829.533 6        36.087
R20        27.000    22459879.675 5 120103059.59705     -5267.718 5        34.024                                                                    22459882.338 6  93413497.50406     -4097.237 6        36.484
R15        28.000    22668508.902 4 121133712.39704      1224.289 4        29.299
R06        29.000    19382826.468 4 103430483.82704      -294.339 4        26.766
C05        32.000                                                                                                                                                                                                    39045036.438 5 157218172.72805      -650.251 5        35.633
C19        33.000                                                                                                                                    22327537.154 8 116265461.19108       435.458 8        48.952                                                                    22327530.890 7  94475092.21707       353.788 7        45.178
R21        34.000    19540759.153 7 104566668.25607     -2410.316 7        47.426                                                                    19540758.878 7  81329533.46507     -1874.630 7        43.748
R05        36.000    21550177.005 5 115198038.27405     -4080.038 5        30.725                                                                    21550141.910 4  89598507.26404     -3173.681 4        24.331
R22        37.000    21046332.886 7 112346705.92907      2039.924 7        44.679                                                                    21046325.994 7  87380810.65007      1586.660 7        45.005
C39        38.000                                                                                                                                    39054835.682 5 203368777.69705     -1468.552 5        34.990                                                                    39054824.607 6 165253742.37406     -1193.537 6        36.132
C06        41.000                                                                                                                                    38186134.570 5 198845220.54405      -954.167 5        33.581    38186139.674 5 153759703.87605      -737.662 5        35.905    38186126.749 6 161577994.26506      -775.247 6        37.055
C29        43.000                                                                                                                                                                                                                                                                    23800608.684 4 100708071.93004     -3114.787 4        27.904
C16        45.000                                                                                                                                    38676797.950 6 201400218.82806     -1055.719 6        38.159    38676793.049 5 155735403.74605      -816.198 5        30.566
C09        46.000                                                                                                                                    38461633.403 6 200279824.32406      -441.003 6        37.021    38461629.181 7 154869062.67807      -341.123 7        43.526    38461626.652 6 162743722.44106      -358.586 6        39.976
C44        48.000                                                                                                                                    25127572.840 5 130845899.39705      1549.833 5        35.781                                                                    25127574.094 5 106323004.99905      1259.121 5        35.871
C35        51.000                                                                                                                                    22870870.015 7 119094847.36207      -839.451 7        43.809                                                                    22870870.780 7  96774152.17307      -682.122 7        42.506
I09        54.000    37203205.386 4 145993349.76604      -820.228 4        29.261
C20        55.000                                                                                                                                    22243595.508 6 115828214.08306     -2163.583 6        40.977                                                                    22243586.997 8  94119990.39408     -1758.155 8        50.939
I01        58.000   334030407.194 5   7666272.68105     -2937.783 5        35.690
> 2025 01 01 02 15  5.0000000  0 38
G02         1.000    22956977.605 6 120639783.49606     -3924.773 6        41.423                                    22956967.969 3  94004971.18803     -3058.255 3        18.030
G31         4.000    22190866.244 6 116613674.92406     -1552.009 6        40.808                                    22190861.037 5  90867764.78605     -1209.364 5        33.042    22190860.484 6  90867887.80806     -1209.272 6        39.679
E34         6.000    25564982.517 7 134344893.74907      1535.858 7        45.643                                                                    25564982.229 7 100322533.03507      1146.903 7        46.047    25564981.994 7 102939610.94207      1176.841 7        46.250
E04         7.000    25004615.591 6 131400123.91206     -2934.891 6        37.391                                                                    25004614.160 7  98123462.55507     -2191.747 7        44.212    25004613.475 7 100683205.12307     -2248.824 7        44.512
G03         8.000    20106020.460 8 105658070.42408     -1883.271 8        51.518                                    20106016.450 8  82330755.56808     -1467.481 8        49.544    20106018.978 7  82330815.58007     -1467.562 7        43.822
G09         9.000                                                                                                                                                                    21543983.247 6  88218998.57706      1485.106 6        40.446
R14        10.000    23276171.280 4 124075147.52204     -2034.637 4        29.725
G04        11.000    20203203.748 8 106168574.77908       321.302 8        49.654                                    20203198.171 5  82728705.49605       250.356 5        31.275    20203199.156 6  82728724.50006       250.312 6        40.133
E09        12.000    23367851.456 7 122798987.23307      -476.666 7        45.592                                                                    23367850.078 6  91700535.10806      -356.123 6        41.399    23367850.117 6  94092699.83806      -365.106 6        39.171
E06        14.000    23531491.103 8 123658838.70708     -1774.981 8        49.057                                                                    23531489.613 8  92342637.97608     -1325.455 8        48.584    23531489.528 8  94751544.59008     -1360.087 8        49.453
E11        15.000    25226303.330 6 132565155.77006     -3397.023 6        39.423                                                                    25226299.232 5  98993417.55705     -2536.500 5        34.824    25226296.967 4 101575821.06304     -2603.037 4        28.995
G19        16.000    22239314.009 7 116868558.25207     -1365.901 7        43.194                                    22239307.834 4  91066243.90604     -1064.325 4        25.098
G28        17.000    23889851.897 4                     -3115.362 4        26.096
G06        19.000    22932542.379 7 120511420.63007      2193.041 7        42.813                                    22932539.106 5  93904897.95405      1708.865 5        35.600    22932538.861 6  93904970.95306      1708.738 6        38.517
E36        20.000    23316571.517 7 122529551.75207     -1022.162 7        46.965                                                                    23316571.563 7  91499222.18707      -763.311 7        47.040    23316571.714 8  93886189.49808      -783.255 8        48.695
E05        21.000    24345964.337 6 127938862.37206      1772.744 6        36.964                                                                    24345963.840 6  95538795.38316      1323.764 6        36.896    24345950.280 4  98031099.60104      1358.379 4        26.707
G17        22.000    22937618.792 6 120538110.48706     -2894.304 6        40.153                                    22937611.495 3  93925762.12203     -2255.293 3        20.976    22937610.989 4  93925688.15704     -2255.680 4        24.466
R07        23.000    21919145.485 6 117335285.68506      2223.822 6        40.536                                                                    21919158.216 6  91260525.11206      1729.661 6        36.030
S23        24.000    38069746.541 6 200057783.18006      -825.140 6        40.083
S36        25.000    38122650.830 6 200335786.69306      -829.283 6        36.023
R20        27.000    22464806.677 5 120129402.74205     -5268.778 5        33.982                                                                    22464809.252 6  93433986.58906     -4098.203 6        36.325
R15        28.000    22667365.514 4 121127601.03104      1220.635 4        27.629                                                                    22667354.638 3                       950.165 3        21.357
R06        29.000    19383102.299 4 103431966.53104      -297.671 4        24.752
C05        32.000                                                                                                                                                                                                    39045844.371 5 157221424.91505      -650.183 5        35.505
C19        33.000                                                                                                                                    22327119.646 8 116263288.40008       434.038 8        50.054                                                                    22327113.518 7  94473326.63807       352.681 7        44.807
R21        34.000    19543013.138 7 104578731.84707     -2414.748 7        47.678                                                                    19543012.661 7  81338916.26807     -1878.112 7        43.539
C22        35.000                                                                                                                                    25911169.316 3                      2010.850 3        21.500
R22        37.000    21044420.677 7 112336515.00807      2036.797 7        42.425                                                                    21044417.499 7  87372884.38207      1584.228 7        45.831
C39        38.000                                                                                                                                    39056246.663 5 203376123.71205     -1469.186 5        35.124                                                                    39056235.122 6 165259711.56506     -1193.828 6        36.393
C06        41.000                                                                                                                                    38187050.305 5 198849993.95105      -954.733 5        33.665    38187056.624 5 153763395.01105      -738.412 5        35.529    38187043.727 6 161581873.04506      -775.826 6        37.225
C29        43.000                                                                                                                                    23804283.761 4 123955104.20114     -3834.629 4        29.374                                                                    23804285.862 5 100723649.37205     -3115.738 5        30.075
C16        45.000                                                                                                                                    38677811.481 6 201405500.45806     -1056.423 6        37.516    38677813.840 5 155739487.92905      -817.036 5        31.140
C09        46.000                                                                                                                                    38462058.028 6 200282033.40006      -441.948 6        37.652    38462053.319 7 154870770.88407      -341.734 7        43.448    38462050.724 6 162745517.49406      -359.241 6        39.393
C44        48.000                                                                                                                                    25126086.727 6 130838156.19406      1547.845 6        36.189                                                                    25126087.148 6 106316712.98206      1257.768 6        36.087
C35        51.000                                                                                                                                    22871677.587 7 119099052.60907      -842.207 7        43.426                                                                    22871678.123 6  96777569.29106      -684.647 6        41.657
I09        54.000    37204254.321 4 145997453.58004      -820.456 4        29.081
C20        55.000                                                                                                                                    22245671.239 6 115839036.30706     -2164.796 6        40.789                                                                    22245665.297 8  94128784.36908     -1759.248 8        50.935
I01        58.000   334034150.012 5   7680963.22705     -2937.831 5        35.381
> 2025 01 01 02 15 10.0000000  0 37
G02         1.000    22960712.878 6 120659412.23506     -3926.428 6        41.936                                    22960702.762 3  94020266.30203     -3059.555 3        18.418
G31         4.000    22192345.001 6 116621444.85706     -1555.653 6        40.784                                    22192339.539 5  90873819.29205     -1212.202 5        33.012    22192338.316 6  90873942.29306     -1212.026 6        38.501
E34         6.000    25563522.249 7 134337218.41007      1534.589 7        45.576                                                                    25563521.702 7 100316801.45107      1145.963 7        45.998    25563521.374 7 102933729.84207      1175.869 7        46.270
E04         7.000    25007408.185 6 131414802.43906     -2936.213 6        37.100                                                                    25007407.615 7  98134423.79007     -2192.633 7        44.418    25007407.051 7 100694452.29407     -2249.718 7        44.427
G03         8.000    20107813.254 8 105667492.96408     -1885.480 8        51.565                                    20107809.745 8  82338097.80408     -1469.203 8        49.843    20107812.162 7  82338157.80607     -1469.162 7        44.501
G09         9.000    21542168.081 5 113204860.56905      1903.918 5        33.892                                    21542170.520 4  88211588.76504      1483.566 4        28.938    21542171.775 6  88211577.77906      1483.617 6        41.323
G04        11.000    20202899.416 8 106166976.11108       318.471 8        49.103                                    20202893.730 5  82727459.79705       248.156 5        31.064    20202895.035 6  82727478.79906       248.079 6        40.486
E09        12.000    23368306.167 7 122801376.31207      -478.689 7        45.174                                                                    23368304.725 6  91702319.17506      -357.496 6        41.192    23368304.982 6  94094530.46006      -366.888 6        39.210
E06        14.000    23533180.801 8 123667719.20208     -1776.876 8        49.171                                                                    23533179.577 8  92349269.52008     -1326.908 8        48.669    23533179.353 8  94758349.12608     -1361.472 8        49.494
E11        15.000    25229536.021 6 132582145.34406     -3398.510 6        38.595                                                                    25229532.581 5  99006104.60205     -2537.786 5        32.862    25229531.743 4 101588839.08004     -2604.213 4        29.820
G19        16.000    22240615.237 7 116875397.77507     -1369.585 7        43.200                                    22240609.716 4  91071573.37904     -1067.213 4        25.383
G28        17.000    23892814.195 4                     -3117.141 4        29.716
G06        19.000    22930457.183 7 120500460.38207      2191.308 7        42.925                                    22930453.380 5  93896357.50705      1707.509 5        35.519    22930452.796 6  93896430.48606      1707.716 6        37.701
E36        20.000    23317545.346 7 122534669.11307     -1024.440 7        46.730                                                                    23317545.453 7  91503043.59107      -765.081 7        46.854    23317545.452 8  93890110.58808      -784.969 8        48.570
E05        21.000    24344272.178 6 127930002.78106      1771.522 6        38.165                                                                    24344276.108 5  95532179.57805      1322.741 5        35.519    24344264.247 4  98024311.06604      1357.390 4        25.744
G17        22.000    22940372.852 6 120552587.88906     -2896.408 6        40.715                                    22940366.072 3  93937043.20303     -2256.947 3        21.024    22940370.173 4  93936969.21504     -2256.844 4        29.242
R07        23.000    21917069.499 7 117324171.60207      2222.141 7        42.595                                                                    21917078.273 5  91251880.84605      1728.479 5        34.924
S23        24.000    38070528.614 6 200061910.36006      -825.446 6        39.676
S36        25.000    38123436.316 5 200339933.74205      -829.230 5        35.786
R20        27.000    22469734.633 5 120155752.61305     -5270.591 5        33.275                                                                    22469736.445 5  93454480.88805     -4099.271 5        35.605
R15        28.000    22666225.839 4 121121507.12204      1216.882 4        27.964                                                                    22666220.943 3                       946.662 3        22.286
C05        32.000                                                                                                                                                                                                    39046652.205 5 157224677.34205      -650.445 5        35.476
C19        33.000                                                                                                                                    22326703.952 8 116261123.15408       432.373 8        51.019                                                                    22326697.907 7  94471567.23107       351.278 7        44.623
R21        34.000    19545272.700 8 104590817.56808     -2419.244 8        48.312                                                                    19545271.660 7  81348316.25207     -1881.676 7        43.437
C22        35.000                                                                                                                                    25909234.508 4                      2009.951 4        26.180
R05        36.000    21557831.089 5 115238846.95805     -4081.458 5        32.946                                                                    21557785.344 5  89630247.26105     -3174.856 5        30.408
R22        37.000    21042507.513 6 112326339.85606      2033.677 6        40.195                                                                    21042510.643 7  87364970.44307      1581.591 7        46.318
C39        38.000                                                                                                                                    39057657.853 5 203383473.27305     -1470.086 5        34.205                                                                    39057646.003 6 165265683.71106     -1194.573 6        36.121
C06        41.000                                                                                                                                    38187968.880 5 198854771.62205      -955.800 5        33.030    38187974.314 5 153767089.39005      -739.115 5        34.857    38187961.033 6 161585755.34906      -776.899 6        37.414
C29        43.000                                                                                                                                    23807966.911 4 123974280.82604     -3835.235 4        29.081                                                                    23807965.284 5 100739232.05605     -3117.108 5        31.804
C16        45.000                                                                                                                                    38678826.708 6 201410786.13206     -1057.615 6        37.255
C09        46.000                                                                                                                                    38462482.230 6 200284246.79906      -443.107 6        37.781    38462478.316 7 154872482.41007      -342.674 7        43.475    38462475.644 6 162747316.07106      -359.887 6        39.550
C44        48.000                                                                                                                                    25124601.087 6 130830422.51606      1546.116 6        36.382                                                                    25124602.060 6 106310428.79606      1256.118 6        36.272
C35        51.000                                                                                                                                    22872487.646 7 119103272.40207      -845.308 7        43.609                                                                    22872488.316 6  96780998.24406      -686.904 6        40.956
I09        54.000    37205299.322 4 146001558.22304      -821.078 4        29.289
C20        55.000                                                                                                                                    22247749.221 6 115849865.23806     -2166.380 6        41.726                                                                    22247744.789 8  94137583.78808     -1760.378 8        50.871
I01        58.000   334037893.053 5   7695654.48005     -2938.226 5        34.543
> 2025 01 01 02 15 15.0000000  0 37
G02         1.000    22964449.007 7 120679047.64007     -3927.610 7        42.571                                    22964439.174 3  94035566.61603     -3060.505 3        18.836
G31         4.000    22193826.735 6 116629232.68706     -1559.225 6        40.141                                    22193821.265 5  90879887.74905     -1214.978 5        33.467    22193820.043 6  90880010.73806     -1214.799 6        36.741
E34         6.000    25562062.517 7 134329548.45707      1533.649 7        45.651                                                                    25562062.095 7 100311073.89007      1145.273 7        45.980    25562061.742 7 102927852.85907      1175.116 7        46.418
E04         7.000    25010202.931 6 131429486.24306     -2937.136 6        36.847                                                                    25010201.984 7  98145388.95907     -2193.351 7        44.646    25010201.205 7 100705703.51507     -2250.457 7        44.146
G03         8.000    20109608.104 8 105676925.21308     -1887.267 8        51.724                                    20109604.989 8  82345447.60308     -1470.594 8        50.387    20109606.947 7  82345507.61807     -1470.627 7        45.195
G09         9.000    21540359.514 5 113195346.39105      1902.091 5        35.476                                    21540360.282 4  88204175.13504      1482.138 4        29.725    21540361.473 6  88204164.15306      1482.250 6        41.097
R14        10.000    23279971.075 4 124095529.61214     -2042.184 4        24.692                                                                    23280007.860 4                     -1588.128 4        24.617
G04        11.000    20202597.926 8 106165390.73208       315.941 8        49.279                                    20202591.998 5  82726224.45505       246.181 5        31.313    20202592.958 6  82726243.44106       246.195 6        39.844
E09        12.000    23368762.548 7 122803774.94907      -480.506 7        45.108                                                                    23368761.030 6  91704110.37406      -358.842 6        40.515    23368761.420 6  94096368.36306      -368.253 6        39.402
E06        14.000    23534872.181 8 123676608.15808     -1778.460 8        49.104                                                                    23534871.098 8  92355907.36608     -1328.093 8        48.888    23534870.719 8  94765160.13508     -1362.732 8        49.420
E11        15.000    25232769.845 6 132599141.26906     -3399.540 6        37.304                                                                    25232766.371 5  99018796.36305     -2538.480 5        31.125    25232767.739 5 101601861.90405     -2604.803 5        31.268
G19        16.000    22241920.112 7 116882254.67107     -1372.864 7        42.345                                    22241914.835 4  91076916.41404     -1069.752 4        25.639
G28        17.000    23895785.668 5                     -3119.534 5        30.891
G06        19.000    22928373.011 7 120489507.63907      2190.078 7        42.569                                    22928368.875 5  93887822.91105      1706.550 5        35.619    22928368.940 5  93887895.90105      1706.556 5        35.805
E36        20.000    23318521.165 7 122539797.12107     -1026.469 7        46.816                                                                    23318521.297 7  91506872.94007      -766.504 7        46.728    23318521.291 8  93894039.83508      -786.488 8        48.712
E05        21.000    24342590.446 6 127921148.16506      1770.561 6        37.535                                                                    24342586.526 5  95525567.43505      1322.124 5        34.800    24342579.151 4  98017526.48504      1356.258 4        26.862
G17        22.000    22943130.158 6 120567075.48906     -2898.314 6        38.796                                    22943123.378 3  93948332.23803     -2258.427 3        20.690    22943130.141 5  93948258.26005     -2258.574 5        31.019
R07        23.000    21914996.468 7 117313064.94607      2220.773 7        43.740
S23        24.000    38071320.275 6 200066037.56706      -825.336 6        38.940
S36        25.000    38124221.859 5 200344080.86105      -829.343 5        35.810
R20        27.000    22474662.601 5 120182108.93605     -5272.052 5        31.924                                                                    22474665.723 6  93474980.28806     -4100.231 6        37.233
R06        29.000    19383659.260 3                      -303.014 3        22.629
C05        32.000                                                                                                                                                                                                    39047461.533 5 157227929.83505      -650.318 5        35.219
C19        33.000                                                                                                                                    22326289.788 8 116258965.33208       431.020 8        51.843                                                                    22326283.543 7  94469813.80407       350.389 7        44.512
R21        34.000    19547536.582 8 104602925.25708     -2423.534 8        48.429                                                                    19547534.498 7  81357733.32807     -1885.007 7        43.615
C22        35.000                                                                                                                                    25907312.104 4                      2010.107 4        25.970                                                                    25907302.071 4                      1632.846 4        29.735
R22        37.000    21040603.342 5 112316180.45905      2030.440 5        33.527                                                                    21040607.207 7  87357068.68007      1579.315 7        46.288
C39        38.000                                                                                                                                    39059071.092 5 203390826.28805     -1470.630 5        33.162                                                                    39059058.355 5 165271658.62005     -1194.886 5        35.714
C06        41.000                                                                                                                                    38188885.973 5 198859553.49905      -956.937 5        31.623    38188891.018 5 153770787.00605      -739.686 5        33.629    38188879.893 6 161589640.97106      -777.229 6        37.437
C29        43.000                                                                                                                                    23811650.925 4 123993463.85804     -3837.303 4        28.967                                                                    23811648.339 5 100754819.87105     -3117.539 5        31.192
C16        45.000                                                                                                                                    38679844.165 6 201416075.74906     -1058.274 6        36.745    38679868.835 5 155747665.56705      -818.069 5        32.892
C09        46.000                                                                                                                                    38462908.293 6 200286464.30706      -443.835 6        37.701    38462904.074 7 154874197.12107      -343.041 7        43.342    38462901.421 6 162749117.96406      -360.445 6        39.417
C44        48.000                                                                                                                                    25123119.371 6 130822698.27206      1543.957 6        37.531                                                                    25123118.949 6 106304152.19306      1254.722 6        36.620
C35        51.000                                                                                                                                    22873300.915 7 119107506.60007      -847.972 7        43.137                                                                    22873301.096 6  96784438.87506      -689.075 6        40.072
I09        54.000    37206347.007 4 146005663.55304      -820.731 4        29.441
C20        55.000                                                                                                                                    22249828.869 6 115860700.69706     -2167.518 6        41.876                                                                    22249825.574 8  94146388.47108     -1761.181 8        50.948
I01        58.000   334041637.865 5   7710346.24705     -2938.422 5        34.119
> 2025 01 01 02 15 20.0000000  0 40
G02         1.000    22968186.352 7 120698690.01507     -3929.542 7        42.550                                    22968177.477 3  94050872.34203     -3061.981 3        19.910
G21         3.000    24732927.765 3                     -4127.301 3        20.405
G31         4.000    22195312.584 7 116637038.71307     -1563.318 7        42.601                                    22195306.349 5  90885970.38405     -1218.177 5        34.148    22195306.552 6  90886093.39906     -1218.212 6        36.257
E34         6.000    25560604.120 7 134321884.17207      1531.954 7        46.201                                                                    25560603.590 7 100305350.55807      1144.002 7        45.669    25560603.287 7 102921980.22107      1173.838 7        46.386
E04         7.000    25012998.566 6 131444175.61306     -2938.806 6        37.539                                                                    25012997.274 7  98156358.28407     -2194.433 7        44.796    25012996.432 7 100716958.99107     -2251.710 7        44.008
G03         8.000    20111405.097 8 105686367.46408     -1889.743 8        52.064                                    20111402.251 8  82352805.20208     -1472.528 8        50.838    20111403.614 7  82352865.22507     -1472.560 7        45.494
G09         9.000    21538553.011 6 113185841.74706      1899.539 6        37.414                                    21538551.837 5  88196768.92105      1480.153 5        30.513    21538552.332 6  88196757.93306      1480.247 6        40.584
R14        10.000                                                                                                                                    23281924.674 4                     -1592.290 4        24.767
G04        11.000    20202299.049 8 106163818.92908       312.688 8        49.161                                    20202292.757 5  82724999.69605       243.643 5        31.434    20202294.047 6  82725018.68306       243.691 6        38.399
E09        12.000    23369220.984 7 122806183.42007      -482.963 7        45.225                                                                    23369219.360 6  91705908.91406      -360.799 6        40.286    23369219.506 6  94098213.81406      -369.990 6        39.682
E06        14.000    23536565.171 8 123685505.85908     -1780.711 8        48.752                                                                    23536564.228 8  92362551.74908     -1329.800 8        49.047    23536563.766 8  94771977.85108     -1364.450 8        49.518
E11        15.000    25236005.236 6 132616143.90406     -3401.593 6        36.707                                                                    25236002.675 5  99031493.15305     -2540.024 5        30.755    25236005.296 5 101614889.85705     -2606.626 5        31.336
G19        16.000    22243227.920 7 116889129.22907     -1376.908 7        42.827                                    22243223.312 4  91082273.18904     -1072.908 4        26.060
G28        17.000    23898765.674 5                     -3122.418 5        30.264                                                                                                    23898780.648 3                     -2434.178 3        20.548
G06        19.000    22926290.383 7 120478562.70607      2187.824 7        43.357                                    22926285.873 5  93879294.40505      1704.796 5        35.924    22926287.635 5  93879367.41205      1704.724 5        35.010
E36        20.000    23319499.076 7 122544936.07707     -1029.204 7        46.864                                                                    23319499.224 7  91510710.46807      -768.590 7        46.605    23319499.143 8  93897977.47908      -788.651 8        48.900
E05        21.000    24340909.565 6 127912298.90106      1769.091 6        36.870                                                                    24340899.143 5  95518959.21805      1321.167 5        33.551    24340894.948 4  98010745.80604      1355.503 4        26.012
G17        22.000    22945888.380 5 120581573.73405     -2901.026 5        34.719                                    22945883.290 3  93959629.54503     -2260.527 3        20.714    22945890.781 5  93959555.55705     -2260.274 5        31.253
R07        23.000    21912923.462 7 117301966.11707      2218.604 7        44.778                                                                    21912914.424 5  91234609.93605      1725.590 5        34.033
S23        24.000    38072101.489 6 200070165.15906      -825.797 6        38.237
S36        25.000    38125004.420 5 200348228.77005      -829.710 5        35.057
R20        27.000    22479590.886 5 120208472.00005     -5273.734 5        31.185                                                                    22479595.256 6  93495484.94306     -4101.621 6        37.981
R15        28.000    22663977.157 6 121109370.93706      1209.858 6        36.544
R06        29.000    19383949.249 4                      -305.692 4        27.210
C05        32.000                                                                                                                                                                                                    39048269.412 5 157231182.69005      -650.979 5        34.852
C19        33.000                                                                                                                                    22325876.698 8 116256815.22708       428.903 8        52.174                                                                    22325870.836 7  94468066.66607       348.608 7        44.269
R21        34.000    19549803.804 8 104615055.19808     -2428.495 8        48.428                                                                    19549801.031 7  81367167.71707     -1888.782 7        43.589
C22        35.000                                                                                                                                    25905384.772 4                      2009.189 4        25.714                                                                    25905372.159 4                      1632.299 4        27.401
R05        36.000    21565490.290 6 115279671.67106     -4083.570 6        36.476                                                                    21565414.742 4  89661999.66304     -3176.972 4        24.060
R22        37.000    21038702.532 5 112306037.08205      2026.077 5        30.619                                                                    21038706.371 7  87349179.43507      1576.263 7        45.589
C39        38.000                                                                                                                                    39060486.267 5 203398183.04505     -1472.236 5        35.671                                                                    39060471.204 5 165277636.60605     -1196.144 5        35.781
C06        41.000                                                                                                                                    38189804.912 5 198864339.80405      -958.038 5        33.144    38189808.300 5 153774488.10805      -740.916 5        34.076    38189798.777 6 161593530.26806      -778.305 6        37.100
C29        43.000                                                                                                                                    23815339.221 4 124012653.40904     -3838.976 4        27.940                                                                    23815336.007 4 100770413.12004     -3119.182 4        26.024
C16        45.000                                                                                                                                    38680860.307 6 201421369.60306     -1059.504 6        36.764    38680888.752 5 155751759.18405      -819.294 5        32.617
C09        46.000                                                                                                                                    38463334.572 6 200288686.25106      -445.376 6        38.147    38463330.591 7 154875915.29607      -344.293 7        43.725    38463328.130 6 162750923.48806      -361.593 6        38.826
C44        48.000                                                                                                                                    25121639.419 6 130814983.70206      1541.471 6        38.643                                                                    25121637.597 6 106297883.48806      1252.668 6        36.953
C35        51.000                                                                                                                                    22874117.325 6 119111755.53906      -851.453 6        41.323                                                                    22874117.030 6  96787891.47106      -691.756 6        38.775
I09        54.000    37207397.152 4 146009769.81904      -821.638 4        29.839
C20        55.000                                                                                                                                    22251911.109 7 115871542.98007     -2169.496 7        42.064                                                                    22251907.843 8  94155198.72408     -1762.769 8        50.795
I01        58.000   334045381.542 5   7725038.77305     -2938.838 5        35.119
> 2025 01 01 02 15 25.0000000  0 37
G02         1.000    22971925.362 6 120718339.19506     -3930.355 6        41.366                                    22971917.368 3  94066183.38903     -3062.617 3        20.381
G31         4.000    22196802.012 7 116644862.81407     -1566.343 7        44.832                                    22196795.055 5  90892067.12105     -1220.528 5        35.229    22196796.727 6  90892190.09906     -1220.522 6        36.582
E34         6.000    25559146.496 7 134314225.43407      1531.414 7        45.440                                                                    25559146.073 7 100299631.37007      1143.671 7        45.616    25559145.777 7 102916111.84207      1173.415 7        46.160
E04         7.000    25015794.855 6 131458870.36206     -2939.053 6        37.645                                                                    25015793.490 7  98167331.65307     -2194.859 7        45.047    25015793.230 7 100728218.62007     -2252.042 7        43.771
G03         8.000    20113203.698 8 105695819.60508     -1891.132 8        52.079                                    20113201.413 8  82360170.50608     -1473.609 8        51.028    20113202.654 7  82360230.51207     -1473.665 7        46.006
G09         9.000    21536748.260 6 113176346.46506      1898.494 6        39.027                                    21536744.953 5  88189369.98005      1479.357 5        31.441    21536744.547 6  88189359.00806      1479.196 6        39.261
R14        10.000                                                                                                                                    23283841.815 3                     -1595.727 3        23.162
G04        11.000    20202002.663 8 106162260.54908       310.624 8        48.576                                    20201996.025 5  82723785.37705       242.045 5        31.275    20201998.479 6  82723804.35406       242.023 6        37.365
E09        12.000    23369681.420 7 122808601.58707      -484.393 7        45.467                                                                    23369679.811 6  91707714.70006      -361.699 6        41.035    23369679.526 6  94100066.70606      -371.144 6        40.543
E06        14.000    23538260.093 8 123694412.14708     -1781.875 8        48.638                                                                    23538259.191 8  92369202.55008     -1330.588 8        49.449    23538258.471 8  94778802.15108     -1365.333 8        49.500
E11        15.000    25239241.350 5 132633153.01005     -3402.362 5        35.414                                                                    25239240.149 5  99044194.81905     -2540.976 5        30.392    25239241.456 5 101627922.81905     -2606.815 5        32.090
G19        16.000    22244540.159 7 116896021.32007     -1379.834 7        43.915                                    22244534.588 4  91087643.64604     -1075.206 4        26.144
G06        19.000    22924209.012 7 120467625.47107      2186.864 7        44.059                                    22924204.449 6  93870771.88506      1704.050 6        36.117    22924206.991 6  93870844.86906      1704.181 6        36.340
E36        20.000    23320478.850 7 122550085.84107     -1030.855 7        46.922                                                                    23320479.332 7  91514556.06107      -769.749 7        46.783    23320478.897 8  93901923.39508      -789.797 8        48.769
E05        21.000    24339226.942 5 127903454.81205      1768.508 5        35.229                                                                    24339215.789 5  95512354.85205      1320.437 5        32.958    24339212.088 4  98003969.15304      1355.332 4        25.383
G17        22.000    22948649.006 6 120596082.60606     -2902.543 6        37.123                                    22948644.924 3  93970935.13003     -2261.705 3        20.643    22948652.770 5  93970861.16605     -2261.450 5        30.513
R07        23.000    21910852.199 7 117290875.04307      2217.762 7        45.318                                                                    21910846.414 5  91225983.53905      1725.304 5        34.829
S23        24.000    38072878.125 6 200074292.79406      -825.386 6        38.255
S36        25.000    38125797.990 5 200352377.16905      -829.630 5        34.186
R20        27.000    22484523.976 5 120234841.65705     -5273.965 5        32.395                                                                    22484525.452 6  93515994.66206     -4102.225 6        38.832
R15        28.000    22662851.929 5 121103329.12005      1206.873 5        32.742                                                                    22662835.259 3                       937.131 3        22.590
R06        29.000    19384245.338 4                      -308.321 4        29.564
C05        32.000                                                                                                                                                                                                    39049076.491 5 157234435.69105      -650.229 5        34.862
C19        33.000                                                                                                                                    22325465.245 8 116254672.69208       427.995 8        52.252                                                                    22325459.527 7  94466325.67707       347.878 7        44.807
R21        34.000    19552074.427 8 104627207.18208     -2432.360 8        48.275                                                                    19552072.116 7  81376619.26307     -1891.844 7        43.359
C22        35.000                                                                                                                                    25903456.107 3                      2009.133 3        23.810                                                                    25903443.289 4                      1631.942 4        26.539
R05        36.000                                                                                                                                    21569233.370 4  89677880.41904     -3176.283 4        29.810
R22        37.000    21036809.311 5 112295909.73705      2024.184 5        35.962                                                                    21036809.678 7  87341302.54807      1574.225 7        45.341
C39        38.000                                                                                                                                    39061899.022 5 203405543.44905     -1472.239 5        34.076                                                                    39061884.984 5 165283617.51305     -1196.052 5        35.200
C06        41.000                                                                                                                                    38190725.727 5 198869130.41605      -958.423 5        35.381    38190731.235 5 153778192.52105      -740.955 5        34.352    38190718.682 6 161597423.00906      -778.376 6        37.297
C16        45.000                                                                                                                                    38681876.351 5 201426667.54905     -1059.861 5        34.433    38681900.188 5 155755855.92505      -819.429 5        32.359
C09        46.000                                                                                                                                    38463762.206 6 200290912.49706      -445.546 6        37.607    38463758.010 7 154877636.78107      -344.569 7        44.012    38463755.131 6 162752732.48606      -361.774 6        38.435
C44        48.000                                                                                                                                    25120160.314 6 130807278.72206      1540.222 6        40.231                                                                    25120158.158 6 106291622.53706      1251.831 6        37.006
C35        51.000                                                                                                                                    22874936.373 6 119116019.02106      -853.889 6        41.640                                                                    22874936.296 6  96791355.90206      -693.773 6        37.815
I09        54.000    37208440.417 4 146013876.71004      -821.114 4        29.469
C20        55.000                                                                                                                                    22253995.000 7 115882391.94207     -2170.251 7        42.144                                                                    22253991.237 8  94164014.40008     -1763.336 8        50.700
I01        58.000   334049125.892 5   7739732.02605     -2938.720 5        35.681
> 2025 01 01 02 15 30.0000000  0 40
G02         1.000    22975665.815 6 120737994.84706     -3931.891 6        41.430                                    22975658.734 3  94081499.47503     -3063.818 3        20.548
G21         3.000    24740790.671 3                     -4129.297 3        21.333
G31         4.000    22198294.221 7 116652704.60507     -1570.148 7        46.257                                    22198287.428 6  90898177.62806     -1223.493 6        36.431    22198288.715 6  90898300.58906     -1223.546 6        36.752
E34         6.000    25557689.813 7 134306571.87407      1530.152 7        45.195                                                                    25557689.500 7 100293916.05607      1142.659 7        45.502    25557689.384 7 102910247.43107      1172.426 7        46.184
E04         7.000    25018591.759 6 131473570.22506     -2940.699 6        38.622                                                                    25018591.029 7  98178308.80307     -2195.744 7        45.285    25018589.904 7 100739482.12107     -2252.997 7        42.895
G03         8.000    20115004.251 8 105705281.24408     -1893.369 8        52.214                                    20115002.421 8  82367543.21008     -1475.353 8        51.278    20115002.928 7  82367603.22307     -1475.326 7        46.393
