     3.04           OBSERVATION DATA    M                   RINEX VERSION / TYPE
ssrcrin-15.6.1x                         20250101 003000 UTC PGM / RUN BY / DATE 
(00000000023479385599111004) Septentrio proprietary         COMMENT             
ract                                                        MARKER NAME         
01                                                          MARKER NUMBER       
geodetic                                                    MARKER TYPE         
NFB                 CLIMERS@TUW                             OBSERVER / AGENCY   
3296359             SEPT ASTERX SB3 PROB4.14.4              REC # / TYPE / VERS 
Unknown             Unknown                                 ANT # / TYPE        
  4127446.1232  1206913.8302  4695541.7608                  APPROX POSITION XYZ 
        0.0000        0.0000        0.0000                  ANTENNA: DELTA H/E/N
G   23 X1  C1C L1C D1C S1C C1W S1W C2W L2W D2W S2W C2L L2L  SYS / # / OBS TYPES 
       D2L S2L C5Q L5Q D5Q S5Q C1L L1L D1L S1L              SYS / # / OBS TYPES 
E   21 X1  C1C L1C D1C S1C C6C L6C D6C S6C C5Q L5Q D5Q S5Q  SYS / # / OBS TYPES 
       C7Q L7Q D7Q S7Q C8Q L8Q D8Q S8Q                      SYS / # / OBS TYPES 
S    9 X1  C1C L1C D1C S1C C5I L5I D5I S5I                  SYS / # / OBS TYPES 
R   17 X1  C1C L1C D1C S1C C2P L2P D2P S2P C2C L2C D2C S2C  SYS / # / OBS TYPES 
       C3Q L3Q D3Q S3Q                                      SYS / # / OBS TYPES 
C   25 X1  C1P L1P D1P S1P C5P L5P D5P S5P C2I L2I D2I S2I  SYS / # / OBS TYPES 
       C7I L7I D7I S7I C6I L6I D6I S6I C7D L7D D7D S7D      SYS / # / OBS TYPES 
J   17 X1  C1C L1C D1C S1C C2L L2L D2L S2L C5Q L5Q D5Q S5Q  SYS / # / OBS TYPES 
       C1L L1L D1L S1L                                      SYS / # / OBS TYPES 
I    5 X1  C5A L5A D5A S5A                                  SYS / # / OBS TYPES 
SEPTENTRIO RECEIVERS OUTPUT ALIGNED CARRIER PHASES.         COMMENT             
NO FURTHER PHASE SHIFT APPLIED IN THE RINEX ENCODER.        COMMENT             
G L1C                                                       SYS / PHASE SHIFT   
G L2W                                                       SYS / PHASE SHIFT   
G L2L  0.00000                                              SYS / PHASE SHIFT   
G L5Q  0.00000                                              SYS / PHASE SHIFT   
G L1L  0.00000                                              SYS / PHASE SHIFT   
E L1C  0.00000                                              SYS / PHASE SHIFT   
E L6C  0.00000                                              SYS / PHASE SHIFT   
E L5Q  0.00000                                              SYS / PHASE SHIFT   
E L7Q  0.00000                                              SYS / PHASE SHIFT   
E L8Q  0.00000                                              SYS / PHASE SHIFT   
S L1C                                                       SYS / PHASE SHIFT   
S L5I                                                       SYS / PHASE SHIFT   
R L1C                                                       SYS / PHASE SHIFT   
R L2P  0.00000                                              SYS / PHASE SHIFT   
R L2C                                                       SYS / PHASE SHIFT   
R L3Q  0.00000                                              SYS / PHASE SHIFT   
C L1P  0.00000                                              SYS / PHASE SHIFT   
C L5P  0.00000                                              SYS / PHASE SHIFT   
C L2I                                                       SYS / PHASE SHIFT   
C L7I                                                       SYS / PHASE SHIFT   
C L6I                                                       SYS / PHASE SHIFT   
C L7D                                                       SYS / PHASE SHIFT   
J L1C                                                       SYS / PHASE SHIFT   
J L2L  0.00000                                              SYS / PHASE SHIFT   
J L5Q  0.00000                                              SYS / PHASE SHIFT   
J L1L  0.00000                                              SYS / PHASE SHIFT   
I L5A                                                       SYS / PHASE SHIFT   
  2025     1     1     0    30    0.0000000     GPS         TIME OF FIRST OBS   
 C1C    0.000 C2C    0.000 C2P    0.000                     GLONASS COD/PHS/BIS 
DBHZ                                                        SIGNAL STRENGTH UNIT
    18                                                      LEAP SECONDS        
 24 R01  1 R02 -4 R03  5 R04  6 R05  1 R06 -4 R07  5 R08  6 GLONASS SLOT / FRQ #
    R09 -2 R10 -7 R11  0 R12 -1 R13 -2 R14 -7 R15  0 R16 -1 GLONASS SLOT / FRQ #
    R17  4 R18 -3 R19  3 R20  2 R21  4 R22 -3 R23  3 R24  2 GLONASS SLOT / FRQ #
                                                            END OF HEADER       
> 2025 01 01 00 30  0.0000000  0 37
E19         1.000                                                                                                                                                                                                    26594093.162 4                     -2582.563 4        26.982
G32         2.000    23692251.079 5 124503608.01005     -3721.440 5        34.557                                    23692250.884 2  97015737.39102     -2899.815 2        17.585    23692254.278 4                     -2900.187 4        28.047
G21         3.000    21654857.266 5 113797037.87105     -2697.313 5        34.876                                    21654851.367 1  88672977.09701     -2101.792 1        11.704
G14         4.000    25542727.423 3                     -3341.075 3        20.286
G02         5.000    20858932.283 6 109614447.66306     -1370.250 6        38.520                                    20858926.182 2  85413799.74202     -1067.741 2        16.830
E04         7.000    23868085.291 7 125427622.11707      -681.676 7        45.148                                                                    23868082.925 8  93663476.42608      -509.055 8        48.772    23868083.436 8  96106871.40408      -522.359 8        49.230
G03         8.000    20565352.069 8 108071713.19808       657.579 8        50.204                                    20565352.327 6  84211735.05506       512.395 6        37.270    20565351.146 6  84211735.06806       512.510 6        36.677
E02         9.000                                                                                                                                    28204126.844 5 110679079.56305     -2271.146 5        32.623    28204140.222 4                     -2331.010 4        24.917
E12        10.000    27094260.490 3                     -3333.061 3        21.762                                                                    27094265.035 4                     -2488.254 4        25.143    27094260.873 5 109097376.53105     -2552.794 5        34.143
G04        11.000    23516700.215 5 123581081.26005      2825.697 5        33.036                                                                                                    23516693.442 4                      2201.693 4        26.275
E09        12.000    25430995.205 5 133640831.68905      1797.828 5        32.263                                                                    25431001.782 6  99796756.37406      1342.341 6        41.800    25431000.736 6 102400127.28306      1377.204 6        39.874
E10        13.000    24962597.548 7 131179331.65307     -2681.791 7        42.167                                                                    24962606.458 4  97958647.40004     -2002.533 4        28.863    24962598.033 7 100514057.32907     -2054.844 7        42.876
E06        14.000    24094714.585 7 126618641.25907       786.304 7        42.226                                                                                                                                    24094715.661 6  97019441.37206       602.315 6        36.370
E11        15.000    23487595.276 7 123428142.38407     -1440.946 7        44.680                                                                    23487590.709 7  92170355.85807     -1076.039 7        44.817    23487591.834 8  94574798.59108     -1104.019 8        48.575
E30        17.000    28602537.803 3                     -1160.308 3        22.914                                                                    28602555.879 4                      -868.509 4        28.019    28602526.030 5 115170583.04605      -890.511 5        30.702
G28        18.000    23653544.648 5 124300187.87005       751.641 5        33.742
E36        20.000    24648268.441 7 129527518.50807       980.583 7        44.233                                                                    24648267.591 7  96725086.24507       732.281 7        43.365    24648268.003 7  99248374.35907       751.363 7        44.041
G17        22.000    22702499.746 6 119302659.29906       643.209 6        40.093                                    22702497.940 4  92962894.44504       501.203 4        29.479    22702496.366 6  92962937.42606       501.294 6        38.354
S23        24.000    38279834.427 6 201161838.51806      -823.789 6        41.130
S36        25.000    38328459.427 6 201417236.82406      -826.995 6        36.953
R20        27.000    19338485.014 4                     -1496.894 4        27.689                                                                    19338485.060 7                     -1164.053 7        44.793
R04        28.000    21665959.225 6 116020178.92206     -4442.499 6        41.001                                                                    21665956.115 7  90237953.44007     -3455.254 7        42.631
R12        32.000                                                                                                                                    24407269.626 5 101406085.56205     -2198.701 5        32.952
C19        33.000                                                                                                                                    25125252.770 6 130833800.05306      2106.061 6        37.864                                                                    25125259.428 5 106313127.77505      1711.230 5        32.659
R21        34.000    21036886.311 8 112572694.41908      2395.315 8        50.329                                                                    21036883.722 6  87556635.95806      1862.899 6        37.297
R05        36.000    19218343.022 7 102733170.96907     -1273.962 7        44.698                                                                    19218342.759 6  79903474.65106      -990.857 6        41.862
C39        38.000                                                                                                                                    39111586.729 5 203664276.75505      -354.238 5        33.323                                                                    39111579.984 5 165493878.78605      -287.726 5        35.124
C06        41.000                                                                                                                                    38919580.539 4                       200.154 4        29.062    38919567.666 5 156713010.61405       154.548 5        35.843
C29        43.000                                                                                                                                    21889842.917 7 113986043.73807      -993.505 7        44.226                                                                    21889842.362 6  92623111.03806      -807.346 6        40.272
C16        45.000                                                                                                                                                                                                    39266351.876 6 158109321.43206        58.057 6        40.257
C09        46.000                                                                                                                                    39761008.544 4 207046021.89304       580.789 4        27.114    39761040.921 4                       448.848 4        27.928
C32        47.000                                                                                                                                    23344907.511 6 121563128.97806     -3020.793 6        40.956                                                                    23344907.416 7  98779979.06907     -2454.741 7        42.887
C35        51.000                                                                                                                                    24993385.701 7 130147315.15107      2000.026 7        46.822                                                                    24993384.587 7 105755211.07907      1625.229 7        44.041
I09        54.000    37239621.660 6 146136272.64206      -614.875 6        38.877
C20        55.000                                                                                                                                    22080111.569 8 114976922.85008        96.423 8        49.548                                                                    22080105.572 8  93428246.55508        78.305 8        50.398
I01        56.000   330638158.472 6 994354340.50506     -2769.443 6        36.329
C30        58.000                                                                                                                                    23958493.951 5 124758316.09905     -3846.518 5        31.509                                                                    23958491.708 6 101376265.85706     -3125.985 6        37.025
> 2025 01 01 00 30  5.0000000  0 38
E19         1.000                                                                                                                                                                                                    26597299.485 4                     -2583.955 4        25.654
G32         2.000    23695791.905 5 124522219.47905     -3722.908 5        33.180                                    23695792.856 2  97030239.87602     -2900.975 2        17.811    23695794.971 4                     -2901.219 4        26.826
G21         3.000    21657424.009 5 113810528.08405     -2698.791 5        35.595                                    21657418.687 1  88683488.90501     -2102.879 1        11.926
G02         5.000    20860235.770 6 109621306.91706     -1373.049 6        36.503                                    20860231.444 2  85419144.61602     -1069.931 2        15.667
E04         7.000    23868735.140 7 125431036.59707      -683.983 7        45.339                                                                    23868732.748 8  93666026.20208      -510.760 8        48.770    23868733.159 8  96109487.70008      -524.063 8        49.083
G03         8.000    20564727.524 8 108068430.20108       655.675 8        49.944                                    20564727.047 6  84209176.88706       510.909 6        37.917    20564725.903 6  84209176.90506       511.028 6        36.000
E02         9.000                                                                                                                                    28207020.986 5 110690436.73105     -2271.791 5        32.569    28207036.993 4                     -2330.886 4        26.132
E12        10.000    27097432.319 3                     -3333.229 3        23.581                                                                    27097435.134 3                     -2488.294 3        22.990    27097430.304 5 109110143.27705     -2553.522 5        33.281
G04        11.000    23514011.731 5 123566955.20205      2824.512 5        31.117                                                                                                    23514004.687 4                      2201.222 4        29.204
E09        12.000    25429289.895 5 133631847.84005      1796.021 5        34.929                                                                    25429291.343 6  99790047.64606      1341.315 6        41.745    25429290.737 6 102393243.53706      1376.280 6        39.156
E10        13.000    24965150.077 7 131192744.29307     -2683.072 7        42.104                                                                    24965152.586 4  97968663.22604     -2003.761 4        29.668    24965150.454 7 100524334.54507     -2055.918 7        42.681
E06        14.000    24093967.437 7 126614714.76307       784.358 7        42.696                                                                                                                                    24093968.877 5  97016432.77005       601.154 5        35.271
E11        15.000    23488967.070 7 123435350.81007     -1442.502 7        44.661                                                                    23488962.520 7  92175738.76507     -1077.120 7        44.918    23488963.681 8  94580321.93208     -1105.253 8        48.549
G19        16.000    24309482.528 5                      2427.031 5        33.491
E30        17.000    28603645.835 3                     -1165.174 3        23.486                                                                    28603658.348 4                      -869.724 4        29.829    28603634.984 5 115175041.33905      -891.955 5        30.445
G28        18.000    23652833.729 5 124296437.56705       748.796 5        32.958
E36        20.000    24647335.980 7 129522618.21607       979.717 7        44.284                                                                    24647334.676 7  96721426.95507       731.513 7        42.506    24647335.638 7  99244619.58707       750.682 7        44.096
G17        22.000    22701889.234 6 119299450.32906       640.492 6        38.667                                    22701887.268 5  92960393.93005       499.085 5        30.075    22701886.561 6  92960436.90706       499.233 6        39.354
S23        24.000    38280616.697 6 201165957.74906      -823.843 6        41.154
S36        25.000    38329244.788 6 201421371.22406      -826.879 6        37.062
R20        27.000    19339893.531 4                     -1500.240 4        26.731                                                                    19339886.200 7  80437005.41917     -1166.989 7        45.093
R04        28.000    21670110.673 6 116042394.99006     -4443.773 6        41.914                                                                    21670104.795 7  90255232.57707     -3456.297 7        42.209
R12        32.000    24409921.398 4 130393341.65414     -2829.756 4        27.234                                                                    24409923.633 5 101417085.88005     -2201.462 5        32.365
C19        33.000                                                                                                                                    25123226.492 6 130823271.93406      2105.188 6        36.628                                                                    25123233.322 5 106304572.76205      1710.561 5        32.796
R21        34.000    21034649.256 8 112560723.68508      2393.172 8        50.303                                                                    21034647.728 6  87547325.38306      1861.283 6        37.750
R19        35.000    23265211.409 3                     -4957.505 3        22.495                                                                    23265195.455 3                     -3856.428 3        19.343
R05        36.000    19219536.077 7 102739549.93207     -1277.569 7        43.562                                                                    19219536.831 7  79908436.07907      -993.657 7        42.754
C39        38.000                                                                                                                                    39111927.131 5 203666049.64905      -355.185 5        33.156                                                                    39111920.336 5 165495319.41205      -288.475 5        35.267
C06        41.000                                                                                                                                    38919388.098 4                       199.065 4        28.474    38919375.378 5 156712239.25505       153.955 5        35.495
C29        43.000                                                                                                                                    21890798.285 7 113991018.25707      -996.212 7        44.155                                                                    21890797.608 6  92627153.23006      -809.485 6        40.927
C16        45.000                                                                                                                                    39266281.168 3                        74.699 3        21.262    39266280.145 6 158109033.46106        57.385 6        40.031
C09        46.000                                                                                                                                    39760458.427 4 207043120.55004       580.178 4        27.150    39760486.994 4                       448.741 4        27.030
C32        47.000                                                                                                                                    23347808.361 6 121578236.85706     -3022.235 6        41.261                                                                    23347808.796 7  98792255.44907     -2455.818 7        42.686
C35        51.000                                                                                                                                    24991465.294 7 130137318.09307      1998.858 7        46.530                                                                    24991464.976 7 105747087.64007      1624.295 7        44.567
I09        54.000    37240405.039 6 146139347.29606      -614.898 6        38.643
C20        55.000                                                                                                                                    22080019.815 8 114976446.67508        94.260 8        49.727                                                                    22080014.204 8  93427859.61808        76.564 8        50.629
I01        56.000   330641686.673 6 994368187.10006     -2769.103 6        36.446
C30        58.000                                                                                                                                    23962188.952 5 124777554.31305     -3848.216 5        32.341                                                                    23962186.102 6 101391898.49606     -3127.113 6        36.544
> 2025 01 01 00 30 10.0000000  0 38
E19         1.000                                                                                                                                                                                                    26600507.109 4                     -2584.508 4        24.602
G32         2.000    23699333.470 5 124540838.35305     -3724.196 5        33.737                                    23699336.036 3  97044748.10503     -2901.976 3        18.000    23699333.715 4                     -2902.470 4        26.754
G21         3.000    21659992.885 5 113824026.66505     -2700.573 5        35.843                                    21659987.545 1  88694007.29301     -2104.329 1        11.407
G02         5.000    20861541.955 5 109628177.34405     -1375.109 5        34.552                                    20861539.009 2  85424498.18102     -1071.534 2        14.905
E04         7.000    23869387.106 7 125434462.46607      -686.325 7        45.547                                                                    23869384.710 8  93668584.47808      -512.555 8        48.613    23869384.927 8  96112112.71008      -525.854 8        49.152
G03         8.000    20564104.922 8 108065156.88308       653.709 8        50.054                                    20564103.265 6  84206626.26306       509.380 6        38.288    20564101.878 5  84206626.27205       509.517 5        34.743
E02         9.000                                                                                                                                    28209916.324 5 110701798.03905     -2272.500 5        32.922    28209935.060 4                     -2331.346 4        26.443
E12        10.000    27100604.135 4                     -3333.741 4        24.797                                                                    27100606.618 3                     -2489.993 3        19.731    27100600.997 5 109122912.88605     -2553.945 5        32.485
G04        11.000    23511322.292 4 123552833.56004      2823.801 4        28.853                                    23511318.632 1  96274918.93811      2200.262 1         3.200    23511319.424 5                      2200.230 5        30.996
E09        12.000    25427583.277 6 133622870.55506      1794.660 6        36.635                                                                    25427582.340 6  99783343.82406      1340.375 6        41.414    25427581.704 6 102386364.85606      1375.301 6        38.480
E10        13.000    24967703.955 7 131206163.07507     -2684.429 7        42.116                                                                    24967701.480 5  97978683.69405     -2004.501 5        31.494    24967703.921 7 100534616.45207     -2056.872 7        42.633
E06        14.000    24093222.397 7 126610798.11907       782.381 7        42.952                                                                                                                                    24093225.701 5  97013431.76105       599.394 5        34.381
E11        15.000    23490340.335 7 123442566.87207     -1443.981 7        44.944                                                                    23490335.781 7  92181127.38307     -1078.271 7        44.841    23490336.969 8  94585851.12308     -1106.498 8        48.757
G19        16.000    24307173.360 5 127735066.01215      2425.197 5        35.067
E30        17.000    28604751.162 3                     -1166.731 3        23.810                                                                    28604767.387 5                      -871.701 5        30.204    28604746.014 5 115179508.63505      -894.621 5        30.792
G28        18.000    23652125.042 5 124292700.41405       746.240 5        33.257
E36        20.000    24646404.133 7 129517722.45307       978.728 7        44.560                                                                    24646402.593 6  96717771.02506       730.837 6        41.576    24646404.079 7  99240868.27707       749.913 7        44.415
G17        22.000    22701281.354 6 119296254.79106       637.796 6        37.180                                    22701279.289 5  92957903.88405       496.982 5        30.875    22701278.377 6  92957946.85706       497.106 6        39.607
S23        24.000    38281402.021 6 201170076.96906      -823.848 6        41.166
S36        25.000    38330032.571 6 201425505.42206      -826.796 6        36.836
R20        27.000                                                                                                                                    19341291.356 7                     -1169.967 7        45.257
R04        28.000    21674260.279 6 116064617.63506     -4445.169 6        41.611                                                                    21674254.289 6  90272516.82806     -3457.351 6        41.364
R12        32.000                                                                                                                                    24412577.324 5 101428099.33505     -2203.786 5        32.275
C19        33.000                                                                                                                                    25121204.483 5 130812748.60705      2104.040 5        35.286                                                                    25121204.715 5 106296021.63105      1709.746 5        33.305
R21        34.000    21032414.819 8 112548763.54508      2390.976 8        50.685                                                                    21032413.076 6  87538023.07006      1859.734 6        39.147
R19        35.000    23269844.211 4                     -4957.229 4        25.534                                                                    23269837.455 3                     -3858.518 3        23.162
R05        36.000    19220732.809 7 102745947.14807     -1281.270 7        44.609                                                                    19220732.564 7  79913411.70107      -996.508 7        42.601
C39        38.000                                                                                                                                    39112268.325 5 203667827.37805      -356.065 5        33.461                                                                    39112261.601 5 165496763.96905      -289.420 5        34.914
C06        41.000                                                                                                                                    38919195.425 4                       198.076 4        27.126    38919184.983 5 156711471.25905       153.460 5        35.690
C29        43.000                                                                                                                                    21891756.071 7 113996006.20407      -998.847 7        44.020                                                                    21891754.736 6  92631206.32706      -811.736 6        40.749
C16        45.000                                                                                                                                    39266214.849 4                        73.616 4        24.406    39266209.276 6 158108748.89006        56.620 6        39.922
C09        46.000                                                                                                                                    39759910.484 4 207040222.56704       579.131 4        26.383    39759937.114 4                       447.664 4        27.820
C32        47.000                                                                                                                                    23350710.666 6 121593350.97006     -3023.469 6        41.743                                                                    23350711.478 7  98804536.89007     -2456.845 7        42.447
C35        51.000                                                                                                                                    24989545.969 7 130127327.02607      1997.626 7        45.625                                                                    24989546.373 7 105738969.07407      1623.152 7        44.780
I09        54.000    37241188.809 6 146142422.81206      -615.123 6        38.757
C20        55.000                                                                                                                                    22079930.298 8 114975981.05408        92.089 8        49.854                                                                    22079924.781 8  93427481.24208        74.785 8        50.825
I01        56.000   330645215.259 6 994382034.46306     -2769.566 6        36.677
C30        58.000                                                                                                                                    23965884.105 5 124796798.88705     -3849.408 5        32.509                                                                    23965881.809 6 101407536.25906     -3127.958 6        36.537
> 2025 01 01 00 30 15.0000000  0 38
E19         1.000                                                                                                                                                                                                    26603715.105 3                     -2586.373 3        22.133
G32         2.000    23702878.994 5 124559465.07305     -3725.953 5        35.543                                    23702880.937 2  97059262.44002     -2903.339 2        17.736    23702876.805 4                     -2903.629 4        27.090
G21         3.000    21662567.780 5 113837533.90005     -2702.652 5        35.433                                    21662557.932 1  88704532.34601     -2106.047 1        10.593
G02         5.000    20862853.173 5 109635059.35605     -1377.573 5        34.219                                    20862848.644 2  85429860.79102     -1073.470 2        15.048
E04         7.000    23870041.132 7 125437900.07107      -688.887 7        45.645                                                                    23870038.867 8  93671151.52208      -514.464 8        48.590    23870038.988 8  96114746.72908      -527.812 8        49.038
G03         8.000    20563484.111 8 108061893.63008       651.453 8        50.544                                    20563481.316 6  84204083.48106       507.623 6        38.498    20563480.531 5  84204083.48605       507.809 5        34.048
E02         9.000                                                                                                                                    28212813.226 5 110713163.80305     -2273.844 5        32.341    28212832.081 4                     -2333.075 4        27.593
E12        10.000    27103775.901 4                     -3335.301 4        25.699                                                                                                                                    27103772.206 5 109135685.66505     -2555.070 5        31.547
G04        11.000    23508637.681 4 123538716.67804      2822.916 4        29.687                                    23508632.622 1  96263918.67701      2199.687 1         8.762    23508635.802 5                      2199.679 5        32.257
E09        12.000    25425876.858 6 133613900.22306      1793.250 6        37.709                                                                    25425874.683 6  99776645.20606      1339.098 6        41.375    25425873.973 6 102379491.51306      1374.029 6        36.998
E10        13.000    24970259.033 7 131219588.31907     -2685.896 7        42.053                                                                    24970259.373 5  97988709.05205     -2005.594 5        34.305    24970258.706 7 100544903.31007     -2057.915 7        42.201
E06        14.000    24092478.836 7 126606891.67707       780.130 7        42.646                                                                    24092480.878 7  94544069.17817       582.486 7        42.398    24092486.693 5  97010438.61605       597.497 5        33.275
E11        15.000    23491715.229 7 123449790.97107     -1445.853 7        45.159                                                                    23491710.653 7  92186521.99407     -1079.665 7        44.969    23491711.593 8  94591386.46808     -1107.816 8        48.868
G19        16.000    24304862.257 5 127722944.62305      2423.384 5        35.314
E30        17.000    28605848.373 4                     -1169.552 4        25.248                                                                    28605880.222 4                      -873.657 4        29.905    28605859.869 5 115183984.83205      -896.383 5        30.626
G28        18.000    23651419.167 5 124288976.78305       742.954 5        32.545
E36        20.000    24645473.084 7 129512831.55207       977.471 7        44.522                                                                    24645471.683 6  96714118.75406       730.017 6        41.099    24645473.437 7  99237120.70307       749.009 7        44.575
G17        22.000    22700676.312 6 119293073.16906       634.806 6        37.603                                    22700674.023 5  92955424.69005       494.655 5        31.623    22700672.602 6  92955467.68906       494.552 6        39.574
S23        24.000    38282185.159 6 201174196.22606      -824.106 6        41.309
S36        25.000    38330819.952 6 201429640.04706      -827.167 6        37.077
R20        27.000                                                                                                                                    19342699.158 7  80448705.46317     -1173.152 7        44.926
R04        28.000    21678411.687 6 116086847.24806     -4446.829 6        40.594                                                                    21678405.141 6  90289806.53706     -3458.580 6        41.099
R12        32.000                                                                                                                                    24415228.069 5 101439125.50205     -2206.388 5        31.592
C19        33.000                                                                                                                                    25119186.371 5 130802230.41905      2102.851 5        34.743                                                                    25119180.351 5 106287474.75605      1708.453 5        33.305
R21        34.000    21030182.082 8 112536814.31108      2388.547 8        51.126                                                                    21030180.872 6  87528729.22106      1857.845 6        40.286
R19        35.000    23274481.118 4                     -4957.744 4        25.805                                                                    23274472.024 4                     -3856.601 4        24.120
R05        36.000    19221934.306 7 102752362.70107     -1285.112 7        45.383                                                                    19221932.497 6  79918401.54306      -999.535 6        41.340
C39        38.000                                                                                                                                    39112610.762 5 203669610.33305      -357.328 5        33.359                                                                    39112603.681 5 165498212.70605      -289.892 5        34.609
C06        41.000                                                                                                                                    38919002.971 4                       197.762 4        26.659    38918995.864 5 156710706.94205       152.377 5        35.600
C29        43.000                                                                                                                                    21892715.763 7 114001007.94907     -1001.891 7        43.251                                                                    21892714.389 6  92635270.61206      -814.136 6        40.551
C16        45.000                                                                                                                                    39266147.963 4                        71.956 4        26.323    39266139.862 6 158108467.99506        55.811 6        39.745
C09        46.000                                                                                                                                    39759350.994 4 207037328.24204       579.024 4        26.407    39759383.840 4                       447.020 4        27.760
C32        47.000                                                                                                                                    23353614.027 6 121608471.64806     -3024.928 6        41.480                                                                    23353615.171 6  98816823.67706     -2457.947 6        41.957
C35        51.000                                                                                                                                    24987628.487 7 130117342.35007      1996.194 7        45.105                                                                    24987629.005 7 105730855.68207      1622.137 7        45.094
I09        54.000    37241972.844 6 146145499.47406      -615.641 6        38.571
C20        55.000                                                                                                                                    22079843.032 8 114975526.31608        89.718 8        50.001                                                                    22079837.441 8  93427111.70908        72.979 8        50.985
I01        56.000   330648744.213 6 994395882.80506     -2769.918 6        36.246
C30        58.000                                                                                                                                    23969581.295 5 124816050.11905     -3851.063 5        32.713                                                                    23969579.158 6 101423179.48806     -3129.339 6        36.854
> 2025 01 01 00 30 20.0000000  0 38
G32         2.000    23706426.177 6 124578099.56506     -3727.629 6        36.174                                    23706427.104 2  97073782.84502     -2904.658 2        17.736    23706421.912 4                     -2904.601 4        28.076
G21         3.000    21665146.909 5 113851049.77305     -2703.938 5        33.880                                    21665129.857 1  88715064.22701     -2106.972 1         9.238
G02         5.000    20864167.948 5 109641953.00705     -1379.829 5        35.533                                    20864160.551 2  85435232.46702     -1075.189 2        15.333
E04         7.000    23870697.286 7 125441349.46807      -691.118 7        45.663                                                                    23870695.278 8  93673727.36508      -516.013 8        48.554    23870695.283 8  96117389.77408      -529.517 8        48.807
G03         8.000    20562865.035 8 108058640.46308       649.641 8        50.607                                    20562861.401 6  84201548.55406       506.214 6        38.670    20562863.201 5  84201548.55905       506.385 5        34.690
E02         9.000                                                                                                                                    28215711.723 5 110724534.00705     -2274.608 5        32.311    28215730.104 4                     -2334.017 4        27.210
E12        10.000    27106951.232 4                     -3335.042 4        27.054                                                                                                                                    27106944.982 5 109148461.60305     -2555.534 5        31.351
G04        11.000    23505952.320 5 123524604.73005      2821.875 5        30.558                                    23505947.699 1  96252922.40601      2198.947 1         7.750    23505950.999 5                      2198.911 5        34.162
E09        12.000    25424171.045 6 133604936.90206      1791.906 6        38.315                                                                    25424168.726 6  99769951.80606      1338.186 6        41.182    25424168.042 5 102372623.49605      1373.066 5        35.067
E10        13.000    24972814.624 6 131233020.10006     -2687.140 6        41.757                                                                    24972817.975 6  97998739.29106     -2006.772 6        36.333    24972814.488 6 100555195.18306     -2058.867 6        41.609
E06        14.000    24091737.382 7 126602995.48907       778.246 7        42.842                                                                    24091738.185 7  94541159.67507       581.111 7        43.310    24091750.180 5  97007453.30905       596.279 5        33.078
E11        15.000    23493091.544 7 123457023.12507     -1447.153 7        45.232                                                                    23493086.898 7  92191922.62107     -1080.639 7        45.192    23493087.833 8  94596927.98708     -1108.879 8        48.853
G19        16.000    24302551.074 5 127710832.26705      2421.616 5        34.933
E30        17.000    28606964.378 4                     -1171.799 4        26.611                                                                    28606996.531 4                      -875.284 4        29.498    28606979.498 5 115188470.16405      -897.862 5        31.525
G28        18.000    23650716.689 5 124285266.68705       740.912 5        30.641
E36        20.000    24644543.298 7 129507945.57607       976.664 7        44.236                                                                    24644541.780 6  96710470.13806       729.441 6        40.636    24644543.584 7  99233376.89807       748.388 7        44.566
G08        21.000    24962463.634 3                     -4525.046 3        20.643
G17        22.000    22700074.885 6 119289905.36506       632.241 6        39.180                                    22700071.320 5  92952956.26405       492.656 5        32.395    22700070.026 6  92952999.24806       492.673 6        39.907
S23        24.000    38282968.771 6 201178315.63406      -823.780 6        41.321
S36        25.000    38331606.305 6 201433774.89106      -827.229 6        36.930
R20        27.000    19344100.496 3                     -1516.375 3        22.057                                                                    19344110.820 7  80454578.29007     -1176.063 7        44.453
R04        28.000    21682563.889 6 116109083.78406     -4448.081 6        37.633                                                                    21682557.514 6  90307101.62206     -3459.541 6        41.418
R12        32.000                                                                                                                                    24417887.336 5 101450165.01805     -2209.149 5        31.781
C19        33.000                                                                                                                                    25117168.647 5 130791717.38805      2102.205 5        34.443                                                                    25117162.675 5 106278932.08905      1707.994 5        33.958
R21        34.000    21027951.271 8 112524876.07108      2386.519 8        51.626                                                                    21027949.791 6  87519443.92406      1856.264 6        41.278
R19        35.000    23279123.150 4                     -4959.593 4        25.459                                                                    23279104.755 4                     -3857.997 4        25.579
R05        36.000    19223138.312 7 102758796.90807     -1288.630 7        45.064                                                                    19223136.164 6  79923405.92006     -1002.319 6        40.715
C39        38.000                                                                                                                                    39112953.248 5 203671398.49705      -358.281 5        33.665                                                                    39112946.836 5 165499665.73805      -291.084 5        34.852
C06        41.000                                                                                                                                    38918810.651 4                       195.727 4        26.659    38918806.803 5 156709946.28805       151.800 5        35.286
C29        43.000                                                                                                                                    21893678.201 7 114006023.47607     -1004.471 7        43.151                                                                    21893676.840 6  92639346.13806      -816.141 6        40.193
C16        45.000                                                                                                                                    39266080.674 4                        70.948 4        27.293    39266070.494 6 158108190.83606        55.009 6        39.213
C09        46.000                                                                                                                                                                                                    39758823.287 4                       446.694 4        29.270
C32        47.000                                                                                                                                    23356519.226 6 121623598.97606     -3026.071 6        41.092                                                                    23356520.053 6  98829115.87806     -2458.947 6        41.490
C35        51.000                                                                                                                                    24985712.733 7 130107364.10007      1994.929 7        45.321                                                                    24985712.877 7 105722747.55907      1621.134 7        45.690
I09        54.000    37242757.268 6 146148577.28006      -615.794 6        38.465
C20        55.000                                                                                                                                    22079757.937 8 114975082.51008        87.691 8        50.165                                                                    22079752.131 8  93426751.09008        71.204 8        51.333
I01        56.000   330652273.040 6 994409732.17706     -2769.929 6        36.026
C30        58.000                                                                                                                                    23973279.605 5 124835308.08505     -3852.373 5        31.902                                                                    23973277.667 6 101438828.16606     -3130.201 6        36.938
> 2025 01 01 00 30 25.0000000  0 35
G32         2.000    23709974.645 6 124596742.14606     -3729.296 6        36.215                                    23709974.804 2  97088309.52802     -2905.964 2        16.113    23709972.756 5                     -2905.813 5        30.460
G21         3.000    21667720.869 4 113864574.63404     -2705.657 4        29.829                                    21667703.602 1  88725603.13201     -2108.381 1         7.000
G02         5.000    20865480.088 5 109648858.48105     -1382.191 5        35.767                                    20865474.650 2  85440613.37902     -1077.031 2        15.762
E04         7.000    23871355.805 7 125444810.92307      -693.251 7        45.704                                                                    23871354.058 8  93676312.22408      -517.695 8        48.606    23871353.842 8  96120042.06608      -531.202 8        48.509
G03         8.000    20562247.818 8 108055397.67508       647.677 8        49.877                                    20562243.700 6  84199021.71406       504.682 6        38.811    20562245.486 6  84199021.70906       504.870 6        36.155
E02         9.000                                                                                                                                    28218610.333 5 110735908.84005     -2275.147 5        32.359    28218627.331 4                     -2334.556 4        28.436
E12        10.000    27110126.884 4                     -3335.743 4        27.174                                                                    27110158.004 3                     -2491.285 3        22.933    27110118.639 5 109161240.90905     -2555.873 5        31.215
G04        11.000    23503268.159 5 123510497.87805      2821.059 5        31.230                                    23503263.733 1  96241929.98601      2198.226 1         8.381    23503266.621 5  96241947.03015      2198.197 5        35.214
E09        12.000    25422466.221 6 133595980.87006      1790.616 6        38.712                                                                    25422464.470 6  99763263.84106      1337.131 6        41.199    25422462.903 5 102365761.04205      1372.002 5        33.036
E10        13.000    24975371.587 6 131246458.66906     -2688.297 6        41.855                                                                    24975375.554 6  98008774.57106     -2007.317 6        37.955    24975371.231 6 100565492.26406     -2059.767 6        40.572
E06        14.000    24090998.264 7 126599109.83607       776.234 7        43.644                                                                    24090999.077 7  94538258.04907       579.616 7        44.190    24091015.132 5  97004476.02405       594.450 5        32.904
E11        15.000    23494469.326 7 123464263.59007     -1448.645 7        45.758                                                                    23494464.783 7  92197329.46007     -1081.774 7        45.574    23494465.494 8  94602475.87908     -1110.036 8        48.882
E30        17.000    28608079.605 4                     -1175.073 4        26.479                                                                    28608114.606 5                      -876.607 5        30.415    28608098.446 5 115192964.88205      -899.970 5        32.850
G28        18.000    23650012.122 4 124281570.39004       738.211 4        28.104                                                                                                    23649987.714 5  96842738.03015       575.269 5        34.348
E36        20.000    24643614.224 7 129503064.79907       975.775 7        44.358                                                                    24643613.151 6  96706825.41106       728.763 6        40.732    24643614.759 7  99229637.07607       747.723 7        44.617
G17        22.000    22699475.065 6 119286751.68706       629.513 6        39.099                                    22699471.327 5  92950498.84505       490.529 5        33.120    22699470.856 6  92950541.84306       490.518 6        40.358
S23        24.000    38283752.194 6 201182435.54806      -823.804 6        41.216
S36        25.000    38332390.726 6 201437911.01606      -827.170 6        36.896
R20        27.000    19345527.990 4                     -1516.398 4        26.048                                                                    19345526.573 7  80460466.66107     -1179.168 7        43.276
R04        28.000    21686720.264 5 116131327.38405     -4449.066 5        33.814                                                                    21686711.892 6  90324402.22706     -3460.545 6        41.671
R12        32.000                                                                                                                                    24420544.407 5 101461217.49205     -2211.567 5        30.211
C19        33.000                                                                                                                                    25115151.377 5 130781209.85505      2101.161 5        34.114                                                                    25115145.274 5 106270393.88705      1707.456 5        33.742
R21        34.000    21025722.687 8 112512949.20408      2384.411 8        51.327                                                                    21025720.982 6  87510167.49206      1854.615 6        40.934
R19        35.000                                                                                                                                    23283740.763 4                     -3858.333 4        25.353
R05        36.000    19224344.410 7 102765250.01907     -1292.449 7        43.890                                                                    19224343.605 6  79928425.02106     -1005.183 6        40.961
C39        38.000                                                                                                                                    39113297.585 5 203673192.11505      -359.190 5        33.515                                                                    39113291.244 5 165501123.22205      -291.570 5        34.424
C06        41.000                                                                                                                                    38918616.421 4                       195.270 4        27.114    38918618.429 5 156709189.52505       151.173 5        34.986
C29        43.000                                                                                                                                    21894643.393 7 114011053.09707     -1007.269 7        43.799                                                                    21894641.897 6  92643433.11106      -818.514 6        39.721
C16        45.000                                                                                                                                    39266009.441 4                        70.173 4        27.497    39266002.443 6 158107917.57606        54.467 6        39.177
C32        47.000                                                                                                                                    23359427.369 6 121638733.20106     -3027.387 6        41.244                                                                    23359426.046 6  98841413.65706     -2459.935 6        40.517
C35        51.000                                                                                                                                    24983798.591 7 130097392.55207      1993.775 7        45.381                                                                    24983798.040 7 105714644.86307      1620.132 7        45.579
I09        54.000    37243541.776 6 146151656.44506      -615.825 6        38.321
C20        55.000                                                                                                                                    22079674.698 8 114974649.90708        85.568 8        50.237                                                                    22079668.970 8  93426399.54608        69.614 8        51.186
I01        56.000   330655802.513 6 994423582.79006     -2770.177 6        36.042
C30        58.000                                                                                                                                    23976980.824 5 124854573.03505     -3853.562 5        31.924                                                                    23976977.183 6 101454482.50806     -3131.094 6        37.047
> 2025 01 01 00 30 30.0000000  0 37
E19         1.000                                                                                                                                                                                                    26613327.041 3                     -2588.778 3        21.833
G32         2.000    23713527.568 5 124615391.95405     -3731.126 5        35.767                                    23713523.694 2  97102841.84802     -2907.373 2        13.212    23713521.127 5                     -2906.925 5        31.200
G02         5.000    20866794.921 6 109655774.98406     -1384.662 6        37.784                                    20866790.738 2  85446002.82802     -1078.955 2        14.429
E04         7.000    23872016.255 7 125448283.60207      -695.952 7        45.035                                                                    23872015.007 8  93678905.46108      -519.678 8        48.682    23872014.562 8  96122702.95808      -533.279 8        48.075
G03         8.000    20561631.951 8 108052164.41808       645.345 8        49.424                                    20561628.172 6  84196502.29306       502.864 6        38.553    20561631.016 6  84196502.30506       502.842 6        36.582
E02         9.000                                                                                                                                    28221510.385 5 110747287.73805     -2276.463 5        31.117    28221526.302 4                     -2335.643 4        28.872
