     3.04           OBSERVATION DATA    M                   RINEX VERSION / TYPE
ssrcrin-15.6.1x                         20250101 001500 UTC PGM / RUN BY / DATE 
(00000000023479385599111004) Septentrio proprietary         COMMENT             
ract                                                        MARKER NAME         
01                                                          MARKER NUMBER       
geodetic                                                    MARKER TYPE         
NFB                 CLIMERS@TUW                             OBSERVER / AGENCY   
3296359             SEPT ASTERX SB3 PROB4.14.4              REC # / TYPE / VERS 
Unknown             Unknown                                 ANT # / TYPE        
  4127445.9131  1206914.4723  4695541.0831                  APPROX POSITION XYZ 
        0.0000        0.0000        0.0000                  ANTENNA: DELTA H/E/N
G   23 X1  C1C L1C D1C S1C C1W S1W C2W L2W D2W S2W C2L L2L  SYS / # / OBS TYPES 
       D2L S2L C5Q L5Q D5Q S5Q C1L L1L D1L S1L              SYS / # / OBS TYPES 
E   21 X1  C1C L1C D1C S1C C6C L6C D6C S6C C5Q L5Q D5Q S5Q  SYS / # / OBS TYPES 
       C7Q L7Q D7Q S7Q C8Q L8Q D8Q S8Q                      SYS / # / OBS TYPES 
S    9 X1  C1C L1C D1C S1C C5I L5I D5I S5I                  SYS / # / OBS TYPES 
R   17 X1  C1C L1C D1C S1C C2P L2P D2P S2P C2C L2C D2C S2C  SYS / # / OBS TYPES 
       C3Q L3Q D3Q S3Q                                      SYS / # / OBS TYPES 
C   25 X1  C1P L1P D1P S1P C5P L5P D5P S5P C2I L2I D2I S2I  SYS / # / OBS TYPES 
       C7I L7I D7I S7I C6I L6I D6I S6I C7D L7D D7D S7D      SYS / # / OBS TYPES 
J   17 X1  C1C L1C D1C S1C C2L L2L D2L S2L C5Q L5Q D5Q S5Q  SYS / # / OBS TYPES 
       C1L L1L D1L S1L                                      SYS / # / OBS TYPES 
I    5 X1  C5A L5A D5A S5A                                  SYS / # / OBS TYPES 
SEPTENTRIO RECEIVERS OUTPUT ALIGNED CARRIER PHASES.         COMMENT             
NO FURTHER PHASE SHIFT APPLIED IN THE RINEX ENCODER.        COMMENT             
G L1C                                                       SYS / PHASE SHIFT   
G L2W                                                       SYS / PHASE SHIFT   
G L2L  0.00000                                              SYS / PHASE SHIFT   
G L5Q  0.00000                                              SYS / PHASE SHIFT   
G L1L  0.00000                                              SYS / PHASE SHIFT   
E L1C  0.00000                                              SYS / PHASE SHIFT   
E L6C  0.00000                                              SYS / PHASE SHIFT   
E L5Q  0.00000                                              SYS / PHASE SHIFT   
E L7Q  0.00000                                              SYS / PHASE SHIFT   
E L8Q  0.00000                                              SYS / PHASE SHIFT   
S L1C                                                       SYS / PHASE SHIFT   
S L5I                                                       SYS / PHASE SHIFT   
R L1C                                                       SYS / PHASE SHIFT   
R L2P  0.00000                                              SYS / PHASE SHIFT   
R L2C                                                       SYS / PHASE SHIFT   
R L3Q  0.00000                                              SYS / PHASE SHIFT   
C L1P  0.00000                                              SYS / PHASE SHIFT   
C L5P  0.00000                                              SYS / PHASE SHIFT   
C L2I                                                       SYS / PHASE SHIFT   
C L7I                                                       SYS / PHASE SHIFT   
C L6I                                                       SYS / PHASE SHIFT   
C L7D                                                       SYS / PHASE SHIFT   
J L1C                                                       SYS / PHASE SHIFT   
J L2L  0.00000                                              SYS / PHASE SHIFT   
J L5Q  0.00000                                              SYS / PHASE SHIFT   
J L1L  0.00000                                              SYS / PHASE SHIFT   
I L5A                                                       SYS / PHASE SHIFT   
  2025     1     1     0    15    0.0000000     GPS         TIME OF FIRST OBS   
 C1C    0.000 C2C    0.000 C2P    0.000                     GLONASS COD/PHS/BIS 
DBHZ                                                        SIGNAL STRENGTH UNIT
    18                                                      LEAP SECONDS        
 24 R01  1 R02 -4 R03  5 R04  6 R05  1 R06 -4 R07  5 R08  6 GLONASS SLOT / FRQ #
    R09 -2 R10 -7 R11  0 R12 -1 R13 -2 R14 -7 R15  0 R16 -1 GLONASS SLOT / FRQ #
    R17  4 R18 -3 R19  3 R20  2 R21  4 R22 -3 R23  3 R24  2 GLONASS SLOT / FRQ #
                                                            END OF HEADER       
> 2025 01 01 00 15  0.0000000  0 38
E19         1.000                                                                                                                                    26034874.859 4                     -2352.582 4        28.237    26034880.387 5 104831678.98405     -2414.220 5        33.659
G32         2.000    23080280.723 6 121287916.48206     -3413.140 6        37.883                                    23080279.670 4  94509904.13304     -2659.591 4        26.431    23080279.340 6  94509940.15106     -2659.513 6        38.243
G21         3.000    21219490.797 7 111509161.59507     -2384.607 7        42.747                                    21219484.637 3  86890189.82003     -1858.136 3        21.214
G14         4.000    24990366.914 3                     -3114.747 3        23.657
G02         5.000    20658769.140 7 108562741.45107      -969.154 7        45.738                                    20658762.447 6  84594206.95206      -755.183 6        38.562
E04         7.000    23787059.140 7 125001827.84507      -263.706 7        46.593                                                                    23787057.262 8  93345512.99908      -196.996 8        50.189    23787056.980 8  95780613.28908      -202.093 8        51.464
G03         8.000    20707976.394 7 108821207.46907      1006.119 7        44.587                                    20707973.815 6  84795756.27406       783.987 6        40.620    20707974.597 6  84795756.32606       783.685 6        39.336
E02         9.000    27702625.237 5                     -2805.466 5        32.371                                                                    27702623.550 6 108711102.42406     -2095.130 6        38.276    27702646.112 5 111546980.85605     -2150.089 5        30.498
E12        10.000    26535932.015 5 139447274.72005     -3186.133 5        31.630                                                                    26535927.485 5 104132699.67705     -2379.417 5        32.695    26535928.946 5 106849269.19505     -2441.628 5        34.029
G04        11.000    24012777.776 4                      2956.487 4        27.569                                                                                                    24012789.294 5  98328324.92305      2303.411 5        34.733
E09        12.000    25758415.154 6 135361461.59806      2019.337 6        39.219                                                                    25758410.289 6 101081589.89506      1507.884 6        39.120    25758414.066 6 103718458.25206      1547.201 6        40.949
E10        13.000    24522731.460 6 128867821.45806     -2454.224 6        39.877                                                                    24522729.315 7  96232464.97107     -1832.656 7        42.713    24522729.004 7  98742900.67007     -1880.502 7        44.008
E06        14.000    24259437.652 7 127484260.46007      1132.844 7        42.667                                                                    24259436.576 6  95199271.23806       845.921 6        40.777    24259435.125 6  97682691.31806       868.032 6        36.949
E11        15.000    23264500.231 7 122255769.89707     -1166.359 7        45.096                                                                    23264496.297 7  91294883.23407      -871.003 7        43.695    23264495.607 6  93676487.53706      -893.738 6        40.837
E30        17.000    28439566.205 5 149450886.73505      -739.008 5        30.272                                                                    28439542.518 3                      -553.522 3        20.310    28439548.547 4                      -566.157 4        27.054
G28        18.000    23821126.779 5 125180793.26905      1192.978 5        31.411
E36        20.000    24829612.938 7 130480488.68607      1132.132 7        42.794                                                                    24829611.586 6  97436719.56106       845.288 6        40.110    24829611.602 7  99978573.93607       867.472 7        43.027
G08        21.000    24169907.264 3                     -4518.749 3        23.429                                                                                                    24169900.076 4                     -3520.486 4        28.436
G17        22.000    22853132.060 8 120094220.89208      1107.436 8        48.586                                    22853126.077 7  93579695.36807       862.935 7        42.777    22853126.269 6  93579738.40006       862.913 6        41.313
S23        24.000    38138699.560 6 200420177.22606      -824.085 6        40.672
S36        25.000    38186831.385 6 200672968.13406      -826.933 6        36.556
R20        27.000    19144605.983 5 102374796.13805      -811.397 5        35.148                                                                    19144606.275 6  79624809.73406      -631.180 6        40.081
R04        28.000    20942490.268 7 112146035.63807     -4149.555 7        46.499                                                                    20942497.473 5                     -3227.204 5        32.928
R12        32.000    23983497.620 5 128115535.11405     -2190.406 5        33.748                                                                    23983511.954 5  99645453.23305     -1704.033 5        33.647
C19        33.000                                                                                                                                    25503805.836 6 132805113.84906      2269.645 6        36.060                                                                    25503842.437 4 107914944.43004      1843.999 4        28.900
R21        34.000    21469089.007 8 114885489.34608      2726.578 8        49.492                                                                    21469085.771 6  89355475.91106      2120.707 6        41.309
R19        35.000    22447681.057 4                     -4696.592 4        27.940                                                                    22447687.428 5                     -3652.821 5        32.934
R05        36.000    19060588.413 8 101889873.72808      -593.411 8        48.432                                                                    19060585.746 7  79247576.76807      -461.570 7        45.040
C39        38.000                                                                                                                                    39065874.544 5 203426188.63105      -175.297 5        35.176                                                                    39065844.543 5 165300365.14705      -142.209 5        35.781
C06        41.000                                                                                                                                                                                                    38967964.502 5 156907818.64805       277.717 5        32.593
C29        43.000                                                                                                                                    21759964.417 8 113309736.60808      -511.767 8        50.598                                                                    21759960.835 8  92073556.08308      -415.836 8        48.689
C16        45.000                                                                                                                                    39293322.262 5 204610649.96805       236.368 5        35.781    39293312.548 5                       182.760 5        31.668
C09        46.000                                                                                                                                    39871964.810 3                       701.159 3        22.819
C32        47.000                                                                                                                                    22844059.130 8 118955098.46808     -2766.416 8        48.212                                                                    22844062.734 7  96660779.04307     -2247.934 7        46.351
C35        51.000                                                                                                                                    25356464.967 7 132037959.77007      2191.636 7        42.250                                                                    25356462.692 6 107291513.63006      1780.958 6        39.225
I09        54.000    37102692.512 7 145598932.74507      -578.799 7        44.585
C20        55.000                                                                                                                                    22130019.490 7 115236802.89407       481.286 7        43.882                                                                    22130012.655 7  93639420.08707       391.004 7        47.017
C30        58.000                                                                                                                                    23315244.103 5 121408619.08205     -3588.576 5        34.781                                                                    23315231.525 6  98654367.93406     -2916.175 6        36.541
> 2025 01 01 00 15  5.0000000  0 39
E19         1.000                                                                                                                                    26037872.746 4                     -2353.752 4        29.242    26037879.272 5 104843752.65105     -2415.323 5        33.269
G32         2.000    23083529.241 6 121304986.52306     -3415.097 6        38.318                                    23083528.532 4  94523205.47104     -2661.113 4        26.503    23083528.436 6  94523241.49606     -2661.188 6        38.129
G21         3.000    21221760.163 7 111521089.46007     -2386.462 7        43.134                                    21221752.966 3  86899484.25003     -1859.582 3        20.405
G14         4.000                                                                                                                                                                    24993363.391 5                     -2428.849 5        32.257
G02         5.000    20659692.436 7 108567593.04607      -971.551 7        46.153                                    20659685.860 6  84597987.40806      -757.051 6        38.396
E04         7.000    23787311.141 7 125003152.97607      -266.279 7        46.212                                                                    23787309.441 8  93346502.54108      -198.851 8        50.446    23787309.092 8  95781628.64508      -204.013 8        51.455
G03         8.000    20707020.166 7 108816181.93407      1004.162 7        44.054                                    20707016.955 6  84791840.27406       782.459 6        40.067    20707018.314 6  84791840.30406       782.411 6        38.937
E02         9.000    27705295.999 5 145592310.40415     -2807.094 5        34.233                                                                    27705293.833 6 108721580.53306     -2096.260 6        38.568    27705317.340 5 111557732.30705     -2150.725 5        30.257
E12        10.000    26538964.672 5 139463208.10705     -3187.121 5        31.706                                                                    26538960.492 5 104144598.00205     -2380.021 5        33.222    26538960.638 5 106861477.90405     -2442.172 5        34.648
G04        11.000    24009964.911 4                      2955.485 4        28.009                                                                                                    24009977.270 5  98316808.31405      2303.139 5        34.519
E09        12.000    25756494.223 6 135351368.63606      2017.991 6        39.105                                                                    25756489.445 6 101074052.96106      1506.960 6        39.526    25756493.193 6 103710724.70806      1546.179 6        41.628
E10        13.000    24525067.438 6 128880095.83506     -2455.518 6        40.348                                                                    24525064.904 7  96241630.90407     -1833.754 7        42.504    24525064.756 7  98752305.71107     -1881.616 7        44.153
E06        14.000    24258360.526 7 127478601.10107      1130.869 7        42.847                                                                    24258359.802 6  95195045.09806       844.496 6        40.815    24258357.798 6  97678354.93406       866.580 6        36.503
E11        15.000    23265610.731 7 122261606.04307     -1168.047 7        44.789                                                                    23265606.942 7  91299241.39607      -872.299 7        43.482    23265606.180 6  93680959.38506      -894.982 6        41.161
G19        16.000    24749462.829 4                      2697.184 4        27.269
E30        17.000    28440273.994 5 149454589.14205      -741.854 5        31.479                                                                    28440248.798 3                      -554.953 3        21.524    28440254.549 4                      -568.156 4        28.493
G28        18.000    23819998.276 5 125174833.23405      1190.670 5        32.251
E36        20.000    24828535.992 7 130474830.54707      1131.132 7        42.396                                                                    24828534.371 6  97432494.31806       844.608 6        39.823    24828534.881 7  99974238.47707       866.747 7        42.982
G08        21.000    24174207.547 3                     -4517.249 3        23.048                                                                                                    24174198.907 4                     -3521.274 4        28.227
G17        22.000    22852079.364 8 120088690.13908      1104.791 8        48.172                                    22852073.645 7  93575385.69507       860.874 7        42.250    22852073.321 6  93575428.72006       860.902 6        41.128
S23        24.000    38139484.629 6 200424298.16506      -824.398 6        40.660
S36        25.000    38187616.624 6 200677103.80906      -827.067 6        36.620
R20        27.000    19145365.055 5 102378863.43305      -815.488 5        35.243                                                                    19145365.430 6  79627973.16006      -634.207 6        40.319
R04        28.000    20946365.467 7 112166788.24917     -4151.579 7        45.643                                                                    20946372.201 5                     -3229.118 5        32.844
R12        32.000    23985547.269 5 128126497.02705     -2194.093 5        32.545                                                                    23985567.259 5  99653979.35705     -1706.745 5        32.156
C19        33.000                                                                                                                                    25501627.530 6 132793768.17806      2268.702 6        36.314                                                                    25501665.792 4 107905725.18604      1843.282 4        28.588
R21        34.000    21466541.458 8 114871860.49208      2724.880 8        49.532                                                                    21466538.773 6  89344875.68906      2119.317 6        40.818
R19        35.000    22452075.915 4                     -4698.085 4        27.377                                                                    22452076.672 5  93413833.53915     -3654.459 5        32.689
R05        36.000    19061145.002 8 101892850.72508      -597.469 8        49.187                                                                    19061142.956 7  79249892.20707      -464.657 7        45.211
C39        38.000                                                                                                                                    39066041.580 5 203427066.79905      -176.247 5        34.205                                                                    39066013.079 5 165301078.73005      -143.068 5        35.533
C06        41.000                                                                                                                                                                                                    38967623.678 5 156906432.53705       276.945 5        32.898
C29        43.000                                                                                                                                    21760457.114 8 113312302.39708      -514.556 8        50.206                                                                    21760453.689 8  92075641.00408      -418.058 8        48.760
C16        45.000                                                                                                                                    39293095.675 5 204609470.96505       235.276 5        35.786    39293086.078 5                       182.020 5        32.156
C09        46.000                                                                                                                                    39871296.687 3                       702.096 3        23.867
C32        47.000                                                                                                                                    22846715.871 8 118968934.59008     -2768.101 8        48.293                                                                    22846719.665 7  96672022.01907     -2249.284 7        46.194
C35        51.000                                                                                                                                    25354361.256 6 132027004.23606      2190.511 6        41.702                                                                    25354359.008 6 107282611.34306      1780.088 6        39.162
I09        54.000    37103430.168 7 145601827.73707      -579.168 7        44.473
C20        55.000                                                                                                                                    22129557.171 6 115234402.19306       478.943 6        41.049                                                                    22129551.518 7  93637469.28007       389.303 7        47.137
C30        58.000                                                                                                                                    23318687.582 5 121426566.34305     -3590.482 5        33.719                                                                    23318679.581 6  98668951.60806     -2917.460 6        36.389
> 2025 01 01 00 15 10.0000000  0 39
E19         1.000                                                                                                                                    26040873.854 4                     -2354.616 4        29.649    26040878.771 5 104855831.45005     -2416.368 5        32.425
G32         2.000    23086778.415 6 121322065.94406     -3417.133 6        37.724                                    23086779.183 4  94536514.12804     -2662.701 4        26.395    23086778.884 6  94536550.13206     -2662.613 6        37.909
G21         3.000    21224031.782 7 111533026.03807     -2388.380 7        43.242                                    21224022.954 3  86908785.47603     -1861.074 3        19.433
G14         4.000                                                                                                                                                                    24996326.861 5                     -2429.882 5        31.721
G02         5.000    20660618.039 7 108572455.42007      -973.818 7        46.255                                    20660611.280 6  84601776.27006      -758.821 6        38.348
E04         7.000    23787565.661 7 125004489.55607      -268.595 7        46.100                                                                    23787563.847 8  93347500.64708      -200.595 8        50.655    23787563.414 8  95782652.78308      -205.842 8        51.493
G03         8.000    20706066.117 7 108811165.78707      1001.979 7        44.250                                    20706061.915 6  84787931.59206       780.765 6        39.682    20706063.857 6  84787931.60706       780.914 6        39.075
E02         9.000    27707967.363 5 145606349.22305     -2808.522 5        34.595                                                                    27707965.655 6 108732063.98906     -2097.353 6        38.459    27707988.263 5 111568489.30405     -2152.136 5        30.257
E12        10.000    26541998.009 5 139479145.58305     -3188.177 5        31.970                                                                    26541993.546 5 104156499.32405     -2380.631 5        33.066    26541993.347 5 106873689.72005     -2443.018 5        35.519
G04        11.000    24007154.210 4                      2955.366 4        28.474                                                                                                    24007166.915 5  98305293.70305      2302.578 5        34.152
E09        12.000    25754574.026 6 135341281.09606      2016.694 6        39.045                                                                    25754569.885 6 101066520.08506      1505.985 6        39.763    25754573.544 7 103702995.32207      1545.306 7        42.356
E10        13.000    24527403.769 6 128892376.43806     -2456.852 6        40.281                                                                    24527401.529 7  96250801.48207     -1834.760 7        42.265    24527401.789 7  98761715.50107     -1882.547 7        44.412
E06        14.000    24257285.207 7 127472950.84607      1128.856 7        42.847                                                                    24257284.697 6  95190825.77006       842.969 6        40.846    24257282.454 6  97674025.52806       864.931 6        36.382
E11        15.000    23266722.633 7 122267449.47907     -1169.586 7        44.454                                                                    23266718.828 7  91303605.00207      -873.476 7        43.103    23266718.345 6  93685436.81706      -896.171 6        41.530
G19        16.000    24746893.278 4                      2695.985 4        26.467
E30        17.000    28440980.492 5 149458303.20505      -744.035 5        31.102                                                                                                                                    28440962.872 5                      -570.013 5        30.136
G28        18.000    23818866.803 5 125168884.26105      1188.578 5        32.701
E36        20.000    24827460.086 7 130469176.04907      1130.262 7        42.127                                                                    24827458.261 6  97428271.81206       843.961 6        39.135    24827458.787 7  99969905.81007       865.963 7        42.967
G08        21.000    24178498.981 3                     -4520.260 3        22.781                                                                                                    24178496.869 4                     -3521.172 4        28.209
G17        22.000    22851028.860 7 120083171.37407      1102.387 7        47.327                                    22851023.373 6  93571085.35706       859.001 6        41.204    22851023.000 6  93571128.37406       859.127 6        40.334
S23        24.000    38140267.315 6 200428418.96006      -824.467 6        40.567
S36        25.000    38188404.225 6 200681239.02406      -827.327 6        36.575
R20        27.000    19146128.167 5 102382949.14305      -819.082 5        35.490                                                                    19146128.497 6  79631150.96006      -637.232 6        40.269
R04        28.000    20950239.760 7 112187550.32117     -4153.548 7        45.154                                                                    20950245.610 5                     -3230.459 5        33.623
R12        32.000    23987600.114 5 128137477.27505     -2197.805 5        32.096                                                                    23987619.274 5  99662519.50305     -1709.409 5        30.921
C19        33.000                                                                                                                                    25499450.466 6 132782426.48406      2267.951 6        36.401                                                                    25499490.212 4 107896509.10504      1842.725 4        27.545
R21        34.000    21463995.869 8 114858239.22208      2723.256 8        49.538                                                                    21463994.043 6  89334281.38906      2118.041 6        39.994
R19        35.000    22456466.418 4                     -4700.111 4        26.395                                                                    22456470.129 5                     -3655.613 5        31.766
R05        36.000    19061705.535 8 101895846.95308      -601.354 8        49.603                                                                    19061703.199 7  79252222.61307      -467.710 7        45.445
C39        38.000                                                                                                                                    39066206.729 5 203427949.75105      -177.407 5        32.569                                                                    39066182.354 5 165301796.20405      -143.741 5        35.705
C06        41.000                                                                                                                                                                                                    38967281.677 5 156905049.62705       276.147 5        33.641
C29        43.000                                                                                                                                    21760952.569 8 113314881.20008      -517.310 8        50.086                                                                    21760949.044 8  92077736.47108      -420.245 8        49.089
C16        45.000                                                                                                                                    39292870.029 5 204608296.22505       234.333 5        35.976    39292860.748 5                       181.172 5        32.114
C09        46.000                                                                                                                                    39870628.435 4                       699.947 4        24.391
C32        47.000                                                                                                                                    22849374.705 8 118982778.29708     -2769.746 8        48.489                                                                    22849377.792 7  96683271.14607     -2250.491 7        45.943
C35        51.000                                                                                                                                    25352258.545 6 132016053.08406      2189.541 6        41.325                                                                    25352255.892 6 107273712.63806      1779.279 6        39.198
I09        54.000    37104168.303 7 145604723.64107      -579.419 7        44.558
C20        55.000                                                                                                                                    22129096.786 6 115232011.99306       476.858 6        38.799                                                                    22129092.585 7  93635527.01307       387.442 7        47.542
C30        58.000                                                                                                                                                                                                                                                                    23322128.909 6  98683541.51706     -2918.673 6        36.786
> 2025 01 01 00 15 15.0000000  0 38
E19         1.000                                                                                                                                    26043875.824 5                     -2355.998 5        30.377    26043879.972 5 104867915.70505     -2417.320 5        31.894
G32         2.000    23090029.478 5 121339155.30305     -3419.007 5        35.805                                    23090031.649 4  94549830.54204     -2664.148 4        26.108    23090031.238 6  94549866.53406     -2664.264 6        37.233
G21         3.000    21226304.978 7 111544971.89407     -2390.205 7        43.670                                    21226294.740 3  86918093.94703     -1862.521 3        18.418
G14         4.000                                                                                                                                                                    24999287.249 4                     -2431.067 4        29.972
G02         5.000    20661545.371 7 108577329.13507      -975.930 7        45.845                                    20661538.838 6  84605573.96306      -760.464 6        38.405
E04         7.000    23787822.763 7 125005838.17607      -270.967 7        46.274                                                                    23787820.555 8  93348507.72908      -202.401 8        50.841    23787820.019 8  95783686.13708      -207.614 8        51.448
G03         8.000    20705113.737 7 108806159.54007      1000.185 7        44.345                                    20705108.851 6  84784030.62606       779.366 6        39.258    20705110.969 6  84784030.65506       779.301 6        39.045
E02         9.000    27710640.091 5 145620395.70905     -2810.231 5        34.109                                                                    27710638.830 6 108742553.24906     -2098.621 6        38.324    27710659.712 4 111579252.26504     -2153.223 4        29.735
E12        10.000    26545030.170 5 139495087.62605     -3189.158 5        32.132                                                                    26545027.965 5 104168404.08205     -2381.085 5        33.581    26545026.798 6 106885905.02506     -2443.503 6        36.219
G04        11.000    24004342.423 4                      2954.354 4        28.455                                                                                                    24004356.715 5  98293781.49005      2302.039 5        33.796
E09        12.000    25752655.214 6 135331199.56606      2015.683 6        39.057                                                                    25752651.659 6 101058991.68606      1505.177 6        39.958    25752654.799 7 103695270.51507      1544.497 7        42.785
E10        13.000    24529741.085 6 128904663.80506     -2458.242 6        40.293                                                                    24529739.603 7  96259977.10507     -1835.704 7        42.027    24529740.181 7  98771130.49007     -1883.603 7        44.736
E06        14.000    24256212.236 7 127467310.22207      1127.035 7        42.681                                                                    24256211.356 6  95186613.62206       841.606 6        40.608    24256208.947 6  97669703.50906       863.435 6        36.234
E11        15.000    23267836.503 7 122273300.78507     -1171.132 7        44.263                                                                    23267832.359 7  91307974.47707      -874.480 7        42.796    23267832.031 7  93689920.28607      -897.391 7        42.011
G19        16.000    24744329.822 4                      2694.271 4        26.275
E30        17.000    28441686.123 5 149462029.63305      -746.360 5        30.966                                                                                                                                    28441673.440 5                      -572.113 5        30.770
E36        20.000    24826385.472 7 130463525.73907      1129.539 7        42.063                                                                    24826382.940 6  97424052.42706       843.564 6        38.694    24826383.422 7  99965576.35307       865.383 7        43.065
G08        21.000    24182797.315 4                     -4519.848 4        24.195                                                                                                    24182794.684 4                     -3521.842 4        27.725
G17        22.000    22849980.448 7 120077665.19607      1099.978 7        46.192                                    22849975.336 6  93566794.82906       857.123 6        40.093    22849974.855 6  93566837.84806       857.192 6        39.426
S23        24.000    38141051.580 6 200432540.28506      -824.355 6        40.820
S36        25.000    38189191.704 6 200685374.34106      -827.262 6        36.662
R20        27.000    19146896.315 5 102387053.92705      -823.079 5        35.943                                                                    19146896.394 6  79634343.53606      -640.039 6        40.257
R04        28.000    20954119.039 7 112208322.46107     -4155.490 7        45.302                                                                    20954117.946 5  87273170.57415     -3231.884 5        33.772
R12        32.000    23989662.694 5 128148476.53505     -2201.997 5        33.240
C19        33.000                                                                                                                                    25497273.353 5 132771089.34605      2267.063 5        34.933                                                                    25497314.817 4 107887296.66504      1841.782 4        26.335
R21        34.000    21461451.582 8 114844626.17908      2721.739 8        49.690                                                                    21461451.010 6  89323693.47406      2116.794 6        40.043
R19        35.000    22460861.620 4                     -4701.426 4        24.466                                                                    22460863.301 4                     -3657.032 4        29.327
R05        36.000    19062269.807 8 101898863.02708      -605.312 8        50.080                                                                    19062267.563 7  79254568.42607      -470.797 7        44.897
C39        38.000                                                                                                                                                                                                                                                                    39066353.166 5 165302518.06105      -144.697 5        35.276
C06        41.000                                                                                                                                                                                                    38966937.999 5 156903670.41005       275.439 5        34.176
C29        43.000                                                                                                                                    21761450.747 8 113317473.54008      -519.873 8        50.078                                                                    21761447.038 8  92079842.97208      -422.387 8        49.471
C16        45.000                                                                                                                                    39292644.683 5 204607126.25505       233.580 5        35.767    39292635.598 5                       180.467 5        32.371
C09        46.000                                                                                                                                    39869955.218 4                       699.056 4        24.752
C32        47.000                                                                                                                                    22852035.133 8 118996630.13408     -2771.191 8        48.776                                                                    22852037.667 7  96694526.91207     -2251.890 7        45.604
C35        51.000                                                                                                                                    25350157.148 6 132005106.86906      2188.661 6        40.656                                                                    25350153.980 6 107264817.96206      1778.433 6        39.216
I09        54.000    37104906.235 7 145607620.86707      -579.568 7        44.655
C20        55.000                                                                                                                                    22128638.673 6 115229632.85806       474.605 6        38.453                                                                    22128635.874 7  93633593.76607       385.703 7        47.884
C30        58.000                                                                                                                                                                                                                                                                    23325579.169 6  98698138.13906     -2919.745 6        37.032
> 2025 01 01 00 15 20.0000000  0 38
E19         1.000                                                                                                                                    26046878.626 5                     -2356.903 5        31.147    26046882.439 5 104880005.43705     -2418.424 5        30.687
G32         2.000    23093282.169 5 121356254.34105     -3420.662 5        32.132                                    23093285.827 4  94563154.46104     -2665.456 4        25.564    23093284.285 6  94563190.45206     -2665.377 6        36.204
G21         3.000    21228580.134 7 111556926.75607     -2391.705 7        44.509                                    21228568.421 3  86927409.42703     -1863.681 3        18.418
G14         4.000    25002231.703 3                     -3120.716 3        23.505
G02         5.000    20662474.591 7 108582213.95007      -977.895 7        46.438                                    20662468.439 6  84609380.30206      -761.997 6        38.492
E04         7.000    23788081.809 7 125007198.62307      -273.125 7        46.828                                                                    23788079.537 8  93349523.64908      -203.983 8        50.947    23788078.826 8  95784728.55508      -209.300 8        51.380
G03         8.000    20704162.396 7 108801162.99207       998.554 7        44.590                                    20704157.715 6  84780137.21406       778.094 6        38.910    20704159.889 6  84780137.24806       777.930 6        38.333
E02         9.000    27713314.635 5 145634449.68905     -2811.291 5        34.081                                                                    27713312.916 6 108753048.08606     -2099.655 6        37.800    27713327.997 5 111590020.95605     -2154.061 5        30.136
E12        10.000    26548064.472 5 139511033.99405     -3189.617 5        32.605                                                                    26548062.781 5 104180312.09705     -2381.969 5        33.443    26548061.517 6 106898123.68706     -2444.081 6        36.911
G04        11.000    24001531.932 4                      2953.881 4        27.150                                                                                                    24001545.887 5  98282271.55905      2301.654 5        32.593
E09        12.000    25750737.585 6 135321123.79806      2014.678 6        38.589                                                                    25750734.481 6 101051467.57606      1504.528 6        40.322    25750737.213 7 103687550.13507      1543.831 7        43.082
E10        13.000    24532080.488 6 128916957.72406     -2459.323 6        40.739                                                                    24532078.981 6  96269157.60906     -1836.474 6        41.754    24532079.898 7  98780550.47507     -1884.337 7        45.257
E06        14.000    24255140.805 7 127461679.03307      1125.440 7        43.227                                                                    24255139.591 6  95182408.52206       840.449 6        40.343    24255137.346 6  97665388.67406       862.555 6        36.106
E11        15.000    23268951.760 7 122279159.70307     -1172.325 7        44.235                                                                    23268947.019 7  91312349.64507      -875.523 7        42.677    23268947.124 7  93694409.58507      -898.394 7        42.421
G19        16.000    24741767.180 4                      2693.774 4        26.659
E30        17.000    28442398.482 4 149465767.90004      -748.598 4        27.641                                                                    28442408.851 5                      -559.250 5        30.574    28442385.725 5                      -573.757 5        31.374
E36        20.000    24825310.926 7 130457879.39907      1129.049 7        42.808                                                                    24825308.783 6  97419836.01406       842.979 6        38.571    24825309.026 7  99961249.93607       865.111 7        43.219
G08        21.000    24187096.668 4                     -4520.634 4        24.150                                                                                                    24187096.094 4                     -3521.594 4        28.142
G17        22.000    22848933.923 7 120072171.37907      1097.716 7        44.321                                    22848929.500 6  93562513.93606       855.362 6        38.652    22848929.482 6  93562556.96206       855.379 6        38.504
S23        24.000    38141835.428 6 200436661.83506      -824.213 6        40.713
S36        25.000    38189979.577 6 200689510.32206      -826.932 6        36.552
R20        27.000    19147667.228 5 102391177.45205      -826.531 5        35.457                                                                    19147667.904 6  79637550.71806      -642.715 6        39.763
R04        28.000    20958001.190 7 112229104.22507     -4157.182 7        44.661                                                                    20957997.130 5  87289334.18905     -3233.628 5        31.660
R12        32.000    23991727.005 5 128159494.69505     -2204.954 5        32.593                                                                    23991725.158 3  99679644.06603     -1716.063 3        23.981
C19        33.000                                                                                                                                    25495097.543 5 132759756.53205      2266.431 5        33.479                                                                    25495139.762 4 107878087.81504      1841.232 4        24.992
R21        34.000    21458909.119 8 114831021.15008      2720.360 8        49.699                                                                    21458908.396 6  89313111.78606      2115.852 6        40.853
R19        35.000    22465255.615 4                     -4702.272 4        26.096                                                                    22465256.044 4  93468675.87214     -3657.903 4        26.180
R05        36.000    19062837.829 8 101901898.59808      -608.901 8        49.502                                                                    19062835.017 7  79256929.42207      -473.579 7        44.466
C39        38.000                                                                                                                                    39066531.316 5 203429731.69305      -178.971 5        30.619                                                                    39066524.677 5 165303244.12605      -145.582 5        35.310
C06        41.000                                                                                                                                                                                                    38966593.722 5 156902294.68905       274.733 5        34.100
C29        43.000                                                                                                                                    21761950.964 8 113320079.21208      -522.368 8        50.068                                                                    21761947.507 8  92081960.32308      -424.406 8        49.802
C16        45.000                                                                                                                                    39292420.461 5 204605960.92805       232.827 5        35.771    39292411.560 5                       179.945 5        32.084
C09        46.000                                                                                                                                    39869279.055 4                       699.507 4        24.406
C32        47.000                                                                                                                                    22854696.566 8 119010489.89108     -2772.560 8        48.745                                                                    22854699.102 7  96705789.12807     -2252.952 7        45.156
C35        51.000                                                                                                                                    25348055.946 6 131994165.35106      2187.892 6        40.448                                                                    25348052.840 6 107255927.10106      1777.968 6        39.667
I09        54.000    37105645.157 7 145610519.25607      -579.656 7        44.656
C20        55.000                                                                                                                                    22128184.043 6 115227264.53006       472.752 6        39.856                                                                    22128181.351 8  93631669.35608       384.129 8        48.304
C30        58.000                                                                                                                                    23329006.503 5 121480455.81605     -3595.071 5        35.171                                                                    23329029.821 6  98712741.28906     -2921.230 6        36.692
> 2025 01 01 00 15 25.0000000  0 39
E19         1.000                                                                                                                                    26049882.957 5                     -2357.935 5        31.140    26049886.304 5 104892099.99605     -2419.398 5        30.128
G32         2.000    23096536.269 5 121373362.53205     -3422.569 5        30.143                                    23096541.620 4  94576485.52604     -2666.946 4        25.263    23096539.967 5  94576521.53605     -2666.890 5        35.362
G21         3.000    21230856.871 7 111568890.06607     -2393.424 7        45.365                                    21230843.976 2  86936731.51202     -1865.028 2        17.509
G14         4.000    25005209.495 4                     -3122.602 4        25.639
G02         5.000    20663406.678 7 108587109.31307      -980.002 7        47.374                                    20663399.954 6  84613194.87006      -763.638 6        38.556
E04         7.000    23788342.797 7 125008570.32107      -275.403 7        47.106                                                                    23788340.662 8  93350547.96408      -205.677 8        51.333    23788339.840 8  95785779.59208      -211.036 8        51.215
G03         8.000    20703213.243 7 108796175.57607       996.708 7        45.147                                    20703208.349 6  84776250.92506       776.652 6        38.486    20703210.225 6  84776250.96106       776.738 6        37.282
E02         9.000    27715990.860 5 145648510.58505     -2812.686 5        34.167                                                                    27715988.476 6 108763548.08806     -2100.383 6        37.539    27715998.216 5 111600794.95005     -2155.258 5        32.198
E12        10.000    26551100.665 5 139526984.22605     -3190.417 5        33.323                                                                    26551097.740 5 104192222.98805     -2382.664 5        33.311    26551096.594 6 106910345.27006     -2444.554 6        37.807
G04        11.000    23998719.411 4                      2954.223 4        25.955                                                                                                    23998732.511 5  98270763.44705      2301.360 5        30.747
E09        12.000    25748821.477 6 135311053.25206      2013.724 6        37.966                                                                    25748818.421 6 101043947.37906      1503.661 6        40.720    25748820.538 7 103679833.75807      1542.959 7        43.120
E10        13.000    24534421.757 6 128929257.59306     -2460.534 6        41.466                                                                    24534419.681 6  96278342.57206     -1837.270 6        41.783    24534421.010 7  98789975.05407     -1885.276 7        45.910
E06        14.000    24254070.737 7 127456056.69507      1123.567 7        43.249                                                                    24254069.488 6  95178210.03706       839.141 6        40.446    24254067.998 6  97661080.65206       861.167 6        36.117
E11        15.000    23270068.192 7 122285025.70207     -1173.846 7        43.822                                                                    23270063.264 7  91316730.09607      -876.595 7        42.573    23270063.444 7  93698904.29507      -899.420 7        42.855
G19        16.000    24739204.475 4                      2692.435 4        25.850
E30        17.000                                                                                                                                    28443118.135 5                      -560.919 5        30.875    28443100.129 5                      -575.539 5        32.407
G28        18.000    23815460.625 4 125151106.18304      1182.272 4        29.953
E36        20.000    24824236.854 7 130452236.47307      1128.306 7        43.158                                                                    24824235.176 6  97415622.13806       842.597 6        38.168    24824235.311 7  99956926.13807       864.543 7        43.496
G08        21.000    24191399.268 4                     -4520.571 4        25.113                                                                                                    24191396.664 4                     -3521.571 4        28.635
G17        22.000    22847890.914 7 120066689.36807      1095.345 7        42.438                                    22847885.805 6  93558242.25006       853.514 6        37.149    22847886.374 6  93558285.26306       853.322 6        37.996
S23        24.000    38142621.759 6 200440783.26806      -824.109 6        40.846
S36        25.000    38190766.283 6 200693646.07006      -827.058 6        36.654
R20        27.000    19148441.622 6 102395319.17106      -830.044 6        36.287                                                                    19148441.320 6  79640772.05706      -645.692 6        38.102
R04        28.000    20961881.884 7 112249895.07107     -4159.071 7        43.173                                                                    20961879.285 5  87305504.89705     -3235.147 5        30.966
R12        32.000                                                                                                                                    23993795.163 3                     -1722.171 3        20.714
C19        33.000                                                                                                                                    25492920.356 5 132748427.45805      2265.644 5        30.740                                                                    25492964.153 4                      1841.205 4        24.737
R21        34.000    21456368.266 8 114817423.51508      2718.868 8        49.260                                                                    21456367.473 7  89302535.86307      2114.595 7        42.019
R19        35.000    22469655.732 4                     -4704.655 4        28.237                                                                    22469654.191 4  93486969.14904     -3659.900 4        24.526
R05        36.000    19063409.259 8 101904953.19508      -612.730 8        49.452                                                                    19063406.445 7  79259305.22407      -476.684 7        44.032
C39        38.000                                                                                                                                    39066708.447 5 203430629.77805      -179.980 5        30.158                                                                    39066697.160 5 165303973.88405      -146.480 5        35.281
C06        41.000                                                                                                                                                                                                    38966250.741 5 156900921.97505       274.087 5        34.129
C29        43.000                                                                                                                                    21762453.244 8 113322697.66808      -524.893 8        49.668                                                                    21762450.482 8  92084088.00808      -426.562 8        49.827
C16        45.000                                                                                                                                    39292196.856 5 204604799.61805       231.655 5        35.471    39292189.258 5                       179.222 5        32.431
C09        46.000                                                                                                                                    39868604.650 4                       696.985 4        24.632
C32        47.000                                                                                                                                    22857359.571 8 119024357.01808     -2774.075 8        48.073                                                                    22857361.868 7  96717057.27907     -2254.208 7        44.585
C35        51.000                                                                                                                                    25345955.624 6 131983227.98806      2187.084 6        40.014                                                                    25345952.489 6 107247039.57506      1777.164 6        39.477
I09        54.000    37106383.813 7 145613418.40207      -579.815 7        44.820
C20        55.000                                                                                                                                    22127732.454 6 115224906.50306       470.684 6        41.642                                                                    22127728.723 8  93629753.26808       382.448 8        48.430
