     3.04           OBSERVATION DATA    M                   RINEX VERSION / TYPE
ssrcrin-15.6.1x                         20250101 010000 UTC PGM / RUN BY / DATE 
(00000000023479385599111004) Septentrio proprietary         COMMENT             
ract                                                        MARKER NAME         
01                                                          MARKER NUMBER       
geodetic                                                    MARKER TYPE         
NFB                 CLIMERS@TUW                             OBSERVER / AGENCY   
3296359             SEPT ASTERX SB3 PROB4.14.4              REC # / TYPE / VERS 
Unknown             Unknown                                 ANT # / TYPE        
  4127447.5756  1206915.3910  4695543.9720                  APPROX POSITION XYZ 
        0.0000        0.0000        0.0000                  ANTENNA: DELTA H/E/N
G   23 X1  C1C L1C D1C S1C C1W S1W C2W L2W D2W S2W C2L L2L  SYS / # / OBS TYPES 
       D2L S2L C5Q L5Q D5Q S5Q C1L L1L D1L S1L              SYS / # / OBS TYPES 
E   21 X1  C1C L1C D1C S1C C6C L6C D6C S6C C5Q L5Q D5Q S5Q  SYS / # / OBS TYPES 
       C7Q L7Q D7Q S7Q C8Q L8Q D8Q S8Q                      SYS / # / OBS TYPES 
S    9 X1  C1C L1C D1C S1C C5I L5I D5I S5I                  SYS / # / OBS TYPES 
R   17 X1  C1C L1C D1C S1C C2P L2P D2P S2P C2C L2C D2C S2C  SYS / # / OBS TYPES 
       C3Q L3Q D3Q S3Q                                      SYS / # / OBS TYPES 
C   25 X1  C1P L1P D1P S1P C5P L5P D5P S5P C2I L2I D2I S2I  SYS / # / OBS TYPES 
       C7I L7I D7I S7I C6I L6I D6I S6I C7D L7D D7D S7D      SYS / # / OBS TYPES 
J   17 X1  C1C L1C D1C S1C C2L L2L D2L S2L C5Q L5Q D5Q S5Q  SYS / # / OBS TYPES 
       C1L L1L D1L S1L                                      SYS / # / OBS TYPES 
I    5 X1  C5A L5A D5A S5A                                  SYS / # / OBS TYPES 
SEPTENTRIO RECEIVERS OUTPUT ALIGNED CARRIER PHASES.         COMMENT             
NO FURTHER PHASE SHIFT APPLIED IN THE RINEX ENCODER.        COMMENT             
G L1C                                                       SYS / PHASE SHIFT   
G L2W                                                       SYS / PHASE SHIFT   
G L2L  0.00000                                              SYS / PHASE SHIFT   
G L5Q  0.00000                                              SYS / PHASE SHIFT   
G L1L  0.00000                                              SYS / PHASE SHIFT   
E L1C  0.00000                                              SYS / PHASE SHIFT   
E L6C  0.00000                                              SYS / PHASE SHIFT   
E L5Q  0.00000                                              SYS / PHASE SHIFT   
E L7Q  0.00000                                              SYS / PHASE SHIFT   
E L8Q  0.00000                                              SYS / PHASE SHIFT   
S L1C                                                       SYS / PHASE SHIFT   
S L5I                                                       SYS / PHASE SHIFT   
R L1C                                                       SYS / PHASE SHIFT   
R L2P  0.00000                                              SYS / PHASE SHIFT   
R L2C                                                       SYS / PHASE SHIFT   
R L3Q  0.00000                                              SYS / PHASE SHIFT   
C L1P  0.00000                                              SYS / PHASE SHIFT   
C L5P  0.00000                                              SYS / PHASE SHIFT   
C L2I                                                       SYS / PHASE SHIFT   
C L7I                                                       SYS / PHASE SHIFT   
C L6I                                                       SYS / PHASE SHIFT   
C L7D                                                       SYS / PHASE SHIFT   
J L1C                                                       SYS / PHASE SHIFT   
J L2L  0.00000                                              SYS / PHASE SHIFT   
J L5Q  0.00000                                              SYS / PHASE SHIFT   
J L1L  0.00000                                              SYS / PHASE SHIFT   
I L5A                                                       SYS / PHASE SHIFT   
  2025     1     1     1     0    0.0000000     GPS         TIME OF FIRST OBS   
 C1C    0.000 C2C    0.000 C2P    0.000                     GLONASS COD/PHS/BIS 
DBHZ                                                        SIGNAL STRENGTH UNIT
    18                                                      LEAP SECONDS        
 24 R01  1 R02 -4 R03  5 R04  6 R05  1 R06 -4 R07  5 R08  6 GLONASS SLOT / FRQ #
    R09 -2 R10 -7 R11  0 R12 -1 R13 -2 R14 -7 R15  0 R16 -1 GLONASS SLOT / FRQ #
    R17  4 R18 -3 R19  3 R20  2 R21  4 R22 -3 R23  3 R24  2 GLONASS SLOT / FRQ #
                                                            END OF HEADER       
> 2025 01 01 01 00  0.0000000  0 38
E19         1.000                                                                                                                                                                                                    27504701.089 3                     -2806.043 3        20.595
G32         2.000    24744982.535 4                     -4129.859 4        25.158                                                                                                    24745015.512 3                     -3217.800 3        20.929
G21         3.000    22379373.443 6 117604382.80006     -3268.947 6        41.661                                    22379369.222 3  91639715.37903     -2547.239 3        21.619
G31         4.000    23103540.912 3                      1415.310 3        20.071                                                                                                    23103535.482 4  94605164.67004      1099.191 4        25.323
G02         5.000    21170121.437 8 111249746.29808     -2197.458 8        49.111                                    21170112.978 6  86688057.87506     -1712.304 6        38.147
E34         6.000    28038221.953 4                      1973.563 4        28.607                                                                    28038192.754 4 110027944.79804      1473.490 4        27.305    28038199.039 6 112898201.58506      1511.952 6        37.429
E04         7.000    23941148.583 7 125811661.54907     -1482.794 7        43.103                                                                    23941144.692 7  93950187.77907     -1107.355 7        46.100    23941144.840 7  96401062.14507     -1136.225 7        44.146
G03         8.000    20163648.863 4 105960300.11804       -65.336 4        24.511                                    20163600.565 1  82566487.59201       -50.874 1         6.250    20163573.173 6  82566492.40106       -51.256 6        38.781
G04        11.000    22320670.988 5                      2364.544 5        30.574                                                                                                    22320670.490 5                      1842.723 5        31.819
E09        12.000    24606991.952 7 129310700.99407      1241.238 7        46.813                                                                    24606991.086 8  96563176.95608       926.913 8        50.346    24606989.098 7  99082193.40907       951.112 7        47.310
E10        13.000    25657405.721 6 134830592.91706     -3119.249 6        36.677                                                                    25657405.040 6 100685172.87006     -2329.307 6        40.610    25657404.591 5 103311727.16805     -2390.062 5        35.824
E06        14.000    23653141.828 7 124298166.64707        32.568 7        45.618                                                                    23653141.757 7  92820021.79007        24.369 7        46.130    23653142.031 8  95241416.03708        25.005 8        48.270
E11        15.000    23779823.930 6 124963894.61606     -2020.237 6        39.556                                                                    23779817.976 6  93317120.65006     -1508.599 6        36.155    23779819.816 6  95751479.02606     -1548.029 6        39.243
G19        16.000    23307104.203 7 122479883.14207      1631.495 7        42.186                                    23307098.759 5  95438681.13905      1271.305 5        30.777
E30        17.000                                                                                                                                    28840027.657 5 113174484.23005     -1461.788 5        30.226    28840025.349 5 116126859.04505     -1500.232 5        32.707
G28        18.000    23273645.257 4                      -316.306 4        26.072                                                                                                    23273641.999 5  95301686.82005      -246.710 5        33.251
E36        20.000    24077946.010 6 126530456.24606       575.951 6        41.626                                                                    24077944.639 7  94487020.76707       430.116 7        44.340    24077945.229 7  96951924.46707       441.345 7        47.280
G17        22.000    22358665.392 7 117495628.53107      -405.461 7        45.714                                    22358658.078 5  91554890.91105      -315.951 5        32.479    22358658.436 5  91554974.87205      -315.935 5        35.590
S23        24.000    38262267.287 6 201069533.97206      -824.048 6        40.644
S36        25.000    38311980.685 6 201330673.99606      -827.273 6        36.794
R20        27.000    19776559.240 6 105754148.22706     -2877.458 6        36.904                                                                    19776559.978 5  82253186.04605     -2238.134 5        35.814
R04        28.000                                                                                                                                    22920391.501 4                     -3692.189 4        25.789
R06        29.000    21047189.233 6 112311828.18006      2072.320 6        36.699
C19        33.000                                                                                                                                    24164862.656 5 125832811.19005      1700.825 5        35.600                                                                    24164857.151 6 102249414.28606      1382.110 6        41.287
R21        34.000    20085960.652 8 107484102.40608      1403.537 8        53.286                                                                    20085958.872 7  83598842.81107      1091.621 7        45.595
R05        36.000    19556191.363 6 104539127.52406     -2467.766 6        40.410                                                                    19556183.529 6  81308107.56706     -1919.280 6        39.868
R22        37.000    24448254.537 5 130506541.75205      3436.991 5        33.108                                                                    24448271.975 5 101505055.92205      2672.777 5        30.498
C39        38.000                                                                                                                                    38995777.452 5 203061341.38905      -708.062 5        33.563                                                                    38995771.032 5 165003864.49005      -575.357 5        33.371
C06        41.000                                                                                                                                    38607991.826 4                      -133.705 4        26.934    38607985.065 6 155458480.75506      -103.496 6        39.081    38607982.661 6 163362995.23906      -108.920 6        36.155
C29        43.000                                                                                                                                    22102711.729 7 115094503.20107     -1968.317 7        47.211                                                                    22102707.407 7  93523824.67707     -1599.480 7        46.740
C16        45.000                                                                                                                                    38998207.925 5 203073984.79405      -259.450 5        30.853    38998206.922 5 157029658.55205      -200.537 5        35.905    38998208.579 5                      -210.657 5        32.497
C09        46.000                                                                                                                                    39306364.104 5 204678561.92905       309.906 5        34.424    39306365.240 6 158270445.00906       239.701 6        36.042    39306359.132 5 166318077.83705       252.047 5        33.437
C32        47.000                                                                                                                                    24158320.090 6 125798712.07206     -3389.719 6        40.482                                                                    24158320.119 7 102221791.27107     -2754.385 7        45.968
C35        51.000                                                                                                                                    24092965.726 7 125458597.34007      1434.979 7        46.507                                                                    24092964.819 7 101945244.49007      1166.039 7        47.406
I09        54.000    37237528.427 6 146128060.61206      -681.837 6        38.204
C20        55.000                                                                                                                                    21878264.024 8 113925850.79408      -655.092 8        51.391                                                                    21878257.133 7  92574164.56107      -532.330 7        47.674
I01        56.000   331621968.428 5 998215030.83205     -2825.925 5        32.024
C30        58.000                                                                                                                                    25057379.558 4 130480345.16604     -4209.217 4        27.653                                                                    25057380.386 6 106026010.69706     -3420.355 6        39.261
> 2025 01 01 01 00  5.0000000  0 37
E19         1.000                                                                                                                                                                                                    27508186.754 3                     -2806.728 3        20.024
G21         3.000    22382484.366 7 117620728.86007     -3269.729 7        42.138                                    22382479.834 3  91652452.55903     -2547.838 3        21.738
G31         4.000    23102200.333 4                      1408.908 4        25.263
G02         5.000    21172212.680 8 111260737.47108     -2199.084 8        48.289                                    21172204.776 6  86696622.42306     -1713.570 6        38.219
E34         6.000    28036343.653 4                      1973.682 4        29.507                                                                                                                                    28036321.593 6 112890640.42706      1512.261 6        36.828
E04         7.000    23942559.498 7 125819079.57007     -1484.449 7        42.836                                                                    23942556.100 7  93955727.21207     -1108.461 7        45.783    23942556.482 7  96406746.07707     -1137.394 7        43.827
G03         8.000                                                                                                                                                                    20163637.616 6  82566752.26106       -52.573 6        38.976
G04        11.000    22318421.091 4                      2363.202 4        29.924                                                                                                    22318422.073 5  91390202.89615      1841.564 5        34.829
E09        12.000    24605811.324 7 129304497.29407      1240.103 7        47.276                                                                    24605810.503 8  96558544.33008       926.111 8        50.278    24605808.413 7  99077439.93207       950.194 7        47.107
E10        13.000    25660373.921 6 134846190.36806     -3119.626 6        36.783                                                                    25660372.895 6 100696820.32606     -2329.798 6        40.255    25660372.471 5 103323678.47705     -2390.746 5        35.738
E06        14.000    23653111.994 7 124298007.64607        30.985 7        45.603                                                                    23653111.536 7  92819903.07207        23.106 7        46.203    23653111.523 8  95241294.21308        23.761 8        48.222
E11        15.000    23781746.754 6 124973999.11006     -2021.566 6        39.387                                                                    23781740.802 6  93324666.22606     -1509.504 6        36.034    23781742.257 6  95759221.42306     -1548.876 6        38.126
G19        16.000    23305553.635 7 122471730.81707      1629.430 7        43.490                                    23305547.643 5  95432328.67205      1269.691 5        30.287
E30        17.000                                                                                                                                    28841891.037 5 113181796.70105     -1463.555 5        30.845    28841888.908 5 116134362.26905     -1501.307 5        32.108
G28        18.000    23273943.782 4                      -319.637 4        25.008                                                                                                    23273945.587 5  95302925.90105      -248.858 5        32.581
E36        20.000    24077397.941 6 126527578.13506       575.265 6        41.447                                                                    24077396.892 7  94484871.53407       429.463 7        44.566    24077397.477 7  96949719.16707       440.738 7        47.449
G17        22.000    22359052.888 7 117497661.86907      -407.909 7        46.348                                    22359044.922 5  91556475.33505      -317.845 5        32.383    22359044.406 5  91556559.29005      -318.243 5        33.988
S23        24.000    38263049.467 6 201073651.98406      -823.289 6        40.608
S36        25.000    38312766.322 6 201334808.78606      -826.866 6        36.786
R20        27.000    19779251.529 6 105768542.92506     -2880.632 6        36.699                                                                    19779251.635 5  82264381.85205     -2240.474 5        35.629
R04        28.000    22924853.808 4                     -4747.167 4        29.517                                                                    22924817.034 4                     -3691.558 4        26.575
R06        29.000    21045247.837 6 112301471.08706      2070.597 6        37.217
C19        33.000                                                                                                                                    24163232.145 6 125824308.57706      1700.249 6        38.574                                                                    24163224.394 6 102242505.23206      1381.499 6        41.743
R21        34.000    20084651.181 8 107477091.32208      1400.832 8        53.576                                                                    20084648.671 7  83593389.74707      1089.499 7        46.506
R05        36.000    19558500.335 6 104551471.94606     -2469.945 6        39.874                                                                    19558492.776 6  81317708.81906     -1921.248 6        40.698
R22        37.000    24445036.210 5 130489357.01705      3437.067 5        34.733                                                                    24445057.000 5 101491689.90905      2673.436 5        31.562
C39        38.000                                                                                                                                    38996457.287 5 203064883.01905      -708.603 5        34.119                                                                    38996451.129 5 165006742.35405      -575.930 5        33.341
C06        41.000                                                                                                                                    38608116.213 4                      -134.484 4        28.720    38608113.659 6 155458999.28706      -103.936 6        38.886    38608111.830 5 163363540.14405      -109.325 5        35.814
C29        43.000                                                                                                                                    22104603.023 7 115104349.81507     -1970.476 7        47.372                                                                    22104598.567 7  93531825.84207     -1601.237 7        47.262
C16        45.000                                                                                                                                    38998455.943 5 203075281.99205      -259.856 5        31.751    38998456.596 5 157030661.62805      -200.866 5        35.519    38998457.841 5                      -211.216 5        32.407
C09        46.000                                                                                                                                    39306066.525 5 204677012.73305       309.896 5        34.600    39306066.470 5 158269247.11405       239.373 5        34.914    39306062.123 5 166316819.03405       251.574 5        33.910
C32        47.000                                                                                                                                    24161575.436 6 125815661.03506     -3389.974 6        40.563                                                                    24161575.063 7 102235563.67707     -2754.753 7        46.214
C35        51.000                                                                                                                                    24091588.086 7 125451425.66307      1433.668 7        46.427                                                                    24091587.414 7 101939416.91007      1164.851 7        47.253
I09        54.000    37238397.489 6 146131469.13306      -681.737 6        38.249
C20        55.000                                                                                                                                    21878893.572 8 113929129.66808      -656.493 8        51.289                                                                    21878886.825 7  92576828.90307      -533.600 7        47.510
I01        56.000   331625569.206 5 998229159.67305     -2825.778 5        32.491
C30        58.000                                                                                                                                    25061419.656 4 130501391.43304     -4208.855 4        25.910                                                                    25061422.021 6 106043112.49206     -3420.649 6        39.501
> 2025 01 01 01 00 10.0000000  0 38
E19         1.000                                                                                                                                                                                                    27511671.628 3                     -2806.400 3        21.405
G32         2.000    24752859.781 4                     -4130.094 4        26.898
G21         3.000    22385596.629 7 117637081.62107     -3271.165 7        42.626                                    22385591.668 3  91665194.96303     -2548.951 3        21.952
G31         4.000    23100862.607 5                      1406.689 5        30.174                                                                                                    23100857.959 4  94594183.95004      1096.960 4        26.742
G02         5.000    21174305.954 7 111271739.57707     -2201.454 7        47.719                                    21174298.645 6  86705195.48506     -1715.418 6        38.066
E34         6.000    28034465.866 4                      1974.129 4        29.194                                                                                                                                    28034443.728 6 112883078.85206      1512.372 6        36.824
E04         7.000    23943971.590 7 125826507.60707     -1486.552 7        42.171                                                                    23943969.601 7  93961274.12307     -1110.082 7        45.595    23943970.003 7  96412437.69507     -1139.131 7        43.505
G03         8.000                                                                                                                                                                    20163702.392 6  82567019.65106       -54.107 6        38.246
G04        11.000    22316172.460 5                      2361.698 5        30.438                                                                                                    22316175.773 6  91380998.39506      1840.284 6        37.410
E09        12.000    24604632.405 7 129298301.67207      1238.424 7        47.791                                                                    24604631.525 8  96553917.73608       924.797 8        50.312    24604629.421 7  99072692.63907       948.946 7        47.051
E10        13.000    25663343.309 6 134861793.09206     -3121.024 6        36.726                                                                    25663341.943 6 100708471.70606     -2330.580 6        39.970    25663340.752 5 103335633.79705     -2391.322 5        35.710
E06        14.000    23653083.672 7 124297858.89807        28.799 7        45.624                                                                    23653083.197 7  92819791.99807        21.456 7        46.246    23653082.984 8  95241180.24308        22.052 8        48.370
E11        15.000    23783670.963 6 124984111.28706     -2023.176 6        39.592                                                                    23783665.408 6  93332217.52306     -1510.815 6        36.431    23783666.315 6  95766969.70106     -1550.105 6        36.775
G19        16.000    23304004.582 7 122463591.30607      1626.666 7        44.143                                    23303998.950 5  95425986.19105      1267.530 5        30.158
E30        17.000    28843748.493 5 151574948.91115     -1960.912 5        30.106                                                                    28843754.931 5 113189116.40405     -1464.917 5        31.826    28843754.536 5 116141872.90705     -1502.718 5        31.947
G28        18.000    23274255.481 5                      -322.804 5        30.491                                                                                                    23274249.680 5  95304177.08205      -251.303 5        33.629
E36        20.000    24076852.083 6 126524706.10906       573.866 6        41.130                                                                    24076850.560 7  94482726.83907       428.548 7        44.933    24076850.900 7  96947518.53307       439.708 7        47.747
G17        22.000    22359442.949 7 117499709.91907      -410.978 7        46.712                                    22359434.776 5  91558071.22305      -320.238 5        32.335    22359433.679 5  91558155.16605      -320.071 5        34.210
S23        24.000    38263833.870 6 201077769.46206      -823.244 6        40.532
S36        25.000    38313551.378 6 201338943.09306      -826.754 6        36.571
R20        27.000    19781946.552 6 105782955.57406     -2884.041 6        36.801                                                                    19781944.731 5  82275591.68905     -2243.358 5        34.952
R04        28.000    22929284.600 5                     -4746.945 5        31.011                                                                    22929249.901 4                     -3692.171 4        25.053
R06        29.000    21043310.751 6 112291125.33306      2068.184 6        37.535
C19        33.000                                                                                                                                    24161600.370 6 125815811.69406      1698.874 6        40.260                                                                    24161592.939 7 102235600.82307      1380.418 7        42.436
R21        34.000    20083343.928 8 107470096.49108      1397.454 8        53.697                                                                    20083341.045 7  83587949.31807      1086.889 7        46.796
R05        36.000    19560808.773 6 104563830.57606     -2472.930 6        40.791                                                                    19560805.406 6  81327321.06606     -1923.554 6        41.468
R22        37.000    24441820.121 5 130472172.23405      3437.163 5        34.771                                                                    24441844.917 5 101478323.93505      2673.571 5        31.872
C39        38.000                                                                                                                                    38997138.467 5 203068428.92405      -709.237 5        34.224                                                                    38997131.949 5 165009623.70905      -576.298 5        33.090
C06        41.000                                                                                                                                    38608246.668 4                      -135.147 4        29.422    38608243.273 6 155459521.07606      -104.567 6        39.039    38608241.659 6 163364088.45506      -109.974 6        36.098
C29        43.000                                                                                                                                    22106495.011 7 115114209.15207     -1973.067 7        46.551                                                                    22106492.030 7  93539837.35007     -1603.407 7        47.677
C16        45.000                                                                                                                                    38998707.374 5 203076583.34505      -260.629 5        31.955    38998706.061 5 157031667.91305      -201.533 5        34.971    38998707.809 5                      -211.732 5        32.677
C09        46.000                                                                                                                                    39305769.257 5 204675467.04205       308.747 5        34.452    39305770.786 5 158268051.89205       238.820 5        34.119    39305765.386 5 166315562.99405       251.114 5        34.310
C32        47.000                                                                                                                                    24164830.883 6 125832613.38506     -3390.755 6        40.131                                                                    24164830.653 7 102249338.84507     -2755.359 7        46.620
C35        51.000                                                                                                                                    24090212.309 7 125444262.99307      1431.710 7        45.970                                                                    24090211.713 7 101933596.64907      1163.286 7        47.146
I09        54.000    37239265.712 6 146134878.15106      -681.842 6        38.213
C20        55.000                                                                                                                                    21879524.948 8 113932418.07808      -658.568 8        50.664                                                                    21879518.298 7  92579500.99607      -535.118 7        47.560
I01        56.000   331629169.001 5 998243288.82805     -2825.948 5        32.766
C30        58.000                                                                                                                                    25065463.961 4 130522440.63604     -4209.652 4        25.940                                                                    25065464.397 6 106060216.70606     -3420.986 6        39.532
> 2025 01 01 01 00 15.0000000  0 38
E19         1.000                                                                                                                                                                                                    27515158.966 3                     -2810.374 3        20.810
G32         2.000    24756795.900 4                     -4131.804 4        28.256                                                                                                    24756751.392 3                     -3219.832 3        22.571
G21         3.000    22388709.431 7 117653441.66707     -3272.557 7        42.222                                    22388704.476 3  91677943.05103     -2550.039 3        21.357
G31         4.000    23099528.109 5                      1405.854 5        34.005                                                                                                    23099523.052 4  94588707.97204      1094.005 4        27.257
G02         5.000    21176402.106 7 111282753.08307     -2203.814 7        47.129                                    21176394.709 6  86713777.43406     -1717.259 6        37.803
E34         6.000    28032585.768 4                      1973.993 4        29.412                                                                    28032584.391 5 110005837.42105      1473.893 5        32.940    28032565.568 6 112875517.24806      1512.334 6        36.121
E04         7.000    23945386.588 6 125833946.16106     -1488.576 6        41.840                                                                    23945385.222 7  93966828.88507     -1111.621 7        45.625    23945385.523 7  96418137.36807     -1140.697 7        42.991
G03         8.000    20163747.889 6 105961330.32306       -71.502 6        38.423                                    20163775.991 3  82567304.95013       -55.698 3        22.190    20163770.018 6  82567294.94406       -55.592 6        37.614
G04        11.000    22313925.617 5                      2360.047 5        31.577                                                                                                    22313930.645 6  91371800.33506      1839.077 6        39.165
E09        12.000    24603455.023 8 129292114.64808      1236.678 8        48.137                                                                    24603454.041 8  96549297.56308       923.494 8        50.186    24603452.104 7  99067951.94007       947.497 7        46.692
E10        13.000    25666313.520 6 134877401.57706     -3122.189 6        36.968                                                                    25666312.105 6 100720127.39606     -2331.587 6        39.772    25666311.015 5 103347593.54205     -2392.255 5        35.967
E06        14.000    23653057.581 7 124297720.90107        26.564 7        45.976                                                                    23653056.894 7  92819688.95907        19.894 7        46.414    23653056.584 8  95241074.50908        20.417 8        48.128
E11        15.000    23785596.600 6 124994231.66506     -2024.939 6        39.787                                                                    23785591.414 6  93339774.95906     -1512.011 6        36.756    23785591.054 5  95774724.29305     -1551.484 5        35.114
G19        16.000    23302457.211 7 122455465.11207      1624.041 7        43.117                                    23302452.753 5  95419654.09605      1265.486 5        30.098
E30        17.000    28845622.332 4 151584761.17604     -1963.219 4        28.872                                                                    28845622.200 5 113196443.76105     -1466.246 5        31.645    28845622.387 5 116149391.39305     -1504.263 5        30.747
G28        18.000                                                                                                                                                                    23274558.593 5  95305440.79305      -253.855 5        35.148
E36        20.000    24076307.121 6 126521840.70906       572.531 6        40.641                                                                    24076305.527 7  94480587.07607       427.622 7        45.363    24076305.458 7  96945322.95107       438.757 7        47.522
G17        22.000    22359835.643 7 117501773.14807      -414.008 7        45.330                                    22359827.550 5  91559678.92405      -322.606 5        32.245    22359827.656 5  91559762.90705      -322.898 5        34.914
S23        24.000    38264618.430 6 201081886.88506      -823.407 6        40.617
S36        25.000    38314339.439 6 201343077.19706      -826.563 6        36.507
R20        27.000    19784645.350 5 105797386.81705     -2888.083 5        35.962                                                                    19784642.884 5  82286815.95605     -2246.395 5        34.029
R04        28.000    22933715.669 5                     -4747.174 5        33.066                                                                    22933689.717 3                     -3691.887 3        22.324
R06        29.000    21041373.630 6 112280791.35606      2065.654 6        37.425
C19        33.000                                                                                                                                    24159968.357 6 125807321.03906      1697.631 6        40.696                                                                    24159962.615 7 102228701.47607      1379.543 7        42.882
R21        34.000    20082039.564 8 107463118.44108      1394.068 8        53.415                                                                    20082036.792 7  83582521.95207      1084.206 7        46.711
R05        36.000    19563123.035 6 104576203.58506     -2476.017 6        40.706                                                                    19563119.560 6  81336944.50806     -1925.798 6        40.803
R22        37.000    24438603.400 5 130454988.20505      3437.228 5        34.810                                                                    24438627.273 5 101464958.63305      2673.063 5        32.030
C39        38.000                                                                                                                                    38997820.501 5 203071979.70105      -710.409 5        33.916                                                                    38997814.270 5 165012508.99705      -577.092 5        32.838
C06        41.000                                                                                                                                    38608379.243 5                      -135.871 5        30.008    38608373.780 6 155460046.49906      -105.419 6        38.778    38608372.280 6 163364640.59306      -110.626 6        36.019
C29        43.000                                                                                                                                    22108389.578 7 115124081.70807     -1975.702 7        46.059                                                                    22108387.932 7  93547859.60207     -1605.372 7        47.892
C16        45.000                                                                                                                                    38998957.887 5 203077889.40105      -261.759 5        32.838    38998956.645 5 157032677.83405      -202.221 5        34.819    38998957.983 5                      -212.582 5        32.539
C09        46.000                                                                                                                                    39305471.447 5 204673925.31705       308.229 5        34.686    39305474.289 5 158266859.70305       238.284 5        33.449    39305469.259 5 166314310.20305       250.343 5        34.552
C32        47.000                                                                                                                                    24168087.608 6 125849569.63106     -3391.451 6        39.784                                                                    24168087.053 7 102263117.18507     -2755.838 7        46.832
C35        51.000                                                                                                                                    24088838.805 7 125437109.83207      1429.758 7        45.607                                                                    24088837.895 7 101927784.12707      1161.906 7        46.894
I09        54.000    37240134.726 6 146138288.04606      -682.091 6        38.261
C20        55.000                                                                                                                                    21880158.166 8 113935716.53208      -660.612 8        50.346                                                                    21880151.755 7  92582181.25507      -536.721 7        47.579
I01        56.000   331632769.881 5 998257418.66105     -2825.838 5        32.928
C30        58.000                                                                                                                                    25069509.317 4 130543493.45804     -4210.916 4        26.766                                                                    25069507.294 6 106077323.75906     -3421.381 6        39.565
> 2025 01 01 01 00 20.0000000  0 38
E19         1.000                                                                                                                                                                                                    27518648.696 3                     -2809.263 3        20.714
G32         2.000    24760722.316 4                     -4132.414 4        29.981
G21         3.000    22391822.940 6 117669808.70406     -3273.998 6        41.490                                    22391818.595 3  91690696.58303     -2551.200 3        21.071
G31         4.000    23098194.528 6 121381823.01716      1402.010 6        36.363                                    23098188.736 2  94583221.38112      1092.496 2        15.286    23098187.744 4  94583241.36404      1092.231 4        26.922
G02         5.000    21178500.269 7 111293777.75707     -2205.908 7        46.899                                    21178492.857 6  86722368.09206     -1718.887 6        37.448
E34         6.000    28030704.360 4                      1973.800 4        29.858                                                                    28030700.306 5 109998467.81205      1474.021 5        32.916    28030687.812 5 112867955.40905      1512.626 5        35.010
E04         7.000    23946804.062 7 125841394.98107     -1490.671 7        42.169                                                                    23946802.830 7  93972391.31907     -1113.211 7        45.580    23946803.097 7  96423844.90007     -1142.254 7        42.840
G03         8.000                                                                                                                                                                    20163839.648 6  82567578.02506       -57.319 6        37.603
G04        11.000    22311684.967 5 117248687.69415      2358.554 5        35.462                                                                                                    22311687.175 6  91362608.49006      1837.846 6        40.224
E09        12.000    24602279.080 8 129285935.98808      1235.051 8        48.376                                                                    24602278.186 8  96544683.63208       922.254 8        49.938    24602276.415 7  99063217.64107       946.348 7        46.562
E10        13.000    25669284.939 6 134893015.60806     -3123.174 6        37.323                                                                    25669283.678 6 100731787.20106     -2332.225 6        39.351    25669289.431 6 103359557.47006     -2393.167 6        36.938
E06        14.000    23653033.485 7 124297593.41807        24.587 7        46.060                                                                    23653032.455 7  92819593.76807        18.388 7        46.527    23653032.490 8  95240976.82808        18.832 8        48.009
E11        15.000    23787524.419 6 125004360.01706     -2026.527 6        40.315                                                                    23787519.162 6  93347338.33306     -1513.245 6        37.244    23787516.996 5  95782484.94205     -1552.681 5        34.014
G19        16.000    23300913.100 7 122447352.08007      1621.468 7        42.762                                    23300908.876 5  95413332.25305      1263.483 5        30.181
E30        17.000    28847490.364 5 151594583.52205     -1965.711 5        30.249                                                                    28847491.396 5 113203778.61405     -1467.485 5        32.605    28847491.629 5 116156917.62205     -1505.869 5        31.766
G28        18.000    23274893.667 5 122310408.05415      -328.851 5        35.014                                                                                                    23274871.175 6  95306716.76506      -256.374 6        36.745
E36        20.000    24075761.812 6 126518981.68206       571.266 6        40.036                                                                    24075761.824 7  94478452.07907       426.624 7        45.816    24075761.398 7  96943132.25907       437.711 7        47.541
G17        22.000    22360230.274 7 117503851.38407      -416.971 7        44.369                                    22360223.191 5  91561298.30805      -324.909 5        31.608    22360223.993 5  91561382.24605      -324.853 5        34.919
S23        24.000    38265400.222 6 201086003.88606      -823.261 6        40.825
S36        25.000    38315123.122 6 201347210.66306      -826.329 6        36.749
R20        27.000    19787347.173 5 105811836.32605     -2891.576 5        35.376                                                                    19787344.928 5  82298054.44005     -2249.356 5        33.383
R04        28.000    22938146.846 5                     -4747.709 5        33.665
R06        29.000    21039438.867 6 112270468.89906      2063.515 6        37.278
C19        33.000                                                                                                                                    24158338.073 6 125798836.39806      1696.424 6        40.126                                                                    24158333.377 7 102221807.00007      1378.369 7        43.136
R21        34.000    20080738.750 8 107456156.84208      1390.782 8        53.092                                                                    20080735.794 7  83577107.37207      1081.650 7        46.570
R05        36.000    19565440.579 6 104588590.92006     -2478.764 6        40.396                                                                    19565436.466 6  81346579.11206     -1927.964 6        40.932
R22        37.000    24435386.800 5 130437804.45705      3436.885 5        32.455                                                                    24435409.211 5 101451593.45405      2673.124 5        31.555
C39        38.000                                                                                                                                    38998502.902 5 203075535.01005      -711.602 5        34.557                                                                    38998496.576 5 165015397.99905      -578.340 5        32.677
C06        41.000                                                                                                                                    38608512.368 5                      -136.894 5        30.875    38608504.788 6 155460575.38106      -105.972 6        38.745    38608503.911 5 163365196.37305      -111.575 5        35.829
C29        43.000                                                                                                                                    22110288.123 7 115133967.22107     -1978.239 7        46.006                                                                    22110286.320 7  93555892.39407     -1607.691 7        47.902
C16        45.000                                                                                                                                    38999209.004 5 203079199.84705      -262.435 5        33.940    38999208.658 5 157033691.18905      -202.892 5        34.414    38999209.766 5                      -213.287 5        33.060
C09        46.000                                                                                                                                    39305176.382 5 204672387.31405       307.629 5        33.928    39305179.243 5 158265670.47605       237.495 5        32.395    39305174.382 5 166313060.49505       249.555 5        34.619
C32        47.000                                                                                                                                    24171344.712 6 125866529.53306     -3392.197 6        40.215                                                                    24171344.203 7 102276898.48607     -2756.629 7        47.039
C35        51.000                                                                                                                                    24087466.777 7 125429965.98507      1427.904 7        45.249                                                                    24087465.864 7 101921979.16407      1160.171 7        46.652
I09        54.000    37241003.693 6 146141698.63706      -682.049 6        38.390
C20        55.000                                                                                                                                    21880793.297 8 113939024.76508      -662.492 8        50.536                                                                    21880787.142 7  92584869.46307      -538.549 7        47.418
I01        56.000   331636370.921 5 998271549.08705     -2826.086 5        33.647
C30        58.000                                                                                                                                    25073554.691 4 130564549.38104     -4211.706 4        28.882                                                                    25073550.922 6 106094433.45206     -3422.401 6        39.513
> 2025 01 01 01 00 25.0000000  0 38
E19         1.000                                                                                                                                                                                                    27522133.794 3                     -2808.476 3        20.238
G32         2.000                                                                                                                                                                    24764634.514 3                     -3221.254 3        23.981
G21         3.000    22394938.132 6 117686182.48206     -3275.487 6        40.796                                    22394934.144 3  91703455.34503     -2552.331 3        19.761
G31         4.000    23096863.947 6 121374819.55106      1399.374 6        37.217                                    23096855.137 2  94577764.14602      1090.428 2        15.905    23096856.465 4  94577784.10804      1090.852 4        26.719
G02         5.000    21180600.084 7 111304813.50707     -2208.404 7        46.170                                    21180593.115 6  86730967.37206     -1720.830 6        37.278
E34         6.000    28028821.310 5                      1973.730 5        30.506                                                                    28028820.225 5 109991097.97705      1473.691 5        32.569    28028809.628 5 112860393.32805      1512.357 5        34.438
E04         7.000    23948223.608 6 125848853.95406     -1492.947 6        41.740                                                                    23948222.265 7  93977961.33407     -1114.889 7        45.717    23948222.343 7  96429560.21907     -1143.997 7        42.921
G03         8.000    20163911.380 6 105962066.63306       -75.762 6        37.561                                    20163911.996 4  82567878.73504       -59.048 4        29.848    20163910.608 6  82567868.74606       -58.912 6        37.308
G04        11.000    22309441.776 6 117236899.29006      2356.707 6        38.123                                    22309446.610 2  91353453.78912      1836.430 2        16.075    22309444.366 6  91353422.73206      1836.440 6        40.830
E09        12.000    24601104.733 8 129279765.57008      1233.123 8        48.348                                                                    24601103.772 8  96540075.85608       920.856 8        49.589    24601102.296 7  99058489.67207       944.823 7        46.527
E10        13.000    25672257.067 6 134908635.03706     -3124.472 6        37.894                                                                    25672255.864 6 100743451.06106     -2333.365 6        38.787    25672270.098 6 103371525.56706     -2394.333 6        37.762
E06        14.000    23653011.259 7 124297476.34207        22.234 7        46.195                                                                    23653009.988 7  92819506.34807        16.607 7        46.485    23653010.234 7  95240887.12507        17.001 7        47.809
E11        15.000    23789453.557 6 125014496.18006     -2028.257 6        40.119                                                                    23789448.451 6  93354907.55606     -1514.524 6        37.800    23789444.585 5  95790251.65105     -1554.310 5        32.808
G19        16.000    23299372.413 7 122439252.07307      1618.712 7        42.341                                    23299367.507 5  95407020.56505      1261.339 5        30.302
E30        17.000    28849360.646 4 151604415.70404     -1968.304 4        29.308                                                                    28849362.187 5 113211120.88905     -1469.526 5        32.539    28849362.430 5 116164451.35905     -1507.568 5        31.260
G28        18.000    23275199.900 5 122312061.19105      -332.125 5        35.229                                                                                                    23275185.695 6  95308004.98606      -258.932 6        38.447
E36        20.000    24075217.448 6 126516128.90306       569.783 6        38.811                                                                    24075219.326 7  94476321.74807       425.461 7        46.105    24075218.556 7  96940946.35807       436.612 7        47.549
G17        22.000    22360627.110 7 117505944.49207      -420.168 7        43.545                                    22360621.635 5  91562929.28605      -327.398 5        30.747    22360621.036 5  91563013.23605      -327.401 5        34.314
S23        24.000    38266184.245 6 201090120.63306      -823.407 6        40.901
S36        25.000    38315912.086 6 201351343.58006      -826.584 6        36.881
R20        27.000    19790052.950 5 105826304.01605     -2895.614 5        34.852                                                                    19790052.465 5  82309307.07105     -2251.891 5        33.395
R04        28.000    22942574.826 5 122856459.66215     -4747.909 5        34.148
R06        29.000    21037508.360 6 112260157.87006      2061.160 6        36.715
C19        33.000                                                                                                                                    24156709.379 6 125790357.62606      1695.096 6        38.937                                                                    24156705.180 7 102214917.31307      1377.490 7        43.327
R21        34.000    20079441.310 8 107449211.80808      1387.189 8        52.975                                                                    20079438.069 7  83571705.67007      1078.928 7        46.367
R05        36.000    19567760.417 6 104600992.43806     -2481.895 6        41.316                                                                    19567756.313 6  81356224.74706     -1930.426 6        41.256
R22        37.000    24432168.963 4 130420620.97704      3436.615 4        28.986                                                                    24432186.715 5 101438228.54705      2672.844 5        30.415
C39        38.000                                                                                                                                    38999186.908 5 203079094.74705      -712.685 5        34.833                                                                    38999179.734 5 165018290.57305      -578.748 5        32.347
C06        41.000                                                                                                                                    38608646.887 5                      -138.095 5        31.185    38608636.716 6 155461107.63306      -106.971 6        38.679    38608636.168 5 163365755.69805      -112.440 5        35.510
C29        43.000                                                                                                                                    22112189.535 7 115143865.58607     -1981.158 7        45.911                                                                    22112187.117 8  93563935.64008     -1609.754 8        48.022
C16        45.000                                                                                                                                    38999461.580 5 203080514.67005      -263.748 5        34.457    38999461.260 5 157034707.89705      -203.899 5        34.990    38999462.199 5                      -213.948 5        32.719
C09        46.000                                                                                                                                    39304881.999 5 204670852.91105       306.475 5        33.713    39304883.886 5 158264483.97405       236.839 5        31.351    39304879.667 5 166311813.68605       248.948 5        35.276
C32        47.000                                                                                                                                    24174602.346 6 125883492.91206     -3393.110 6        40.851                                                                    24174602.017 7 102290682.64507     -2757.145 7        47.256
C35        51.000                                                                                                                                    24086096.494 7 125422831.30007      1425.858 7        45.037                                                                    24086095.730 7 101916181.67207      1158.679 7        46.549
I09        54.000    37241872.848 6 146145109.83806      -682.379 6        38.204
C20        55.000                                                                                                                                    21881430.273 8 113942342.67508      -664.722 8        50.949                                                                    21881424.341 7  92587565.55807      -540.091 7        47.427
I01        56.000   331639970.662 5 998285679.91905     -2826.328 5        33.575
C30        58.000                                                                                                                                    25077598.053 5 130585608.37605     -4212.030 5        30.309                                                                    25077595.099 6 106111545.65506     -3422.721 6        39.553
> 2025 01 01 01 00 30.0000000  0 38
