     2.11           OBSERVATION DATA    M (MIXED)           RINEX VERSION / TYPE
teqc  2019Feb25                         20260317 16:18:01UTCPGM / RUN BY / DATE
Linux 2.4.21-27.ELsmp|Opteron|gcc -static|Linux 64|=+       COMMENT
BIT 2 OF LLI FLAGS DATA COLLECTED UNDER A/S CONDITION       COMMENT
-Unknown-                                                   MARKER NAME
-Unknown-           -Unknown-                               OBSERVER / AGENCY
-Unknown-           -Unknown-           -Unknown-           REC # / TYPE / VERS
-Unknown-           -Unknown-                               ANT # / TYPE
        0.0000        0.0000        0.0000                  APPROX POSITION XYZ
        0.0000        0.0000        0.0000                  ANTENNA: DELTA H/E/N
     1     1                                                WAVELENGTH FACT L1/2
     7    L1    L2    C1    P1    P2    S1    S2            # / TYPES OF OBSERV
 SNR is mapped to RINEX snr flag value [0-9]                COMMENT
  L1 & L2: min(max(int(snr_dBHz/6), 0), 9)                  COMMENT
  2025     1     1    10     0    0.0000000     GPS         TIME OF FIRST OBS
    18                                                      LEAP SECONDS
                                                            END OF HEADER
 25  1  1 10  0  0.0000000  0 23G18G08G23E29G32G24E33G10G27R19R04R03
                                R13E26R18S35R05R17S31S33E07E08E13
 117173612.595 7  91304147.03045  22297395.472    22297395.2624   22297398.4014
        43.600          30.6004
 127556526.497 6  99394651.45542  24273177.956    24273178.0004   24273182.1904
        39.900          15.7004
 108167857.073 8  84286676.89145  20583656.290    20583655.9774   20583654.5874
        49.500          34.5004
 127827982.577 7                  24324852.348
        47.600
 115023253.692 8  89628472.11147  21888169.797    21888169.4004   21888171.4514
        48.200          45.6004
 113291776.819 6  88279338.51145  21558703.145    21558702.8104   21558702.5904
        37.800          33.5004
 130654018.067 7                  24862628.004
        45.900
 111436643.959 8  86833790.71547  21205688.317    21205687.8354   21205689.9134
        48.600          47.2004
 124900044.989 5  97324639.75143  23767654.698    23767653.9924   23767675.6204
        35.300          22.4004
 106280510.701 6  82662644.714 8  19868016.015    19868015.736    19868020.654
        41.200          48.000
 109233329.306 7  84959363.675 7  20398528.310    20398527.844    20398533.725
        44.800          45.400
 107548270.150 8  83648675.667 8  20090901.957    20090902.367    20090905.590
        52.500          48.100
 119818124.931 5                  22438088.171    22438087.027
        33.300
 122717446.859 8                  23352354.236
        48.500
 107434398.840 8  83560079.660 7  20126080.281    20126080.685    20126084.899
        51.100          42.900


 127974599.656 6  99535833.931 5  23940298.365    23940294.466    23940299.512
        38.200          30.200
 125291306.580 5                  23413680.773    23413678.106
        35.300
 198898489.993 7                  37849125.335
        42.900
 202016834.742 7                  38442528.121
        44.000
 123770682.406 7                  23552757.156
        45.700


 136946325.435 6                  26060010.747
        38.500
 25  1  1 10  0 15.0000000  0 25G18G08G23E29G32G24E33G10G27R19R04R12
                                R03R13E26R18S35R05R17R02S31S33E07E08
                                E13
 117221734.781 7  91341644.78844  22306554.599    22306554.3714   22306554.5944
        43.700          29.0004
 127561921.723 6  99398855.43242  24274203.241    24274203.0004   24274207.4804
        38.900          17.5004
 108178964.458 8  84295331.99345  20585769.833    20585769.5294   20585768.9944
        49.400          34.7004
 127805074.937 8                  24320492.811
        48.100
 114994191.637 7  89605826.34947  21882638.527    21882638.0804   21882641.0424
        46.800          46.7004
 113312058.797 6  88295142.64345  21562560.966    21562560.6134   21562563.7834
        37.800          32.6004
 130624677.187 7                  24857045.004
        45.100
 111414513.612 7  86816546.26647  21201477.118    21201476.6314   21201479.3174
        47.000          45.6004
 124928814.002 6  97347057.27842  23773126.340    23773125.7414   23773148.8864
        36.300          16.0004
 106270136.008 6  82654575.490 7  19866076.104    19866076.367    19866080.914
        41.400          47.400
 109214471.760 7  84944696.702 7  20395001.712    20395004.026    20395012.071
        42.000          45.400
 122838659.548 5  95541176.330 5  22995645.110                    22995657.449
        31.400          34.500
 107569794.149 8  83665416.570 8  20094923.307    20094923.469    20094928.177
        52.800          49.800
 119783111.691 6                  22431534.764    22431534.164
        38.900
 122726976.579 8                  23354167.521
        48.300
 107476833.043 8  83593084.003 7  20134030.001    20134030.657    20134033.996
        50.700          42.400


 127931687.545 6  99502457.874 5  23932270.834    23932268.905    23932274.975
        40.600          33.100
 125360376.004 5                  23426583.278    23426584.890
        33.200
 125236977.309 5                  23469369.512    23469366.455
        34.700
 198898493.205 7                  37849128.872
        43.200
 202016822.902 7                  38442526.096
        44.100
 123785913.302 7                  23555655.333
        46.800


 136988162.253 6                  26067972.540
        38.300
 25  1  1 10  0 30.0000000  0 26G18G08G23E29G32G24E33G10G27R19R04R12
                                R03R13E26R18S35R05R17R02S31S33E07E08
                                R14E13
 117269938.560 7  91379206.12844  22315727.275    22315727.0164   22315725.4994
        42.900          27.1004
 127567441.245 6  99403156.32442  24275255.418    24275255.3834   24275262.5594
        39.300          17.8004
 108190142.831 8  84304042.40745  20587896.770    20587896.4624   20587897.1874
        50.200          35.0004
 127782229.033 7                  24316144.731
        47.500
 114965206.473 7  89583240.51048  21877123.960    21877123.5454   21877125.2694
        47.600          48.0004
 113332496.035 5  88311067.75345  21566448.458    21566448.0964   21566454.3494
        35.600          32.8004
 130595400.913 7                  24851474.636
        44.600
 111392425.098 7  86799334.41447  21197272.889    21197272.4024   21197276.5374
        46.600          44.0004
 124957674.139 6  97369545.83542  23778618.526    23778617.9144   23778638.6924
        38.500          17.2004
 106259968.488 6  82646667.432 7  19864176.156    19864174.255    19864179.169
        39.100          46.300
 109195691.048 7  84930089.420 7  20391496.551    20391497.644    20391505.394
        43.200          46.400
 122844928.358 5  95546051.961 5  22996835.730    22996830.352    22996830.745
        32.800          35.300
 107591372.859 8  83682200.011 8  20098954.882    20098954.972    20098959.671
        53.000          50.700
 119748231.239 5                  22424988.494    22424990.714
        30.300
 122736604.019 7                  23355999.911
        47.800
 107519424.854 8  83626210.938 7  20142008.546    20142008.832    20142013.002
        49.600          42.600


 127888812.383 6  99469110.592 5  23924248.390    23924249.367    23924258.590
        40.200          34.700
 125429460.003 4                  23439491.641    23439492.162
        29.900
 125282353.636 5                  23477874.193    23477877.714
        31.900
 198898496.710 7                  37849126.239
        43.100
 202016812.187 7                  38442526.950
        44.600
 123801200.701 7                  23558564.712
        47.600


 129487304.621 5                  24291487.678    24291487.254
        31.000
 137030045.048 6                  26075943.702
        40.000
 25  1  1 10  0 45.0000000  0 24G18G08G23E29G32G24E33G10G27R19R04R12
                                R03R13E26R18S35R05R17S31S33E07E08E13
 117318222.571 7  91416829.98144  22324914.233    22324913.9294   22324912.6484
        42.200          25.5004
 127573083.890 6  99407553.40541  24276328.368    24276328.1944   24276340.3374
        40.400          11.3004
 108201391.326 8  84312807.46145  20590037.321    20590036.9914   20590038.2804
        48.000          34.6004
 127759443.763 7                  24311809.197
        45.500
 114936297.079 8  89560713.69348  21871622.793    21871622.3914   21871624.2844
        48.300          49.6004
 113353087.246 6  88327112.88945  21570369.723    21570369.3794   21570373.2664
        38.400          35.5004
 130566188.417 7                  24845915.226
        45.000
 111370377.458 7  86782154.41546  21193076.805    21193076.2734   21193080.8404
        46.300          41.7004
 124986624.043 6  97392104.29943  23784128.117    23784127.6034   23784141.2564
        38.100          22.8004
 106250007.620 6  82638920.112 7  19862314.018    19862310.885    19862317.413
        37.200          46.100
 109176986.087 7  84915541.070 7  20388007.173    20388005.217    20388014.076
        42.500          46.200
 122851379.213 5  95551069.003 5  22998022.706    22998024.878    22998034.023
        32.600          33.400
 107613004.816 8  83699024.883 8  20102995.134    20102995.092    20102999.487
        52.100          50.000
 119713483.170 5                  22418486.464    22418486.797
        32.500
 122746328.094 7                  23357850.735
        47.800
 107562172.682 7  83659459.257 7  20150015.596    20150015.398    20150021.307
        46.800          44.200


 127845972.493 6  99435790.673 6  23916233.869    23916232.777    23916244.164
        38.100          36.700
 125498557.072 4                  23452402.718    23452402.438
        29.000
 198898498.957 7                  37849130.522
        43.100
 202016798.725 7                  38442523.873
        44.500
 123816543.353 7                  23561484.029
        47.000


 137071972.619 6                  26083921.130
        40.700
 25  1  1 10  1  0.0000000  0 23G18G08G23E29G32G24E33G10G27R19R04R12
                                R03R13E26R18S35R05S31S33E07E08E13
 117366587.702 7  91454517.04744  22334116.427    22334116.0564   22334116.2944
        43.100          25.3004
 127578850.684 7  99412047.09843  24277425.647    24277425.4914   24277441.1254
        43.100          19.1004
 108212711.184 7  84321628.13845  20592192.181    20592191.8424   20592192.1134
        46.500          33.7004
 127736720.329 7                  24307485.057
        45.500
 114907464.708 8  89538246.89848  21866136.312    21866135.9104   21866138.0544
        48.300          50.4004
 113373833.429 6  88343278.74446  21574317.425    21574317.0504   21574321.4364
        38.000          36.8004
 130537041.052 7                  24840368.587
        46.000
 111348372.011 8  86765007.30746  21188890.061    21188889.5074   21188891.5614
        48.000          39.9004
 125015664.544 6  97414733.26343  23789654.123    23789653.7124   23789664.6584
        38.000          23.4004
 106240254.445 6  82631334.279 7  19860491.694    19860489.432    19860494.498
        39.400          46.700
 109158357.878 7  84901052.437 7  20384528.603    20384527.856    20384533.611
        45.200          44.400
 122858013.564 6  95556228.910 5  22999272.159    22999267.493    22999275.488
        36.000          30.100
 107634691.264 8  83715892.111 8  20107046.871    20107046.167    20107051.068
        52.000          50.100
 119678868.854 4                  22412004.550    22412002.318
        29.800
 122756150.016 8                  23359720.157
        49.500
 107605077.297 7  83692829.561 7  20158051.755    20158050.975    20158060.431
        43.400          46.300


 127803169.473 6  99402499.418 5  23908228.811    23908227.365    23908231.485
        38.800          34.900
 198898501.094 7                  37849129.700
        43.400
 202016786.540 7                  38442521.477
        44.300
 123831942.315 7                  23564414.889
        46.800


 137113945.982 6                  26091907.814
        40.700
 25  1  1 10  1 15.0000000  0 24G18G08G23E29G32G24E33G10G27R19R04R12
                                R03E26R18S35R05R17R02S31S33E07E08E13
 117415031.428 6  91492265.35144  22343333.040    22343332.6074   22343335.9754
        40.600          24.0004
 127584739.336 7  99416635.68343  24278546.284    24278546.0744   24278565.8094
        43.400          20.4004
 108224100.201 7  84330502.70445  20594359.264    20594358.9074   20594359.0664
        47.400          34.2004
 127714056.458 7                  24303172.134
        45.400
 114878707.131 8  89515838.38948  21860663.640    21860663.2564   21860665.6784
        49.700          51.2004
 113394732.143 6  88359563.48046  21578294.410    21578294.1424   21578298.1714
        38.900          37.5004
 130507956.872 7                  24834833.852
        46.100
 111326406.601 8  86747891.44446  21184710.394    21184709.8404   21184708.1394
        49.400          39.2004
 125044793.042 6  97437430.75943  23795196.770    23795196.4224   23795209.1534
        38.300          19.7004
 106230706.771 6  82623908.288 7  19858706.655    19858705.899    19858710.021
        40.400          46.400
 109139804.009 7  84886621.702 6  20381063.654    20381062.192    20381065.461
        45.500          41.100
 122864829.076 5  95561529.557 5  23000549.959    23000548.278    23000555.629
        34.400          30.800
 107656429.334 8  83732799.492 8  20111106.936    20111107.246    20111111.815
        52.200          49.300
 122766067.583 8                  23361607.414
        49.800
 107648136.183 7  83726319.813 7  20166118.750    20166118.426    20166125.860
        44.600          46.500


 127760400.883 6  99369235.073 5  23900225.853    23900229.586    23900229.414
        39.100          35.000
 125636789.617 4  97717590.877 5  23478250.716                    23478256.320
        26.400          33.100
 125418398.121 5                  23503360.230
        31.800
 198898500.983 7                  37849128.635
        43.300
 202016772.330 7                  38442517.483
        44.200
 123847395.190 7                  23567355.794
        47.100


 137155962.738 6                  26099902.926
        38.600
 25  1  1 10  1 30.0000000  0 24G18G08G23E29G32G24E33G10G27R19R04R12
                                R03E26R18S35R05R17R02S31S33E07E08E13
 117463558.696 6  91530078.78443  22352568.996    22352568.6254   22352570.7124
        36.200          22.7004
 127590754.873 6  99421323.16643  24279690.679    24279690.4114   24279710.5724
        39.000          20.8004
 108235563.665 7  84339435.27645  20596540.573    20596540.2204   20596540.4444
        46.300          34.5004
 127691457.401 7                  24298871.379
        45.800
 114850029.593 8  89493492.26748  21855206.045    21855205.6704   21855208.2644
        49.700          51.6004
 113415788.427 6  88375970.98646  21582301.454    21582301.2094   21582304.1414
        40.000          37.7004
 130478941.160 7                  24829312.837
        46.000
 111304486.613 8  86730810.97546  21180539.286    21180538.7364   21180535.9544
        49.400          40.7004
 125074014.438 6  97460200.43242  23800757.264    23800756.8584   23800768.2254
        36.200          15.1004
 106221370.326 6  82616646.603 7  19856961.331    19856960.741    19856964.237
        40.500          45.900
 109121329.653 7  84872252.828 6  20377611.705    20377610.278    20377616.047
        44.700          41.300
 122871830.820 5  95566975.098 5  23001858.239    23001857.976    23001868.614
        33.000          31.400
 107678224.750 8  83749751.468 8  20115178.395    20115178.685    20115182.780
        52.100          48.500
 122776086.024 8                  23363513.718
        49.700
 107691353.858 7  83759933.569 7  20174215.112    20174213.275    20174221.358
        43.700          46.300


 127717672.038 6  99336001.573 6  23892245.033    23892247.382    23892238.151
        39.000          38.000
 125705927.483 4  97771364.673 5  23491178.668                    23491168.514
        29.500          32.700
 125463721.397 6  97582926.334 5  23511857.401    23511853.881    23511856.767
        37.100          34.200
 198898504.273 7                  37849127.066
        43.200
 202016760.441 7                  38442515.748
        44.100
 123862907.080 8                  23570307.284
        48.500


 137198027.954 6                  26107908.833
        36.200
 25  1  1 10  1 45.0000000  0 24G18G08G23E29G32G24E33G10G27R19R04R12
                                R03E26R18S35R05R17R02S31S33E07E08E13
 117512164.009 6  91567953.03443  22361819.197    22361818.8264   22361819.9324
        38.600          22.6004
 127596891.887 6  99426105.41343  24280858.632    24280858.3514   24280876.9414
        39.700          19.0004
 108247096.374 7  84348421.80545  20598735.337    20598734.9934   20598734.2274
        46.300          33.8004
 127668917.889 7                  24294582.369
        45.000
 114821426.880 8  89471204.45948  21849763.784    21849763.4094   21849764.7304
        49.400          51.1004
 113436996.803 6  88392497.01246  21586337.280    21586336.9994   21586339.1194
        41.100          38.3004
 130449988.978 7                  24823803.229
        46.100
 111282606.965 8  86713761.92047  21176376.101    21176375.5514   21176374.0134
        48.700          43.2004
 125103323.154 5  97483038.33043  23806336.189    23806335.7074   23806337.7784
        34.500          23.5004
 106212239.683 6  82609545.009 7  19855254.091    19855252.778    19855255.966
        39.900          44.600
 109102929.652 8  84857941.689 7  20374176.421    20374176.577    20374180.450
        48.500          42.600
 122879013.629 6  95572561.561 5  23003209.830    23003207.574    23003208.365
        38.500          31.100
 107700071.533 8  83766743.400 8  20119259.337    20119260.230    20119264.737
        52.200          48.500
 122786200.135 8                  23365438.302
        49.100
 107734724.944 8  83793666.614 7  20182341.367    20182341.222    20182345.697
        48.000          45.900


 127674977.852 5  99302795.076 6  23884253.749    23884256.405    23884250.983
        34.400          38.300
 125775075.264 4  97825146.320 5  23504092.081                    23504089.836
        29.900          34.100
 125509029.236 5  97618165.719 4  23520356.765    23520355.902    23520348.011
        32.100          29.700
 198898505.157 7                  37849128.063
        43.400
 202016747.013 7                  38442514.769
        44.300
 123878472.579 8                  23573268.933
        48.900


 137240136.272 5                  26115923.294
        35.200
 25  1  1 10  2  0.0000000  0 25G18G08G23E29G32G24E33G10G27R19R04R12
                                R03R13E26R18S35R05R17R02S31S33E07E08
                                E13
 117560850.242 6  91605890.33844  22371084.535    22371084.0974   22371085.0674
        40.200          24.4004
 127603153.473 6  99430984.78444  24282049.307    24282049.0444   24282058.0804
        37.300          24.7004
 108258701.577 7  84357464.82045  20600943.350    20600943.0154   20600941.2954
        46.700          33.3004
 127646441.157 7                  24290305.545
        44.200
 114792902.217 8  89448977.46848  21844336.002    21844335.6454   21844335.9524
        49.100          51.1004
 113458360.324 7  88409143.92046  21590403.304    21590403.0234   21590404.5794
        43.800          41.1004
 130421103.755 7                  24818306.868
        45.100
 111260770.957 8  86696746.85547  21172221.382    21172220.8504   21172221.0834
        49.500          46.1004
 125132721.992 6  97505946.51544  23811930.370    23811929.8654   23811929.8154
        39.200          28.7004
 106203318.302 6  82602606.124 7  19853586.870    19853585.672    19853587.456
        40.500          43.700
 109084606.928 8  84843690.684 7  20370755.434    20370755.187    20370758.179
        50.500          43.100
 122886380.226 4  95578291.460 5  23004612.889                    23004590.826
        25.700          32.600
 107721972.999 8  83783777.859 8  20123350.529    20123351.894    20123356.343
        51.900          48.100
 119541763.204 5                  22386336.499    22386343.034
        34.500
 122796413.070 8                  23367381.823
        48.800
 107778252.100 8  83827521.061 7  20190494.759    20190495.861    20190500.174
        48.000          46.100


 127632321.417 5  99269617.977 6  23876281.201    23876276.956    23876273.072
        31.300          39.500
 125844235.964 5  97878937.935 5  23517012.170                    23517012.387
        32.800          33.800
 125554324.732 4                  23528822.064    23528827.131
        29.200
 198898506.925 7                  37849128.564
        43.200
 202016734.330 7                  38442513.137
        44.100
 123894094.761 7                  23576242.086
        47.700


 137282290.709 6                  26123943.894
        37.100
 25  1  1 10  2 15.0000000  0 26G18G08G23G15E29G32G24E33G10G27R19R04
                                R12R03R13E26R18S35R05R17R02S31S33E07
                                E08E13
 117609612.517 7  91643886.87244  22380363.490    22380362.9994   22380364.8694
        43.600          25.5004
 127609534.903 6  99435957.37944  24283263.734    24283263.4894   24283266.2814
        37.200          24.9004
 108270374.738 7  84366560.79945  20603163.554    20603163.2154   20603162.6134
        46.100          33.1004
 127849335.298 5                  24328920.535
        33.600
 127624022.537 7                  24286038.984
        43.300
 114764451.041 8  89426807.74948  21838922.256    21838921.9214   21838921.6494
        50.400          50.8004
 113479874.149 7  88425907.93447  21594497.944    21594497.6674   21594499.0214
        43.700          42.7004
 130392281.084 7                  24812822.490
        44.700
 111238974.105 8  86679762.30148  21168073.495    21168072.9454   21168075.3264
        50.100          48.1004
 125162206.072 6  97528921.10844  23817540.558    23817540.0624   23817541.4514
        38.500          28.9004
 106194601.524 6  82595826.441 7  19851956.507    19851956.589    19851958.408
        40.900          43.600
 109066356.854 8  84829496.173 7  20367347.647    20367348.150    20367349.935
        51.600          43.400
 122893926.414 4                  23006003.669
        29.500
 107743924.006 8  83800850.840 7  20127452.085    20127452.153    20127456.566
        51.400          47.200
 119507821.662 6                  22379977.270    22379975.663
        36.600
 122806720.258 8                  23369342.666
        48.000
 107821930.100 7  83861492.839 7  20198678.326    20198678.059    20198683.324
        47.800          46.700


 127589698.039 4  99236466.515 6  23868314.137    23868310.577    23868296.855
        27.700          38.000
 125913404.309 5  97932735.480 5  23529937.489    23529935.312    23529936.467
        35.900          31.400
 125599602.922 5                  23537321.464    23537318.300
        34.800
 198898505.482 7                  37849129.172
        43.300
 202016718.255 7                  38442507.588
        44.100
 123909768.853 7                  23579225.194
        47.800


 137324486.461 6                  26131971.986
        38.500
 25  1  1 10  2 30.0000000  0 25G18G08G23G15E29G32G24E33G10G27R19R04
                                R12R03R13E26R18S35R05R17S31S33E07E08
                                E13
 117658457.789 7  91681948.08744  22389656.957    22389656.4074   22389660.8224
        43.100          25.7004
 127616043.208 6  99441028.80843  24284503.061    24284502.8074   24284501.2854
        36.500          22.2004
 108282123.196 7  84375715.45145  20605399.136    20605398.8014   20605399.3374
        45.700          33.3004
 127901168.065 5                  24338779.067
        34.200
 127601669.311 6                  24281785.126
        41.900
 114736080.615 8  89404700.96148  21833522.859    21833522.5064   21833523.2654
        50.300          50.4004
 113501545.320 7  88442794.55247  21598621.333    21598621.0744   21598622.7334
        44.900          43.0004
 130363528.387 7                  24807350.439
        44.300
 111217223.779 8  86662814.00148  21163934.611    21163934.0664   21163937.5324
        51.000          49.0004
 125191782.173 6  97551967.42544  23823168.572    23823168.1164   23823170.1374
        36.700          25.5004
 106186097.304 6  82589212.062 7  19850366.626    19850367.186    19850370.343
        41.500          44.900
 109048186.623 8  84815363.765 7  20363954.735    20363954.291    20363957.954
        51.900          44.400


 107765932.230 8  83817968.354 7  20131563.196    20131562.943    20131567.302
        51.100          46.600
 119474020.520 5                  22373639.755    22373640.653
        35.000
 122817128.984 8                  23371323.255
        48.300
 107865765.887 7  83895587.369 7  20206889.353    20206889.442    20206895.352
        47.500          47.000


                  99203346.742 6                  23860347.815    23860329.850
                        37.300
 125982587.352 6                  23542862.862    23542862.544
        37.000
 198898507.655 7                  37849127.741
        42.700
 202016705.849 7                  38442505.200
        44.000
 123925501.947 8                  23582218.818
        48.300


 137366730.670 6                  26140010.818
        40.300
 25  1  1 10  2 45.0000000  0 25G18G08G23G15E29G32G24E33G10G27R19R04
                                R12R03R13E26R18S35R05R17S31S33E07E08
                                E13
 117707382.298 7  91720071.03244  22398967.981    22398967.4494   22398971.4074
        43.200          25.4004
 127622674.741 5  99446196.25942  24285763.285    24285763.0044   24285761.8894
        31.100          16.8004
 108293943.501 7  84384926.09645  20607648.833    20607648.5124   20607649.3374
        45.400          33.6004
 127952998.702 5  99703659.50941  24348641.126    24348641.2104   24348650.3884
        33.300           9.5004
 127579377.980 6                  24277543.687
        41.100
 114707787.434 8  89382654.36248  21828138.192    21828137.8124   21828139.6554
        48.800          49.8004
 113523370.165 7  88459800.91047  21602774.782    21602774.5234   21602775.1764
        45.100          43.0004
 130334842.396 7                  24801892.031
        43.800
 111195516.612 8  86645899.32748  21159803.212    21159802.6584   21159806.6344
        51.500          48.7004
 125221446.485 5  97575082.44543  23828811.588    23828811.0254   23828814.6714
        30.500          19.8004
 106177801.861 6  82582760.069 7  19848814.453    19848814.321    19848820.563
        40.000          46.200
 109030092.533 8  84801290.603 7  20360574.547    20360574.277    20360579.058
        50.100          44.600
 122909575.707 5  95596368.332 5  23008926.291    23008928.689    23008931.815
        35.500          33.200
 107787993.373 8  83835126.989 7  20135684.830    20135684.880    20135687.526
        52.100          46.200
 119440356.683 6                  22367342.242    22367340.678
        38.300
 122827635.758 7                  23373322.087
        47.400
 107909755.545 7  83929801.551 7  20215129.227    20215130.254    20215136.257
        47.300          46.700


 127504569.516 5  99170255.486 6  23852394.963    23852394.279    23852371.136
        33.000          40.100
 126051780.879 6                  23555792.623    23555794.329
        37.600
 198898509.642 7                  37849129.530
        43.200
 202016693.173 7                  38442501.551
        44.300
 123941290.399 8                  23585223.277
        48.100


 137409019.688 6                  26148058.668
        40.600
 25  1  1 10  3  0.0000000  0 26G18G08G23G15E29G32G24E33G10G27R19R04
                                R12R03R13E26R18S35R05R17R02S31S33E07
                                E08E13
 117756384.802 7  91758254.74344  22408292.505    22408291.9784   22408294.8204
        45.100          25.1004
 127629428.431 4  99451458.81741  24287047.474    24287047.2464   24287045.3974
        29.300          10.6004
 108305834.733 7  84394192.00645  20609912.263    20609911.9464   20609912.6844
        45.900          34.3004
 128004826.049 4  99744044.35941  24358501.024    24358500.6184   24358509.6634
        29.800           8.5004
 127557147.547 7                  24273313.042
        42.400
 114679570.541 8  89360667.21248  21822768.962    21822768.6094   21822769.7464
        48.700          48.6004
 113545347.436 7  88476926.05547  21606956.704    21606956.4594   21606956.6304
        45.100          42.6004
 130306222.405 7                  24796446.593
        43.300
 111173851.811 8  86629017.65747  21155680.844    21155680.2904   21155682.5154
        50.700          47.8004
 125251197.741 6  97598265.23843  23834475.820    23834475.1944   23834475.4774
        37.500          23.4004
 106169714.907 6  82576470.186 7  19847302.857    19847303.137    19847309.057
        40.200          46.500
 109012073.783 8  84787275.987 7  20357211.090    20357209.967    20357212.194
        50.100          43.600
 122917674.420 5  95602667.176 5  23010449.730    23010444.346    23010445.893
        33.900          31.900
 107810106.403 8  83852326.006 7  20139815.017    20139814.982    20139819.167
        51.000          46.600
 119406829.831 6                  22361060.565    22361062.645
        38.900
 122838239.605 7                  23375340.443
        46.600
 107953897.569 7  83964134.225 7  20223398.569    20223399.782    20223403.894
        47.400          45.000


 127462059.515 4  99137192.273 6  23844443.046    23844443.680    23844419.540
        25.000          41.200
 126120983.580 6                  23568729.772    23568730.894
        38.200
 125735366.389 4                  23562748.843    23562746.481
        24.100
 198898510.949 7                  37849127.620
        42.700
 202016680.059 7                  38442502.016
        44.300
 123957133.093 8                  23588238.121
        48.300


 137451352.410 6                  26156111.350
        37.400
 25  1  1 10  3 15.0000000  0 26G18G08G23G15E29G32G24E33G10G27R19R04
                                R12R03R13E26R18S35R05R17R02S31S33E07
                                E08E13
 117805466.177 7  91796499.90744  22417632.346    22417631.8684   22417632.7804
        45.400          27.0004


 108317798.240 7  84403514.22845  20612189.293    20612188.9764   20612188.9594
        45.300          35.0004
 128056650.932 5  99784427.37841  24368365.583    24368364.8864   24368369.4664
        31.600           7.6004
 127534979.274 6                  24269094.806
        40.700
 114651431.202 7  89338740.48347  21817413.017    21817412.6374   21817414.3654
        46.600          46.6004
 113567478.195 7  88494170.81446  21611168.520    21611168.2704   21611167.1064
        44.300          41.6004
 130277669.756 7                  24791012.698
        43.700
 111152230.715 8  86612170.04048  21151566.815    21151566.2614   21151567.2724
        50.800          48.0004
 125281036.852 6  97621516.50744  23840154.263    23840153.6204   23840154.4464
        38.900          25.8004
 106161837.472 6  82570343.286 7  19845829.497    19845831.029    19845835.402
        41.200          46.000
 108994131.293 8  84773320.737 7  20353859.711    20353858.262    20353861.321
        48.900          44.400


 107832272.659 8  83869566.446 7  20143955.599    20143954.627    20143961.128
        50.600          47.800
 119373441.527 5                  22354804.876    22354804.278
        32.000
 122848941.790 7                  23377377.165
        46.600
 107998192.911 7  83998586.128 7  20231697.805    20231698.586    20231703.538
        45.400          45.100


                  99104158.083 6                                  23836473.440
                        40.600
 126190196.474 5                  23581663.473    23581667.714
        33.600
                  97829393.245 5                                  23571240.742
                        35.100
 198898512.954 7                  37849130.657
        43.000
 202016667.679 7                  38442500.625
        46.000
 123973031.115 8                  23591263.645
        48.600


 137493729.825 6                  26164179.835
        37.300
 25  1  1 10  3 30.0000000  0 26G18G08G23G15E29G32G24E33G10G27R19R04
                                R12R03R13E26R18S35R05R17R02S31S33E07
                                E08E13
 117854624.295 7  91834804.89244  22426987.345    22426986.9124   22426987.6424
        45.900          29.3004


 108329832.168 7  84412891.32645  20614479.787    20614479.4394   20614478.4884
        45.600          35.4004
 128108471.672 4  99824807.0454   24378225.766    24378224.9264   24378228.8794
        29.900           4.9004
 127512871.222 7                  24264887.689
        42.200
 114623367.526 7  89316872.70447  21812072.866    21812072.4914   21812073.8264
        47.200          46.7004
 113589760.338 7  88511533.50646  21615408.332    21615408.0784   21615406.1734
        44.900          40.8004
 130249182.846 7                  24785590.173
        42.800
 111130651.532 8  86595355.08748  21147460.100    21147459.5594   21147460.9944
        50.900          48.4004
 125310961.572 6  97644834.47044  23845848.054    23845847.4244   23845850.6634
        40.900          28.7004
 106154167.457 6  82564377.728 7  19844396.567    19844397.490    19844401.000
        41.700          45.700
 108976263.173 8  84759423.296 7  20350523.283    20350522.830    20350526.072
        50.200          46.000
 122934334.437 4  95615692.026 6  23013575.792    23013587.311    23013582.481
        29.700          36.100
 107854489.918 8  83886846.522 7  20148106.070    20148105.487    20148110.293
        51.400          47.500
 119340190.529 5                  22348576.052    22348575.952
        32.700
 122859740.414 7                  23379432.270
        46.900
 108042638.969 7  84033155.248 7  20240022.769    20240023.200    20240030.236
        44.400          45.200


 127377149.563 5  99071151.460 7  23828527.125                    23828536.051
        30.900          42.000
 126259416.648 5                  23594591.832    23594594.460
        33.300
                  97864557.816 5                                  23579708.975
                        33.000
 198898513.406 7                  37849131.408
        42.600
 202016653.375 7                  38442498.506
        45.900
 123988982.456 8                  23594298.857
        49.400


 137536150.000 6                  26172252.699
        36.900
 25  1  1 10  3 45.0000000  0 25G18G08G23E29G32G24E33G10G27R19R04R12
                                R03R13E26R18S35R05R02S31S33E07E08R14
                                E13
 117903858.053 7  91873168.81045  22436356.331    22436355.9024   22436358.1964
        46.300          30.5004


 108341935.797 7  84422322.74546  20616782.251    20616781.9074   20616781.8754
        45.400          36.2004
 127490822.643 7                  24260691.821
        44.100
 114595378.752 8  89295063.29447  21806746.973    21806746.6114   21806747.9004
        48.400          47.4004
 113612192.886 7  88529013.40446  21619676.460    21619676.1974   21619674.3014
        45.500          40.5004
 130220761.068 6                  24780182.365
        40.400
 111109113.654 8  86578572.31447  21143361.398    21143360.8624   21143362.7524
        50.200          47.5004
 125340970.687 7  97668218.19844  23851558.097    23851557.4134   23851562.2314
        42.200          29.4004
 106146704.448 6  82558573.196 7  19843001.157    19843002.254    19843006.332
        41.600          46.400
 108958468.362 8  84745582.876 7  20347200.277    20347201.089    20347203.835
        51.300          46.800
 122942979.023 5  95622415.722 5  23015206.743    23015204.303    23015197.269
        33.500          34.100
 107876757.223 8  83904165.515 8  20152265.890    20152266.001    20152270.570
        52.600          48.400
 119307076.446 5                  22342377.210    22342375.028
        31.500
 122870634.724 8                  23381504.950
        48.000
 108087234.614 7  84067840.741 7  20248376.941    20248376.602    20248385.481
        43.400          45.600


 127334746.930 5  99038171.596 6  23820595.498                    23820603.933
        31.400          41.900
                  97899709.401 5                                  23588177.848
                        30.700
 198898511.295 7                  37849132.003
        43.700
 202016637.015 7                  38442493.529
        44.800
 124004986.160 8                  23597343.902
        49.400


 128738659.118 5                  24151044.554    24151043.033
        35.500
 137578611.918 6                  26180332.447
        38.400
 25  1  1 10  4  0.0000000  0 26G18G08G23E29G32G24E33G10G27R19R04R12
                                R03R13E26R18S35R05R17R02S31S33E07E08
                                R14E13
 117953178.524 7  91911600.32145  22445742.019    22445741.5814   22445745.5894
        46.500          31.8004


 108354120.498 7  84431817.31946  20619099.800    20619099.4834   20619101.1444
        45.800          36.5004
 127468844.779 7                  24256509.673
        43.600
 114567476.223 8  89273321.09147  21801437.318    21801436.9704   21801438.2554
        49.000          47.8004
 113634786.898 7  88546619.12046  21623975.396    21623975.1514   21623974.0074
        45.400          39.8004
 130192415.919 6                  24774788.536
        41.900
 111087628.568 8  86561830.67447  21139272.551    21139272.0374   21139274.0434
        48.800          44.7004
 125371075.233 6  97691676.34444  23857287.669    23857287.0174   23857289.4364
        39.300          25.8004
 106139460.007 6  82552938.646 7  19841646.949    19841646.852    19841652.892
        40.000          46.900
 108940758.393 8  84731808.455 7  20343892.951    20343894.798    20343896.087
        52.200          47.000
 122951815.515 5  95629288.787 5  23016866.343    23016863.266    23016852.288
        32.000          34.300
 107899085.648 8  83921532.059 8  20156437.373    20156437.712    20156442.375
        53.400          48.800
 119274111.267 5                  22336206.320    22336205.150
        32.100
 122881636.033 7                  23383598.293
        47.800
 108131990.906 7  84102651.199 7  20256761.931    20256761.029    20256768.830
        43.000          44.500


 127292390.472 5  99005227.667 6  23812677.015                    23812680.012
        32.300          41.000
 126397886.699 5                  23620471.197    23620472.137
        35.700
 125916179.357 6                  23596642.868    23596646.303
        38.100
 198898518.879 7                  37849131.918
        43.400
 202016630.008 7                  38442491.637
        44.000
 124021053.393 8                  23600401.263
        49.500


 128680906.109 5                  24140209.380    24140208.555
        34.000
 137621126.792 6                  26188422.049
        38.600
 25  1  1 10  4 15.0000000  0 27G18G08G23E29G32G24E33G10G27R19R04R12
                                R03R13E26R18S35R05R17R02S31G21S33E07
                                E08R14E13
 118002570.747 7  91950087.75045  22455141.567    22455141.1614   22455145.9824
        47.400          32.6004


 108366371.694 7  84441363.72145  20621430.777    20621430.4784   20621432.5054
        42.400          34.9004
 127446923.044 7                  24252338.726
        44.600
 114539645.323 8  89251634.71648  21796141.390    21796141.0284   21796141.9764
        48.700          48.2004
 113657527.556 7  88564339.11146  21628302.465    21628302.2244   21628302.5784
        43.600          39.4004
 130164132.961 7                  24769406.158
        43.900
 111066181.690 8  86545118.80047  21135191.181    21135190.6854   21135191.4614
        48.900          42.4004
 125401260.111 6  97715197.16643  23863032.623    23863031.9714   23863034.1924
        37.200          20.5004
 106132419.607 6  82547462.772 7  19840331.526    19840330.737    19840336.366
        39.800          46.400
 108923118.230 8  84718088.315 7  20340597.665    20340599.418    20340600.327
        50.900          45.700
 122960829.894 4  95636300.218 5  23018545.795    23018545.473    23018541.935
        27.300          34.000
 107921460.517 9  83938934.723 8  20160618.016    20160618.093    20160622.515
        54.100          49.500
 119241280.425 5                  22330061.185    22330059.088
        34.800
 122892729.712 7                  23385709.314
        46.300
 108176892.479 7  84137574.628 7  20265173.403    20265172.938    20265179.268
        43.300          43.800


 127250064.813 5  98972307.783 6  23804757.510                    23804761.033
        34.000          40.100
 126467132.390 5                  23633412.484    23633413.644
        34.000
 125961350.026 5                  23605114.466    23605111.644
        32.700
 198898520.205 7                  37849131.546
        43.000
 132194473.087 5                  25155770.132
        31.600
 202016616.959 7                  38442487.631
        44.300
 124037169.394 8                  23603468.045
        49.700


 128623125.234 5                  24129374.219    24129377.901
        33.300
 137663679.813 6                  26196518.710
        38.700
 25  1  1 10  4 30.0000000  0 26G18G08G23E29G32G24E33G10G27R19R04R12
                                R03R13E26R18S35R05R02S31G21S33E07E08
                                R14E13
 118052038.922 8  91988634.34445  22464555.215    22464554.8224   22464559.3514
        49.000          31.7004


 108378693.938 7  84450965.50045  20623777.378    20623777.0974   20623776.7944
        42.600          33.0004
 127425061.888 7                  24248178.788
        44.700
 114511890.548 8  89230007.66548  21790860.357    21790860.0004   21790860.3284
        50.000          48.2004
 113680419.089 7  88582176.68146  21632659.263    21632659.0444   21632660.4614
        42.600          38.6004
 130135916.879 7                  24764037.005
        45.200
 111044777.665 8  86528440.31946  21131118.015    21131117.5244   21131116.0154
        50.000          40.3004
 125431529.577 6  97738783.86943  23868792.408    23868791.6844   23868801.7494
        36.100          19.1004
 106125587.695 6  82542149.098 7  19839053.747    19839054.228    19839059.369
        40.800          46.900
 108905552.436 8  84704426.058 7  20337317.684    20337316.939    20337319.976
        48.200          45.700
                  95643452.723 5                                  23020267.132
                        33.200
 107943885.925 8  83956376.736 8  20164807.601    20164807.355    20164811.294
        53.500          49.500
 119208588.940 6                  22323941.168    22323944.417
        36.600
 122903920.250 7                  23387839.913
        46.100
 108221943.383 7  84172614.207 7  20273612.665    20273611.440    20273617.452
        42.100          42.800


 127207775.156 5  98939415.843 6  23796844.772    23796846.531    23796851.864
        33.200          41.100
 126006505.301 4                  23613571.715    23613571.243
        26.500
 198898520.609 7                  37849131.233
        43.000
 132150949.368 5                  25147488.817
        30.900
 202016603.429 7                  38442486.625
        44.800
 124053338.469 8                  23606545.128
        50.000


 128565321.667 5                  24118536.253    24118537.574
        34.400
 137706275.297 6                  26204623.056
        36.200
 25  1  1 10  4 45.0000000  0 25G18G08G23E29G32G24E33G10G27R19R04R12
                                R03R13E26R18S35R05R17S31G21S33E07E08
                                E13
 118101587.254 7  92027243.38744  22473983.331    22473982.9254   22473985.4464
        47.400          29.2004


 108391091.781 7  84460626.19245  20626137.554    20626137.2824   20626135.3024
        44.500          33.9004
 127403265.800 7                  24244030.591
        44.200
 114484216.375 8  89208443.43148  21785593.884    21785593.5004   21785594.2284
        50.800          48.8004
 113703465.794 7  88600135.15646  21637045.250    21637045.0314   21637047.9004
        43.100          38.4004
 130107772.433 7                  24758681.577
        45.800
 111023421.132 8  86511798.86246  21127054.004    21127053.5354   21127050.3354
        50.100          39.8004
 125461887.652 6  97762439.94842  23874569.157    23874568.3624   23874583.5264
        37.500          14.4004
 106118969.251 6  82537001.430 7  19837817.590    19837817.699    19837822.935
        41.500          47.700
 108888065.350 8  84690825.002 7  20334051.752    20334052.011    20334055.280
        48.500          46.700
                  95650750.401 5                                  23022020.585
                        31.000
 107966366.437 8  83973861.587 8  20169006.496    20169006.329    20169010.192
        52.600          49.000
 119176041.957 5                  22317838.527    22317839.226
        33.100
 122915212.162 7                  23389988.712
        47.300
 108267147.931 7  84207773.260 7  20282081.548    20282081.337    20282086.325
        44.000          43.000


                  98906555.260 6                                  23788947.301
                        40.300
 126605646.029 5                  23659304.051    23659302.129
        32.500
 198898524.769 7                  37849132.056
        43.500
 132107470.267 4 102940935.5294   25139212.287    25139212.0734   25139227.9574
        26.000           1.8004
 202016592.856 7                  38442486.526
        44.200
 124069564.959 8                  23609632.876
        50.600


 137748917.548 5                  26212738.505
        30.200
 25  1  1 10  5  0.0000000  0 24G18G08G23E29G32G24E33G10G27R19R04R12
                                R03R13E26R18S35R05R17S31S33E07E08E13
 118151210.188 7  92065910.53844  22483426.150    22483425.7614   22483425.5514
        44.500          27.1004


 108403560.106 7  84470341.79545  20628510.151    20628509.8704   20628507.8244
        46.100          35.2004
 127381529.522 7                  24239894.260
        45.300
 114456617.618 8  89186937.94948  21780341.997    21780341.6134   21780342.5574
        51.000          49.4004
 113726662.200 7  88618210.27846  21641459.323    21641459.0954   21641462.4834
        43.400          36.6004
 130079694.597 7                  24753339.164
        46.300
 111002106.964 8  86495190.43246  21122998.082    21122997.6314   21122994.8604
        49.900          40.6004
 125492328.839 6  97786160.50443  23880361.308    23880360.4814   23880376.1464
        40.900          23.3004
 106112559.060 6  82532015.736 7  19836618.150    19836618.575    19836623.874
        40.300          47.200
 108870651.660 8  84677281.015 7  20330798.849    20330800.323    20330804.003
        49.200          47.700
 122989058.419 6                  23023812.062    23023815.092
        37.100
 107988896.462 8  83991384.926 8  20173215.837    20173215.512    20173219.317
        52.400          49.100
 119143634.514 4                  22311768.678    22311764.746
        27.600
 122926600.203 7                  23392155.414
        47.700
 108312500.164 7  84243047.191 7  20290578.263    20290578.913    20290583.495
        44.600          44.000


 127123311.673 4  98873721.953 6  23781061.921                    23781049.682
        24.700          38.400
 126674912.336 5                  23672242.374    23672240.966
        30.200
 198898526.899 7                  37849133.219
        43.300
 202016580.582 7                  38442484.800
        45.400
 124085843.499 8                  23612730.675
        50.700


 137791601.332 5                  26220862.380
        31.700
 25  1  1 10  5 15.0000000  0 25G18G08G23E29G32G24E33G10G27R19R04R12
                                R03R13E26R18S35R05R17S31S33E07E08R14
                                E13
 118200910.548 7  92104638.03744  22492883.097    22492882.7264   22492883.3244
        42.200          25.4004
 127695609.366 6  99503076.34742  24299667.749    24299667.9144   24299666.1004
        38.000          17.1004
 108416102.045 7  84480114.74445  20630895.872    20630895.5954   20630894.9014
        47.200          35.8004
 127359856.133 7                  24235770.314
        46.600
 114429097.374 8  89165493.64748  21775105.352    21775104.9684   21775106.0504
        50.400          49.9004
 113750011.199 7  88636404.30545  21645902.348    21645902.1344   21645905.2284
        42.500          35.0004
 130051686.610 7                  24748009.112
        45.700
 110980838.435 8  86478617.57247  21118951.090    21118950.6344   21118949.7994
        48.400          42.4004
 125522855.922 6  97809947.92644  23886170.180    23886169.4204   23886181.1224
        41.900          28.5004
 106106359.845 6  82527194.106 7  19835458.880    19835458.976    19835464.547
        40.000          46.700
 108853314.264 8  84663796.362 7  20327561.332    20327563.150    20327565.507
        49.300          47.500
 122998805.602 6                  23025627.713    23025629.623
        37.200
 108011478.966 8  84008949.100 8  20177433.309    20177433.554    20177438.378
        52.000          49.100
 119111370.620 5                  22305728.235    22305729.657
        32.200
 122938087.473 7                  23394341.205
        47.900
 108358002.767 7  84278438.065 7  20299104.318    20299104.513    20299107.123
        46.100          44.200


 127081127.642 5  98840918.393 6  23773157.178                    23773160.555
        35.800          39.400
 126744185.557 5                  23685189.209    23685187.234
        30.500
 198898530.229 7                  37849132.356
        43.000
 202016570.520 7                  38442480.847
        45.400
 124102177.030 8                  23615838.721
        50.500




 137834329.362 5                  26228992.395
        35.300
 25  1  1 10  5 30.0000000  0 26G18G08G23E29G32G24E33G10G27R19R04R12
                                R03R13E26R18S35R05R17S31S33E07E08R14
                                E13R20
 118250684.348 5  92143422.79443  22502354.954    22502354.5034   22502356.3984
        35.700          21.8004
 127703584.018 6  99509290.37943  24301183.240    24301182.9994   24301180.8804
        37.600          22.1004
 108428713.977 7  84489942.22445  20633295.063    20633294.8004   20633294.8624
        47.600          35.0004
 127338241.968 8                  24231657.455
        48.000
 114401652.002 8  89144107.68048  21769882.939    21769882.5684   21769883.8124
        50.900          50.0004
 113773508.989 7  88654714.24445  21650373.598    21650373.3974   21650374.4854
        44.200          31.7004
 130023745.062 7                  24742692.544
        45.900
 110959612.004 7  86462077.54147  21114912.118    21114911.6454   21114912.8584
        47.800          43.9004
 125553464.744 6  97833798.94244  23891993.746    23891992.9734   23892001.8064
        40.200          29.2004
 106100368.468 6  82522534.147 7  19834340.173    19834340.311    19834344.477
        41.700          46.400
 108836049.446 8  84650368.181 8  20324338.069    20324338.980    20324341.959
        49.300          48.300
 123008732.942 6                  23027489.306    23027488.723
        40.500
 108034110.085 8  84026551.083 8  20181660.375    20181660.735    20181665.300
        51.400          48.800
 119079246.719 5                  22299715.860    22299714.703
        35.400
 122949670.299 8                  23396545.520
        48.100
 108403651.678 7  84313942.790 7  20307654.580    20307654.524    20307659.065
        45.600          44.800


 127038986.153 6  98808141.712 6  23765274.329    23765275.508    23765278.873
        41.700          40.500
 126813461.634 5                  23698132.558    23698133.337
        30.000
 198898530.875 7                  37849132.919
        42.600
 202016556.808 7                  38442479.528
        44.700
 124118561.726 8                  23618956.720
        50.600




 137877097.926 6                  26237130.545
        39.500
 127339062.610 5                  23813040.636
        30.200
 25  1  1 10  5 45.0000000  0 23G18G08G23E29G32G24E33G10G27R19R04R12
                                R03R13E26R18S35R05S31S33E07E08E13
 118300535.608 6  92182267.91043  22511844.808    22511844.2904   22511844.2514
        37.000          19.0004
 127711681.757 4  99515600.34143  24302722.795    24302722.6884   24302723.9304
        29.000          20.3004
 108441400.187 7  84499827.57545  20635708.907    20635708.6304   20635708.3084
        45.300          33.2004
 127316691.268 7                  24227556.098
        47.400
 114374285.694 8  89122783.32148  21764675.034    21764674.6634   21764676.3354
        52.200          49.9004
 113797159.448 7  88673143.10244  21654873.798    21654873.5844   21654871.1844
        42.000          28.8004
 129995874.357 7                  24737389.046
        46.900
 110938431.979 8  86445573.63647  21110882.199    21110881.7214   21110884.2624
        48.300          44.8004
 125584159.219 5  97857716.72344  23897834.145    23897833.3634   23897838.2484
        35.900          26.1004
 106094589.282 7  82518039.209 7  19833259.054    19833260.007    19833263.852
        42.200          45.800
 108818861.482 8  84636999.777 8  20321128.134    20321130.350    20321133.417
        51.000          50.000
 123018844.954 5  95681308.797 5  23029378.526    23029378.108    23029385.710
        34.100          35.100
 108056793.880 8  84044194.037 8  20185897.227    20185897.463    20185903.302
        50.100          48.300
 119047267.529 5                  22293730.022    22293721.834
        30.100
 122961352.926 7                  23398768.464
        47.700
 108449450.544 7  84349564.134 7  20316232.434    20316233.376    20316239.089
        45.800          45.100


 126996883.276 7  98775395.024 6  23757402.544    23757401.504    23757402.221
        43.100          40.900
 198898533.916 7                  37849132.137
        42.300
 202016545.820 7                  38442476.237
        44.800
 124135001.673 8                  23622085.092
        50.500


 137919911.099 6                  26245277.824
        40.000
 25  1  1 10  6  0.0000000  0 24G18G08G23E29G32G24E33G10G27R19R04R12
                                R03E26R18S35R05R02S31G21S33E07E08E13
 118350459.495 6  92221169.66243  22521345.356    22521344.8204   22521344.6114
        40.900          22.2004
 127719897.963 5  99522002.66443  24304289.199    24304288.8024   24304288.9004
        33.200          20.7004
 108454156.281 7  84509767.39245  20638137.467    20638137.1994   20638135.3754
        45.000          32.7004
 127295199.575 7                  24223466.058
        45.400
 114346994.066 8  89101517.15948  21759481.428    21759481.0444   21759482.7074
        52.000          50.3004
 113820957.898 6  88691687.24744  21659402.744    21659402.5164   21659399.3914
        40.800          27.9004
 129968070.276 7                  24732097.407
        45.400
 110917294.091 8  86429102.53347  21106859.501    21106859.0234   21106862.8914
        48.600          46.3004


 106089017.908 6  82513705.901 7  19832217.939    19832217.327    19832221.624
        41.000          45.100
 108801745.675 8  84623687.494 8  20317931.299    20317933.519    20317937.303
        51.800          50.400
 123029136.747 4  95689313.710 5  23031299.122                    23031307.953
        28.400          32.400
 108079525.573 8  84061874.243 7  20190143.946    20190144.016    20190149.564
        49.900          47.500
 122973130.902 7                  23401009.531
        47.200
 108495394.574 7  84385298.351 7  20324840.480    20324841.326    20324845.000
        46.500          44.000


 126954814.498 5  98742674.802 6  23749522.524    23749523.037    23749531.437
        35.500          40.200
 126277197.823 5                  23664292.028    23664291.485
        35.600
 198898533.993 7                  37849133.943
        42.600
 131890681.486 5                  25097958.879
        34.900
 202016532.015 7                  38442471.479
        44.400
 124151492.290 8                  23625223.261
        50.900
 143699681.634 5                  27345127.473
        32.500
 137962764.267 6                  26253433.439
        41.900
 25  1  1 10  6 15.0000000  0 25G18G08G23E29G32G24E33G10G27R19R04R12
                                R03E26R18S35R05R02S31G21S33E07E08E19
                                E13
 118400457.820 7  92260129.34943  22530857.461    22530856.9254   22530857.9884
        42.800          23.4004
 127728234.563 4  99528498.80944  24305874.054    24305873.7194   24305876.5674
        28.800          24.0004
 108466984.396 7  84519763.32645  20640578.530    20640578.2764   20640577.1144
        46.900          33.9004
 127273768.903 7                  24219388.333
        44.800
 114319779.196 8  89080310.80948  21754302.521    21754302.1284   21754304.0494
        50.900          50.5004
 113844906.208 6  88710348.18444  21663961.650    21663961.4224   21663959.1314
        41.700          28.9004
 129940335.062 7                  24726819.480
        44.200
 110896200.560 8  86412665.99447  21102844.568    21102844.0954   21102848.9624
        48.000          46.7004


 106083656.557 7  82509535.985 7  19831217.146    19831217.186    19831219.547
        42.300          45.200
 108784704.097 8  84610432.945 8  20314749.285    20314749.832    20314754.371
        50.700          50.000


 108102307.083 8  84079593.179 7  20194401.259    20194401.702    20194405.820
        51.400          47.600
 122985006.302 7                  23403269.651
        46.600
 108541485.241 7  84421146.677 7  20333475.010    20333474.075    20333479.922
        44.200          44.300


 126912782.226 5  98709983.011 6  23741667.717    23741665.685    23741667.825
        35.100          39.000
 126322251.740 5                  23672734.780    23672735.174
        33.700
 198898533.590 7                  37849131.752
        42.800
 131847450.332 6                  25089733.077
        36.400
 202016516.820 7                  38442472.436
        44.700
 124168035.494 8                  23628371.113
        50.800
 143737974.298 5                  27352412.262
        32.500


 138005659.328 7                  26261595.593
        43.100
 25  1  1 10  6 30.0000000  0 24G18G08G23E29G32G24E33G10G27R19R04R12
                                R03E26R18S35R05S31G21S33E07E08E19E13
 118450534.792 6  92299150.28743  22540383.531    22540383.0494   22540385.3174
        41.300          22.2004
 127736695.852 5  99535092.07543  24307485.017    24307484.6964   24307487.6974
        32.300          22.7004
 108479889.109 8  84529818.93945  20643034.084    20643033.8434   20643033.7474
        48.000          35.0004
 127252403.764 7                  24215322.626
        43.900
 114292645.583 8  89059167.78348  21749139.222    21749138.8334   21749141.0914
        51.100          50.9004
 113869008.622 7  88729129.24845  21668547.271    21668546.9674   21668546.5114
        43.500          30.0004
 129912673.465 7                  24721555.908
        44.200
 110875156.036 7  86396267.64647  21098840.258    21098839.7894   21098843.1574
        47.300          47.0004


