     2.11           OBSERVATION DATA    M (MIXED)           RINEX VERSION / TYPE
teqc  2019Feb25                         20260317 16:18:01UTCPGM / RUN BY / DATE
Linux 2.4.21-27.ELsmp|Opteron|gcc -static|Linux 64|=+       COMMENT
BIT 2 OF LLI FLAGS DATA COLLECTED UNDER A/S CONDITION       COMMENT
-Unknown-                                                   MARKER NAME
-Unknown-           -Unknown-                               OBSERVER / AGENCY
-Unknown-           -Unknown-           -Unknown-           REC # / TYPE / VERS
-Unknown-           -Unknown-                               ANT # / TYPE
        0.0000        0.0000        0.0000                  APPROX POSITION XYZ
        0.0000        0.0000        0.0000                  ANTENNA: DELTA H/E/N
     1     1                                                WAVELENGTH FACT L1/2
     7    L1    L2    C1    P1    P2    S1    S2            # / TYPES OF OBSERV
 SNR is mapped to RINEX snr flag value [0-9]                COMMENT
  L1 & L2: min(max(int(snr_dBHz/6), 0), 9)                  COMMENT
  2025     1     1     1     0    0.0000000     GPS         TIME OF FIRST OBS
    18                                                      LEAP SECONDS
                                                            END OF HEADER
 25  1  1  1  0  0.0000000  0 23G03G06G14G19G12G11E27G24E34S35R13E15
                                R22E36R23S31S33G17R12R11E02E30R21
 123672459.176 5                  23534093.998
        32.100
 106039840.840 8  82628494.47248  20178697.470    20178697.1624   20178700.9694
        51.600          52.3004
 119253969.853 6  92925134.75341  22693269.130    22693269.4514   22693276.5934
        38.300          10.0004
 106408753.772 7  82915907.33445  20248914.554    20248913.1954   20248914.5154
        45.400          35.8004
 121251731.386 6  94481909.34646  23073425.491    23073425.2414   23073429.2814
        41.700          36.8004
 115680664.367 6  90140803.02643  22013302.163    22013302.0744   22013308.0884
        40.600          23.5004
 137622521.456 7                  26188681.233
        42.200
 121398237.669 5  94596072.05044  23101315.662    23101315.9754   23101324.6454
        35.500          25.2004
 122182719.636 7                  23250580.942
        42.700


 116158260.746 7                  21752715.887    21752715.368
        44.400
 131767047.611 7                  25074431.561
        42.800
 103824938.499 8  80752782.418 8  19449897.747    19449898.663    19449902.494
        52.800          48.100
 136397860.538 5                  25955658.487
        31.200
 114976314.294 6                  21493620.568    21493620.512
        40.700
 198906036.500 7                  37850569.871
        42.400
 202059915.241 7                  38450728.205
        44.100
 115301154.457 7  89845094.77346  21941083.906    21941083.5134   21941085.3824
        44.900          39.5004
 103137582.934 8  80218147.420 8  19307555.720    19307555.863    19307562.343
        52.500          49.000
 113615543.888 7  88367681.421 7  21261602.430    21261602.195    21261606.565
        46.200          42.300
 130697437.229 6                  24870883.320
        40.600
 123727820.875 8                  23544605.109
        50.000
 116181706.663 7  90363537.923 6  21711325.090    21711323.869    21711329.483
        44.600          38.100
 25  1  1  1  0 15.0000000  0 22G06G14G19G12G11E27G24E34S35R13E15R22
                                E36R23S31S33G17R12R11E02E30R21
 106035192.025 8  82624872.05849  20177812.729    20177812.4214   20177816.1154
        51.200          54.2004
 119302426.060 6  92962892.93041  22702491.792    22702492.1724   22702497.0974
        40.600           9.0004
 106414467.753 7  82920359.83646  20250002.513    20250001.1324   20250001.9024
        44.400          36.3004
 121202994.884 7  94443932.95745  23064151.494    23064151.2314   23064154.7964
        42.900          34.3004
 115641619.137 6  90110378.22543  22005873.658    22005873.6234   22005876.8824
        40.300          23.1004
 137585910.367 7                  26181714.727
        44.700


 122186034.926 7                  23251211.983
        45.600


 116105713.042 7                  21742874.888    21742874.373
        42.300
 131733577.962 7                  25068062.986
        43.400
 103829387.152 8  80756242.541 8  19450730.184    19450730.358    19450735.454
        49.800          48.400
 136434792.852 6                  25962677.845
        36.800
 114939056.556 7                  21486652.976    21486655.348
        46.100
 198906042.654 7                  37850557.918
        43.100
 202059911.154 6                  38450729.663
        41.600
 115326868.082 7  89865131.36046  21945977.158    21945976.7694   21945977.6684
        45.000          38.7004
 103131980.282 8  80213789.822 8  19306506.843    19306506.865    19306513.559
        50.400          48.800
 113672970.762 7  88412346.853 7  21272348.309    21272348.130    21272353.457
        47.200          43.900
 130728710.777 6                  24876833.870
        39.800
 123722263.645 8                  23543547.827
        50.300
 116228913.630 7  90400254.477 6  21720144.062    21720144.628    21720151.891
        46.000          38.500
 25  1  1  1  0 30.0000000  0 23G03G06G14G19G12G11E27G24E34S35R13E15
                                R22E36R23S31S33G17R12R11E02E30R21


 106030670.226 8  82621348.60748  20176952.452    20176952.1354   20176955.8064
        50.500          53.8004
 119350945.061 6  93000699.78642  22711724.855    22711725.1904   22711729.7684
        39.400          15.8004
 106420244.917 7  82924861.50146  20251101.735    20251100.3454   20251101.5764
        43.100          37.2004
 121154303.046 7  94405991.35145  23054883.282    23054883.0054   23054887.3674
        44.100          34.0004
 115602660.815 6  90080021.11844  21998458.503    21998458.4594   21998462.2434
        40.300          24.8004
 137549322.370 6                  26174750.982
        40.200


 122189435.769 7                  23251859.477
        46.100


 116053266.344 7                  21733054.894    21733053.975
        42.300
 131700170.383 6                  25061705.285
        41.300
 103833949.175 8  80759790.804 8  19451585.402    19451585.789    19451589.910
        51.200          48.300
 136471727.293 5                  25969698.843
        34.900
 114901889.418 6                  21479704.486    21479705.257
        39.200
 198906047.039 7                  37850568.234
        42.100
 202059905.486 7                  38450730.325
        42.800
 115352608.036 7  89885188.45546  21950874.905    21950874.4994   21950875.7454
        46.900          40.4004
 103126572.709 8  80209583.918 8  19305494.735    19305494.808    19305501.667
        52.000          49.500
 113730497.678 7  88457089.886 7  21283112.420    21283112.354    21283120.874
        46.200          43.200
 130760043.229 6                  24882795.648
        38.300
 123716783.359 8                  23542505.147
        50.300
 116276140.717 7  90436986.672 6  21728971.346    21728970.318    21728981.307
        43.400          37.900
 25  1  1  1  0 45.0000000  0 22G06G14G19G12G11E27G24E34S35R13E15R22
                                E36R23S31S33G17R12R11E02E30R21
 106026276.688 8  82617925.08948  20176116.036    20176115.7194   20176119.7564
        49.700          53.7004
 119399527.956 6  93038556.54542  22720970.557    22720970.8874   22720973.6854
        37.400          15.5004
 106426086.397 7  82929413.35046  20252214.640    20252213.2684   20252213.2494
        45.100          37.9004
 121105657.669 6  94368085.92745  23045625.922    23045625.6634   23045629.5434
        40.200          32.7004
 115563790.496 6  90049732.62544  21991061.415    21991061.4114   21991065.0934
        36.200          25.2004
 137512758.931 7                  26167794.842
        45.100
 121458905.350 6  94643331.74844  23112852.225    23112852.4974   23112864.2044
        39.300          28.5004
 122192923.217 8                  23252524.179
        48.200
 200840274.065 5                  38218628.238
        35.200
 116000922.186 7                  21723252.215    21723251.708
        43.700
 131666826.455 7                  25055361.265
        43.200
 103838625.511 8  80763428.009 8  19452460.386    19452461.051    19452466.634
        49.500          49.600


 114864814.771 6                  21472775.219    21472772.967
        38.800
 198906052.081 6                  37850563.432
        41.000
 202059899.752 6                  38450723.559
        41.500
 115378375.725 7  89905267.17646  21955778.656    21955778.2544   21955778.6074
        46.500          40.0004
 103121361.532 8  80205530.812 8  19304519.169    19304519.650    19304526.200
        52.900          50.400
 113788125.267 7  88501911.291 7  21293898.129    21293898.610    21293903.351
        46.500          42.500
 130791435.879 5                  24888768.664
        35.400
 123711381.415 8                  23541477.035
        50.700
 116323389.172 6  90473735.463 6  21737800.174    21737799.112    21737808.589
        39.000          40.100
 25  1  1  1  1  0.0000000  0 22G06G14G19G12G11E27G24E34S35R13E15R22
                                E36R23S31S33G17R12R11E02E30R21
 106022017.048 8  82614605.89548  20175305.526    20175305.2134   20175309.2974
        49.400          53.7004
 119448180.208 6  93076467.29842  22730227.480    22730227.7794   22730231.9294
        38.300          16.6004
 106431997.968 7  82934019.79246  20253339.232    20253337.8604   20253337.8844
        46.400          37.8004
 121057065.202 7  94330221.74945  23036379.034    23036378.7804   23036382.4604
        43.500          31.1004
 115525014.122 5  90019517.24644  21983682.502    21983682.5064   21983686.9254
        35.400          24.1004
 137476226.116 7                  26160842.274
        44.000
 121479358.371 6  94659269.13144  23116745.255    23116745.4744   23116751.5514
        38.800          27.8004
 122196503.094 8                  23253205.344
        48.600
 200840317.077 6                  38218650.391
        37.800
 115948687.192 6                  21713467.804    21713468.849
        41.300
 131633551.854 6                  25049028.250
        39.800
 103843422.087 8  80767158.687 8  19453359.491    19453359.445    19453365.068
        50.000          49.300


 114827838.195 6                  21465858.342    21465858.793
        39.900
 198906062.666 6                  37850571.557
        39.500
 202059899.986 7                  38450720.532
        44.600
 115404177.186 8  89925372.19446  21960688.818    21960688.4294   21960688.4974
        48.000          40.0004
 103116352.989 8  80201635.313 8  19303581.415    19303581.767    19303588.863
        52.300          49.300
 113845859.155 7  88546815.326 6  21304698.396    21304699.126    21304709.157
        44.600          41.800
 130822894.492 4                  24894754.994
        29.800
 123706063.843 8                  23540465.267
        49.400
 116370664.486 7  90510505.097 6  21746633.989    21746633.880    21746641.564
        42.900          37.600
 25  1  1  1  1 15.0000000  0 23G03G06G14G19G12G11E27G24E34S35R13E15
                                R22E36R23S31S33G17R12R11E02E30R21


 106017880.908 8  82611382.97048  20174518.628    20174518.3334   20174522.2114
        51.800          53.9004
 119496891.254 6  93114423.96143  22739495.891    22739496.1054   22739501.4864
        39.900          18.1004
 106437969.089 7  82938672.61045  20254475.981    20254474.6314   20254473.8154
        45.700          33.9004
 121008515.238 7  94292390.63845  23027141.324    23027141.0114   23027142.4384
        43.800          30.7004
 115486321.679 6  89989367.38443  21976321.113    21976320.9754   21976324.4434
        37.700          20.5004
 137439713.534 7                  26153893.710
        44.600
 121499926.464 5  94675296.26044  23120659.938    23120660.0004   23120662.8794
        34.900          24.9004
 122200164.765 7                  23253902.602
        46.400


 115896551.137 6                  21703706.617    21703707.069
        40.200
 131600336.409 7                  25042707.928
        42.600
 103848327.799 8  80770974.241 8  19454280.005    19454280.205    19454283.808
        52.200          49.700
 136582692.421 5                  25990822.397
        35.300
 114790949.285 7                  21458969.509    21458968.496
        43.300
 198906067.592 6                  37850571.239
        39.400
 202059894.788 7                  38450726.882
        44.200
 115430001.539 8  89945495.07146  21965602.639    21965602.2244   21965602.3774
        48.600          39.0004
 103111536.531 8  80197889.192 8  19302679.803    19302680.100    19302686.772
        51.800          48.700
 113903688.187 6  88591793.482 7  21315522.165    21315521.843    21315533.971
        41.300          45.600
 130854408.585 6                  24900755.048
        39.400
 123700820.192 8                  23539467.152
        49.600
 116417955.831 7  90547287.215 6  21755475.191    21755476.491    21755479.784
        44.400          38.800
 25  1  1  1  1 30.0000000  0 23G03G06G14G19G12G11E27G24E34S35R13E15
                                R22E36R23S31S33G17R12R11E02E30R21


 106013873.539 8  82608260.36149  20173755.853    20173755.5634   20173759.6924
        50.800          54.5004
 119545666.371 6  93152430.49043  22748778.264    22748778.3934   22748783.3674
        36.100          22.0004
 106444005.330 7  82943376.17045  20255623.643    20255622.2984   20255622.2984
        47.100          32.9004
 120960013.487 7  94254597.28145  23017912.369    23017912.0654   23017909.3784
        46.100          32.3004
 115447718.675 5  89959287.11143  21968973.731    21968973.5754   21968977.7994
        33.700          22.6004
 137403226.963 7                  26146950.781
        43.600
 121520614.773 6  94691417.03844  23124596.083    23124596.2084   23124599.0964
        38.200          29.1004
 122203913.654 7                  23254615.409
        47.600


 115844519.967 5                  21693955.130    21693954.890
        34.800
 131567185.548 6                  25036399.188
        40.500
 103853348.065 8  80774878.917 8  19455219.690    19455219.979    19455225.098
        50.700          51.200
 136619752.535 6                  25997874.387
        38.000
 114754153.611 6                  21452086.998    21452086.374
        40.200
 198906075.011 7                  37850568.234
        43.200
 202059891.186 7                  38450724.677
        43.700
 115455854.459 8  89965640.16446  21970522.570    21970522.1684   21970521.3094
        48.400          39.5004
 103106917.925 8  80194296.929 7  19301816.242    19301816.196    19301820.690
        51.900          46.400
 113961617.552 6  88636849.635 6  21326366.512    21326365.573    21326371.177
        37.700          41.900
 130885983.463 7                  24906762.396
        42.700
 123695656.158 8                  23538484.324
        48.800
 116465268.324 6  90584085.877 6  21764314.747    21764313.062    21764320.173
        40.400          39.500
 25  1  1  1  1 45.0000000  0 23G03G06G14G19G12G11E27G24E34S35R13E15
                                R22E36R23S31S33G17R12R11E02E30R21


 106009992.860 8  82605236.47549  20173017.075    20173016.7764   20173021.6954
        50.500          54.6004
 119594503.458 6  93190485.34843  22758072.758    22758072.8654   22758076.4994
        37.000          23.8004
 106450104.664 7  82948128.94045  20256785.085    20256783.7314   20256783.2344
        47.800          34.2004
 120911558.302 7  94216840.14045  23008690.654    23008690.3414   23008688.8574
        45.000          32.3004
 115409203.256 6  89929275.13343  21961645.885    21961645.7604   21961647.0484
        38.900          21.4004
 137366764.489 7                  26140011.880
        42.500
 121541421.081 5  94707629.74944  23128553.062    23128553.2364   23128559.5814
        33.600          27.1004
 122207747.588 8                  23255344.908
        49.300


 115792592.392 5                  21684234.490    21684230.935
        30.900
 131534097.465 6                  25030099.569
        39.000
 103858480.665 8  80778870.962 8  19456181.178    19456181.065    19456185.540
        50.900          50.300
 136656841.584 5                  26004932.152
        34.100
 114717448.955 6                  21445224.188    21445224.110
        41.200
 198906080.718 6                  37850568.341
        40.700
 202059886.337 7                  38450723.403
        42.700
 115481733.869 8  89985805.94246  21975447.105    21975446.6944   21975446.0504
        48.700          40.1004
 103102495.090 8  80190856.961 7  19300987.907    19300988.065    19300993.538
        52.200          47.600
 114019644.711 6  88681981.836 6  21337221.188    21337220.611    21337230.566
        39.400          39.700
 130917617.103 7                  24912782.102
        43.700
 123690569.819 8                  23537516.727
        49.100
 116512600.038 6  90620899.347 6  21773160.811    21773161.352    21773165.002
        40.900          39.400
 25  1  1  1  2  0.0000000  0 23G03G06G14G19G12G11E27G24E34S35R13E15
                                R22E36R23S31S33G17R12R11E02E30R21


 106006237.093 8  82602309.93749  20172302.553    20172302.2494   20172307.1754
        50.000          54.4004
 119643400.451 6  93228586.83143  22767376.844    22767376.9914   22767380.9174
        36.400          22.8004
 106456265.553 7  82952929.65845  20257957.161    20257955.7984   20257956.6144
        47.100          35.4004
 120863148.266 7  94179118.12245  22999478.069    22999477.7304   22999479.9794
        43.100          33.2004
 115370773.811 6  89899330.12843  21954333.643    21954333.4914   21954331.0364
        36.500          21.9004
 137330324.603 7                  26133077.176
        42.500
 121562343.473 5  94723932.96244  23132536.303    23132536.4054   23132542.4824
        32.800          27.2004
 122211664.762 8                  23256090.276
        50.100


 115740766.878 5                  21674531.717    21674525.931
        31.000
 131501070.447 6                  25023816.571
        39.300
 103863723.586 8  80782948.793 8  19457162.713    19457163.007    19457167.848
        51.100          50.100
 136693957.727 6                  26011995.463
        37.200
 114680833.860 6                  21438378.308    21438378.231
        40.600
 198906082.849 6                  37850581.712
        41.800
 202059878.146 7                  38450725.276
        44.400
 115507638.040 8  90005991.01246  21980376.569    21980376.1454   21980376.5554
        48.200          41.3004
 103098266.576 8  80187568.122 8  19300195.948    19300196.338    19300202.178
        52.300          48.100
 114077767.340 5  88727188.380 5  21348101.446    21348097.761    21348105.404
        30.600          35.900
 130949307.724 7                  24918812.810
        43.100
 123685559.528 8                  23536563.101
        48.500
 116559948.726 6  90657726.090 6  21782005.954    21782005.148    21782014.795
        41.700          39.200
 25  1  1  1  2 15.0000000  0 23G03G06G14G19G12G11E27G24E34S35R13E15
                                R22E36R23S31S33G17R12R11E02E30R21


 106002614.561 8  82599487.21449  20171612.956    20171612.6434   20171617.1944
        50.300          54.4004
 119692365.535 6  93266741.41844  22776692.283    22776692.4214   22776698.7774
        38.000          24.9004
 106462496.251 8  82957784.77046  20259142.708    20259141.3584   20259142.7884
        49.000          36.5004
 120814792.016 7  94141438.09545  22990276.195    22990275.8514   22990280.9534
        43.800          33.1004
 115332438.976 6  89869458.88743  21947036.891    21947036.7574   21947034.0944
        41.000          20.1004
 137293915.902 7                  26126149.366
        43.200
 121583389.892 6  94740332.87945  23136540.561    23136540.6814   23136545.9214
        38.900          30.4004
 122215673.488 8                  23256853.038
        49.100
 200840664.780 5                  38218698.720
        35.900
 115689052.840 5                  21664848.497    21664844.153
        35.500
 131468113.019 6                  25017545.389
        38.100
 103869085.179 8  80787118.971 8  19458167.326    19458167.727    19458172.411
        51.700          49.700
 136731109.101 5                  26019061.775
        30.000
 114644316.991 7                  21431551.989    21431551.744
        42.800
 198906091.168 7                  37850571.892
        42.700
 202059875.640 7                  38450719.490
        44.400
 115533575.406 8  90026201.96346  21985311.837    21985311.3994   21985312.9674
        48.000          40.8004
 103094241.147 8  80184437.287 8  19299442.043    19299442.664    19299448.575
        52.900          48.100
 114135969.911 6  88772475.768 5  21358996.651    21358996.460    21359005.566
        38.600          35.500
 130981063.738 7                  24924855.795
        43.400
 123680633.899 8                  23535625.518
        49.400
 116607322.606 7  90694572.315 6  21790861.701    21790862.681    21790868.151
        43.000          37.800
 25  1  1  1  2 30.0000000  0 23G03G06G14G19G12G11E27G24E34S35R13E15
                                R22E36R23S31S33G17R12R11E02E30R21


 105999119.837 8  82596764.08049  20170947.732    20170947.4284   20170951.5714
        50.900          54.2004
 119741393.229 6  93304944.77644  22786023.784    22786023.9894   22786028.9074
        38.000          25.0004
 106468791.301 8  82962690.03546  20260340.258    20260338.9134   20260340.7814
        49.200          37.9004
 120766484.611 6  94103796.00845  22981083.744    22981083.3734   22981089.5374
        41.300          33.9004
 115294193.529 6  89839657.29443  21939758.296    21939758.1314   21939758.3354
        40.900          21.7004
 137257533.238 7                  26119225.366
        43.300
 121604555.054 6  94756825.27145  23140569.471    23140569.5514   23140573.1054
        41.200          32.2004
 122219768.352 8                  23257632.769
        49.400
 200840705.476 6                  38218703.983
        36.400
 115637445.383 6                  21655184.824    21655180.748
        39.500
 131435219.870 5                  25011286.767
        33.700
 103874559.779 8  80791377.019 8  19459192.452    19459192.945    19459197.839
        51.000          49.600
 136768290.508 4                  26026140.302
        28.800
 114607892.799 6                  21424743.401    21424742.120
        36.800
 198906099.480 6                  37850575.988
        40.900
 202059872.781 7                  38450718.882
        43.800
 115559540.558 7  90046434.57647  21990252.913    21990252.4804   21990254.5844
        47.600          42.4004
 103090413.556 8  80181460.305 8  19298725.591    19298725.648    19298732.794
        51.700          49.100
 114194294.409 6  88817839.110 5  21369906.939    21369910.654    21369914.102
        39.300          34.400
 131012879.734 7                  24930910.161
        43.600
 123675787.721 8                  23534703.547
        49.200
                  90731433.892 6                  21799715.291    21799725.608
                        39.300
 25  1  1  1  2 45.0000000  0 23G03G06G14G19G12G11E27G24E34S35R13E15
                                R22E36R23S31S33G17R12R11E02E30R21
 123980273.893 4                  23592661.585
        28.400
 105995749.070 8  82594137.53649  20170306.564    20170306.2564   20170309.8624
        51.300          54.2004
 119790479.707 5  93343194.01743  22795363.096    22795363.2834   22795370.1984
        32.400          21.6004
 106475147.215 8  82967642.67346  20261548.763    20261547.4314   20261551.1424
        48.500          37.2004
 120718222.616 6  94066189.34745  22971899.500    22971899.1164   22971905.6294
        38.700          32.4004
 115256033.959 6  89809922.61943  21932496.168    21932496.0754   21932499.0454
        40.600          22.9004
 137221173.048 7                  26112306.394
        43.500
 121625834.680 4  94773406.80744  23144615.568    23144615.4754   23144623.6394
        28.500          25.4004
 122223945.469 8                  23258427.492
        49.400
 200840743.171 5                  38218728.671
        34.000
 115585941.025 6                  21645539.154    21645537.386
        41.400
 131402387.481 6                  25005039.101
        36.200
 103880143.373 8  80795719.846 8  19460238.146    19460238.294    19460243.524
        50.500          48.900
 136805497.708 5                  26033221.202
        34.600
 114571557.708 6                  21417953.096    21417951.107
        38.600
 198906103.985 6                  37850573.135
        41.900
 202059867.352 7                  38450720.510
        45.100
 115585529.824 7  90066685.98547  21995198.687    21995198.2454   21995201.5454
        46.300          42.0004
 103086780.028 8  80178634.253 8  19298046.219    19298046.686    19298051.971
        52.600          48.600
 114252712.506 6  88863275.377 6  21380844.247    21380844.728    21380850.739
        39.600          39.900
 131044751.938 7                  24936976.582
        44.800
 123671017.355 8                  23533795.870
        50.800
 116702375.471 5  90768307.419 5  21808625.960                    21808578.643
        34.400          32.000
 25  1  1  1  3  0.0000000  0 23G03G06G14G19G12G11E27G24E34S35R13E15
                                R22E36R23S31S33G17R12R11E02E30R21


 105992504.622 8  82591609.41649  20169689.016    20169688.7124   20169692.3764
        51.900          54.3004
 119839626.955 6  93381490.56543  22804716.611    22804716.7804   22804721.7074
        36.200          21.3004
 106481566.326 7  82972644.58346  20262770.743    20262769.4154   20262772.3334
        47.700          36.4004
 120670008.767 6  94028620.19645  22962724.522    22962724.1514   22962729.2794
        40.500          30.9004
 115217962.839 6  89780256.84643  21925253.049    21925253.0094   21925255.3794
        39.500          21.1004
 137184837.921 7                  26105391.446
        44.100


 122228207.181 8                  23259238.369
        48.900
 200840779.419 5                  38218715.010
        33.400
 115534542.876 6                  21635912.594    21635911.123
        39.300
 131369618.249 7                  24998803.236
        42.100
 103885838.225 8  80800149.184 7  19461306.064    19461306.569    19461309.393
        51.700          47.700
 136842732.945 5                  26040305.684
        34.800
 114535314.205 6                  21411176.991    21411177.118
        41.800
 198906107.531 6                  37850571.655
        41.900
 202059860.598 7                  38450717.370
        44.600
 115611545.688 7  90086958.12746  22000149.802    22000149.3464   22000152.7224
        45.900          41.1004
 103083343.081 8  80175961.080 8  19297402.561    19297402.933    19297408.080
        51.400          48.100
 114311226.309 6  88908786.114 6  21391793.220    21391790.938    21391800.155
        37.800          41.700
 131076682.671 7                  24943052.594
        44.400
 123666325.356 8                  23532903.178
        50.100
 116749802.262 6  90805194.964 5  21817427.285    21817446.817    21817444.784
        37.000          30.800
 25  1  1  1  3 15.0000000  0 23G03G06G14G19G12G11E27G24E34S35R13E15
                                R22E36R23S31S33G17R12R11E02E30R21


 105989391.400 8  82589183.56349  20169096.225    20169095.9264   20169099.8414
        52.000          54.7004
 119888839.902 6  93419838.26643  22814080.522    22814080.6744   22814085.3524
        39.200          23.0004
 106488053.590 7  82977699.63046  20264005.548    20264004.2294   20264005.6294
        47.300          36.2004
 120621848.457 6  93991092.78245  22953558.910    22953558.4634   22953562.6804
        41.700          30.1004
 115179985.299 6  89750664.06243  21918026.271    21918026.2844   21918028.5614
        39.400          22.5004
 137148533.059 6                  26098482.679
        41.900
 121668697.718 6  94806798.36543  23152784.438    23152783.9384   23152788.3894
        37.900          23.8004
 122232558.336 7                  23260065.910
        47.500


 115483256.345 6                  21626309.258    21626307.781
        39.400
 131336917.327 6                  24992578.602
        38.700
 103891649.144 8  80804668.796 8  19462394.116    19462395.101    19462399.168
        51.600          48.900
 136880001.108 5                  26047397.032
        31.000
 114499167.422 6                  21404420.790    21404422.406
        41.300
 198906115.429 6                  37850580.643
        41.600
 202059857.487 7                  38450722.164
        44.500
 115637593.109 7  90107254.84246  22005106.167    22005105.7114   22005109.3104
        46.600          40.1004
 103080108.034 8  80173444.939 8  19296796.420    19296797.248    19296802.756
        51.300          48.500
 114369840.629 6  88954374.957 7  21402761.116    21402761.733    21402768.097
        40.800          42.100
 131108676.910 7                  24949140.470
        44.700
 123661716.834 8                  23532026.382
        50.000
 116797251.575 6                  21826309.357    21826308.044
        36.700
 25  1  1  1  3 30.0000000  0 23G03G06G14G19G12G11E27G24E34S35R13E15
                                R22E36R23S31S33G17R12R11E02E30R21


 105986402.535 8  82586854.59949  20168528.290    20168527.9914   20168531.2344
        52.000          54.4004
 119938111.604 6  93458231.81344  22823459.570    22823459.7444   22823460.6994
        40.500          24.5004
 106494602.392 8  82982802.61946  20265252.095    20265250.7904   20265251.3424
        48.100          37.3004
 120573735.497 6  93953602.28444  22944403.913    22944403.4574   22944405.0124
        38.600          28.6004
 115142094.723 6  89721138.96843  21910815.528    21910815.5814   21910817.6184
        41.400          22.9004
 137112251.958 6                  26091578.584
        39.400
 121690329.838 6  94823654.49744  23156901.798    23156901.5664   23156904.2944
        39.200          26.5004
 122236992.112 7                  23260908.913
        45.700


 115432075.251 6                  21616722.614    21616721.986
        38.400
 131304278.016 7                  24986369.460
        42.900
 103897569.095 8  80809273.212 8  19463503.064    19463503.495    19463508.112
        51.200          49.100
 136917295.347 5                  26054496.492
        32.200
 114463110.272 5                  21397677.667    21397676.820
        35.000
 198906120.019 6                  37850582.534
        40.800
 202059851.374 7                  38450718.211
        42.800
 115663665.401 7  90127570.91746  22010067.301    22010066.8454   22010069.6454
        47.400          38.0004
 103077068.178 8  80171080.651 8  19296227.249    19296227.733    19296234.641
        50.200          49.900
 114428548.064 7  89000036.173 6  21413748.310    21413748.581    21413756.305
        43.900          41.900
 131140727.827 7                  24955239.597
        46.600
 123657185.152 8                  23531163.743
        50.700
 116844716.420 7  90879017.057 6  21835176.530    21835176.966    21835187.775
        42.000          38.800
 25  1  1  1  3 45.0000000  0 23G03G06G14G19G12G11E27G24E34S35R13E15
                                R22E36R23S31S33G17R12R11E02E30R21


 105983540.825 8  82584624.70548  20167983.675    20167983.3674   20167986.6044
        52.000          53.6004
 119987444.715 7  93496673.13544  22832846.491    22832846.6384   22832848.3654
        44.200          24.7004
 106501215.634 7  82987955.82246  20266510.216    20266508.9154   20266509.8184
        47.900          37.3004
 120525672.880 6  93916151.03245  22935257.991    22935257.5894   22935258.8944
        36.300          30.0004
 115104294.122 7  89691684.06243  21903622.661    21903622.7144   21903623.6144
        44.700          23.1004
 137075997.565 6                  26084679.709
        40.300
 121712078.968 6  94840601.83944  23161039.667    23161039.3544   23161045.5574
        39.300          25.4004
 122241511.311 7                  23261768.661
        42.700
 200840752.367 5                  38218726.270
        33.800
 115381002.879 6                  21607159.644    21607159.055
        40.700
 131271703.345 6                  24980169.938
        40.100
 103903600.701 8  80813964.510 8  19464633.229    19464633.416    19464638.029
        50.900          49.600
 136954618.239 5                  26061595.782
        32.400
 114427146.090 7                  21390956.331    21390955.734
        42.700
 198906124.418 7                  37850587.847
        42.400
 202059846.378 6                  38450712.702
        40.700
 115689765.386 8  90147908.58246  22015034.000    22015033.5584   22015036.1284
        48.000          37.7004
 103074226.548 8  80168870.531 8  19295694.832    19295695.221    19295702.348
        50.700          49.400
 114487350.955 6  89045771.793 6  21424752.127    21424751.312    21424758.893
        41.300          40.800
 131172838.272 7                  24961349.774
        45.700
 123652733.325 8                  23530316.239
        49.700
 116892199.470 6  90915948.335 6  21844053.237    21844050.329    21844059.537
        41.200          39.500
 25  1  1  1  4  0.0000000  0 23G03G06G14G19G12G11E27G24E34S35R13E15
                                R22E36R23S31S33G17R12R11E02E30R21
 124125466.751 4                  23620291.256
        29.300
 105980808.566 8  82582495.68548  20167463.412    20167463.0994   20167466.5814
        51.600          53.8004
 120036841.530 6  93535164.12343  22842245.555    22842245.6534   22842248.6414
        40.900          23.5004
 106507895.692 8  82993161.07846  20267781.646    20267780.3504   20267781.2574
        48.300          38.4004
 120477663.201 6  93878740.95745  22926122.356    22926121.9994   22926124.1694
        40.400          32.3004
 115066586.136 6  89662301.32643  21896447.240    21896447.2094   21896449.0124
        39.700          22.7004
 137039772.511 6                  26077786.012
        41.600
 121733947.229 5  94857642.08143  23165201.133    23165200.8164   23165207.4754
        34.600          23.6004
 122246118.162 7                  23262645.397
        45.700
 200840792.502 6                  38218730.853
        39.200
 115330042.116 6                  21597614.806    21597614.694
        39.700
 131239195.808 5                  24973984.427
        35.200
 103909746.210 8  80818744.420 8  19465784.210    19465784.546    19465789.557
        49.700          50.000
 136991972.022 5                  26068704.842
        30.800
 114391277.159 7                  21384248.547    21384246.758
        42.100
 198906132.541 6                  37850576.922
        40.000
 202059843.292 6                  38450715.989
        38.900
 115715895.584 7  90168269.81146  22020006.584    22020006.1424   22020008.3764
        46.900          36.7004
 103071585.806 8  80166816.638 8  19295200.322    19295201.084    19295208.328
        50.900          50.200
 114546251.460 6  89091583.322 6  21435773.895    21435774.247    21435781.711
        41.900          40.100
 131205010.603 7                  24967471.630
        43.400
 123648363.911 8                  23529484.991
        49.900
 116939702.739 6  90952895.319 6  21852925.163    21852925.435    21852934.599
        41.700          41.800
 25  1  1  1  4 15.0000000  0 23G03G06G14G19G12G11E27G24E34S35R13E15
                                R22E36R23S31S33G17R12R11E02E30R21


 105978201.862 8  82580464.50148  20166967.035    20166966.7314   20166970.7274
        52.000          53.5004
 120086297.771 6  93573701.42943  22851659.248    22851659.3284   22851660.3784
        40.400          23.8004
 106514638.598 8  82998415.34046  20269064.956    20269063.6644   20269064.9074
        49.200          39.5004
 120429703.020 6  93841369.58145  22916995.437    22916995.0664   22916997.7714
        37.800          31.1004
 115028967.089 6  89632987.82843  21889289.172    21889289.1644   21889290.8654
        39.500          23.7004
 137003573.206 6                  26070896.645
        39.300
 121755930.622 5  94874772.07043  23169383.294    23169383.1384   23169392.1004
        33.200          23.4004
 122250808.778 7                  23263538.944
        46.800


 115279190.001 6                  21588092.551    21588091.989
        39.700
 131206751.437 6                  24967807.295
        37.200
 103916001.611 8  80823609.692 8  19466955.759    19466955.968    19466960.402
        51.000          49.900
 137029352.610 4                  26075814.819
        29.400
 114355499.652 7                  21377563.195    21377561.405
        42.300
 198906138.166 7                  37850584.779
        44.200
 202059837.936 6                  38450720.733
        37.000
 115742051.953 8  90188651.38946  22024983.950    22024983.5084   22024985.5874
        48.000          37.9004
 103069142.173 8  80164916.070 8  19294742.736    19294743.517    19294749.616
        51.300          48.200
 114605245.311 7  89137467.338 7  21446815.457    21446815.032    21446819.858
        43.600          42.200
 131237240.819 6                  24973603.950
        41.200
 123644073.181 8                  23528668.035
        49.000
 116987222.087 7  90989854.801 6  21861807.024    21861806.462    21861813.614
        44.300          37.900
 25  1  1  1  4 30.0000000  0 23G03G06G14G19G12G11E27G24E34S35R13E15
                                R22E36R23S31S33G17R12R11E02E30R21


 105975720.164 8  82578530.73549  20166495.203    20166494.8994   20166499.2714
        52.400          54.2004
 120135813.015 5  93612284.63442  22861079.089    22861079.0854   22861083.1914
        34.200          16.5004
 106521444.059 7  83003718.27846  20270359.500    20270358.2044   20270360.2784
        45.800          37.6004
 120381791.899 6  93804036.35744  22907878.474    22907878.0904   22907879.7574
        39.300          27.7004
 114991436.761 6  89603743.50643  21882147.780    21882147.8024   21882148.4814
        40.600          22.0004
 136967399.356 6                  26064014.272
        39.900
 121778028.040 7  94891990.82844  23173590.775    23173590.6644   23173595.9664
        42.500          27.9004
 122255582.555 7                  23264447.042
        46.500
 200840809.931 6                  38218743.535
        39.400
 115228446.400 5                  21578589.717    21578587.797
        34.600
 131174370.271 7                  24961647.759
        42.700
 103922366.060 8  80828559.834 8  19468148.467    19468148.939    19468153.784
        50.600          51.000
 137066747.910 5                  26082936.192
        32.500
 114319813.164 7                  21370891.923    21370892.762
        42.100
 198906141.919 7                  37850587.927
        43.600
 202059832.183 7                  38450713.601
        45.000
 115768234.082 7  90209053.03545  22029966.616    22029966.1874   22029966.5104
        46.600          34.1004
 103066895.224 8  80163168.467 8  19294321.961    19294322.679    19294328.765
        50.500          48.600
 114664331.425 7  89183423.292 6  21457871.491    21457871.664    21457878.422
        43.100          40.900
 131269528.674 7                  24979749.450
        43.800
 123639860.818 8                  23527866.744
        49.300
 117034757.073 7  91026826.411 6  21870689.185    21870689.796    21870698.012
        45.000          40.100
 25  1  1  1  4 45.0000000  0 23G03G06G14G19G12G11E27G24E34S35R13E15
                                R22E36R23S31S33G17R12R11E02E30R21


 105973363.279 8  82576694.23348  20166046.405    20166046.0924   20166050.7224
        51.100          53.1004
 120185386.948 6  93650913.68743  22870512.243    22870512.2034   22870516.4104
        37.500          19.0004
 106528311.803 7  83009069.81045  20271666.170    20271664.8834   20271666.7084
        46.200          34.9004
 120333930.393 6  93766741.82045  22898770.703    22898770.2974   22898773.1954
        40.500          33.4004
 114953995.002 7  89574568.11444  21875021.370    21875021.4104   21875023.8724
        45.000          24.4004
 136931251.055 6                  26057134.165
        40.800
 121800239.572 7  94909298.52945  23177816.792    23177816.6854   23177822.1424
        42.600          30.8004
 122260439.307 8                  23265371.850
        48.000
 200840845.358 6                  38218758.760
        40.100
 115177811.530 6                  21569106.907    21569106.714
        39.700
 131142051.957 7                  24955497.761
        44.200
 103928839.378 8  80833594.702 8  19469360.855    19469361.053    19469365.871
        49.800          49.600
 137104180.825 5                  26090058.918
        32.600
 114284217.718 7                  21364237.425    21364238.429
        44.800
 198906144.835 7                  37850585.003
        42.700
 202059823.852 6                  38450707.251
        40.500
 115794441.901 8  90229474.65546  22034953.701    22034953.2774   22034952.7494
        48.300          36.4004
 103064844.965 8  80161573.850 8  19293938.827    19293938.665    19293945.372
        51.200          48.300
 114723509.362 7  89229450.594 7  21468945.177    21468943.916    21468953.991
        42.300          42.100
 131301873.777 7                  24985904.409
        44.000
 123635726.831 8                  23527079.706
        49.200
 117082307.173 7  91063809.846 6  21879575.628    21879576.641    21879582.219
        44.400          36.300
 25  1  1  1  5  0.0000000  0 23G03G06G14G19G12G11E27G24E34S35R13E15
                                R22E36R23S31S33G17R12R11E02E30R21


 105971137.377 8  82574959.78348  20165623.359    20165623.0554   20165626.7774
        53.100          53.7004
 120235025.519 6  93689593.05043  22879961.182    22879961.1954   22879961.3004
        39.100          21.9004
 106535248.171 7  83014474.81245  20272986.029    20272984.7514   20272985.5864
        44.900          33.0004
 120286125.108 7  93729491.08946  22889674.454    22889674.0744   22889677.5974
        43.500          37.7004
 114916648.328 7  89545466.84043  21867914.122    21867914.1754   21867915.8574
        45.400          22.4004
 136895134.769 7                  26050261.272
        42.000
 121822570.948 6  94926699.53745  23182064.472    23182064.3074   23182070.9394
        41.300          30.2004
 122265385.255 8                  23266313.135
        49.200
 200840885.083 6                  38218756.726
        38.000
 115127292.641 5                  21559642.109    21559643.513
        32.100
 131109803.099 7                  24949360.668
        42.900
 103935427.610 8  80838718.917 8  19470594.577    19470594.545    19470600.321
        48.500          49.400
 137141645.997 5                  26097192.552
        34.600
 114248719.503 7                  21357600.247    21357601.356
        45.500
 198906151.525 7                  37850595.073
        42.400
 202059820.390 7                  38450710.261
        42.500
 115820681.698 7  90249921.25746  22039946.327    22039945.8984   22039947.3504
        47.800          38.7004
 103062998.107 8  80160137.424 8  19293593.223    19293593.299    19293599.671
        52.000          48.800
 114782785.227 6  89275554.022 6  21480039.355    21480039.098    21480045.042
        39.600          40.400
 131334282.396 7                  24992070.698
        43.600
 123631677.649 8                  23526309.764
        49.100
 117129878.720 7  91100809.930 5  21888466.217    21888466.410    21888470.391
        44.600          35.700
 25  1  1  1  5 15.0000000  0 23G03G06G14G19G12G11E27G24E34S35R13E15
                                R22E36R23S31S33G17R12R11E02E30R21


 105969036.004 8  82573322.37949  20165222.940    20165222.6324   20165227.0594
        52.200          55.0004
 120284722.152 7  93728317.58243  22889417.555    22889417.5514   22889418.6794
        43.200          20.5004
 106542246.844 7  83019928.38146  20274318.605    20274317.3404   20274317.1414
        47.700          36.5004
 120238369.903 7  93692279.32845  22880585.921    22880585.5734   22880589.4634
        43.600          34.2004
 114879390.480 6  89516434.79944  21860824.131    21860824.2114   21860826.1484
        39.000          25.7004
 136859044.325 7                  26043395.536
        42.800
 121845015.722 6  94944182.99744  23186336.170    23186336.0364   23186341.2444
        39.300          24.6004
 122270413.716 8                  23267269.588
        48.800
 200840922.936 5                  38218762.432
        32.400
 115076883.360 6                  21550205.828    21550205.103
        36.100
 131077617.234 6                  24943237.235
        40.100
 103942124.116 8  80843927.334 8  19471849.642    19471849.739    19471853.690
        51.400          50.200
 137179136.641 5                  26104325.632
        34.900
 114213312.282 7                  21350982.052    21350982.219
        46.600
 198906156.250 7                  37850589.233
        45.200


 115846947.142 7  90270387.84646  22044944.755    22044944.3264   22044945.8864
        47.500          37.5004
 103061347.980 8  80158853.983 8  19293284.387    19293284.225    19293290.709
        49.400          48.700
 114842151.824 7  89321727.957 6  21491147.586    21491147.753    21491156.018
        43.800          40.800
 131366747.957 6                  24998248.832
        39.000
 123627706.918 8                  23525554.118
        51.100
 117177464.665 7  91137821.146 5  21897357.627    21897358.218    21897363.380
        43.000          31.100
 25  1  1  1  5 30.0000000  0 23G03G06G14G19G12G11E27G24E34S35R13E15
                                R22E36R23S31S33G17R12R11E02E30R21


 105967062.473 8  82571784.55948  20164847.498    20164847.2034   20164851.5944
        51.700          53.5004
 120334480.288 7  93767090.24144  22898886.082    22898886.0334   22898888.8284
        44.400          27.0004
 106549311.379 7  83025433.24045  20275662.231    20275660.9484   20275660.8154
        42.200          30.2004
 120190668.789 7  93655109.74046  22871508.984    22871508.6364   22871511.6574
        46.200          36.4004
 114842225.131 5  89487474.92943  21853754.233    21853754.3444   21853753.6024
        35.800          20.5004
 136822983.328 6                  26036531.550
        41.200
 121867576.927 6  94961763.20944  23190629.716    23190629.4484   23190635.9524
        36.600          26.6004
 122275528.368 8                  23268243.314
        50.100


 115026588.293 6                  21540789.914    21540789.878
        40.700
 131045497.943 6                  24937123.836
        40.200
 103948932.144 8  80849222.510 8  19473124.501    19473124.808    19473129.408
        48.600          48.300
 137216663.271 5                  26111464.974
        31.800
 114177999.740 7                  21344381.822    21344381.264
        44.500
 198906163.284 6                  37850582.552
        37.700
 202059790.876 6                  38450710.055
        41.500
 115873241.783 7  90290877.15846  22049948.432    22049947.9994   22049950.2404
        47.400          39.9004
 103059898.564 8  80157726.649 8  19293012.414    19293012.373    19293019.469
        49.800          48.300
 114901612.447 7  89367975.080 6  21502274.658    21502276.119    21502283.686
        43.400          41.700
 131399274.366 7                  25004439.297
        44.300
 123623818.426 8                  23524814.383
        50.500
 117225068.496 7                  21906254.136    21906255.249
        42.900
 25  1  1  1  5 45.0000000  0 23G03G06G14G19G12G11E27G24E34S35R13E15
                                R22E36R23S31S33G17R12R11E02E30R21
 124334196.089 6                  23660015.010
        36.400
 105965214.925 8  82570344.94048  20164495.841    20164495.5374   20164499.5704
        50.400          51.4004
 120384297.757 7  93805909.01044  22908366.490    22908366.4554   22908368.8784
        44.200          25.6004
 106556439.822 7  83030987.93045  20277020.299    20277019.0164   20277015.6724
        45.100          31.4004
 120143019.950 7  93617980.88846  22862441.544    22862441.1644   22862444.6294
        46.000          37.7004
 114805164.022 5  89458587.03143  21846696.219    21846696.3084   21846700.6014
        35.200          21.6004
 136786950.194 7                  26029675.664
        44.000
 121890252.397 6  94979432.42644  23194943.672    23194943.7974   23194951.8594
        37.900          28.4004
 122280727.032 8                  23269231.965
        48.100
 200841057.354 6                  38218778.064
        37.300
 114976405.534 6                  21531390.028    21531389.589
        39.200
 131013443.592 6                  24931024.947
        41.200
 103955849.665 8  80854602.769 7  19474421.814    19474421.807    19474424.676
        50.000          46.800
 137254209.517 4                  26118603.388
        26.700
 114142780.094 6                  21337794.412    21337794.139
        41.000
 198906169.521 6                  37850592.604
        40.700
 202059787.025 7                  38450706.898
        44.600
 115899563.660 7  90311387.72246  22054957.075    22054956.6104   22054959.8574
        46.000          39.6004
 103058647.835 8  80156753.898 8  19292778.886    19292779.352    19292785.389
        51.200          48.900
 114961164.692 7  89414293.379 6  21513420.793    21513422.828    21513426.760
        44.300          40.800
 131431859.290 7                  25010638.238
        42.000
 123620010.321 8                  23524089.384
        50.200
 117272688.095 6                  21915153.550    21915155.620
        41.600
 25  1  1  1  6  0.0000000  0 23G03G06G14G19G12G11E27G24E34S35R13E15
                                R22E36R23S31S33G17R12R11E02E30R21
 124364527.294 6  96907445.69843  23665784.906    23665784.9064   23665787.4914
        38.100          20.5004
 105963490.628 8  82569001.35548  20164168.044    20164167.7364   20164171.2424
        51.000          52.2004
 120434171.713 7  93844771.82743  22917857.913    22917857.8914   22917859.0254
        42.800          23.6004
 106563629.682 6  83036590.49844  20278387.859    20278386.5634   20278383.8414
        41.100          29.9004
 120095421.224 7  93580891.03646  22853383.527    22853383.1164   22853386.7454
        45.700          37.5004
 114768177.874 5  89429766.72343  21839657.733    21839657.7024   21839661.7174
        32.500          20.8004
 136750942.514 7                  26022823.331
        43.500
 121913039.236 5  94997188.45944  23199280.144    23199280.1614   23199289.0474
        34.900          27.1004
 122286007.083 8                  23270236.818
        49.000
 200841093.464 6                  38218799.112
        37.700
 114926333.271 7                  21522013.981    21522013.929
        42.300
 130981451.536 7                  24924936.813
        43.100
 103962873.761 8  80860066.001 8  19475736.919    19475737.050    19475741.426
        50.800          48.400
 137291780.009 5                  26125757.682
        34.300
 114107650.290 7                  21331227.664    21331228.075
        42.600
 198906172.130 6                  37850586.697
        41.400
 202059779.367 6                  38450706.737
        41.600
 115925910.225 7  90331917.54046  22059971.601    22059971.1234   22059973.9684
        47.000          40.0004
 103057593.445 8  80155933.826 8  19292581.435    19292581.666    19292588.611
        50.100          50.200
 115020805.544 7  89460680.604 7  21524582.814    21524582.916    21524587.317
        44.000          42.600
 131464500.132 6                  25016849.604
        40.900
 123616280.167 8                  23523380.079
        50.700
 117320320.420 6                  21924053.134    21924053.197
        38.300
 25  1  1  1  6 15.0000000  0 24G03G06G14G19G12G11G20E27G24E34S35R13
                                E15R22E36R23S31S33G17R12R11E02E30R21


 105961895.926 8  82567758.74048  20163864.813    20163864.5004   20163867.7124
        51.000          52.5004
 120484108.496 6  93883683.54043  22927360.866    22927360.8084   22927361.1654
        37.700          19.7004
 106570887.332 6  83042245.79245  20279768.237    20279766.9594   20279766.4304
        41.900          32.4004
 120047879.383 7  93543845.54646  22844338.236    22844337.8394   22844341.2784
        43.600          40.3004
 114731286.914 5  89401020.56143  21832636.955    21832636.5664   21832642.7324
        35.300          21.8004
 127485284.019 5                  24259639.432
        32.700
 136714966.880 7                  26015977.182
        45.600
 121935943.752 5  95015036.14144  23203638.144    23203638.4074   23203646.2584
        35.700          25.2004
 122291374.817 7                  23271257.903
        46.800
 200841133.176 6                  38218796.568
        38.700
 114876378.435 6                  21512658.206    21512656.974
        41.500
 130949528.419 7                  24918862.441
        44.000
 103970010.771 8  80865617.019 8  19477074.257    19477073.994    19477078.991
        50.900          49.100
 137329380.802 5                  26132913.131
        34.600
 114072617.183 7                  21324678.764    21324678.821
        46.100
 198906179.765 7                  37850586.675
        43.200
 202059774.973 7                  38450702.051
        43.800
 115952287.989 7  90352471.66046  22064990.669    22064990.1784   22064992.0544
        45.400          40.2004
 103056741.914 8  80155271.553 8  19292422.092    19292422.861    19292428.692
        52.100          49.400
 115080540.991 6  89507141.493 7  21535761.244    21535759.620    21535767.554
        41.000          42.400
 131497203.412 6                  25023073.942
        36.500
 123612634.494 8                  23522686.121
        50.600
 117367972.068 7  91286037.245 6  21932962.183    21932962.958    21932973.803
        44.900          36.900
 25  1  1  1  6 30.0000000  0 24G03G06G14G19G12G11G20E27G24E34S35R13
                                E15R22E36R23S31S33G17R12R11E02E30R21
 124425584.069 5                  23677405.706
        34.800
 105960424.883 8  82566612.48548  20163585.050    20163584.7334   20163587.6144
        51.900          52.5004
 120534101.996 6  93922639.48043  22936871.415    22936871.3134   22936874.7614
        41.000          18.0004
 106578207.164 7  83047949.55845  20281161.789    20281160.5154   20281160.6424
        44.700          34.5004
 120000388.930 7  93506840.11146  22835300.877    22835300.4804   22835304.9744
        47.400          40.7004
 114694485.280 6  89372344.00643  21825635.381    21825635.0334   21825639.4654
        39.000          23.4004
 127430768.187 4                  24249268.355
        25.800
 136679017.679 7                  26009135.933
        46.300
 121958959.756 5  95032970.74244  23208021.294    23208021.5354   23208025.2474
        34.300          24.7004
 122296824.266 7                  23272295.135
        46.000
 200841170.495 6                  38218799.618
        39.400
 114826535.621 7                  21503324.738    21503323.512
        42.700
 130917668.406 7                  24912799.963
        42.700
 103977254.493 8  80871251.051 8  19478430.909    19478431.046    19478435.592
        50.100          49.200
 137367005.910 5                  26140070.891
        33.600
 114037674.913 7                  21318149.150    21318148.146
        46.400
 198906184.297 6                  37850587.382
        39.000
 202059770.790 7                  38450698.880
        42.300
 115978691.059 7  90373045.50446  22070014.855    22070014.3644   22070015.7654
        46.700          40.6004
 103056087.536 8  80154762.612 8  19292299.497    19292299.740    19292305.347
        51.300          48.200
 115140364.928 6  89553671.176 7  21546956.856    21546957.019    21546963.710
        41.100          44.500
 131529963.080 5                  25029306.750
        35.600
 123609067.622 8                  23522007.052
        51.100
 117415636.600 6  91323109.752 6  21941867.047    21941865.981    21941877.734
        37.700          37.200
 25  1  1  1  6 45.0000000  0 24G03G06G14G19G12G11G20E27G24E34S35R13
                                E15R22E36R23S31S33G17R12R11E02E30R21
 124456297.597 5  96978970.93843  23683248.653    23683248.4214   23683252.4334
        34.800          18.1004
 105959076.927 8  82565562.13348  20163327.845    20163327.5374   20163331.1624
        50.900          52.5004
 120584151.458 6  93961638.98042  22946395.648    22946395.5324   22946398.9064
        38.900          14.1004
 106585588.545 4  83053701.40644  20282564.550    20282563.2314   20282565.9354
        26.400          28.1004
 119952949.741 7  93469874.58546  22826272.467    22826272.0614   22826277.4844
        46.000          39.6004
 114657772.412 5  89343736.64543  21818648.065    21818647.7704   21818652.5734
        33.500          23.4004
 127376251.444 5                  24238891.927
        33.700
 136643094.641 7                  26002301.294
        46.800
 121982086.577 6  95050991.61844  23212420.208    23212420.4314   23212425.6814
        36.900          28.8004
 122302354.985 7                  23273347.663
        47.500
 200841205.576 5                  38218833.799
        33.900
 114776804.826 7                  21494012.279    21494012.467
        42.000
 130885871.161 7                  24906749.203
        43.100
 103984604.304 8  80876967.573 8  19479808.180    19479808.136    19479812.579
        51.400          48.400
 137404654.687 5                  26147237.181
        33.600
 114002823.067 8                  21311635.175    21311634.655
        48.400
 198906185.766 6                  37850600.819
        40.600
 202059761.134 7                  38450707.238
        43.900
 116005118.889 8  90393638.60546  22075043.814    22075043.3234   22075044.1054
        49.200          41.8004
 103055629.933 8  80154406.720 7  19292214.411    19292214.868    19292219.125
        52.600          47.400
 115200276.144 6  89600268.768 7  21558168.208    21558168.334    21558175.311
        41.200          44.000
 131562778.834 6                  25035552.084
        39.700
 123605579.227 8                  23521343.086
        50.900
 117463313.351 7  91360191.614 5  21950779.908    21950780.456    21950785.188
        43.000          35.900
 25  1  1  1  7  0.0000000  0 22G03G06G14G12G11E27G24E34S35R13E15R22
                                E36R23S31S33G17R12R11E02E30R21


 105957855.316 8  82564610.25648  20163095.172    20163094.8644   20163098.8974
        51.300          52.3004
 120634260.220 6  94000684.74942  22955930.159    22955930.0704   22955934.7444
        36.800          13.0004
 119905565.533 7  93432951.92846  22817255.389    22817255.0004   22817259.7154
        47.500          38.2004
 114621152.209 6  89315201.44844  21811679.670    21811679.3934   21811683.3794
        41.400          24.9004
 136607201.302 7                  25995470.732
        46.800
 122005327.183 5  95069101.25744  23216846.291    23216846.4834   23216850.6604
        34.300          28.8004
 122307970.084 7                  23274416.147
        46.900
 200841241.402 5                  38218837.023
        32.200
 114727190.217 6                  21484722.464    21484722.618
        41.300
 130854140.119 7                  24900711.511
        42.700
 103992063.327 8  80882769.045 8  19481205.619    19481206.005    19481210.028
        52.600          48.900
 137442330.249 5                  26154403.626
        30.900
