     2.11           OBSERVATION DATA    M (MIXED)           RINEX VERSION / TYPE
teqc  2019Feb25                         20260317 16:18:01UTCPGM / RUN BY / DATE
Linux 2.4.21-27.ELsmp|Opteron|gcc -static|Linux 64|=+       COMMENT
BIT 2 OF LLI FLAGS DATA COLLECTED UNDER A/S CONDITION       COMMENT
-Unknown-                                                   MARKER NAME
-Unknown-           -Unknown-                               OBSERVER / AGENCY
-Unknown-           -Unknown-           -Unknown-           REC # / TYPE / VERS
-Unknown-           -Unknown-                               ANT # / TYPE
        0.0000        0.0000        0.0000                  APPROX POSITION XYZ
        0.0000        0.0000        0.0000                  ANTENNA: DELTA H/E/N
     1     1                                                WAVELENGTH FACT L1/2
     7    L1    L2    C1    P1    P2    S1    S2            # / TYPES OF OBSERV
 SNR is mapped to RINEX snr flag value [0-9]                COMMENT
  L1 & L2: min(max(int(snr_dBHz/6), 0), 9)                  COMMENT
  2025     1     1    16     0    0.0000000     GPS         TIME OF FIRST OBS
    18                                                      LEAP SECONDS
                                                            END OF HEADER
 25  1  1 16  0  0.0000000  0 21G07E29G16G27G04G28G03G26R06G09E04R07
                                E21S35R05S31G31E06S33E19R16
 133249605.233 5 103830908.24042  25356551.028    25356551.5154   25356559.0654
        34.100          16.2004


 105105155.391 8  81899940.09846  20000791.595    20000790.7064   20000791.0724
        49.400          40.5004
 126874204.852 6  98863075.14541  24143361.973    24143361.7374   24143373.0654
        36.700           9.0004
 109466240.653 7  85298373.87045  20830719.823    20830719.5374   20830718.2174
        45.500          30.5004
 126523465.883 6  98589734.77941  24076617.134    24076616.6694   24076620.9884
        38.800          10.1004
 112458163.719 7  87629701.59547  21400074.701    21400074.4964   21400081.3044
        47.100          45.2004
 108609354.677 8  84630681.48547  20667655.383    20667654.8294   20667661.6604
        49.000          44.2004
 102179313.443 7                  19148358.883    19148359.336
        43.000
 119602621.866 5  93196854.30845  22759627.270    22759626.6714   22759629.2914
        34.400          32.5004
 129598436.800 6                  24661743.729
        39.900
 111012170.062 7  86342827.674 7  20738003.689    20738005.131    20738010.693
        47.700          47.400
 125909301.904 7                  23959738.892
        43.400
 200851834.491 5                  38220829.417
        35.800
 121554387.929 6  94542289.329 6  22739260.188    22739261.129    22739266.094
        40.500          39.600
 198905410.571 6                  37850456.126
        40.900
 114896863.707 7  89530041.32945  21864129.070    21864128.7894   21864129.4864
        46.800          35.0004
 140225035.318 6                  26683938.691
        40.400
 202035106.314 7                  38446017.261
        43.200
 121709000.278 7                  23160457.173
        43.500
 105852625.499 8  82329944.458 7  19815838.521    19815837.973    19815845.065
        49.700          46.100
 25  1  1 16  0 15.0000000  0 23E27G07E29G16G27G04G28G03G26R06G09E04
                                R07E21S35R05S31G31E06S33E19R16R15


 133213986.726 6 103803153.69142  25349772.627    25349773.0784   25349781.2844
        37.500          14.6004


 105091842.802 8  81889566.66246  19998258.202    19998257.3044   19998257.8134
        50.200          40.1004
 126822372.483 5  98822686.0324   24133494.563    24133494.1704   24133513.0794
        31.500           4.0004
 109436103.052 7  85274890.01545  20824984.832    20824984.5694   20824983.8934
        45.600          30.0004
 126563999.712 6  98621319.44641  24084329.126    24084328.6484   24084337.2154
        36.700           7.0004
 112490771.917 7  87655110.54147  21406279.881    21406279.6764   21406286.4364
        45.700          44.2004
 108635613.311 8  84651142.79147  20672651.755    20672651.2144   20672659.1634
        49.100          42.7004
 102186407.624 7                  19149688.240    19149688.378
        42.800
 119555847.432 5  93160406.69644  22750724.726    22750724.0834   22750728.5534
        34.200          29.4004
 129570444.194 6                  24656416.516
        40.000
 110964856.746 7  86306028.435 7  20729159.916    20729162.855    20729172.648
        46.100          47.700
 125921568.546 7                  23962073.004
        46.600
 200851803.968 6                  38220818.935
        37.300
 121614713.781 6  94589209.064 6  22750543.596    22750544.620    22750552.009
        41.500          40.900
 198905414.036 7                  37850461.322
        42.900
 114932078.246 7  89557481.22545  21870829.087    21870828.7664   21870828.0174
        44.700          34.0004
 140188214.616 6                  26676931.316
        38.600
 202035135.996 7                  38446024.398
        45.000
 121719337.359 7                  23162424.063
        43.200
 105884714.750 8  82354902.744 7  19821846.460    19821846.604    19821851.142
        51.200          44.600
 127183775.087 5                  23800710.760
        34.500
 25  1  1 16  0 30.0000000  0 22E27G07E29G16G27G04G28G03G26R06G09E04
                                R07E21S35R05S31G31E06S33E19R16


 133178374.942 5 103775404.29742  25342993.140    25342993.5424   25343003.8154
        32.000          13.4004


 105078687.008 8  81879315.41146  19995754.648    19995753.7504   19995754.0534
        50.900          40.2004


 109406036.354 7  85251461.41844  20819262.192    20819261.9334   20819263.3114
        43.200          29.7004
 126604537.401 5  98652907.2194   24092044.960    24092044.5274   24092051.8154
        32.500           5.7004
 112523496.345 7  87680610.01747  21412507.161    21412506.9294   21412512.8854
        44.300          42.6004
 108661988.020 7  84671694.54646  20677670.590    20677670.0494   20677677.6034
        47.700          41.3004
 102193682.635 7                  19151052.996    19151052.643
        42.900
 119509101.728 5  93123981.48544  22741830.970    22741830.3364   22741833.1464
        30.600          27.1004
 129542478.831 7                  24651095.564
        43.300
 110917638.829 7  86269303.376 7  20720344.530    20720341.990    20720350.910
        43.900          47.000
 125933923.158 7                  23964423.917
        47.500


 121675101.873 7  94636177.246 6  22761836.499    22761837.090    22761850.565
        42.200          41.300
 198905413.912 7                  37850456.837
        44.100
 114967323.133 7  89584944.75245  21877536.189    21877535.8904   21877533.7564
        44.600          33.4004
 140151394.271 6                  26669925.526
        40.600
 202035161.461 7                  38446031.821
        44.500
 121729736.079 7                  23164403.102
        44.100
 105916903.189 8  82379938.210 7  19827871.679    19827871.623    19827877.088
        51.000          44.400
 25  1  1 16  0 45.0000000  0 21E27E29G16G27G04G28G03G26R06G09E04R07
                                E21S35R05S31G31E06S33E19R16


 139132371.997 6                  26476011.560
        37.600
 105065689.980 8  81869187.87546  19993280.966    19993280.0634   19993280.5314
        51.300          39.6004


 109376042.622 7  85228089.63245  20813554.613    20813554.3634   20813556.3044
        44.400          30.4004


 112556338.565 7  87706201.31647  21418757.445    21418757.2134   21418762.4244
        45.600          44.0004
 108688480.512 7  84692338.07446  20682713.160    20682712.6374   20682718.0294
        43.700          38.3004
 102201140.532 6                  19152449.986    19152449.587
        41.900
 119462386.940 6  93087580.29845  22732941.352    22732940.7404   22732942.0844
        36.400          32.0004
 129514542.705 7                  24645779.033
        42.000
 110870519.050 8  86232654.541 7  20711548.007    20711548.142    20711549.464
        48.000          46.900
 125946367.540 8                  23966792.648
        48.600


 121735554.082 6  94683195.247 7  22773146.749    22773145.202    22773160.734
        37.000          42.300
 198905411.742 7                  37850452.240
        42.300
 115002600.322 7  89612433.46045  21884248.057    21884247.7674   21884247.7454
        44.700          34.5004
 140114576.291 6                  26662918.928
        40.800
 202035185.867 7                  38446033.274
        44.300
 121740198.391 7                  23166394.127
        43.600
 105949192.398 8  82405052.065 7  19833916.164    19833916.095    19833920.991
        51.700          44.500
 25  1  1 16  1  0.0000000  0 21E27E29G16G27G04G28G03G26R06G09E04R07
                                E21S35R05S31G31E06S33E19R16


 139166555.547 6                  26482517.598
        39.100
 105052855.188 8  81859186.75446  19990838.963    19990838.0604   19990837.6974
        50.500          39.1004


 109346125.642 7  85204777.67745  20807861.192    20807860.9514   20807863.8624
        46.300          32.5004


 112589301.792 7  87731886.91447  21425030.628    21425030.4324   21425035.7984
        47.000          46.2004
 108715093.847 7  84713075.77745  20687778.652    20687778.1524   20687781.2924
        43.900          35.4004
 102208785.067 7                  19153881.743    19153882.237
        42.500
 119415706.640 6  93051206.05045  22724057.984    22724057.4344   22724057.9414
        39.000          32.7004
 129486639.535 7                  24640470.014
        44.100
 110823501.016 7  86196084.940 7  20702762.434    20702763.317    20702764.949
        45.600          45.700
 125958905.010 8                  23969178.481
        48.700
 200851690.994 5                  38220836.634
        31.700


 198905411.430 7                  37850456.542
        42.700
 115037913.155 7  89639949.93845  21890967.639    21890967.3894   21890968.9874
        42.700          34.0004
 140077764.417 6                  26655913.921
        40.400
 202035211.403 7                  38446039.369
        45.500
 121750727.796 7                  23168397.556
        43.600
 105981585.824 8  82430246.953 7  19839981.258    19839981.636    19839984.784
        52.800          43.500
 25  1  1 16  1 15.0000000  0 22E27G07E29G16G04G28G03G26R06G09E04R07
                                E21S35R05S31G31E06S33E19R16R15


 133071537.380 5                  25322671.862
        30.600
 139200778.745 6                  26489030.084
        39.300
 105040181.413 8  81849311.08646  19988427.288    19988426.3854   19988425.7484
        51.100          39.3004
 109316284.340 7  85181524.70345  20802182.903    20802182.6584   20802185.7644
        47.500          32.9004


 112622384.394 7  87757665.54547  21431325.820    21431325.6424   21431331.3464
        47.800          46.2004
 108741826.647 7  84733906.58745  20692863.888    20692863.3474   20692865.6344
        44.800          32.6004
 102216614.931 6                  19155349.240    19155349.618
        41.800
 119369059.873 5  93014857.94644  22715181.590    22715181.1304   22715180.2094
        35.000          29.7004
 129458768.227 7                  24635166.948
        45.300
 110776584.276 7  86159594.151 7  20693994.528    20693996.294    20694000.515
        45.300          45.100
 125971534.189 8                  23971581.211
        48.600
 200851656.421 5                  38220808.789
        30.700
                  94777386.252 6                                  22795813.643
                        37.200
 198905411.044 7                  37850459.395
        42.700
 115073260.137 6  89667493.03145  21897695.160    21897694.9064   21897696.0204
        40.800          34.2004
 140040957.389 6                  26648909.164
        38.300
 202035237.106 7                  38446042.969
        44.500
 121761323.084 7                  23170413.617
        43.700
 106014081.778 8  82455521.597 7  19846063.423    19846064.205    19846068.726
        52.300          43.700
 127416642.606 5                  23844278.120    23844278.798
        34.400
 25  1  1 16  1 30.0000000  0 22E27G07E29G16G27G04G28G03G26R06G09E04
                                E21S35R05S31G31E06S33E19R16R15


 133035965.358 5 103664424.28242  25315901.436    25315901.9864   25315906.2884
        33.900          15.1004
 139235039.377 6                  26495549.253
        36.700
 105027666.473 8  81839559.20746  19986045.648    19986044.7504   19986044.4974
        51.600          40.3004


 109286516.792 7  85158329.22545  20796518.686    20796518.4544   20796520.5454
        47.500          31.9004


 112655583.736 7  87783535.12547  21437643.128    21437642.9544   21437648.1934
        44.500          44.8004
 108768676.095 7  84754828.28245  20697972.709    20697972.1594   20697974.9244
        45.400          32.3004
 102224627.823 7                  19156852.434    19156852.195
        42.800
 119322444.495 5  92978534.23544  22706311.149    22706310.7114   22706310.7064
        32.700          28.9004
 129430926.481 7                  24629869.063
        45.300
 125984252.543 8                  23974001.696
        48.800
 200851620.817 4                  38220815.067
        29.500
                  94824555.867 5                                  22807157.268
                        34.400
 198905408.821 7                  37850453.108
        42.400
 115108638.912 7  89695060.90045  21904427.175    21904426.9124   21904428.7864
        44.300          35.0004
 140004152.960 6                  26641904.920
        36.800
 202035261.270 7                  38446051.545
        44.200
 121771982.008 7                  23172442.271
        43.600
 106046677.082 8  82480873.496 7  19852164.642    19852165.627    19852171.771
        51.500          44.100
 127474786.263 4                  23855149.902    23855149.876
        29.600
 25  1  1 16  1 45.0000000  0 23E27G07E29G16G27G04G28G03G26R06G09E04
                                R07E21S35R05S31G31E06S33E19R16R15


 133000401.271 5 103636712.15342  25309135.705    25309135.8744   25309137.4094
        34.900          16.6004
 139269336.896 5                  26502072.013
        30.600
 105015310.041 8  81829930.84746  19983694.282    19983693.3974   19983693.5874
        51.300          40.5004


 109256822.806 7  85135191.07744  20790868.621    20790868.3984   20790868.2444
        45.900          29.5004
 126807347.433 4                  24130634.992
        29.300
 112688899.044 7  87809495.08347  21443983.634    21443983.4744   21443987.1114
        44.500          43.8004
 108795641.563 7  84775840.37745  20703104.159    20703103.5964   20703106.3614
        44.700          31.2004
 102232823.569 7                  19158387.285    19158387.298
        42.500
 119275860.538 5  92942235.06044  22697444.829    22697444.4454   22697447.3864
        31.200          29.9004
 129403114.129 7                  24624576.483
        45.500
 110683039.732 7  86086844.233 6  20676525.236    20676521.815    20676525.615
        42.200          41.800
 125997059.529 8                  23976438.791
        48.800




 198905403.845 7                  37850447.621
        42.500
 115144048.943 7  89722653.08745  21911164.397    21911164.0584   21911167.2934
        43.500          35.1004
 139967350.860 5                  26634902.065
        35.700
 202035282.624 7                  38446052.382
        45.500
 121782704.340 7                  23174482.745
        44.400
 106079370.989 8  82506301.997 7  19858285.939    19858286.259    19858290.422
        52.100          43.500
 127532913.480 5                  23866031.469    23866031.306
        30.600
 25  1  1 16  2  0.0000000  0 21E27E29G16G27G04G28G03G26R06G09E04R07
                                E21S35R05S31G31E06S33E19R16


 139303677.448 5                  26508609.959
        33.000
 105003118.144 8  81820430.67546  19981374.032    19981373.1384   19981374.3354
        48.700          38.1004


 109227208.755 7  85112115.17545  20785233.905    20785233.6694   20785232.7564
        46.000          30.9004
 126847929.493 5                  24138358.158
        33.600
 112722336.082 7  87835549.86347  21450345.995    21450345.8264   21450349.8954
        45.100          44.9004
 108822729.019 7  84796947.55045  20708259.178    20708258.6114   20708261.8384
        45.400          30.5004
 102241208.077 6                  19159958.941    19159958.524
        41.900
 119229314.529 4  92905965.43644  22688585.780    22688585.4324   22688591.4054
        26.700          29.6004
 129375337.450 7                  24619290.334
        45.600
 110636427.599 7  86050590.288 7  20667814.139    20667811.474    20667816.759
        45.100          42.300
 126009961.264 8                  23978894.429
        49.500


 122038734.162 5  94919044.355 6  22829870.860    22829872.635    22829888.015
        34.600          36.400
 198905402.839 7                  37850447.424
        42.800
 115179496.176 7  89750274.23645  21917910.141    21917909.8154   21917912.8074
        43.400          35.0004
 139930557.359 6                  26627900.172
        39.100
 202035308.271 7                  38446052.766
        44.200
 121793496.092 7                  23176536.139
        43.900
 106112169.604 8  82531811.979 7  19864426.703    19864426.709    19864430.322
        52.800          43.100
 25  1  1 16  2 15.0000000  0 22E27G07E29G16G27G04G28G03G26R06G09E04
                                R07E21S35R05S31G31E06S33E19R16


 132929309.392 4 103581303.79142  25295608.539    25295608.5314   25295611.0554
        28.400          15.0004


 104991086.989 8  81811055.77846  19979084.683    19979083.7894   19979085.2624
        49.100          38.4004


 109197670.909 7  85089098.72144  20779612.883    20779612.6384   20779611.0864
        44.300          28.3004
 126888518.600 5                  24146081.675
        34.900
 112755890.605 7  87861696.24347  21456730.758    21456730.5934   21456735.9004
        44.700          44.9004
 108849934.077 7  84818146.28645  20713435.434    20713434.8444   20713438.5374
        46.500          31.7004
 102249777.655 6                  19161564.617    19161564.431
        40.700
 119182802.658 6  92869722.45546  22679740.112    22679739.7914   22679741.3934
        41.500          36.4004
 129347592.554 7                  24614010.748
        45.100
 110589917.964 8  86014416.109 7  20659126.454    20659128.187    20659131.786
        51.300          43.100
 126022953.509 8                  23981366.502
        49.200
 200851529.493 4                  38220779.603
        28.200
 122099578.674 6  94966364.302 6  22841255.138    22841253.053    22841268.876
        38.100          37.000
 198905401.661 7                  37850453.944
        43.100
 115214976.605 7  89777921.28145  21924661.814    21924661.5014   21924663.6204
        45.500          34.9004
 139893768.641 6                  26620899.483
        39.200
 202035333.519 7                  38446063.140
        44.600
 121804353.401 7                  23178602.178
        43.600
 106145068.431 8  82557399.941 7  19870584.363    19870584.625    19870589.548
        52.600          44.200
 25  1  1 16  2 30.0000000  0 22E27G07E29G16G27G04G28G03G26R06G09E04
                                R07E21S35R05S31G31E06S33E19R16






 104979218.171 8  81801807.35446  19976826.007    19976825.1134   19976826.5524
        49.300          38.7004


 109168211.245 7  85066143.16844  20774006.743    20774006.4894   20774004.9374
        44.700          29.2004
 126929116.347 6  98905833.65641  24153807.235    24153807.2004   24153812.7124
        38.000           9.3004
 112789563.969 7  87887935.19847  21463138.095    21463137.9434   21463144.4594
        44.800          45.0004
 108877258.140 7  84839437.71545  20718634.828    20718634.1984   20718638.9184
        45.200          32.6004
 102258533.961 6                  19163204.501    19163204.542
        39.300
 119136326.592 6  92833507.32046  22670894.200    22670893.9014   22670897.8704
        41.900          38.4004
 129319881.401 7                  24608737.212
        43.700
 110543512.832 8  85978323.310 7  20650456.184    20650456.982    20650462.499
        50.300          42.600
 126036037.827 8                  23983855.902
        48.900


 122160484.070 6  95013734.832 6  22852644.694    22852645.120    22852660.755
        40.700          37.100
 198905401.902 7                  37850451.471
        42.800
 115250491.776 7  89805595.38645  21931418.496    21931418.1974   21931420.6354
        44.700          34.9004
 139856986.447 6                  26613900.198
        40.300
 202035360.644 7                  38446070.563
        43.500
 121815278.062 7                  23180681.393
        43.900
 106178068.767 8  82583066.818 7  19876762.396    19876762.829    19876768.633
        53.400          47.100
 25  1  1 16  2 45.0000000  0 23E27E31G07E29G16G27G04G28G03G26R06G09
                                E04R07E21S35R05S31G31E06S33E19R16


 147208875.180 5                  28012919.193
        31.000




 104967507.346 8  81792682.07046  19974597.443    19974596.5544   19974597.6944
        50.100          39.1004
 126304263.420 5                  24034892.406
        34.000
 109138825.425 7  85043245.13245  20768414.446    20768414.1744   20768413.4014
        46.300          30.1004
 126969718.315 6  98937471.42541  24161532.293    24161532.4364   24161537.8964
        39.000          11.2004
 112823351.312 7  87914262.97047  21469568.536    21469568.4114   21469574.0264
        45.700          44.6004
 108904696.525 7  84860818.27945  20723856.101    20723855.4444   20723859.4524
        45.600          32.7004
 102267472.456 6                  19164879.927    19164879.415
        39.100
 119089882.377 7  92797317.03446  22662055.729    22662055.4084   22662060.3204
        42.300          39.2004
 129292199.447 7                  24603469.253
        44.400
 110497208.373 8  85942308.777 7  20641806.335    20641806.190    20641812.378
        48.600          43.200
 126049209.507 8                  23986362.363
        48.200


 122221449.303 6  95061151.860 6  22864050.565    22864052.251    22864067.533
        40.300          38.500
 198905398.594 7                  37850452.710
        42.900
 115286037.037 7  89833292.94445  21938183.724    21938183.4474   21938184.3674
        44.200          34.6004
 139820206.411 6                  26606901.595
        40.100
 202035383.822 7                  38446071.095
        44.300
 121826265.667 7                  23182771.652
        43.100
 106211165.477 9  82608808.692 7  19882958.790    19882959.340    19882964.576
        54.400          47.800
 25  1  1 16  3  0.0000000  0 24E27E31G07E29G16G27G04G28G03G26R06G09
                                E04R07E21S35R05S31G31E06S33R10E19R16


 147163268.699 5                  28004240.948
        33.200




 104955961.299 8  81783685.18246  19972400.200    19972399.2974   19972400.2224
        49.800          38.6004
 126252482.880 5  98378620.27341  24025041.152    24025040.7554   24025063.2824
        35.800          10.7004
 109109520.606 7  85020410.17545  20762837.013    20762836.7414   20762836.7874
        46.800          30.4004
 127010331.276 6  98969117.79142  24169261.060    24169261.1184   24169266.5374
        38.600          14.1004
 112857259.127 7  87940684.60147  21476020.363    21476020.1804   21476025.7464
        43.500          42.5004
 108932255.668 7  84882292.93945  20729100.998    20729100.3684   20729102.6444
        42.100          33.8004
 102276600.039 6                  19166590.819    19166590.258
        39.900
 119043476.947 7  92761156.96046  22653227.019    22653226.6754   22653229.5234
        42.900          39.1004
 129264553.737 7                  24598208.278
        43.200
 110451011.703 8  85906378.065 7  20633176.471    20633176.258    20633183.300
        48.800          43.300
 126062475.309 7                  23988887.024
        47.400


 122282480.865 6  95108620.527 6  22875466.808    22875466.748    22875484.480
        36.000          38.100
 198905399.357 7                  37850453.166
        43.600
 115321619.184 7  89861019.23845  21944956.492    21944956.2384   21944955.3024
        45.100          35.3004
 139783435.432 6                  26599904.547
        41.200
 202035411.170 7                  38446076.667
        43.100
 123966758.233 5                  23255846.587
        32.200
 121837323.027 7                  23184876.296
        44.500
 106244365.357 9  82634630.838 8  19889174.171    19889174.309    19889179.679
        54.900          48.800
 25  1  1 16  3 15.0000000  0 24E27E31G07E29G16G27G04G28G03G26R06G09
                                E04R07E21S35R05S31G31E06S33R10E19R16


 147117675.383 5                  27995566.242
        31.100




 104944576.077 8  81774813.60946  19970234.009    19970233.1114   19970233.2474
        50.300          38.7004
 126200709.508 6  98338277.62941  24015188.254    24015187.3024   24015210.3984
        36.100          11.0004
 109080293.113 7  84997635.52045  20757275.113    20757274.8544   20757275.5334
        47.200          30.7004
 127050951.094 6  99000769.47141  24176990.948    24176990.9924   24176995.8124
        38.800          11.4004
 112891283.108 6  87967196.72646  21482494.867    21482494.6624   21482499.2514
        41.500          40.0004
 108959931.222 7  84903858.33145  20734368.350    20734367.7654   20734369.8004
        43.100          34.5004
 102285912.890 6                  19168336.454    19168336.753
        41.300
 118997106.809 6  92725024.42946  22644402.009    22644401.6344   22644405.8454
        41.900          38.6004
 129236940.570 7                  24592954.184
        44.500
 110404919.751 8  85870528.784 7  20624566.791    20624567.633    20624573.942
        50.700          44.800
 126075831.236 7                  23991428.840
        47.100
 200851386.197 6                  38220740.669
        36.300
 122343574.747 5  95156137.724 6  22886898.413    22886896.233    22886913.969
        34.900          38.700
 198905400.127 7                  37850451.695
        42.700
 115357234.068 7  89888771.10046  21951733.646    21951733.3604   21951732.6634
        45.200          37.5004
 139746669.714 6                  26592908.568
        40.600
 202035438.426 7                  38446081.103
        42.100
 123913113.424 4                  23245781.475    23245776.055
        28.400
 121848446.162 7                  23186992.623
        44.000
 106277663.862 9  82660529.679 8  19895407.044    19895407.326    19895413.135
        54.100          49.100
 25  1  1 16  3 30.0000000  0 22E27G07E29G16G27G04G28G03G26R06G09E04
                                R07E21S35R05S31G31E06S33E19R16


 132751766.238 6 103442960.39743  25261822.677    25261822.6374   25261828.1174
        36.100          18.1004


 104933351.757 8  81766067.40446  19968098.466    19968097.5724   19968096.7294
        50.400          38.2004
 126148943.339 5  98297940.52241  24005342.331    24005341.3754   24005357.2444
        30.100          11.9004
 109051143.048 7  84974921.14344  20751728.078    20751727.8154   20751727.7794
        47.900          29.8004
 127091577.710 6  99032426.44042  24184723.111    24184723.0494   24184726.2914
        39.400          14.5004
 112925422.763 6  87993798.99846  21488991.474    21488991.2334   21488995.4554
        41.000          39.2004
 108987723.049 7  84925514.36045  20739656.121    20739655.5544   20739660.2214
        45.700          35.7004
 102295410.871 6                  19170115.860    19170115.667
        40.200
 118950771.947 6  92688919.37246  22635584.321    22635583.9504   22635588.0694
        40.800          37.4004
 129209359.705 7                  24587705.331
        42.800
 110358932.549 8  85834760.957 7  20615974.827    20615976.560    20615981.465
        50.000          44.300
 126089276.906 8                  23993987.605
        48.100
 200851352.023 5                  38220730.777
        33.200
 122404730.355 6  95203702.764 6  22898339.127    22898339.392    22898354.468
        36.500          39.000
 198905400.436 6                  37850450.407
        41.500
 115392881.462 7  89916548.25646  21958516.637    21958516.3334   21958516.0614
        45.800          37.9004
 139709909.295 7                  26585913.078
        43.000
 202035464.792 7                  38446085.606
        45.000
 121859635.216 7                  23189121.619
        43.700
 106311060.547 9  82686504.874 8  19901658.736    19901659.097    19901664.959
        54.100          48.700
 25  1  1 16  3 45.0000000  0 23E27E31G07E29G16G27G04G28G03G26R06G09
                                E04R07E21S35R05S31G31E06S33E19R16
 145971405.714 4                  27777435.021
        29.400


 132716301.890 6                  25255072.084    25255071.7804
        36.700
 139545167.959 5                  26554564.247
        34.700
 104922286.179 8  81757444.90546  19965992.015    19965991.1124   19965991.1444
        49.400          37.9004
 126097237.683 4  98257626.55141  23995499.978    23995500.0134   23995516.0084
        24.700           6.8004
 109022068.643 7  84952265.72745  20746195.685    20746195.4444   20746194.0474
        45.600          30.3004
 127132209.047 6  99064087.18442  24192453.878    24192453.7584   24192457.6064
        37.000          12.7004
 112959675.884 6  88020489.73446  21495510.549    21495510.3044   21495513.8294
        38.000          38.4004
 109015628.578 7  84947258.91445  20744965.819    20744965.2654   20744971.8164
        45.000          34.7004
 102305091.803 6                  19171929.439    19171929.898
        40.700
 118904470.411 7  92652840.29746  22626773.183    22626772.8214   22626775.7574
        42.300          37.0004
 129181809.489 7                  24582462.841
        46.200
 110313048.529 8  85799073.391 7  20607402.656    20607404.196    20607410.290
        50.600          43.200
 126102810.140 8                  23996562.336
        49.200




 198905397.802 6                  37850455.670
        40.200
 115428559.226 7  89944349.09246  21965306.646    21965306.3384   21965304.7944
        45.600          38.1004
 139673152.164 6                  26578918.802
        41.600
 202035489.221 7                  38446098.377
        46.400
 121870887.973 7                  23191263.357
        42.600
 106344552.758 8  82712554.422 8  19907928.389    19907928.970    19907934.881
        53.200          48.500
 25  1  1 16  4  0.0000000  0 23E27E31G07E29G16G27G04G28G03G26R06G09
                                E04R07E21S35R05S31G31E06S33E19R16
 146012790.168 4                  27785307.549
        26.600




 139579821.041 5                  26561158.212
        34.200
 104911382.696 8  81748948.70446  19963917.234    19963916.3274   19963916.9334
        48.900          38.2004


 108993073.372 6  84929671.99744  20740678.186    20740677.9764   20740677.9614
        40.400          29.6004
 127172848.201 5  99095753.94042  24200187.879    24200187.8084   24200190.8794
        33.700          12.5004
 112994045.118 6  88047270.89946  21502050.863    21502050.6584   21502054.7574
        41.600          40.2004
 109043650.830 7  84969094.42446  20750299.439    20750298.8984   20750305.4694
        47.200          36.2004
 102314959.284 6                  19173778.703    19173778.941
        39.900
 118858205.804 7  92616789.93146  22617969.125    22617968.7504   22617971.7454
        44.500          37.4004
 129154293.174 7                  24577226.734
        44.900
 110267271.354 8  85763468.946 7  20598851.988    20598852.615    20598857.627
        50.100          43.600
 126116434.051 8                  23999154.871
        50.000
 200851239.055 6                  38220714.112
        38.800
 122527250.631 5  95298973.065 6  22921255.151    22921254.772    22921268.471
        35.000          37.300
 198905396.680 7                  37850458.246
        43.400
 115464270.413 7  89972175.95946  21972101.996    21972101.6924   21972100.2604
        47.500          39.6004
 139636401.659 6                  26571924.717
        41.300
 202035514.413 7                  38446098.238
        42.900
 121882207.866 7                  23193417.416
        43.000
 106378143.483 9  82738680.556 7  19914217.403    19914217.895    19914222.514
        54.300          47.600
 25  1  1 16  4 15.0000000  0 23E27E31G07E29G16G27G04G28G03G26R06G09
                                E04R07E21S35R05S31G31E06S33E19R16
 146054196.579 5                  27793184.707
        33.400




 139614511.488 5                  26567758.505
        32.900
 104900639.042 8  81740577.03446  19961872.607    19961871.6864   19961873.0354
        48.700          38.5004


 108964155.192 7  84907138.31044  20735175.232    20735174.9824   20735175.5674
        42.600          27.1004
 127213492.807 5  99127424.93641  24207923.231    24207923.2354   24207925.3424
        35.600          11.7004
 113028527.994 7  88074140.66746  21508613.489    21508613.3114   21508617.5794
        43.600          40.9004
 109071787.175 7  84991018.82645  20755652.902    20755652.3484   20755658.9894
        45.300          34.2004
 102325010.757 6                  19175662.958    19175662.881
        40.400
 118811976.161 6  92580766.87145  22609172.848    22609172.4734   22609173.5024
        41.800          33.5004
 129126808.682 7                  24571997.507
        43.600
 110221599.222 8  85727946.138 7  20590319.220    20590319.356    20590326.402
        48.200          44.400
 126130146.160 8                  24001764.576
        51.100
 200851201.866 5                  38220702.758
        32.800
 122588586.920 6  95346678.750 6  22932728.974    22932728.522    22932743.879
        38.800          37.400
 198905393.895 6                  37850460.446
        41.300
 115500012.529 7  90000026.88346  21978903.186    21978902.8734   21978902.9224
        45.500          41.5004
 139599655.697 6                  26564932.039
        39.500
 202035538.036 7                  38446097.652
        43.400
 121893592.656 7                  23195584.122
        44.200
 106411830.086 8  82764881.262 8  19920522.573    19920522.995    19920529.085
        52.800          48.800
 25  1  1 16  4 30.0000000  0 22E27E31E29G16G27G04G28G03G26R06G09E04
                                R07E21S35R05S31G31E06S33E19R16
 146095624.298 4                  27801072.271
        29.900


 139649239.470 4                  26574366.619
        26.500
 104890055.448 8  81732330.08846  19959859.362    19959858.4414   19959858.8154
        48.800          38.5004


 108935314.490 7  84884665.03144  20729687.017    20729686.7764   20729687.9524
        45.500          29.8004
 127254143.129 6  99159100.38142  24215658.194    24215658.1234   24215660.7974
        36.100          12.2004
 113063124.163 7  88101098.66646  21515196.905    21515196.7364   21515201.2604
        46.600          41.0004
 109100037.521 7  85013032.06345  20761029.107    20761028.5494   20761031.4294
        44.900          31.9004
 102335246.433 6                  19177581.153    19177580.697
        38.800
 118765781.826 7  92544771.25945  22600381.223    22600380.7994   22600379.3224
        42.200          30.3004
 129099356.328 7                  24566773.126
        45.100
 110176032.947 8  85692505.687 7  20581808.159    20581808.208    20581812.008
        49.900          42.000
 126143946.480 8                  24004390.768
        51.400


 122649982.344 6  95394430.380 5  22944211.435    22944215.096    22944230.145
        38.800          35.600
 198905389.157 6                  37850444.817
        40.200
 115535785.716 7  90027902.03746  21985709.893    21985709.5944   21985710.3284
        46.400          40.8004
 139562914.317 6                  26557940.285
        38.900
 202035560.587 7                  38446109.135
        43.600
 121905042.349 7                  23197762.634
        44.000
 106445612.062 8  82791156.139 8  19926846.423    19926846.683    19926853.059
        52.000          48.100
 25  1  1 16  4 45.0000000  0 24E27E31G07E29G16G27G04G28G03G26R06R10
                                G09E04R07E21S35R05S31G31E06S33E19R16
 146137076.804 4                  27808955.510
        29.400


 132574467.274 6                  25228083.717
        36.500
 139684007.942 4                  26580985.568
        28.400
 104879634.938 7  81724210.25846  19957876.022    19957875.1104   19957876.1604
        47.900          38.5004
 125890156.549 5                  23956101.795
        32.800
 108906554.658 7  84862254.78445  20724213.577    20724213.3274   20724216.0584
        45.000          30.9004
 127294802.047 5  99190782.52841  24223394.942    24223394.8584   24223397.9344
        30.500           7.9004
 113097836.509 7  88128147.19346  21521802.129    21521801.9334   21521806.7734
        47.600          41.3004
 109128404.637 7  85035136.19545  20766427.898    20766427.3714   20766426.2994
        46.600          32.0004
 102345669.613 6                  19179534.214    19179533.897
        38.600
 123592575.349 5                  23185642.121    23185642.967
        30.700
 118719626.211 6  92508805.85645  22591598.396    22591597.9904   22591594.8204
        40.700          30.4004
 129071939.306 7                  24561555.308
        46.500
 110130576.179 8  85657150.472 6  20573315.953    20573316.082    20573320.996
        49.600          41.200
 126157837.983 8                  24007034.184
        51.200


 122711439.909 6  95442230.262 5  22955722.283    22955716.320    22955727.617
        39.700          35.400
 198905386.316 6                  37850449.137
        41.300
 115571592.901 7  90055803.69846  21992523.826    21992523.5584   21992524.5354
        45.700          41.1004
 139526180.986 6                  26550949.852
        38.700
 202035584.321 7                  38446109.498
        46.300
 121916560.271 7                  23199954.398
        43.300
 106479492.388 8  82817507.485 7  19933188.972    19933188.991    19933195.117
        51.200          47.100
 25  1  1 16  5  0.0000000  0 24E27E31G07E29G16G27G04G28G03G26R06R10
                                G09E04R07E21S35R05S31G31E06S33E19R16
 146178552.927 4                  27816850.507
        29.800


 132539039.431 5 103277201.25241  25221340.239    25221340.5784   25221349.8804
        35.400           6.6004
 139718816.121 5                  26587609.967
        34.700
 104869376.443 8  81716216.62746  19955924.270    19955923.3314   19955924.1504
        48.300          38.3004
 125838443.825 5  98055991.16142  23946265.035    23946264.8974   23946277.7744
        35.000          12.5004
 108877874.866 7  84839906.86444  20718755.867    20718755.5994   20718758.4484
        44.500          29.4004
 127335468.620 5  99222470.7284   24231132.538    24231132.2844   24231136.4344
        33.600           5.6004
 113132663.662 7  88155285.19646  21528429.285    21528429.0754   21528433.8474
        46.300          41.6004
 109156887.103 7  85057330.32944  20771847.700    20771847.1734   20771842.6284
        46.300          29.9004
 102356279.074 6                  19181521.627    19181522.262
        39.600
 123539374.659 4                  23175668.126    23175662.704
        29.900
 118673508.397 7  92472869.91645  22582822.375    22582822.0044   22582818.8724
        42.600          30.7004
 129044556.733 7                  24556344.598
        45.000
 110085228.227 8  85621879.908 7  20564846.564    20564846.883    20564850.790
        50.700          44.800
 126171819.421 8                  24009694.937
        50.400


 122772957.722 4  95490077.248 5  22967218.708    22967221.116    22967234.564
        27.800          30.200
 198905384.557 6                  37850448.851
        41.600
 115607432.884 7  90083730.90446  21999344.001    21999343.7514   21999345.0034
        44.200          40.2004
 139489454.571 6                  26543961.727
        38.200
 202035608.871 7                  38446113.115
        42.400
 121928145.318 6                  23202159.301
        41.600
 106513469.516 8  82843934.125 7  19939549.591    19939549.955    19939556.291
        52.000          47.900
 25  1  1 16  5 15.0000000  0 24E27E31G07E29G16G27G04G28G03G26R06R10
                                G09E04R07E21S35R05S31G31E06S33E19R16




 132503621.115 4 103249603.61541  25214600.680    25214601.2654   25214609.4594
        28.100           7.4004
 139753662.366 6                  26594239.083
        36.200
 104859279.050 8  81708348.55646  19954002.407    19954001.4644   19954002.5414
        48.100          39.8004


 108849274.254 7  84817620.65745  20713314.412    20713314.1624   20713315.9514
        45.500          30.9004
 127376142.713 4                  24238871.490
        28.100
 113167604.064 7  88182511.42046  21535078.662    21535078.4524   21535082.4124
        46.800          40.8004
 109185483.626 7  85079613.28145  20777289.086    20777288.5774   20777284.7714
        47.000          31.7004
 102367073.857 6                  19183544.719    19183545.533
        40.800
 123486235.720 5                  23165697.607
        30.400
 118627427.658 6  92436962.85945  22574054.092    22574053.7714   22574051.8714
        39.100          30.2004
 129017207.655 7                  24551139.884
        44.000
 110039988.338 8  85586693.360 7  20556394.263    20556395.574    20556398.418
        52.100          44.400
 126185889.582 8                  24012372.504
        51.400




 198905382.354 7                  37850453.693
        44.500
 115643304.512 6  90111682.77346  22006170.152    22006169.9204   22006171.1184
        41.500          38.4004
 139452734.217 6                  26536974.839
        40.500
 202035632.884 7                  38446115.168
        46.400
 121939796.597 6                  23204376.198
        41.300
 106547541.979 8  82870434.923 7  19945929.137    19945929.100    19945933.527
        52.500          46.500
 25  1  1 16  5 30.0000000  0 21E31E29G16G27G04G28G03G26R06G09E04R07
                                E21S35R05S31G31E06S33E19R16
 146707928.939 4                  27917594.147
        26.000
 139788550.465 5                  26600886.779
        32.800
 104849345.836 8  81700608.39646  19952112.136    19952111.1844   19952112.4634
        48.500          40.2004
 125735052.731 5  97975442.03941  23926590.068    23926589.7824   23926597.5904
        32.700           6.8004
 108820756.478 8  84795399.00345  20707887.035    20707886.7724   20707889.2394
        49.500          33.4004
 127416825.142 4  99285854.34841  24246616.242    24246616.1354   24246620.2774
        27.400           7.4004
 113202660.691 7  88209828.21847  21541748.811    21541748.5884   21541753.3444
        45.300          42.3004
 109214197.112 7  85101987.39245  20782753.450    20782752.9364   20782751.8714
        46.600          34.5004
 102378057.209 6                  19185603.346    19185602.529
        39.900
 118581387.451 6  92401087.38845  22565293.455    22565293.1604   22565292.8524
        38.400          30.1004
 128989895.467 7                  24545942.891
        44.000
 109994860.254 7  85551593.756 7  20547962.266    20547963.454    20547968.886
        47.400          45.800
 126200051.593 8                  24015067.568
        51.800


 122896203.556 5  95586010.711 4  22990278.850                    22990296.032
        31.600          29.000
 198905382.549 7                  37850455.446
        45.800
 115679210.886 6  90139661.71746  22013002.029    22013001.7704   22013003.6904
        40.800          36.4004
 139416023.408 7                  26529988.809
        43.200
 202035659.560 7                  38446119.818
        45.400
 121951517.220 6                  23206606.178
        40.700
 106581712.473 8  82897011.960 7  19952325.583    19952325.890    19952330.013
        52.900          45.700
 25  1  1 16  5 45.0000000  0 22E31G07E29G16G27G04G28G03G26R06G09E04
                                R07E21S35R05S31G31E06S33E19R16
 146662476.399 5                  27908943.422
        30.200
 132432859.806 5                  25201129.350
        31.400
 139823475.671 5                  26607526.082
        33.200
 104839573.047 8  81692993.25047  19950252.426    19950251.4704   19950252.8944
        48.100          42.0004
 125683374.374 5  97935173.36043  23916755.725    23916755.2164   23916762.1274
        35.500          18.0004
 108792317.595 8  84773238.81045  20702474.966    20702474.6894   20702477.0604
        48.900          33.6004
 127457508.433 4                  24254358.235
        28.600
 113237829.265 7  88237232.25646  21548439.575    21548439.3744   21548446.1154
        43.200          39.5004
 109243023.319 7  85124449.28446  20788238.856    20788238.3564   20788239.6974
        45.900          36.3004
 102389225.154 6                  19187697.828    19187696.657
        41.900
 118535384.186 6  92365240.68944  22556537.453    22556537.1674   22556540.3264
        37.500          27.6004
 128962616.260 7                  24540752.370
        45.800
 109949840.642 8  85516578.466 7  20539553.404    20539555.091    20539559.097
        48.400          46.500
 126214301.233 8                  24017778.826
        51.700


 122957900.585 5                  23001823.961    23001821.230
        31.700
 198905381.975 7                  37850451.587
        43.300
 115715148.048 7  90167664.68646  22019841.635    22019841.3854   22019842.6524
        42.800          38.9004
 139379318.007 6                  26523003.684
        40.100
 202035685.286 7                  38446130.872
        44.200
 121963303.320 6                  23208849.773
        40.900
 106615976.924 8  82923662.034 7  19958739.838    19958740.106    19958744.694
        53.300          44.300
 25  1  1 16  6  0.0000000  0 24E27E31G07E29G16G27G04G28G03G26R06R10
                                G09E04R07E21S35R05S31G31E06S33E19R16


 146617036.845 5                  27900302.273
        31.400
 132397471.588 4                  25194393.494
        28.800
 139858437.573 5                  26614180.663
        32.200
 104829959.677 8  81685502.30846  19948422.924    19948421.9594   19948423.5664
        48.600          41.7004
 125631705.895 5  97894912.44243  23906923.922    23906923.2344   23906931.4084
        35.200          19.1004
 108763957.196 8  84751139.81145  20697078.977    20697078.7144   20697080.7104
        48.300          35.8004


 113273108.362 7  88264722.39946  21555153.597    21555153.4374   21555159.9624
        42.100          38.2004
 109271961.187 7  85146998.31046  20793746.043    20793745.5474   20793749.0584
        44.300          38.2004
 102400576.751 7                  19189824.259    19189824.308
        42.700
 123327161.736 5                  23135862.491    23135862.727
        33.400
 118489421.086 5  92329430.11044  22547789.046    22547788.7384   22547791.6774
        34.600          26.9004
 128935369.376 7                  24535566.999
        44.200
 109904929.251 7  85481647.369 7  20531159.408    20531160.411    20531169.304
        43.300          46.200
 126228637.598 8                  24020506.919
        50.300




 198905379.115 7                  37850449.946
        43.400
 115751114.959 7  90195690.85046  22026686.549    22026686.3174   22026686.8954
        43.800          39.9004
 139342617.393 6                  26516020.009
        40.200
 202035709.504 7                  38446140.490
        43.800
 121975154.314 6                  23211104.904
        41.400
 106650333.775 8  82950384.066 7  19965171.063    19965171.605    19965175.223
        52.900          42.800
 25  1  1 16  6 15.0000000  0 22E31E29G16G27G04G28G03G26R06R10G09E04
                                R07E21S35R05S31G31E06S33E19R16
 146571609.886 4                  27891652.857
        25.300
 139893435.292 5                  26620837.785
        35.000
 104820505.128 8  81678135.14947  19946623.958    19946622.9884   19946624.2034
        49.500          42.5004
 125580046.995 5  97854658.85142  23897093.275    23897092.4084   23897101.1044
        33.400          17.7004
 108735674.793 7  84729101.57945  20691697.396    20691697.1374   20691699.3004
        46.700          34.9004
 127538918.424 5                  24269850.140
        31.700
 113308497.151 6  88292298.03645  21561887.266    21561887.0924   21561894.6104
        40.500          35.1004
 109301009.660 7  85169633.47746  20799273.948    20799273.4524   20799278.6534
        43.000          38.1004
 102412111.565 6                  19191985.977    19191985.658
        41.600
 123274282.123 5                  23125945.986    23125943.926
        35.500
 118443489.792 6  92293639.45644  22539051.226    22539051.2524   22539052.7414
        38.000          26.6004
 128908154.360 7                  24530387.914
        47.200
 109860125.980 7  85446800.276 7  20522792.819    20522792.713    20522800.403
        44.400          47.800
 126243059.914 8                  24023251.295
        48.500




 198905373.324 6                  37850445.917
        39.200
 115787110.546 7  90223739.31446  22033536.564    22033536.3504   22033536.9564
        44.700          41.7004
 139305921.023 6                  26509036.880
        40.500
 202035729.996 7                  38446143.129
        43.600
 121987069.375 7                  23213372.029
        42.100
 106684781.981 8  82977177.036 6  19971620.391    19971620.334    19971623.486
        53.300          41.900
 25  1  1 16  6 30.0000000  0 24E27E31G07E29G16G27G04G28G03G26R06R10
                                G09E04R07E21S35R05S31G31E06S33E19R16


 146526202.153 3                  27883015.375
        23.800
 132326670.908 6 103111737.23941  25180932.903    25180932.3314   25180942.2244
        38.800           8.4004
 139928475.718 5                  26627506.845
        33.400
 104811216.090 8  81670896.93247  19944855.352    19944854.3964   19944856.2804
        48.300          42.2004


 108707477.384 7  84707129.56245  20686332.061    20686331.8074   20686332.9424
        46.900          34.7004


 113344002.140 7  88319964.18845  21568644.673    21568644.4374   21568649.9664
        42.000          33.6004
 109330175.085 7  85192359.77346  20804824.560    20804824.0554   20804828.8624
        45.300          39.3004
 102423836.281 7                  19194182.401    19194182.897
        42.000
 123221472.001 5                  23116034.528    23116031.828
        33.800
 118397601.318 6  92257882.22144  22530318.258    22530318.1384   22530320.2034
        38.200          26.2004
 128880978.132 7                  24525216.671
        47.200
 109815437.658 7  85412042.704 7  20514445.360    20514445.969    20514452.519
        47.300          47.700
 126257574.647 7                  24026013.035
        47.900




 198905372.445 6                  37850450.867
        40.100
 115823141.861 7  90251815.65947  22040392.897    22040392.6614   22040393.7024
        46.700          43.4004
 139269235.796 6                  26502056.609
        37.000
 202035755.353 7                  38446148.982
        42.200
 121999055.285 6                  23215652.375
        41.700
 106719328.265 9  83004046.351 7  19978087.722    19978088.039    19978091.008
        54.200          42.900
 25  1  1 16  6 45.0000000  0 24E27E31G07E29G16G27G04G28G03G26R06R10
                                G09E04R07E21S35R05S31G31E06S33E19R16




 132291314.425 6 103084186.84841  25174201.372    25174201.0864   25174218.1834
        37.300          10.8004
 139963554.910 5                  26634185.844
        32.600
 104802088.919 8  81663784.84247  19943119.095    19943118.1564   19943119.2794
        49.200          42.1004
 125476776.006 5  97774157.43243  23877444.439    23877443.7114   23877450.8724
        34.100          22.5004
 108679361.527 7  84685221.10145  20680981.031    20680980.7904   20680982.7484
        47.900          33.0004
 127620317.840 6                  24285339.745
        37.400
 113379619.026 6  88347717.61844  21575424.502    21575424.1894   21575424.7514
        41.300          29.3004
 109359453.569 7  85215174.18146  20810395.304    20810394.8224   20810399.0374
        46.700          38.0004
 102435747.127 7                  19196414.465    19196414.514
        42.000
 123168728.244 5                  23106140.111    23106139.821
        34.100
 118351752.376 6  92222155.93944  22521591.498    22521591.3244   22521594.2974
        36.800          27.6004
 128853837.001 6                  24520050.991
        41.000
 109770860.976 7  85377371.901 7  20506118.751    20506120.210    20506123.930
        46.900          47.400
 126272178.011 8                  24028792.346
        48.100
 200850842.582 5                  38220668.023
        33.200
 123205325.324 5                  23048102.769
        35.200
 198905371.253 7                  37850444.621
        43.500
 115859205.041 8  90279916.83947  22047255.302    22047255.0704   22047255.9744
        48.800          44.4004
 139232558.201 5                  26495076.285
        35.300
 202035781.113 7                  38446144.788
        44.600
 122011108.487 7                  23217946.776
        42.400
 106753968.172 9  83030988.427 7  19984572.851    19984572.992    19984577.253
        54.600          45.600
 25  1  1 16  7  0.0000000  0 24E27E31G07E29G16G27G04G28G03G26R06R10
                                G09E04R07E21S35R05S31G31E06S33E19R16




 132255966.366 4 103056642.92741  25167473.305    25167473.1004   25167491.9054
        29.600           9.2004


 104793121.714 7  81656797.43346  19941412.022    19941411.1014   19941413.1894
        47.700          41.7004
 125425158.964 5  97733936.59643  23867622.538    23867621.9804   23867631.1894
        33.900          22.6004
 108651325.607 7  84663374.93945  20675645.155    20675644.9144   20675647.0524
        47.100          31.1004
 127661037.426 5  99476159.1894   24293091.028    24293091.0244   24293093.1124
        31.500           5.6004
 113415345.635 7  88375556.46845  21582222.250    21582221.9734   21582220.3754
        42.700          31.3004
 109388842.761 7  85238074.80146  20815987.467    20815987.0074   20815990.3234
        46.700          37.1004
 102447842.152 6                  19198680.788    19198681.412
        41.900
 123116048.621 4                  23096253.642    23096252.379
        26.700
 118305940.964 6  92186458.84045  22512877.037    22512876.8904   22512878.7064
        39.300          33.6004
 128826729.072 7                  24514893.896
        43.200
 109726394.380 7  85342786.795 7  20497810.728    20497811.435    20497817.462
        44.600          47.200
 126286867.904 8                  24031587.856
        48.700


 123267309.746 5                  23059684.452
        30.100
 198905368.443 6                  37850440.127
        41.800
 115895297.745 7  90308040.98747  22054122.920    22054122.6704   22054124.2124
        46.600          44.1004
 139195886.143 5                  26488098.496
        35.800
 202035804.828 7                  38446149.782
        45.200
 122023227.047 7                  23220252.569
        42.600
 106788699.675 9  83058001.803 7  19991074.944    19991075.411    19991079.681
        55.100          47.200
 25  1  1 16  7 15.0000000  0 23E27E31E29G16G27G04G28G03G26R06R10G09
                                E04R07E21S35R05S31G31E06S33E19R16


 146390125.495 5                  27857113.071
        30.900
 140033827.150 5                  26647558.036
        31.900
 104784317.993 8  81649937.43146  19939737.671    19939736.7734   19939737.9904
        48.600          41.1004
 125373557.760 6  97693728.14944  23857795.576    23857794.8254   23857812.5034
        37.400          26.2004
 108623373.304 6  84641593.97044  20670325.113    20670324.8724   20670327.6414
        40.500          26.8004


 113451185.032 6  88403483.23245  21589040.701    21589040.4734   21589040.3414
        41.800          30.9004
 109418345.972 7  85261064.27346  20821601.925    20821601.4654   20821603.8544
        45.900          37.7004
 102460124.954 7                  19200984.063    19200983.770
        42.500
 123063436.799 5                  23086383.905    23086383.419
        30.800
 118260171.122 6  92150794.03346  22504167.227    22504166.9734   22504170.8474
        39.000          36.4004
 128799658.267 7                  24509741.702
        43.000
 109682042.456 7  85308290.903 7  20489526.103    20489526.439    20489531.863
        44.500          46.000
 126301647.633 8                  24034400.100
        48.000
 200850804.183 5                  38220642.490
        33.900
                                                  23071290.784

 198905367.889 6                  37850450.474
        41.500
 115931423.318 8  90336190.75747  22060997.399    22060997.1454   22060998.7064
        48.100          43.6004
 139159223.361 5                  26481119.958
        35.100
 202035830.989 7                  38446154.330
        44.800
 122035414.371 7                  23222571.641
        42.500
 106823525.657 8  83085088.679 7  19997593.662    19997594.075    19997599.065
        53.000          46.700
 25  1  1 16  7 30.0000000  0 22E27E31E29G16G27G04G28G03G26R06R10G09
                                E04R07E21S35S31G31E06S33E19R16


 146344781.694 5                  27848487.014
        33.700
 140069021.382 4                  26654252.846
        28.700
 104775675.552 7  81643203.08046  19938093.236    19938092.3244   19938092.9514
        47.100          40.3004
 125321970.700 6  97653530.65944  23847981.570    23847980.8514   23847994.3584
        38.700          28.2004
 108595502.676 6  84619876.59544  20665022.338    20665022.0974   20665024.6864
        39.700          26.2004


 113487134.765 6  88431495.93045  21595882.893    21595882.7064   21595885.0184
        39.300          33.4004
 109447960.752 7  85284140.72946  20827237.101    20827236.6324   20827238.1304
        46.000          38.3004
 102472593.109 7                  19203320.035    19203319.545
        42.300
 123010891.314 5                  23076532.388    23076530.315
        35.200
 118214440.820 6  92115160.01546  22495464.642    22495464.3924   22495468.9544
        36.900          36.4004
 128772622.458 7                  24504596.674
        43.500
 109637803.224 7  85273882.637 7  20481262.613    20481262.541    20481267.790
        45.400          45.500
 126316514.858 7                  24037229.329
        47.800
 200850769.423 6                  38220634.521
        36.300
 198905366.782 6                  37850446.047
        41.800
 115967579.604 7  90364364.45847  22067877.625    22067877.3754   22067879.0894
        45.900          43.0004
 139122567.876 5                  26474145.203
        35.200
 202035856.565 7                  38446162.240
        45.000
 122047668.539 7                  23224903.377
        42.500
 106858443.528 8  83112247.036 7  20004130.111    20004130.013    20004135.089
        50.700          46.200
 25  1  1 16  7 45.0000000  0 22E27E31E29G16G27G04G28G03G26R06R10G09
                                E04R07E21S35S31G31E06S33E19R16


 146299452.853 5                  27839859.462
        30.600
 140104252.581 5                  26660959.505
        32.300
 104767193.360 8  81636593.59646  19936479.492    19936478.5854   19936478.4104
        49.600          40.8004
 125270397.027 5  97613343.57944  23838167.168    23838166.4224   23838179.5314
        33.700          27.2004
