     2.11           OBSERVATION DATA    M (MIXED)           RINEX VERSION / TYPE
teqc  2019Feb25                         20260317 16:18:01UTCPGM / RUN BY / DATE
Linux 2.4.21-27.ELsmp|Opteron|gcc -static|Linux 64|=+       COMMENT
BIT 2 OF LLI FLAGS DATA COLLECTED UNDER A/S CONDITION       COMMENT
-Unknown-                                                   MARKER NAME
-Unknown-           -Unknown-                               OBSERVER / AGENCY
-Unknown-           -Unknown-           -Unknown-           REC # / TYPE / VERS
-Unknown-           -Unknown-                               ANT # / TYPE
        0.0000        0.0000        0.0000                  APPROX POSITION XYZ
        0.0000        0.0000        0.0000                  ANTENNA: DELTA H/E/N
     1     1                                                WAVELENGTH FACT L1/2
     7    L1    L2    C1    P1    P2    S1    S2            # / TYPES OF OBSERV
 SNR is mapped to RINEX snr flag value [0-9]                COMMENT
  L1 & L2: min(max(int(snr_dBHz/6), 0), 9)                  COMMENT
  2025     1     1    14     0    0.0000000     GPS         TIME OF FIRST OBS
    18                                                      LEAP SECONDS
                                                            END OF HEADER
 25  1  1 14  0  0.0000000  0 29E27E10G02E29G32E33G10G28G03G26R06R04
                                G04E04R21E21S35R05G25S31G31S33E19E11
                                R16R14R22E12R15
 132461761.586 6                  25206627.852
        40.700
 139946943.309 6                  26631019.561
        39.800
 128096333.948 6  99815338.32543  24375924.488    24375923.5324   24375923.3394
        37.300          18.9004
 127342735.857 8                  24232515.097
        48.500
 117046216.781 8  91204832.56746  22273162.224    22273161.8984   22273166.7484
        49.400          40.2004


 127538250.409 5  99380480.83341  24269720.859    24269720.4214   24269728.4524
        30.100           6.3004
 109676322.310 6  85462064.26342  20870688.638    20870688.0754   20870684.7134
        41.300          17.9004
 113535557.370 7  88469570.24447  21605092.032    21605091.8454   21605094.5514
        45.800          42.0004
 112457531.692 8  87629258.02847  21399941.739    21399941.3104   21399945.0114
        48.100          43.3004
 115255778.873 5                  21598883.247    21598882.924
        34.900
 119836821.375 6  93206607.282 6  22378698.651    22378694.882    22378683.091
        40.800          36.100
 128447322.039 6 100088830.82742  24442714.277    24442714.1214   24442715.6634
        37.200          17.3004


 127658724.813 5                  23856069.588    23856067.173
        34.100
 131500105.644 7                  25023635.988
        42.500


 104651076.198 7  81394854.652 8  19577043.336    19577042.799    19577049.844
        46.600          48.600
 121980230.195 5  95049525.47141  23212060.570    23212059.8914   23212080.9704
        30.500           9.9004
 198904441.773 7                  37850264.879
        43.800
 104959181.819 8  81786384.83248  19973065.145    19973064.7654   19973064.4054
        49.600          50.3004
 202023488.610 7                  38443804.720
        45.000
 122751252.023 6                  23358787.422
        40.000


 107745802.330 7  83802413.272 7  20170248.530    20170247.792    20170252.558
        45.300          43.600
 123329794.677 6                  23136344.099    23136343.599
        38.100
                  99486172.620 5                                  23961992.686
                        35.700
 139342154.834 5                  26515926.937
        30.700
 104462737.149 8  81248779.339 6  19548773.175    19548774.138    19548775.472
        49.100          40.200
 25  1  1 14  0 15.0000000  0 29E27E10G02E29G32E33G10G28G03G26R06R04
                                G04E04R21E21S35R05G25S31G31S33E19E11
                                R16R14R22E12R15
 132467686.112 6                  25207755.495
        40.100
 139955212.472 6                  26632593.674
        38.700
 128126097.865 6  99838530.90443  24381588.438    24381587.5134   24381586.1664
        39.500          19.6004
 127358182.820 8                  24235454.410
        48.300
 117074310.562 8  91226723.77246  22278508.507    22278508.1814   22278512.0454
        48.400          38.5004


 127595247.392 5  99424893.8434   24280567.629    24280567.1334   24280574.0194
        31.100           5.0004
 109700492.890 6  85480898.50343  20875288.747    20875288.2294   20875286.6744
        41.600          20.1004
 113499840.438 7  88441738.86646  21598294.665    21598294.4824   21598298.5614
        44.100          41.6004
 112416629.732 7  87597386.37946  21392158.638    21392158.2274   21392160.6594
        47.700          41.3004
 115208061.086 5                  21589939.976    21589941.208
        35.100
 119880395.538 6  93240498.101 5  22386800.165    22386806.209    22386818.386
        38.200          35.700
 128404769.651 6 100055673.12443  24434616.146    24434615.9454   24434619.5494
        38.200          18.7004


 127700088.689 4                  23863795.801    23863795.143
        28.300
 131466415.246 7                  25017224.959
        42.100


 104657234.762 7  81399644.595 8  19578195.987    19578195.481    19578202.552
        47.900          48.400
 122020143.189 4  95080626.66141  23219652.269    23219651.2724   23219675.7034
        26.200           9.0004
 198904449.008 7                  37850262.979
        43.300
 104958386.494 8  81785765.09748  19972914.465    19972914.0764   19972913.3364
        49.800          50.7004
 202023512.945 7                  38443807.256
        44.800
 122739936.691 6                  23356634.359
        40.400


 107701927.475 7  83768288.375 7  20162031.767    20162031.105    20162038.899
        43.500          43.000
                                                  23147731.793

                  99485716.615 6                                  23961879.179
                        36.900
 139366514.356 5                  26520563.947
        32.600
 104482547.167 7  81264187.139 6  19552477.738    19552477.094    19552482.358
        43.200          40.500
 25  1  1 14  0 30.0000000  0 30E27E10G02E29G32E33G10G28G03G26R06R04
                                G04E04R21E21S35R05G25S31G31G21S33E19
                                E11R16R14R22E12R15
 132473716.935 6                  25208904.001
        40.900
 139963586.519 6                  26634186.787
        38.000
 128155915.887 7  99861765.63443  24387263.646    24387262.7754   24387259.9394
        42.400          19.0004
 127373660.147 8                  24238399.746
        48.100
 117102456.761 8  91248655.84045  22283864.759    22283864.4294   22283867.2604
        48.000          35.8004


 127652275.025 5  99469330.61041  24291419.705    24291419.2454   24291425.1764
        32.100           6.4004
 109724738.184 7  85499790.94343  20879903.408    20879902.9174   20879902.3054
        42.400          20.3004
 113464229.945 7  88413990.43146  21591519.232    21591519.0634   21591522.3814
        44.900          41.2004
 112375831.254 8  87565595.38246  21384395.285    21384394.8614   21384394.7204
        48.700          39.5004
 115160369.791 5                  21581003.156    21581003.526
        34.100
 119924042.052 6  93274445.248 5  22394958.164    22394956.179    22394966.692
        37.600          35.300
 128362211.690 6 100022511.09842  24426519.544    24426519.4014   24426522.0044
        37.000          16.8004


 127741542.865 5                  23871548.479    23871544.814
        32.800
 131432793.976 7                  25010826.540
        42.000


 104663507.350 7  81404523.268 7  19579368.806    19579368.468    19579374.158
        47.900          46.200


 198904454.001 7                  37850267.178
        43.600
 104957707.441 8  81785235.93748  19972785.256    19972784.8674   19972784.5004
        51.500          51.4004
 130946737.247 5                  24918339.481
        34.800
 202023535.159 7                  38443812.018
        44.800
 122728646.585 6                  23354486.257
        40.700


 107658198.440 7  83734276.907 6  20153847.055    20153845.858    20153851.984
        44.600          41.700
 123451272.402 5                  23159130.034    23159127.088
        30.600
                  99485394.855 5                                  23961798.484
                        35.500
 139390956.309 5                  26525215.141
        35.800
 104502537.509 6  81279735.180 7  19556218.834    19556217.279    19556225.432
        41.800          42.000
 25  1  1 14  0 45.0000000  0 29E27E10G02E29G32E33G10G28G03G26R06R04
                                G04E04E21S35R05G25S31G31G21S33E19E11
                                R16R14R22E12R15
 132479852.854 7                  25210071.256
        43.500
 139972064.283 6                  26635799.379
        39.200
 128185786.560 6  99885041.29743  24392946.804    24392945.9334   24392945.7104
        41.600          18.0004
 127389166.782 7                  24241350.545
        47.600
 117130654.343 7  91270627.97045  22289230.983    22289230.6394   22289233.0024
        44.700          31.8004


 127709332.025 5  99513790.23041  24302278.522    24302278.1654   24302282.3654
        32.000           9.0004
 109749056.952 6  85518740.60243  20884532.047    20884531.6094   20884529.6884
        41.600          20.0004
 113428725.118 7  88386324.31446  21584762.737    21584762.5724   21584765.9244
        43.900          40.5004
 112335135.498 8  87533884.42646  21376651.369    21376650.9404   21376650.3934
        48.500          40.2004
 115112704.028 5                  21572075.520    21572072.001
        32.700
 119967759.760 6  93308447.844 5  22403117.723    22403118.827    22403131.678
        37.500          35.600
 128319647.073 5  99989343.97642  24418419.152    24418418.9834   24418421.9594
        35.300          12.3004


 131399241.012 6                  25004441.873
        41.900


 104669893.328 8  81409490.120 7  19580563.960    19580564.099    19580568.564
        48.700          44.500


 198904457.849 7                  37850268.528
        43.400
 104957143.512 8  81784796.48848  19972677.441    19972677.0444   19972677.3284
        51.100          51.4004
 130982125.336 6 102063978.50041  24925074.272    24925074.3074   24925066.0254
        36.300           7.5004
 202023555.903 7                  38443811.839
        44.300
 122717380.663 6                  23352343.210
        40.600


 107614614.346 7  83700378.154 6  20145687.450    20145688.965    20145691.675
        47.000          39.600
 123512080.989 6                  23170537.149    23170537.144
        36.000
                  99485206.050 5                                  23961754.635
                        32.400
 139415479.408 6                  26529880.945
        36.500
 104522706.881 7  81295422.484 7  19559993.561    19559994.486    19560000.881
        44.500          43.600
 25  1  1 14  1  0.0000000  0 28E27E10G02E29G32E33G10G28G03G26R04G04
                                E04R21E21S35R05G25S31G31G21S33E19E11
                                R16R22E12R15
 132486100.645 7                  25211260.170
        43.200
 139980652.462 6                  26637433.713
        40.200
 128215716.418 6  99908363.10943  24398641.073    24398640.1664   24398643.2424
        41.900          19.1004
 127404709.571 7                  24244308.357
        46.800
 117158910.164 7  91292645.53444  22294607.620    22294607.2944   22294611.8674
        46.200          28.9004


 127766424.782 5  99558277.81342  24313142.870    24313142.4104   24313146.9994
        33.800          12.1004
 109773455.729 7  85537752.63843  20889173.729    20889173.3004   20889172.4134
        42.200          21.9004
 113393333.215 7  88358746.25046  21578027.957    21578027.8194   21578030.5564
        42.300          39.6004
 112294549.687 8  87502259.13147  21368927.926    21368927.4934   21368928.7734
        48.800          42.3004
 120011555.652 6  93342511.154 6  22411301.173    22411302.030    22411311.604
        41.700          36.400
 128277082.797 6  99956177.07741  24410320.033    24410319.8504   24410322.2284
        36.100           9.0004


 127824723.722 6                  23887099.015    23887105.090
        40.200
 131365763.456 7                  24998071.333
        43.500


 104676399.706 8  81414550.600 7  19581780.947    19581781.136    19581785.847
        48.400          43.900


 198904466.101 7                  37850269.431
        42.800
 104956701.469 8  81784452.04348  19972593.210    19972592.8084   19972592.7564
        50.400          51.3004
 131017525.169 5 102091562.64941  24931808.865    24931808.6694   24931807.0854
        34.300           9.5004
 202023580.778 7                  38443816.387
        44.700
 122706145.674 7                  23350206.013
        42.400


 107571182.476 7  83666597.923 6  20137557.361    20137558.013    20137559.444
        47.600          37.300
 127909375.829 6                  23961740.592    23961741.191
        36.600
 139440090.322 6                  26534564.504
        37.200
 104543061.783 7  81311254.077 7  19563798.444    19563800.534    19563809.416
        43.400          43.300
 25  1  1 14  1 15.0000000  0 30E27E10G02E29G32G16E33G10G28G03G26R04
                                G04E04R21E21S35R05G25S31G31G21S33E19
                                E11R16R14R22E12R15
 132492454.067 7                  25212469.798
        44.400
 139989344.668 6                  26639087.299
        41.100
 128245698.982 7  99931726.05043  24404344.516    24404343.5734   24404348.9834
        42.100          19.3004
 127420282.297 7                  24247272.556
        47.200
 117187217.926 7  91314703.58544  22299993.912    22299993.5864   22300002.4984
        44.400          29.1004
 125473678.849 5                  23876848.041
        35.200


 127823546.827 3  99602788.37741  24324013.351    24324012.7394   24324017.4564
        22.400           6.9004
 109797928.112 7  85556821.99943  20893830.798    20893830.3514   20893829.8364
        42.600          22.3004
 113358048.142 7  88331251.40646  21571313.415    21571313.2634   21571316.0714
        44.700          40.4004
 112254067.836 8  87470714.83047  21361224.597    21361224.1824   21361227.1014
        49.800          44.3004
 120055422.947 6  93376630.000 6  22419491.563    22419493.090    22419502.240
        39.900          36.000
 128234512.726 5  99923005.80141  24402218.324    24402217.9984   24402222.0274
        32.600           7.6004


 127866450.145 5  99451679.105 5  23894885.542    23894886.809    23894899.170
        32.000          33.500
 131332355.133 7                  24991714.685
        44.700


 104683020.318 7  81419699.840 7  19583019.053    19583020.299    19583024.361
        47.300          43.500


 198904471.944 7                  37850272.016
        43.200
 104956374.842 8  81784197.51748  19972530.870    19972530.4684   19972530.1494
        50.300          51.4004
 131052930.126 4 102119150.88441  24938544.575    24938544.1464   24938546.9254
        29.000           8.3004
 202023603.073 7                  38443823.278
        44.100
 122694935.485 7                  23348072.683
        44.200


 107527896.736 8  83632931.290 6  20129455.330    20129455.701    20129458.889
        48.200          39.300
 123633848.926 6                  23193383.326    23193386.380
        38.800
 127909482.290 6                  23961760.917    23961759.498
        36.800
 139464782.556 6                  26539262.942
        37.300
 104563595.524 7  81327224.764 7  19567643.909    19567646.130    19567651.618
        45.600          43.500
 25  1  1 14  1 30.0000000  0 30E27E10G02E29G32G16E33G28G03G26R06R04
                                G04E04R21E21S35R05G25S31G31G21S33E19
                                E11R16R14R22E12R15
 132498912.447 7                  25213697.960
        44.000
 139998140.417 6                  26640761.029
        39.900
 128275733.331 6  99955129.37643  24410061.245    24410060.2444   24410062.9704
        40.500          19.7004
 127435884.503 7                  24250242.002
        47.400
 117215577.155 7  91336801.70744  22305390.485    22305390.1554   22305399.0174
        44.200          28.2004
 125413978.362 5                  23865486.625
        33.100


 109822473.282 7  85575948.04943  20898501.363    20898500.9614   20898501.2414
        43.100          23.9004
 113322869.786 7  88303839.70647  21564618.486    21564618.3264   21564622.4454
        44.900          42.3004
 112213689.809 8  87439251.40547  21353540.719    21353540.2954   21353543.8614
        49.000          44.6004
 114969907.188 5                  21545309.630    21545309.228
        34.900
 120099361.334 6  93410804.029 5  22427700.789    22427700.780    22427705.874
        41.800          34.400




 127908263.591 5  99484200.560 5  23902700.696    23902699.726    23902712.043
        30.900          30.300
 131299015.792 7                  24985370.025
        46.000


 104689754.662 7  81424937.674 7  19584277.279    19584275.591    19584285.752
        43.900          45.300


 198904475.892 7                  37850271.560
        43.300
 104956163.038 8  81784032.47948  19972490.125    19972489.7284   19972489.8514
        49.900          51.9004
 131088339.545 4 102146742.5194   24945284.145    24945283.6454   24945286.3134
        27.700           5.0004
 202023624.653 7                  38443827.043
        45.100
 122683749.658 7                  23345943.999
        44.400


 107484757.233 8  83599378.346 7  20121379.399    20121378.636    20121385.625
        48.000          42.400
 123694800.782 6                  23204814.875    23204817.721
        36.100
 127909759.506 6                  23961811.134    23961810.501
        37.500
 139489555.334 5                  26543975.875
        34.400
 104584307.434 7  81343334.080 7  19571519.788    19571521.690    19571528.716
        46.400          44.400
 25  1  1 14  1 45.0000000  0 30E27E10G02E29G32G16E33G28G03G26R06R04
                                G04E04R21E21S35R05G25S31G31G21S33E19
                                E11R16R14R22E12R15
 132505476.380 6                  25214947.268
        41.000
 140007040.053 6                  26642454.751
        40.000
 128305819.799 6  99978573.33143  24415789.652    24415788.5974   24415785.4444
        39.500          21.0004
 127451516.806 7                  24253216.571
        47.900
 117243988.478 7  91358940.35144  22310797.151    22310796.8384   22310803.0364
        43.100          28.3004
 125354286.796 5                  23854132.570
        30.600


 109847091.699 7  85595131.22044  20903186.013    20903185.6334   20903187.2434
        44.600          25.8004
 113287799.030 7  88276511.84547  21557945.485    21557945.3514   21557948.9514
        43.800          42.6004
 112173416.564 8  87407869.64047  21345877.028    21345876.5994   21345880.0904
        48.100          44.1004
 114922355.444 6                  21536397.756    21536396.900
        36.100
 120143371.245 7  93445033.657 5  22435927.948    22435927.841    22435922.167
        43.200          32.800




 127950164.498 5  99516790.424 5  23910532.023    23910532.659    23910539.913
        31.600          34.200
 131265746.248 7                  24979039.541
        46.800


 104696603.587 7  81430264.555 7  19585559.892    19585559.635    19585566.720
        47.600          44.900
 122261957.786 5                  23265667.156
        34.100
 198904478.445 7                  37850271.368
        42.900
 104956066.647 8  81783957.38848  19972472.323    19972471.9264   19972471.6834
        50.300          52.5004
 131123753.592 4 102174337.87941  24952023.699    24952023.4044   24952025.9024
        28.300           8.1004
 202023642.836 7                  38443831.622
        45.100
 122672588.794 7                  23343819.956
        43.200


 107441764.779 8  83565939.728 7  20113330.863    20113331.115    20113336.472
        48.900          42.800
 123755797.491 5                  23216259.213    23216260.429
        33.300
 127910208.375 5                  23961890.809    23961889.502
        34.600
 139514409.072 5                  26548705.094
        33.100
 104605197.530 8  81359581.916 6  19575431.809    19575432.173    19575437.146
        48.700          41.800
 25  1  1 14  2  0.0000000  0 28E27E10G02E29G32E33G28G03G26R06R04G04
                                E04R21E21S35R05G25S31G31G21S33E19E11
                                R16R22E12R15
 132512147.791 6                  25216217.781
        39.500
 140016045.557 6                  26644168.629
        39.900
 128335959.975 6 100002059.11043  24421525.491    24421524.4454   24421519.8574
        40.800          21.2004
 127467181.261 7                  24256197.024
        47.700
 117272453.892 7  91381121.09644  22316213.285    22316212.9724   22316217.4604
        44.400          29.3004
 144429640.707 5                  27484045.259
        34.300
 109871785.152 7  85614372.87244  20907884.920    20907884.5674   20907888.0494
        44.300          27.6004
 113252838.232 7  88249269.66547  21551293.385    21551293.2694   21551295.3834
        45.600          42.7004
 112133250.450 7  87376571.37247  21338233.498    21338233.0604   21338236.5134
        47.200          43.7004
 114874833.587 5                  21527489.571    21527488.949
        35.100
 120187454.411 6  93479320.435 5  22444144.479    22444146.299    22444153.915
        38.000          30.500




 127992154.004 5  99549449.042 5  23918366.924    23918371.619    23918387.557
        30.200          35.300
 131232548.700 7                  24972721.986
        46.500


 104703569.185 8  81435682.192 7  19586865.626    19586865.935    19586869.250
        50.700          44.400
 122302637.673 6                  23273407.172
        36.000
 198904481.059 7                  37850275.964
        44.000
 104956087.390 8  81783973.57448  19972476.982    19972476.5854   19972476.0074
        51.500          53.6004
 131159173.937 5 102201938.0414   24958765.026    24958764.7984   24958766.4754
        32.200           5.9004
 202023662.113 7                  38443836.930
        44.700
 122661455.172 6                  23341701.804
        41.600


 107398921.587 8  83532617.284 7  20105308.944    20105309.941    20105315.696
        48.700          43.300
 127910830.667 5                  23962011.918    23962007.736
        34.000
 139539345.563 5                  26553450.906
        35.400
 104626267.866 8  81375969.987 6  19579374.498    19579374.552    19579377.858
        48.000          38.400
 25  1  1 14  2 15.0000000  0 29E27E10G02E29G32E33G10G28G03G26R06R04
                                G04E04R21E21S35R05G25S31G31G21S33E19
                                E11R16R22E12R15
 132518930.436 6                  25217509.260
        39.300
 140025160.617 6                  26645901.242
        37.800
 128366157.484 7 100025589.56344  24427271.302    24427270.2344   24427266.3844
        44.700          24.1004
 127482881.697 7                  24259184.238
        47.100
 117300977.218 7  91403346.99145  22321641.619    22321641.2984   22321645.5184
        43.200          32.7004
 144473770.606 5                  27492443.599
        35.500


 109896557.145 7  85633675.71944  20912599.966    20912599.6674   20912602.6284
        42.700          27.6004
 113217991.467 7  88222116.34847  21544661.580    21544661.4604   21544663.6134
        46.400          43.6004
 112093195.524 7  87345359.75247  21330611.391    21330610.9584   21330614.3864
        47.300          43.6004
 114827345.544 5                  21518591.342    21518589.374
        35.200
 120231614.951 7  93513667.352 5  22452395.478    22452396.215    22452404.000
        42.600          31.100
 128064198.622 5  99790324.07041  24369804.932    24369804.6914   24369816.4774
        35.300           9.9004


                  99582179.370 5                  23926251.588    23926248.267
                        35.200
 131199427.153 7                  24966419.317
        46.300


 104710655.687 8  81441193.958 7  19588190.106    19588189.486    19588194.416
        49.300          42.900
 122343430.887 5  95332605.70341  23281170.478    23281170.5624   23281199.6224
        35.600           9.2004
 198904487.372 7                  37850271.104
        42.800
 104956228.892 8  81784083.84949  19972503.850    19972503.4534   19972503.2754
        51.800          54.1004
 131194603.995 5 102229545.93441  24965509.888    24965509.7454   24965508.9084
        32.300           7.1004
 202023685.394 7                  38443839.519
        45.800
 122650352.298 6                  23339589.333
        41.500
 144328332.939 5                  27464761.923
        34.200
 107356232.028 8  83499414.340 7  20097319.944    20097320.135    20097323.435
        51.000          42.700
                  99486888.698 5                  23962165.522    23962170.644
                        32.900
 139564368.422 5                  26558211.568
        33.800
 104647521.824 7  81392500.782 5  19583351.994    19583351.560    19583354.566
        46.600          35.100
 25  1  1 14  2 30.0000000  0 29E27E10G02E29G32E33G10G28G03G26R06R04
                                G04E04E21S35R05G25S31G31G21S33E19E11
                                R16R14R22E12R15
 132525820.927 6                  25218819.314
        41.800
 140034381.761 5                  26647656.828
        32.400
 128396408.289 7 100049161.52044  24433026.418    24433025.3144   24433022.5294
        45.300          25.2004
 127498614.720 7                  24262178.386
        44.900
 117329555.003 7  91425615.33845  22327080.910    22327080.6154   22327084.4914
        45.500          33.7004
 144517893.372 5                  27500839.809
        34.000
 128109625.035 5                  24378449.475
        33.500
 109921404.070 7  85653036.98944  20917329.040    20917328.7594   20917330.3684
        44.800          27.1004
 113183255.591 7  88195049.44047  21538051.368    21538051.2394   21538053.5184
        47.000          44.3004
 112053248.735 8  87314232.38447  21323010.151    21323009.7134   21323013.0934
        48.200          43.9004
 114779888.460 6                  21509697.067    21509696.779
        36.000
 120275849.156 6                  22460656.989    22460655.248
        41.100
 128021609.403 6  99757137.68141  24361704.355    24361704.2884   24361707.5344
        36.400          11.8004
 144236717.917 5                  27447333.045
        35.600
 131166378.346 7                  24960130.243
        45.800


 104717859.433 8  81446796.877 7  19589537.351    19589537.144    19589540.723
        51.000          42.000
 122384333.097 5  95364477.59242  23288953.212    23288953.0254   23288986.0814
        34.600          12.2004
 198904494.914 7                  37850269.485
        42.600
 104956487.584 8  81784285.44549  19972553.032    19972552.6354   19972552.6514
        51.100          54.0004
 131230040.256 5 102257158.4774   24972260.634    24972260.6174   24972252.2544
        30.700           5.6004
 202023709.582 7                  38443846.329
        46.000
 122639277.014 7                  23337480.834
        43.200
 144318261.554 5                  27462845.999
        34.800
 107313692.789 8  83466328.305 7  20089355.906    20089356.855    20089361.926
        50.700          44.400
                  96397032.928 5                                  23250648.713
                        34.300
                  99487645.561 5                                  23962353.833
                        35.400
 139589473.883 5                  26562990.341
        34.700
 104668955.385 8  81409171.284 6  19587364.359    19587365.324    19587369.765
        48.300          37.500
 25  1  1 14  2 45.0000000  0 30E27E10G02E29G32E33G10G28G03G26R06R04
                                G04E04R21E21S35R05G25S31G31G21S33E19
                                E11R16R14R22E12R15
 132532816.560 7                  25220150.158
        42.300


 128426709.516 7 100072772.78644  24438792.710    24438791.6154   24438790.5254
        43.300          27.2004
 127514377.691 7                  24265178.735
        45.000
 117358184.629 7  91447924.04645  22332527.749    22332527.4774   22332532.8194
        46.100          30.3004
 144562006.048 5                  27509235.182
        33.200
 128166926.237 5                  24389358.342
        30.100
 109946322.990 7  85672454.33144  20922070.629    20922070.3254   20922071.7054
        46.500          27.2004
 113148628.250 7  88168067.06047  21531462.061    21531461.9234   21531464.4394
        46.500          44.3004
 112013407.775 7  87283187.47147  21315428.540    21315428.0934   21315431.7664
        46.000          43.7004
 114732459.870 6                  21500810.578    21500809.916
        37.400
 120320154.346 6                  22468932.016    22468928.340
        41.400
 127979014.337 5  99723946.75941  24353605.177    24353604.7124   24353600.9434
        31.400           7.1004
 144205163.477 6                  27441327.725
        36.000
 128118575.600 5  99647842.913 5  23942020.733    23942019.956    23942031.150
        32.000          35.300
 131133399.872 7                  24953854.141
        45.800


 104725178.312 8  81452489.290 7  19590906.901    19590907.401    19590910.229
        52.200          42.300
 122425341.881 5  95396432.56541  23296761.920    23296762.0044   23296790.5474
        33.300           6.9004
 198904500.488 7                  37850274.525
        43.000
 104956860.726 8  81784576.23749  19972624.149    19972623.7694   19972623.7324
        52.200          54.3004
 131265479.710 4 102284773.5434   24979011.002    24979010.8554   24978996.3244
        29.500           1.6004
 202023731.807 7                  38443848.654
        45.400
 122628226.523 7                  23335377.377
        43.900
 144308294.455 5                  27460948.282
        35.100
 107271301.555 7  83433357.371 7  20081418.384    20081419.256    20081425.190
        47.700          44.800
 124000156.938 5  96444618.832 5  23262114.825                    23262124.990
        34.800          35.500
                  99488535.114 5                                  23962560.284
                        34.700
 139614659.260 5                  26567783.292
        35.700
 104690565.646 7  81425979.195 6  19591405.801    19591406.767    19591412.541
        44.400          38.700
 25  1  1 14  3  0.0000000  0 29E27E10G02E29G32E33G10G28G03G26R06R04
                                G04E04R21E21S35R05G25S31G31S33E19E11
                                R16R14R22E12R15
 132539919.579 7                  25221501.721
        42.800


 128457063.412 7 100096425.08944  24444568.878    24444567.7924   24444569.1444
        43.000          28.5004
 127530173.337 7                  24268183.908
        45.900
 117386868.790 7  91470275.14844  22337985.771    22337985.5034   22337985.3954
        45.900          24.5004
 144606110.999 5                  27517628.054
        32.300
 128224257.043 4                  24400266.417
        24.500
 109971316.373 7  85691929.65544  20926826.505    20926826.1924   20926827.1594
        47.900          28.4004
 113114112.634 7  88141171.79447  21524894.110    21524893.9584   21524896.5024
        44.700          44.2004
 111973675.662 7  87252227.37647  21307867.561    21307867.0794   21307870.6724
        44.200          42.4004
 114685062.629 6                  21491927.051    21491927.861
        37.100


 127936416.049 4                  24345505.263
        25.500
 144173605.754 5                  27435322.451
        35.200
                  99680775.257 5                  23949934.678    23949957.794
                        32.500
 131100494.587 7                  24947592.372
        45.100


 104732615.004 8  81458273.338 7  19592296.848    19592297.686    19592301.932
        51.900          43.200


 198904506.199 7                  37850274.762
        42.600
 104957350.790 8  81784958.09949  19972716.955    19972716.5804   19972717.0234
        51.800          54.6004
 202023754.400 7                  38443854.642
        44.700
 122617203.757 7                  23333280.050
        43.800
 144298434.233 5                  27459072.969
        35.800
 107229061.710 7  83400504.198 7  20073510.301    20073509.465    20073518.587
        44.100          45.700
 124061383.732 6  96492239.633 5  23273606.007    23273606.578    23273610.522
        38.600          33.800


 139639926.839 5                  26572590.924
        35.400
 104712355.176 7  81442926.505 6  19595485.947    19595486.439    19595490.885
        45.000          40.200
 25  1  1 14  3 15.0000000  0 29E27E10G02E29G32E33G10G28G03G26R06R04
                                G04E04R21E21S35R05G25S31G31S33E19E11
                                R16R14R22E12R15
 132547127.790 7                  25222873.039
        44.700


 128487467.213 7 100120116.29844  24450354.430    24450353.3224   24450356.3274
        44.000          28.9004
 127545999.104 7                  24271195.073
        46.900
 117415604.894 7  91492666.73444  22343454.806    22343454.5254   22343454.6324
        44.400          26.3004
 144650205.363 5                  27526020.785
        30.100


 109996381.474 8  85711460.88844  20931595.913    20931595.6054   20931596.8874
        48.600          29.4004
 113079706.178 7  88114361.53147  21518347.051    21518346.8994   21518349.6304
        43.800          43.6004
 111934050.125 7  87221350.35347  21300327.202    21300326.6974   21300330.1574
        44.900          42.7004
 114637694.766 6                  21483050.368    21483049.758
        37.000
 120408982.435 7                  22485515.713    22485518.534
        43.500


 144142042.085 6                  27429317.649
        36.600
 128203342.738 5  99713772.489 5  23957867.461    23957867.967    23957861.391
        33.500          32.500
 131067660.088 7                  24941344.372
        45.600


 104740166.917 8  81464147.031 7  19593710.027    19593710.200    19593715.425
        51.800          44.500
 122507682.192 4  95460594.1874   23312428.630    23312428.8754   23312460.6154
        26.700           4.0004
 198904510.755 7                  37850276.581
        43.000
 104957955.128 8  81785429.01149  19972831.955    19972831.5844   19972831.9484
        51.900          54.3004
 202023775.704 7                  38443855.478
        44.300
 122606205.997 7                  23331187.548
        44.700
 144288678.277 5                  27457213.627
        35.700
 107186970.554 7  83367766.667 7  20065631.176    20065629.984    20065639.427
        45.700          46.400
 124122652.145 6  96539892.948 5  23285098.969    23285100.593    23285106.822
        39.400          31.800


 139665273.831 5                  26577415.286
        34.100
 104734320.834 7  81460010.898 7  19599598.196    19599598.507    19599602.680
        45.200          42.200
 25  1  1 14  3 30.0000000  0 30E27E10G02E29G32G16E33G10G28G03G26R06
                                R04G04E04R21E21S35R05G25S31G31S33E19
                                E11R16R14R22E12R15
 132554442.852 7                  25224263.906
        43.700
 140072304.740 5                  26654875.709
        32.800
 128517922.343 7 100143847.50944  24456150.306    24456149.1574   24456152.0024
        42.800          27.5004
 127561856.944 7                  24274213.355
        47.100
 117444394.843 7  91515100.42945  22348935.146    22348934.8604   22348937.8474
        44.600          30.1004
 124936770.843 6                  23774678.390
        36.800
 144694290.788 4                  27534403.959
        24.000


 110021519.838 8  85731049.17644  20936379.581    20936379.3094   20936380.2674
        48.100          29.0004
 113045411.266 7  88087638.15746  21511820.438    21511820.2824   21511823.5484
        43.200          41.6004
 111894533.413 7  87190558.12047  21292806.658    21292806.1174   21292810.5874
        46.300          44.5004
 114590358.158 5                  21474178.406    21474178.676
        35.100
 120453504.540 7                  22493831.749    22493832.420
        44.300


 144110474.437 6                  27423310.722
        38.400
 128245853.399 5  99746836.104 5  23965817.614    23965817.153    23965808.149
        32.700          35.300
 131034898.556 7                  24935110.325
        44.800


 104747836.173 8  81470111.992 7  19595145.995    19595146.159    19595150.606
        53.100          45.800
 122549012.756 4  95492799.9794   23320299.763    23320300.2324   23320325.0144
        27.300           2.2004
 198904515.055 7                  37850275.151
        42.600
 104958675.592 8  81785990.41249  19972969.081    19972968.7064   19972969.0354
        51.800          54.1004
 202023796.224 7                  38443861.559
        45.200
 122595235.266 7                  23329100.288
        45.500
 144279028.665 5                  27455377.572
        35.400
 107145030.428 8  83335146.617 7  20057781.151    20057780.757    20057787.482
        48.600          46.100
 124183963.970 6  96587579.975 4  23296599.798    23296600.815    23296609.445
        36.400          29.100
 127918222.788 6  99492009.069 6  23963396.005    23963393.841    23963396.535
        36.600          36.400
 139690702.046 5                  26582254.783
        35.500
 104756464.132 7  81477233.532 7  19603741.733    19603741.631    19603744.002
        44.400          43.100
 25  1  1 14  3 45.0000000  0 31E27E10G02E29G32G16E33G10G28G03G26R06
                                R04G04E04R21E21S35R05G25S31G31G21S33
                                E19E11R16R14R22E12R15
 132561866.095 7                  25225677.026
        43.500
 140082049.082 5                  26656730.680
        32.700
 128548429.699 7 100167619.36944  24461955.823    24461954.6974   24461956.9954
        44.200          25.8004
 127577748.149 7                  24277237.331
        46.600
 117473239.921 7  91537577.15345  22354424.432    22354424.1734   22354429.4244
        45.600          34.7004
 124877180.521 6                  23763338.364
        36.900
 144738368.396 4                  27542794.180
        25.300
 128396469.536 5 100049209.17541  24433030.959    24433030.9674   24433039.3654
        34.400           7.3004
 110046732.593 8  85750695.44144  20941177.544    20941177.3124   20941176.2924
        48.000          28.2004
 113011229.554 6  88061003.03246  21505314.689    21505314.5244   21505318.6344
        40.700          39.6004
 111855127.116 7  87159851.93647  21285308.512    21285307.9804   21285312.1234
        46.700          45.7004
 114543054.481 6                  21465313.811    21465314.570
        36.600
 120498100.488 7                  22502160.619    22502161.671
        44.500
 127808563.389 6                  24321162.917
        37.300
 144078903.960 6                  27417303.648
        37.100
 128288450.054 6  99779966.580 6  23973767.842    23973766.374    23973770.834
        38.000          37.000
 131002211.412 7                  24928890.453
        43.700


 104755624.439 8  81476169.537 7  19596602.938    19596603.470    19596607.975
        53.400          46.600


 198904519.684 7                  37850271.971
        42.800
 104959513.229 8  81786643.13849  19973128.786    19973128.4064   19973128.4804
        52.500          54.3004
 131407304.774 5                  25005979.149
        32.600
 202023819.070 7                  38443863.451
        45.300
 122584293.011 7                  23327017.778
        45.000
 144269486.833 5                  27453563.408
        35.900
 107103242.949 8  83302645.271 7  20049959.745    20049959.518    20049965.080
        51.800          45.900
 124245319.982 5                  23308112.457    23308110.302
        33.500
 127920057.566 6  99493436.286 5  23963735.174    23963738.250    23963741.584
        36.400          35.200
 139716212.450 5                  26587108.771
        33.700
 104778785.953 5  81494595.081 7  19607919.334    19607913.042    19607920.855
        34.000          44.000
 25  1  1 14  4  0.0000000  0 30E27E10G02E29G32G16E33G10G28G03G26R06
                                R04G04E04R21E21S35R05G25S31G31G21S33
                                E19E11R16R22E12R15
 132569398.874 6                  25227110.613
        41.700
 140091900.816 5                  26658603.701
        33.900
 128578990.604 7 100191432.95244  24467770.293    24467769.1804   24467772.6404
        45.500          24.9004
 127593674.230 7                  24280268.541
        46.800
 117502141.631 6  91560097.94645  22359921.646    22359921.4594   22359931.2064
        41.300          34.5004
 124817606.857 6                  23752001.592
        36.600
 144782439.361 5                  27551183.461
        30.300
 128453915.138 5 100093971.80541  24443967.305    24443967.3184   24443971.8614
        33.900           9.0004
 110072021.112 8  85770400.80144  20945989.774    20945989.5334   20945986.9224
        48.300          28.5004
 112977162.729 6  88034457.43546  21498832.364    21498832.2304   21498835.8814
        41.800          38.9004
 111815833.023 7  87129233.17747  21277830.774    21277830.2424   21277834.6764
        45.400          44.7004
 114495785.531 5                  21456455.011    21456456.196
        35.400


 127765952.696 6                  24313056.192
        40.100
 144047332.246 5                  27411295.608
        34.600
 128331133.267 6  99813164.610 6  23981739.287    23981741.697    23981747.949
        36.300          38.100
 130969600.316 7                  24922685.291
        42.600


 104763533.002 8  81482320.605 7  19598081.894    19598082.343    19598087.094
        53.100          46.500


 198904528.007 7                  37850279.242
        43.400
 104960469.347 8  81787388.17349  19973310.490    19973310.1154   19973310.4704
        53.100          54.4004
 131442767.334 4                  25012727.831
        29.400
 202023843.938 7                  38443870.811
        44.600
 122573380.540 7                  23324941.235
        44.600
 144260054.241 5                  27451766.162
        35.700
 107061609.888 8  83270264.020 7  20042165.715    20042166.857    20042170.425
        53.300          44.200
 127922067.270 5  99494999.363 5  23964106.719    23964108.929    23964113.439
        32.000          30.600
 139741806.262 5                  26591978.144
        31.800
 104801287.787 6  81512096.468 7  19612126.445    19612124.095    19612132.082
        40.800          44.800
 25  1  1 14  4 15.0000000  0 29E27E10G02E29G32G16E33G10G28G03G26R06
                                R04G04E04R21E21S35R05S31G31G21S33E19
                                E11R16R22E12R15
 132577035.078 6                  25228564.183
        40.600
 140101854.007 5                  26660498.291
        34.500
 128609598.886 7 100215283.50443  24473594.892    24473593.7974   24473597.1074
        44.200          23.5004
 127609629.338 7                  24283304.365
        47.300
 117531094.077 6  91582658.26744  22365432.268    22365432.1124   22365441.0634
        39.800          29.5004
 124758044.470 5                  23740669.439
        35.300
 144826497.509 5                  27559567.866
        32.500
 128511385.160 4 100138753.26641  24454937.223    24454937.5534   24454907.7514
        27.300           9.0004
 110097379.097 7  85790160.28344  20950815.090    20950814.8184   20950812.0404
        47.800          29.5004
 112943205.224 7  88007997.04746  21492370.401    21492370.3084   21492373.6404
        43.200          39.2004
 111776645.578 7  87098697.50147  21270373.502    21270372.9664   21270377.2314
        44.100          43.1004
 114448545.653 5                  21447603.841    21447603.282
        33.900
 120587511.654 6  93790312.100 6  22518856.675    22518854.958    22518869.344
        38.700          36.000
 127723335.277 6                  24304944.400
        39.700
 144015753.349 5                  27405284.289
        30.500
                  99846425.117 5                                  23989739.598
                        35.100
 130937059.649 6                  24916493.138
        39.300


 104771556.149 8  81488560.831 7  19599582.279    19599583.663    19599588.513
        52.900          47.200
 198904532.979 7                  37850279.018
        42.700
 104961537.882 8  81788220.81449  19973513.719    19973513.3444   19973513.7774
        52.900          54.1004
 131478229.962 5                  25019475.110
        30.600
 202023865.654 7                  38443875.041
        44.600
 122562492.228 7                  23322869.045
        44.200
 144250725.176 5                  27449992.083
        33.800
 107020125.921 8  83237998.785 6  20034399.213    20034399.805    20034401.468
        52.900          39.800
 127924246.266 5  99496693.961 4  23964528.710    23964525.917    23964529.180
        35.200          29.800
 139767477.384 4                  26596861.024
        28.300
 104823963.020 7  81529732.822 7  19616369.633    19616369.614    19616374.860
        44.600          44.700
 25  1  1 14  4 30.0000000  0 29E27E10G02E29G32G16E33G10G28G03G26R06
                                R04G04E04E21S35R05G25S31G31G21S33E19
                                E11R16R22E12R15
 132584781.608 6                  25230038.657
        40.100
 140111915.471 6                  26662414.588
        38.000
 128640260.928 7 100239175.89443  24479430.379    24479429.2664   24479431.2874
        42.600          20.8004
 127625620.410 7                  24286347.045
        47.600
 117560104.169 5  91605263.49344  22370952.075    22370951.9194   22370959.9314
        35.800          26.5004
 124698500.687 5                  23729337.406
        32.900
 144870549.561 4                  27567948.525
        26.100


 110122813.205 7  85809979.04045  20955655.386    20955655.0874   20955652.1964
        47.200          30.5004
 112909364.202 7  87981627.39146  21485930.636    21485930.5384   21485933.1044
        44.300          40.1004
 111737572.010 7  87068250.56047  21262938.669    21262938.0844   21262941.7944
        46.600          42.9004
 114401342.272 5                  21438756.028    21438754.022
        30.200
 120632328.012 6  93825168.998 6  22527224.807    22527225.572    22527240.834
        41.400          39.600
 127680718.084 6  99491434.21742  24296836.180    24296836.1974   24296825.1724
        39.900          12.6004
 143984174.212 5                  27399276.164
        31.500
 130904596.437 6                  24910315.142
        37.600


 104779701.392 8  81494895.965 7  19601106.117    19601106.564    19601112.200
        51.300          47.300
 122715334.695 5  95622505.55641  23351959.326    23351959.9654   23351991.4984
        35.800           6.4004
 198904541.133 7                  37850280.727
        42.700
 104962725.612 8  81789146.32148  19973740.028    19973739.6624   19973739.3664
        52.300          53.2004
 131513699.037 5                  25026223.836
        32.000
 202023891.138 7                  38443880.412
        45.100
 122551634.763 7                  23320802.635
        43.900
 144241506.709 5                  27448238.166
        32.200
 106978798.023 8  83205854.877 6  20026660.978    20026661.425    20026664.265
        50.600          37.600
 127926601.403 5  99498525.761 5  23964965.943    23964961.319    23964972.420
        30.900          32.000
 139793232.617 4                  26601763.252
        27.300
 104846818.497 7  81547509.308 7  19620647.456    19620647.361    19620652.267
        47.200          45.100
 25  1  1 14  4 45.0000000  0 30E27E10G02E29G32G16E33G10G28G03G26R06
                                R04G04E04R21E21S35R05G25S31G31G21S33
                                E19E11R16R22E12R15
 132592630.226 6                  25231531.701
        40.600
 140122076.754 6                  26664346.648
        39.700
 128670968.025 7 100263103.41942  24485273.444    24485272.3184   24485272.1114
        42.000          17.1004
 127641639.163 7                  24289395.171
        47.800
 117589163.654 5  91627907.13244  22376477.336    22376477.1444   22376487.5584
        33.900          24.5004
 124638967.355 5                  23718009.225
        31.300


 128626363.883 5                  24476782.244
        34.400
 110148314.913 7  85829850.45145  20960508.368    20960508.0874   20960506.1024
        47.100          32.1004
 112875631.679 7  87955342.28646  21479512.060    21479511.9264   21479513.2854
        45.800          40.8004
 111698604.386 7  87037886.20247  21255521.967    21255521.3734   21255526.3154
        47.200          43.7004
 114354167.267 5                  21429914.776    21429914.147
        31.100
 120677211.776 6  93860078.483 6  22535607.848    22535606.560    22535621.196
        36.300          38.900
 127638092.993 6  99458219.84342  24288724.977    24288725.2054   24288720.1504
        39.400          14.7004
 143952586.470 5                  27393264.177
        33.300


 130872202.584 6                  24904150.076
        39.700


 104787960.119 8  81501319.412 7  19602651.484    19602650.951    19602656.037
        49.300          46.500
 122757195.852 5  95655124.3134   23359925.212    23359925.8064   23359956.1064
        34.600           3.6004
 198904545.201 7                  37850286.115
        43.600
 104964024.121 8  81790158.13548  19973987.308    19973986.9374   19973986.2004
        51.300          53.0004
 131549166.175 4                  25032973.463
        29.500
 202023912.422 7                  38443885.921
        46.100
 122540799.985 7                  23318741.043
        44.500
 144232389.965 4                  27446503.685
        28.300
 106937618.475 8  83173826.351 6  20018952.078    20018951.803    20018957.584
        48.800          38.500
                  99500488.174 5                                  23965445.831
                        32.300


 104869845.346 8  81565419.064 7  19624956.181    19624956.650    19624960.492
        48.300          43.900
 25  1  1 14  5  0.0000000  0 30E27E10G02E29G32G16E33G10G28G03G26R06
                                R04G04E04R21E21S35R05G25S31G31G21S33
                                E19E11R16R14E12R15
 132600586.295 7                  25233045.770
        42.100
 140132343.201 6                  26666300.478
        41.600
 128701725.453 6 100287070.16442  24491124.916    24491123.7994   24491123.7034
        40.300          15.0004
 127657691.071 7                  24292449.975
        46.800
 117618277.941 6  91650593.55645  22382028.185    22382028.0874   22382026.5804
        38.800          30.1004
 124579450.585 5  97074935.82741  23706683.638    23706683.9424   23706690.7474
        34.700           6.4004


 128683914.324 5 100273169.21542  24487729.459    24487729.5614   24487736.8434
        31.700          13.9004
 110173889.566 7  85849778.69245  20965374.674    20965374.3974   20965373.9504
        47.900          33.7004
 112842013.504 7  87929146.29147  21473115.611    21473115.4734   21473116.2714
        45.000          42.1004
 111659748.426 7  87007608.86547  21248128.172    21248127.5914   21248132.2014
        47.600          44.0004
 114307026.308 5                  21421084.025    21421080.354
        32.800
 120722168.444 5  93895044.557 6  22544002.322    22543999.035    22544016.108
        32.900          38.300
 127595465.398 5  99425003.57242  24280614.436    24280614.7044   24280611.2034
        35.800          15.4004
 143920995.625 5                  27387252.750
        35.700
 128502860.964 5                  24013816.377    24013810.895
        30.600
 130839883.771 6                  24897998.773
        40.900


 104796338.177 8  81507835.620 7  19604219.375    19604218.956    19604224.727
        49.200          47.100
 122799163.066 4  95687825.9234   23367913.842    23367914.0564   23367941.6374
        28.700           4.7004
 198904550.595 7                  37850285.256
        42.900
 104965438.673 8  81791260.38548  19974256.592    19974256.2264   19974255.4634
        51.400          52.6004
 131584636.225 5                  25039725.459
        30.800
 202023934.351 7                  38443888.313
        45.200
 122529993.439 7                  23316684.430
        44.700
 144223380.781 4                  27444788.457
        25.200
 106896592.660 8  83141917.465 6  20011273.754    20011273.495    20011275.833
        50.100          37.000
 124552840.695 6                  23365781.268    23365782.307
        37.000


 104893048.933 8  81583466.287 7  19629298.835    19629297.813    19629302.818
        48.300          43.400
 25  1  1 14  5 15.0000000  0 31E27E10G02E29G32G16E33G10G28G03G26R06
                                R04G04E04R21E21S35R05G25S31G31G21S33
                                E19E11R16R14R22E12R15
 132608645.601 7                  25234579.503
        43.600
 140142710.589 6                  26668272.844
        41.600
 128732528.645 6 100311072.58441  24496986.273    24496985.3214   24496983.9304
        39.800          10.4004
 127673772.023 7                  24295510.531
        46.300
 117647442.905 6  91673319.41745  22387569.654    22387569.4674   22387576.5394
        38.700          33.7004
 124519946.294 5  97028568.92441  23695363.300    23695363.2114   23695364.9814
        35.500           8.1004


 128741487.859 4 100318031.45941  24498687.212    24498686.9984   24498694.0494
        28.200           9.7004
 110199532.740 7  85869760.34445  20970254.334    20970254.0534   20970254.3464
        46.500          34.5004
 112808505.747 7  87903036.33747  21466739.192    21466739.0764   21466739.8944
        46.300          42.7004
 111621000.331 7  86977415.57547  21240755.138    21240754.5574   21240759.0054
        46.800          45.3004
 114259915.626 5                  21412254.898    21412252.960
        33.200
 120767194.089 6  93930064.125 5  22552412.136    22552410.810    22552422.723
        36.100          35.600
 127552831.067 5  99391781.99142  24272500.748    24272500.9984   24272498.7854
        34.500          15.2004
 143889397.635 6                  27381239.440
        37.300
                  99980069.851 5                                  24021858.207
                        35.800
 130807636.035 7                  24891863.086
        43.100


 104804831.437 7  81514441.475 7  19605806.785    19605806.302    19605813.785
        46.200          47.300


 198904552.002 7                  37850280.776
        43.200
 104966965.085 8  81792449.79748  19974547.184    19974546.8224   19974546.1144
        50.700          52.0004
 131620104.832 4                  25046472.433
        24.100
 202023952.827 7                  38443896.027
        45.800
 122519210.996 7                  23314632.716
        44.600
 144214474.960 4                  27443096.176
        27.200
 106855716.914 8  83110125.240 5  20003620.051    20003621.077    20003620.684
        50.300          34.300
                                                  23377337.047

 127934634.885 5                  23966474.735    23966471.874
        32.600


 104916424.381 8  81601647.172 7  19633672.947    19633672.093    19633677.335
        48.800          43.000
 25  1  1 14  5 30.0000000  0 29E27E10G02E29G32G16E33G10G28G03G26R06
                                R04G04E04R21E21S35R05G25S31G31G21S33
                                E19E11R16E12R15
 132616818.858 7                  25236134.800
        43.900
 140153189.539 6                  26670266.805
        39.900
 128763388.152 6 100335118.82141  24502856.494    24502855.6584   24502855.5154
        37.000           7.6004
 127689892.951 7                  24298578.863
        46.100
 117676669.376 6  91696093.23245  22393133.062    22393132.9424   22393138.6384
        38.000          34.9004
 124460465.740 5  96982220.5594   23684039.816    23684039.7094   23684044.3494
        33.100           5.4004
 145046715.465 5                  27601465.651
        35.500


 110225255.035 7  85889803.63345  20975148.890    20975148.6274   20975149.7184
        46.600          35.0004
 112775119.671 7  87877021.24047  21460385.327    21460385.2204   21460386.7514
        47.500          43.3004
 111582371.287 7  86947315.04747  21233404.483    21233403.9114   21233408.7174
        46.100          46.5004
 114212846.322 5                  21403433.747    21403432.022
        32.000
 120812299.323 6  93965145.568 5  22560835.919    22560835.338    22560845.386
        38.800          34.200
 127510201.149 6  99358563.85042  24264389.364    24264389.6684   24264387.9774
        36.500          17.4004
 143857803.195 6                  27375226.865
        37.100
                 100013652.284 5                                  24029928.668
                        35.700
 130775470.415 7                  24885742.945
        43.500


 104813450.896 7  81521145.477 7  19607419.116    19607419.033    19607425.903
        45.300          46.200


 198904561.030 7                  37850285.426
        43.400
 104968614.038 8  81793734.68848  19974860.782    19974860.4204   19974859.8124
        50.100          51.0004
 131655582.855 4                  25053234.005
        26.300
 202023979.423 7                  38443899.546
        45.200
 122508463.701 7                  23312587.581
        44.800
 144205683.437 4                  27441421.777
        29.800
 106815002.563 8  83078458.534 6  19995998.285    19995998.356    19996001.727
        49.400          36.500


 104939982.610 8  81619970.230 6  19638081.848    19638081.578    19638086.283
        49.600          41.600
 25  1  1 14  5 45.0000000  0 30E27E10G02E29G32G16E33G10G28G03G26R06
                                R04G04E04R21E21S35R05G25S31G31G21S33
                                E19E11R16R22E12R15
 132625096.488 7                  25237710.005
        43.000
 140163770.426 6                  26672280.681
        36.700
 128794294.043 4 100359201.2414   24508739.361    24508738.4404   24508736.2804
        27.100           5.7004
 127706044.308 7                  24301651.981
        46.600
 117705947.811 6  91718907.53745  22398704.796    22398704.5824   22398709.9714
        41.300          34.3004
 124401000.006 5  96935883.8184   23672726.095    23672725.8814   23672727.2494
        31.600           4.7004
 145090712.841 5                  27609833.175
        34.300


 110251046.777 7  85909901.08545  20980056.389    20980056.1174   20980058.2894
        46.200          35.3004
 112741845.913 8  87851093.64947  21454053.425    21454053.3094   21454055.6134
        48.300          43.9004
 111543852.089 7  86917300.12147  21226075.274    21226074.7074   21226078.8074
        47.000          46.6004
 114165809.399 5                  21394618.711    21394617.833
        32.800
                  94000281.137 5                  22569268.644    22569282.699
                        34.300
 127467566.136 5  99325341.77742  24256274.424    24256274.7994   24256275.8194
        35.000          17.9004
 143826202.657 6                  27369214.088
        37.200
                 100047295.385 5                                  24038012.901
                        32.800
 130743377.555 7                  24879635.876
        43.200


 104822186.901 7  81527940.070 7  19609053.226    19609053.049    19609058.927
        44.200          45.100


 198904568.731 7                  37850283.915
        43.100
