     2.11           OBSERVATION DATA    M (MIXED)           RINEX VERSION / TYPE
teqc  2019Feb25                         20260317 16:18:01UTCPGM / RUN BY / DATE
Linux 2.4.21-27.ELsmp|Opteron|gcc -static|Linux 64|=+       COMMENT
BIT 2 OF LLI FLAGS DATA COLLECTED UNDER A/S CONDITION       COMMENT
-Unknown-                                                   MARKER NAME
-Unknown-           -Unknown-                               OBSERVER / AGENCY
-Unknown-           -Unknown-           -Unknown-           REC # / TYPE / VERS
-Unknown-           -Unknown-                               ANT # / TYPE
        0.0000        0.0000        0.0000                  APPROX POSITION XYZ
        0.0000        0.0000        0.0000                  ANTENNA: DELTA H/E/N
     1     1                                                WAVELENGTH FACT L1/2
     7    L1    L2    C1    P1    P2    S1    S2            # / TYPES OF OBSERV
 SNR is mapped to RINEX snr flag value [0-9]                COMMENT
  L1 & L2: min(max(int(snr_dBHz/6), 0), 9)                  COMMENT
  2025     1     1    15     0    0.0000000     GPS         TIME OF FIRST OBS
    18                                                      LEAP SECONDS
                                                            END OF HEADER
 25  1  1 15  0  0.0000000  0 25E27E10E29G32G16G04G28G03G26R06G09E04
                                R07E21S35R05S31G31E06S33E19E11R16E12
                                R15
 136755905.985 5                  26023784.751
        30.600
 144648149.414 5                  27525628.057
        35.000
 132045769.968 6                  25127479.849
        37.800


 112571388.857 7  87717777.78944  21421573.687    21421572.6324   21421576.0144
        46.500          28.9004
 118283674.316 7  92169107.75044  22508634.202    22508633.6884   22508636.6764
        44.000          26.5004
 117175151.240 6  91305267.34543  22297688.863    22297688.5734   22297689.0894
        38.800          20.2004
 108682920.727 8  84688293.85348  20681666.524    20681666.2794   20681669.2364
        50.600          49.9004
 106295644.511 8  82827789.76648  20227371.856    20227371.3294   20227375.2994
        49.100          48.7004
 105381436.533 6                  19748434.765    19748433.126
        37.900


 136910471.032 4                  26053183.372
        29.800
 124172151.428 6  96578336.232 6  23196391.993    23196389.815    23196395.239
        38.200          38.600
 125839117.437 8                  23946384.064
        48.000


 109686438.540 8  85311240.098 7  20519018.936    20519018.577    20519025.081
        49.900          42.200
 198905373.965 7                  37850445.358
        42.500
 107774955.132 7  83980492.54446  20508889.247    20508888.8724   20508889.0094
        44.800          38.9004


 202029161.774 7                  38444884.094
        45.200
 120938977.885 7                  23013925.070
        42.400
 144826363.452 5                  27559541.073
        31.300
 101988000.631 8  79324124.879 7  19092372.918    19092373.624    19092377.706
        52.800          47.500


 113524546.380 7  88296850.573 7  21244565.756    21244564.363    21244573.844
        42.100          44.200
 25  1  1 15  0 15.0000000  0 25E27E10E29G32G16G04G28G03G26R06G09E04
                                R07E21S35R05S31G31E06S33E19E11R16E12
                                R15


 144677359.432 6                  27531187.088
        38.700
 132069917.733 6                  25132073.397
        37.900


 112524987.080 7  87681620.64144  21412744.007    21412742.9434   21412746.0804
        45.100          28.4004
 118242542.435 7  92137056.92344  22500807.266    22500806.7934   22500808.6184
        43.300          27.1004
 117211659.067 7  91333714.98343  22304636.544    22304636.2454   22304637.5884
        42.300          21.3004
 108680395.267 8  84686325.95048  20681185.511    20681185.2664   20681189.7754
        50.200          49.6004
 106287384.055 8  82821353.00248  20225799.218    20225798.7184   20225803.5424
        48.400          48.3004
 105350587.760 6                  19742653.621    19742652.463
        37.800
 131203845.974 5 102236746.71642  24967261.267    24967260.9324   24967263.8174
        33.500          12.1004
 136878626.862 5                  26047127.647
        32.700
 124113856.705 6  96532995.952 6  23185501.080    23185500.699    23185504.146
        40.000          37.600
 125827065.293 8                  23944091.398
        48.500


 109722756.304 8  85339487.182 7  20525812.359    20525812.076    20525820.145
        48.000          43.600
 198905375.599 7                  37850452.039
        43.900
 107797539.940 7  83998091.08146  20513187.453    20513187.0874   20513186.3764
        45.400          40.2004


 202029186.090 7                  38444888.937
        44.300
 120935963.297 7                  23013351.877
        42.100
 144840407.411 5                  27562212.224
        30.900
 101985269.706 8  79322000.827 8  19091861.023    19091861.824    19091867.213
        52.400          48.200


 113576090.774 7  88336940.591 7  21254212.915    21254213.016    21254218.280
        44.400          43.600
 25  1  1 15  0 30.0000000  0 25E27E10E29G32G16G04G28G03G26R06G09E04
                                R07E21S35R05S31G31E06S33E19E11R16E12
                                R15


 144706634.632 6                  27536759.154
        38.800
 132094109.175 6                  25136677.827
        38.700


 112478691.242 7  87645546.02944  21403934.931    21403933.9124   21403935.0744
        44.100          27.2004
 118201434.877 7  92105025.06444  22492985.243    22492984.7924   22492984.5354
        43.200          26.0004
 117248199.947 6  91362188.33843  22311589.278    22311588.9164   22311593.2014
        38.800          22.2004
 108678030.744 8  84684483.46848  20680735.701    20680735.4514   20680739.9934
        48.800          48.7004
 106279281.675 8  82815039.49647  20224257.321    20224256.8434   20224262.0534
        48.000          47.8004
 105319860.396 6                  19736894.777    19736894.202
        37.900
 131155337.125 6 102198947.56542  24958032.340    24958031.9874   24958033.3244
        38.000          15.7004
 136846790.175 4                  26041068.581
        29.700
 124055565.316 6  96487658.251 6  23174612.720    23174610.322    23174617.543
        37.600          36.000
 125815119.981 8                  23941817.995
        49.400


 109759201.881 7  85367833.615 7  20532630.245    20532629.834    20532638.323
        46.900          44.100
 198905380.013 7                  37850449.070
        42.900
 107820202.143 7  84015749.91546  20517500.663    20517500.2924   20517499.6814
        43.400          39.6004


 202029213.068 7                  38444896.141
        47.500
 120932996.600 7                  23012787.309
        42.500
 144854549.207 4                  27564903.944
        28.200
 101982718.370 8  79320016.482 8  19091383.689    19091383.388    19091389.666
        51.600          48.200


 113627715.205 7  88377092.905 7  21263871.673    21263872.991    21263878.827
        45.800          43.500
 25  1  1 15  0 45.0000000  0 25E27E10E29G32G16G04G28G03G26R06G09E04
                                R07E21S35R05S31G31E06S33E19E11R16E12
                                R15
 136842150.195 5                  26040195.438
        34.600
 144735967.005 5                  27542338.098
        35.000
 132118336.508 6                  25141288.309
        36.000
 125452495.891 5  97755236.55542  23872815.080    23872814.8084   23872827.4024
        32.700          15.6004
 112432493.954 7  87609548.18244  21395143.399    21395142.3494   21395143.6854
        45.100          26.5004
 118160343.803 6  92073006.04943  22485166.411    22485165.9644   22485164.3114
        40.400          23.8004
 117284765.860 6  91390681.16943  22318548.204    22318547.8024   22318553.2954
        40.000          23.2004
 108675819.299 8  84682760.25948  20680315.230    20680314.9944   20680318.6944
        48.500          48.1004
 106271329.490 7  82808842.98947  20222743.936    20222743.4494   20222749.2454
        47.600          47.7004
 105289246.454 6                  19731158.024    19731157.012
        36.200
 131106811.356 5 102161135.26242  24948797.273    24948796.8984   24948798.0154
        35.700          14.4004
 136814953.043 6                  26035009.064
        37.500
 123997269.219 6  96442316.869 5  23163723.867    23163720.798    23163728.010
        37.100          34.700
 125803273.622 8                  23939563.528
        49.900


 109795767.204 8  85396273.205 7  20539472.020    20539471.801    20539479.932
        48.400          43.900
 198905380.278 7                  37850447.482
        43.500
 107842933.520 7  84033462.67146  20521826.808    20521826.4424   20521826.3564
        43.600          39.2004


 202029235.964 7                  38444904.346
        46.600
 120930070.013 6                  23012230.202
        41.800
 144868780.829 4                  27567612.314
        29.800
 101980338.302 8  79318165.314 8  19090939.574    19090939.754    19090944.171
        52.900          48.700


 113679410.916 7  88417300.645 7  21273545.874    21273546.725    21273553.791
        46.000          44.000
 25  1  1 15  1  0.0000000  0 25E27E10E29G32G16G04G28G03G26R06G09E04
                                R07E21S35R05S31G31E06S33E19E11R16E12
                                R15
 136871055.963 5                  26045696.174
        34.400
 144765361.437 4                  27547931.864
        27.400
 132142604.906 6                  25145907.605
        36.900


 112386400.834 7  87573631.51844  21386372.063    21386370.9864   21386372.6294
        46.400          28.4004
 118119274.710 6  92041004.17043  22477351.090    22477350.6934   22477350.1424
        36.200          22.8004
 117321361.849 6  91419197.46843  22325511.940    22325511.5384   22325517.8924
        40.200          21.2004
 108673766.179 8  84681160.41547  20679924.202    20679923.9574   20679927.6464
        49.100          47.9004
 106263532.679 8  82802767.51747  20221260.506    20221260.0064   20221265.3414
        48.300          47.2004
 105258751.801 5                  19725444.383    19725442.520
        35.100
 131058274.036 5 102123314.08942  24939562.298    24939561.8964   24939560.2464
        35.900          14.7004
 136783120.818 6                  26028950.865
        38.200
 123938973.984 6  96396976.045 5  23152835.179    23152831.320    23152839.480
        39.800          35.900
 125791531.369 8                  23937329.515
        51.000


 109832457.247 7  85424809.835 6  20546335.137    20546335.268    20546341.083
        47.700          41.300
 198905380.889 6                  37850441.638
        41.900
 107865739.088 7  84051233.24746  20526166.080    20526165.7094   20526165.9994
        45.700          38.7004
 148824868.654 5                  28320430.495
        33.500
 202029259.455 7                  38444909.104
        46.800
 120927188.856 7                  23011682.223
        42.200
 144883107.457 5                  27570339.837
        33.200
 101978134.623 8  79316451.336 8  19090525.577    19090526.638    19090531.552
        51.900          49.300


 113731183.095 7  88457567.875 7  21283235.695    21283235.380    21283243.931
        45.800          44.900
 25  1  1 15  1 15.0000000  0 25E27E10E29G32G16G04G28G03G26R06G09E04
                                R07E21S35R05S31G31E06S33E19E11R16E12
                                R15
 136900035.716 5                  26051210.045
        32.100
 144794815.653 3                  27553533.506
        23.500
 132166912.433 6                  25150532.779
        41.300


 112340410.189 7  87537794.73345  21377620.340    21377619.2814   21377621.3914
        47.600          31.1004
 118078225.649 6  92009017.85443  22469540.142    22469539.7364   22469540.5474
        38.600          23.8004
 117357985.747 6  91447735.43942  22332480.093    22332479.7004   22332485.5614
        41.400          15.1004
 108671869.401 8  84679682.42448  20679563.300    20679563.0464   20679567.1934
        50.500          50.0004
 106255889.290 7  82796811.61347  20219806.469    20219805.9694   20219810.0784
        47.400          47.5004
 105228374.888 5                  19719750.423    19719750.493
        35.700
 131009723.140 6 102085482.36042  24930326.154    24930325.6984   24930321.3964
        37.400          17.1004
 136751291.577 6                  26022893.985
        36.800
 123880678.093 7  96351634.695 6  23141942.118    23141942.203    23141951.486
        42.900          37.300
 125779891.115 8                  23935115.106
        51.600


 109869269.961 7  85453441.887 6  20553223.201    20553219.992    20553226.438
        43.900          40.600
 198905380.328 7                  37850439.890
        43.500
 107888616.783 7  84069060.04646  20530519.819    20530519.4714   20530517.5814
        45.300          37.3004
 148789484.082 5                  28313696.157
        32.700
 202029280.762 7                  38444911.993
        45.600
 120924351.170 6                  23011142.126
        41.500
 144897526.867 5                  27573084.118
        34.100
 101976105.329 8  79314873.007 8  19090144.066    19090144.820    19090152.296
        49.600          49.600


 113783028.978 7  88497892.476 7  21292938.302    21292936.825    21292946.816
        46.000          44.900
 25  1  1 15  1 30.0000000  0 25E27E10E29G32G16G04G28G03G26R06G09E04
                                R07E21S35R05S31G31E06S33E19E11R16E12
                                R15
 136929097.086 5                  26056740.871
        30.700
 144824337.028 5                  27559155.204
        30.800
 132191266.770 7                  25155166.280
        42.800


 112294530.191 8  87502044.15745  21368889.536    21368888.4814   21368891.2544
        48.800          33.1004
 118037204.613 6  91977053.41644  22461732.569    22461732.1634   22461736.2024
        40.200          24.0004
 117394645.106 6  91476301.01642  22339455.510    22339455.2154   22339459.2894
        40.200          13.6004
 108670136.636 8  84678332.19948  20679233.311    20679233.0524   20679237.3534
        50.300          49.5004
 106248407.076 8  82790981.32547  20218383.203    20218382.7214   20218385.5224
        48.200          46.7004
 105198123.570 6                  19714081.021    19714080.937
        36.700
 130961166.555 5 102047646.07542  24921083.405    24921082.9404   24921083.4974
        34.700          17.4004
 136719473.039 6                  26016839.829
        36.200
 123822389.635 7  96306299.121 6  23131054.433    23131053.615    23131062.097
        43.000          37.800
 125768360.818 8                  23932920.694
        51.000


 109906213.052 7  85482175.269 7  20560133.431    20560130.179    20560138.869
        44.700          42.300
 198905385.848 7                  37850442.103
        42.700
 107911573.977 7  84086948.76646  20534887.826    20534887.4734   20534885.5474
        45.100          37.6004
 148754092.694 5                  28306962.717
        32.500
 202029309.459 7                  38444912.131
        44.900
 120921564.817 6                  23010611.573
        40.900
 144912046.580 5                  27575846.604
        34.200
 101974258.117 8  79313436.263 8  19089798.339    19089798.658    19089806.488
        49.100          49.600


 113834955.909 7  88538280.122 7  21302655.052    21302654.957    21302663.106
        47.000          43.600
 25  1  1 15  1 45.0000000  0 25E27E10E29G32G16G04G28G03G26R06G09E04
                                R07E21S35R05S31G31E06S33E19E11R16E12
                                R15
 136958228.274 5                  26062285.581
        30.800
 144853914.129 5                  27564783.478
        31.200
 132215656.672 6                  25159806.408
        41.400
 125616630.675 5  97883158.26143  23904052.482    23904051.9594   23904065.1294
        35.500          22.7004
 112248749.920 7  87466371.25345  21360177.738    21360176.6974   21360179.5994
        47.900          33.8004
 117996200.428 6  91945102.09943  22453929.857    22453929.4154   22453932.5674
        40.800          21.9004
 117431328.478 6  91504885.40042  22346435.855    22346435.6324   22346438.6154
        40.200          15.5004
 108668556.694 8  84677101.06348  20678932.914    20678932.6604   20678935.5144
        50.500          48.9004
 106241074.719 8  82785267.79347  20216987.899    20216987.3994   20216990.0144
        49.200          47.1004
 105167987.042 6                  19708434.905    19708434.342
        38.500
 130912593.249 5 102009796.81642  24911840.712    24911840.2794   24911841.0694
        31.000          14.2004
 136687653.992 6                  26010783.006
        37.000
 123764097.472 7  96260960.714 6  23120163.703    23120163.988    23120174.492
        43.400          38.300
 125756929.172 8                  23930744.884
        50.100


 109943274.880 8  85511001.031 7  20567064.744    20567066.148    20567073.202
        48.200          44.600
 198905386.470 7                  37850442.072
        42.700
 107934599.183 7  84104890.48046  20539269.539    20539269.1914   20539267.7724
        46.100          38.5004
 148718683.223 4                  28300224.629
        25.800
 202029332.226 7                  38444919.992
        44.800
 120918818.509 6                  23010088.468
        40.900
 144926655.150 5                  27578625.864
        33.000
 101972581.253 8  79312132.030 8  19089485.618    19089485.497    19089492.017
        49.400          49.100


 113886952.002 8  88578721.549 6  21312386.253    21312387.238    21312390.879
        50.300          40.900
 25  1  1 15  2  0.0000000  0 25E27E10E29G32G16G04G28G03G26R06G09E04
                                R07E21S35R05S31G31E06S33E19E11R16E12
                                R15
 136987433.727 5                  26067844.247
        33.100
 144883550.753 4                  27570426.242
        28.000
 132240086.480 6                  25164456.433
        40.400
 125657795.177 5  97915234.12344  23911885.782    23911885.8354   23911897.7084
        35.300          24.8004
 112203074.123 7  87430779.75645  21351486.088    21351485.0334   21351487.8024
        47.100          32.8004
 117955217.640 6  91913167.50043  22446131.160    22446130.6784   22446130.7624
        40.900          19.3004
 117468040.146 6  91533491.91742  22353421.986    22353421.7764   22353424.0364
        40.300          16.3004
 108667133.941 8  84675992.41847  20678662.203    20678661.9624   20678663.1794
        51.600          47.9004
 106233896.658 8  82779674.50947  20215621.810    20215621.3014   20215624.4574
        50.500          47.4004
 105137970.121 6                  19702810.932    19702809.814
        40.100
 130864007.621 5 101971937.81341  24902597.946    24902597.3794   24902595.6144
        32.300           6.8004
 136655838.924 6                  26004728.738
        36.700
 123705806.346 6  96215623.087 6  23109273.662    23109273.495    23109287.419
        41.500          39.000
 125745600.514 7                  23928588.755
        47.300


 109980459.816 8  85539922.617 7  20574020.618    20574023.559    20574029.124
        48.100          45.300
 198905385.549 7                  37850448.551
        43.200
 107957696.670 7  84122888.51346  20543664.538    20543664.1814   20543663.8254
        45.100          39.0004


 202029354.361 7                  38444922.143
        44.000
 120916116.711 6                  23009573.691
        40.400
 144941356.758 5                  27581422.964
        34.700
 101971079.095 8  79310963.675 8  19089204.973    19089204.532    19089211.333
        50.100          49.100


 113939021.332 8  88619220.005 6  21322131.134    21322132.093    21322134.062
        51.500          40.400
 25  1  1 15  2 15.0000000  0 25E27E10E29G32G16G04G28G03G26R06G09E04
                                R07E21S35R05S31G31E06S33E19E11R16E12
                                R15
 137016716.561 5                  26073415.145
        34.700
 144913250.699 4                  27576073.520
        24.800
 132264559.913 6                  25169113.400
        41.000
 125699011.570 5  97947350.42343  23919728.938    23919729.2774   23919740.5904
        32.100          22.1004
 112157506.706 7  87395272.72945  21342814.843    21342813.7664   21342816.6064
        46.900          33.4004
 117914260.067 6  91881252.54443  22438337.923    22438337.4634   22438333.8314
        41.400          19.0004
 117504783.695 6  91562123.23142  22360416.103    22360415.8264   22360416.4694
        37.700          17.1004
 108665872.069 8  84675009.13948  20678421.800    20678421.5504   20678422.7314
        51.200          48.1004
 106226876.570 8  82774204.32147  20214285.333    20214284.8334   20214289.0744
        49.400          47.2004
 105108076.930 6                  19697207.849    19697207.801
        40.400
 130815413.284 5 101934072.0974   24893350.057    24893349.3424   24893348.4064
        31.800           5.1004
 136624031.579 5                  25998677.033
        34.500
 123647520.129 7  96170289.260 6  23098385.832    23098386.637    23098402.760
        42.200          40.600
 125734378.647 7                  23926453.602
        46.000


 110017771.505 7  85568942.770 7  20581001.837    20581002.286    20581008.790
        46.600          44.900
 198905388.358 7                  37850448.158
        43.000
 107980869.887 7  84140945.56646  20548074.407    20548073.9784   20548074.5714
        46.400          40.6004


 202029380.334 7                  38444925.908
        44.100
 120913463.378 6                  23009069.795
        41.200
 144956154.932 5                  27584238.350
        33.900
 101969755.076 8  79309933.886 8  19088957.300    19088957.180    19088963.332
        50.800          49.100


 113991166.916 8  88659777.637 6  21331889.027    21331889.692    21331893.512
        51.900          40.700
 25  1  1 15  2 30.0000000  0 25E27E10E29G32G16G04G28G03G26R06G09E04
                                R07E21S35R05S31G31E06S33E19E11R16E12
                                R15
 137046071.608 5                  26079001.838
        35.100
 144943008.331 5                  27581740.004
        30.000
 132289071.759 6                  25173777.695
        40.400


 112112042.815 7  87359846.37445  21334162.865    21334161.8244   21334164.8354
        47.500          34.1004
 117873322.649 7  91849353.30943  22430547.995    22430547.5754   22430543.7864
        42.900          22.0004
 117541553.667 6  91590775.15342  22367413.335    22367413.0184   22367413.8654
        41.300          17.0004
 108664765.865 8  84674147.15748  20678211.607    20678211.3444   20678213.3434
        50.100          48.5004
 106220009.231 7  82768853.16347  20212978.587    20212978.0914   20212982.6584
        47.700          45.4004
 105078302.396 6                  19691627.483    19691627.225
        40.200
 130766805.441 5 101896195.90241  24884094.860    24884093.9174   24884098.6134
        30.700           9.0004
 136592226.745 5                  25992625.853
        34.700
 123589234.320 7  96124955.872 6  23087499.914    23087497.967    23087516.336
        42.300          37.100
 125723258.368 7                  23924337.148
        45.800


 110055204.406 7  85598057.212 7  20588002.858    20588003.940    20588009.867
        45.300          43.500
 198905388.937 7                  37850450.832
        43.300
 108004113.355 7  84159057.37046  20552497.807    20552497.3784   20552498.7094
        45.200          41.5004


 202029402.668 7                  38444933.474
        44.900
 120910853.164 7                  23008573.387
        42.300
 144971044.300 5                  27587071.785
        33.300
 101968603.808 8  79309038.470 8  19088741.835    19088741.522    19088747.523
        50.700          48.600


 114043383.076 8  88700390.163 6  21341660.650    21341661.377    21341665.215
        52.400          40.300
 25  1  1 15  2 45.0000000  0 25E27E10E29G32G16G04G28G03G26R06G09E04
                                R07E21S35R05S31G31E06S33E19E11R16E12
                                R15
 137075504.037 5                  26084603.193
        35.800
 144972828.472 4                  27587415.170
        28.500
 132313627.165 6                  25178450.162
        40.800


 112066687.903 8  87324504.94145  21325532.801    21325531.7774   21325533.8574
        48.500          35.5004
 117832410.608 7  91817473.80044  22422761.223    22422760.8304   22422762.1074
        43.000          25.7004
 117578355.011 7  91619451.48742  22374414.857    22374414.4604   22374416.5164
        42.100          17.3004
 108663820.486 8  84673410.48448  20678032.209    20678031.9554   20678034.6884
        50.600          49.0004
 106213299.753 7  82763625.02347  20211702.436    20211701.9224   20211705.8584
        45.900          43.8004
 105048652.350 6                  19686071.897    19686071.377
        40.000
 130718188.958 4 101858312.82341  24874841.595    24874840.6214   24874847.3184
        24.200          11.2004
 136560429.542 5                  25986573.807
        34.200
 123530954.014 7  96079626.683 5  23076610.587    23076610.358    23076634.906
        43.100          30.100
 125712244.803 7                  23922241.095
        46.200


 110092763.811 7  85627270.018 7  20595031.013    20595030.227    20595035.617
        45.900          42.800
 198905391.912 7                  37850449.146
        43.600
 108027432.013 7  84177227.76647  20556935.482    20556935.0674   20556937.3044
        47.000          43.0004


 202029428.650 7                  38444935.482
        45.100
 120908291.350 7                  23008085.894
        43.900
 144986029.774 5                  27589924.904
        35.100
 101967630.361 8  79308281.375 8  19088559.388    19088559.393    19088564.620
        51.300          48.200


 114095674.478 8  88741061.227 6  21351447.089    21351447.277    21351450.798
        51.800          40.100
 25  1  1 15  3  0.0000000  0 25E27E10E29G32G16G04G28G03G26R06G09E04
                                R07E21S35R05S31G31E06S33E19E11R16E12
                                R15
 137105008.771 6                  26090219.268
        36.700
 145002706.084 4                  27593109.948
        27.800
 132338221.449 6                  25183130.499
        38.900
 125823009.329 5  98043939.43642  23943316.192    23943315.7364   23943326.5974
        35.900          12.8004
 112021437.697 8  87289245.08446  21316921.276    21316920.2754   21316923.4844
        48.000          36.0004
 117791519.510 6  91785610.59244  22414979.646    22414979.2844   22414983.8054
        41.700          26.5004
 117615182.899 7  91648148.52242  22381422.977    22381422.5754   22381424.5054
        43.000          17.5004
 108663031.250 8  84672795.49048  20677881.536    20677881.2774   20677885.0774
        50.300          48.6004
 106206743.506 7  82758516.29847  20210454.825    20210454.3254   20210458.5754
        47.300          42.5004
 105019122.467 6                  19680536.884    19680537.588
        39.000


 136528635.376 6                  25980524.536
        38.200
 123472674.756 7                  23065723.393    23065722.051
        43.700
 125701333.236 8                  23920164.906
        48.100


 110130444.350 7  85656577.047 7  20602078.419    20602078.877    20602084.920
        46.800          42.200
 198905393.403 7                  37850447.643
        43.300
 108050820.849 7  84195452.81747  20561385.740    20561385.3114   20561388.5094
        46.700          43.2004


 202029453.353 7                  38444939.600
        45.000
 120905773.290 7                  23007607.075
        44.800
 145001106.549 5                  27592792.169
        32.800
 101966829.651 8  79307658.625 8  19088409.241    19088409.862    19088415.295
        51.800          48.700


 114148035.908 8  88781786.715 6  21361245.441    21361245.841    21361249.393
        50.500          39.700
 25  1  1 15  3 15.0000000  0 25E27E10E29G32G16G04G28G03G26R06G09E04
                                R07E21S35R05S31G31E06S33E19E11R16E12
                                R15
 137134594.123 6                  26095849.959
        37.500
 145032649.671 5                  27598814.642
        30.600
 132362863.132 6                  25187819.967
        39.500
 125864425.564 5  98076211.59241  23951191.014    23951191.1834   23951207.9934
        34.600          10.4004
 111976301.113 7  87254073.75645  21308330.940    21308329.9434   21308335.1654
        45.000          34.5004
 117750657.994 6  91753770.42644  22407204.741    22407204.4424   22407209.7194
        39.800          26.7004
 117652045.707 7  91676872.72142  22388438.457    22388438.1274   22388439.6764
        42.800          17.1004
 108662406.715 8  84672308.82348  20677762.663    20677762.4044   20677765.5774
        49.800          48.0004
 106200348.936 8  82753533.54147  20209237.099    20209236.5994   20209241.5464
        48.800          42.4004
 104989721.756 6                  19675025.865    19675025.790
        36.200


 136496852.995 6                  25974475.631
        39.000
 123414405.777 7  95988973.505 6  23054837.630    23054837.710    23054846.156
        46.300          38.000
 125690532.273 8                  23918109.696
        48.800


 110168255.008 8  85685985.265 7  20609153.870    20609154.634    20609158.437
        49.900          42.100
 198905401.224 7                  37850447.241
        42.500
 108074288.308 7  84213739.13847  20565852.237    20565851.8314   20565853.4114
        46.100          43.3004


 202029483.902 7                  38444945.722
        44.600
 120903307.571 7                  23007137.990
        45.300
 145016283.071 5                  27595680.835
        31.600
 101966210.572 8  79307177.135 8  19088293.451    19088293.511    19088299.476
        51.700          49.100


 114200475.844 8  88822573.347 6  21371058.161    21371058.258    21371062.583
        49.100          40.100
 25  1  1 15  3 30.0000000  0 25E27E10E29G32G16G04G28G03G26R06G09E04
                                R07E21S35R05S31G31E06S33E19E11R16E12
                                R15
 137164246.006 6                  26101493.426
        36.700
 145062645.488 4                  27604530.326
        29.500
 132387538.562 6                  25192514.907
        38.600


 111931264.736 6  87218980.46645  21299762.161    21299761.1604   21299765.6004
        41.200          31.6004
 117709812.497 6  91721942.75744  22399431.332    22399431.0824   22399437.4944
        40.700          26.6004
 117688929.629 6  91705613.41741  22395456.569    22395456.3064   22395458.1384
        40.800          11.6004
 108661933.177 8  84671939.85148  20677672.798    20677672.5264   20677674.7144
        50.100          48.2004
 106194102.406 8  82748666.16146  20208048.325    20208047.8344   20208051.2414
        49.600          41.9004
 104960436.442 6                  19669539.656    19669539.333
        36.500


 136465068.585 6                  25968426.227
        37.300
 123356133.071 7  95943650.284 6  23043951.469    23043951.983    23043959.674
        46.200          40.800
 125679828.259 7                  23916072.254
        47.900


 110206181.477 8  85715483.567 7  20616248.069    20616249.279    20616255.291
        50.700          43.300
 198905401.915 6                  37850444.321
        41.900
 108097820.395 7  84232075.82047  20570330.319    20570329.9394   20570330.2924
        46.400          43.1004


 202029507.485 7                  38444951.186
        44.100
 120900880.595 7                  23006676.041
        45.100
 145031545.339 4                  27598582.521
        27.400
 101965758.639 8  79306825.630 8  19088209.209    19088209.753    19088214.636
        52.300          49.000


 114252979.624 8  88863409.564 6  21380882.698    21380883.651    21380887.914
        49.200          39.700
 25  1  1 15  3 45.0000000  0 25E27E10E29G32G16G04G28G03G26R06G09E04
                                R07E21S35R05S31G31E06S33E19E11R16E12
                                R15
 137193973.450 4                  26107148.310
        26.300
 145092702.220 5                  27610231.759
        30.600
 132412256.791 6                  25197218.274
        37.600


 111886337.925 7  87183972.56445  21291213.458    21291212.4524   21291215.5134
        44.400          31.7004
 117668992.442 6  91690134.96444  22391662.897    22391662.5844   22391669.7584
        39.200          25.1004
 117725843.511 5  91734377.42841  22402480.188    22402479.8844   22402482.2524
        34.500          10.5004
 108661619.702 8  84671695.59348  20677613.331    20677613.0594   20677615.4024
        50.400          48.5004
 106188012.965 8  82743921.19147  20206888.972    20206888.4814   20206891.6284
        48.100          42.6004
 104931276.268 6                  19664074.762    19664074.312
        36.600


 136433291.388 6                  25962380.386
        40.100
 123297866.516 7  95898331.921 7  23033067.843    23033066.654    23033075.275
        44.700          42.600
 125669230.218 7                  23914055.133
        46.700


 110244232.749 8  85745078.926 7  20623364.380    20623365.348    20623373.309
        48.400          43.800
 198905405.131 7                  37850453.416
        42.400
 108121425.978 7  84250469.76947  20574822.259    20574821.8844   20574821.2594
        47.800          42.4004


 202029533.088 7                  38444956.879
        45.800
 120898501.488 7                  23006223.469
        44.600
 145046902.290 5                  27601508.185
        33.300
 101965483.136 8  79306611.336 8  19088158.598    19088158.754    19088163.427
        52.500          48.800
 147613103.048 5                  28089837.774
        35.800
 114305556.003 8  88904302.213 6  21390723.000    21390723.698    21390727.514
        49.200          39.800
 25  1  1 15  4  0.0000000  0 24E10E29G32G16G04G28G03G26R06G09E04R07
                                E21S35R05S31G31E06S33E19E11R16E12R15
 145122815.057 4                  27615959.503
        28.600
 132437013.445 6                  25201930.308
        38.700
 125988900.567 5  98173248.11742  23974891.321    23974891.1114   23974905.4914
        34.800          16.8004
 111841516.968 7  87149047.17045  21282684.015    21282683.0184   21282684.9364
        47.300          31.9004
 117628193.395 6  91658343.47643  22383901.696    22383901.3574   22383905.4964
        36.200          22.9004
 117762782.849 6  91763161.18641  22409511.097    22409510.8254   22409511.2764
        39.900          10.4004
 108661461.923 8  84671572.61048  20677582.322    20677582.0324   20677586.7174
        49.900          49.8004
 106182076.268 7  82739295.20747  20205759.957    20205759.4484   20205762.3924
        47.800          42.7004
 104902237.263 6                  19658634.594    19658633.314
        37.300


 136401517.073 5                  25956332.322
        35.000
 123239602.076 7  95853015.080 7  23022185.127    23022185.314    23022189.646
        47.300          42.600
 125658733.928 7                  23912058.252
        47.100


 110282404.422 8  85774767.891 7  20630507.266    20630508.277    20630514.638
        50.600          44.200
 198905405.612 7                  37850457.915
        44.600
 108145100.509 8  84268917.45147  20579326.480    20579326.0914   20579326.1154
        48.400          43.4004


 202029556.618 7                  38444960.161
        45.200
 120896166.031 7                  23005778.846
        44.500
 145062349.432 5                  27604448.389
        33.800
 101965379.251 8  79306530.534 8  19088137.773    19088137.925    19088143.702
        51.800          48.600
 147650872.082 5                  28097023.074
        34.600
 114358200.229 8  88945247.701 6  21400576.374    21400577.276    21400579.513
        50.600          40.100
 25  1  1 15  4 15.0000000  0 25E27E10E29G32G16G04G28G03G26R06G09E04
                                R07E21S35R05S31G31E06S33E19E11R16E12
                                R15


 145152986.690 5                  27621698.241
        34.000
 132461811.977 6                  25206649.500
        38.600
 126030503.809 5  98205665.85143  23982808.247    23982808.2254   23982820.9294
        31.500          21.7004
 111796805.359 7  87114206.97044  21274174.621    21274173.6334   21274173.4754
        47.600          29.6004
 117587418.983 5  91626571.15943  22376142.027    22376141.6924   22376145.4424
        35.700          19.6004
 117799750.819 5  91791967.30841  22416543.865    22416543.5844   22416545.8054
        35.100           8.5004
 108661463.318 8  84671573.69248  20677584.133    20677583.8474   20677587.7724
        51.200          49.9004
 106176295.664 8  82734790.82847  20204660.063    20204659.5094   20204663.0124
        49.300          45.6004
 104873323.439 6                  19653214.719    19653215.151
        36.400


 136369749.138 6                  25950288.670
        37.300
 123181343.027 7  95807702.439 7  23011299.773    23011301.599    23011306.106
        47.700          43.700
 125648342.699 7                  23910081.064
        46.700


 110320699.954 8  85804553.172 7  20637670.131    20637671.329    20637677.525
        49.400          43.800
 198905407.382 7                  37850453.179
        42.900
 108168847.266 7  84287421.41147  20583845.780    20583845.3874   20583844.8154
        46.200          43.1004


 202029581.429 7                  38444970.714
        43.900
 120893877.729 7                  23005343.471
        44.900
 145077889.944 5                  27607405.851
        34.000
 101965450.481 8  79306585.928 8  19088150.852    19088151.108    19088157.479
        51.200          48.900
 147688660.724 5                  28104215.128
        30.600
 114410915.052 8  88986248.039 6  21410438.448    21410439.945    21410444.802
        49.300          40.100
 25  1  1 15  4 30.0000000  0 24E10E29G32G16G04G28G03G26R06G09E04R07
                                E21S35R05S31G31E06S33E19E11R16E12R15
 145183217.627 5                  27627448.694
        32.500
 132486652.706 6                  25211377.633
        41.100


 111752203.692 7  87079452.48245  21265687.299    21265686.3204   21265684.8334
        46.800          30.5004
 117546669.656 6  91594818.43743  22368387.222    22368386.9904   22368390.0794
        37.800          18.8004
 117836747.708 6  91820795.97042  22423585.632    22423585.3514   22423586.1424
        39.400          14.5004
 108661624.105 8  84671698.93948  20677613.715    20677613.4344   20677618.2294
        50.100          49.1004
 106170671.492 7  82730408.34547  20203589.549    20203589.0044   20203593.4184
        47.100          44.6004
 104844535.076 6                  19647818.370    19647819.383
        36.900


 136337987.981 5                  25944243.347
        35.400
 123123089.839 7  95762394.398 7  23000416.321    23000417.786    23000423.916
        46.300          43.600
 125638056.905 7                  23908123.876
        47.300


 110359119.372 8  85834434.888 7  20644858.438    20644858.689    20644866.092
        49.500          44.900
 198905410.286 7                  37850461.139
        44.400
 108192666.267 8  84305981.67047  20588378.231    20588377.8744   20588377.5734
        48.100          44.3004


 202029607.290 7                  38444968.957
        47.000
 120891636.956 7                  23004916.566
        44.600
 145093523.931 5                  27610379.762
        34.600
 101965696.725 8  79306777.419 7  19088197.974    19088197.984    19088202.625
        52.100          46.900
 147726469.081 4                  28111411.090
        29.500
 114463700.592 8  89027303.388 6  21420319.094    21420319.503    21420323.100
        48.500          40.900
 25  1  1 15  4 45.0000000  0 24E10E29G32G16G04G28G03G26R06G09E04R07
                                E21S35R05S31G31E06S33E19E11R16E12R15
 145213507.507 5                  27633213.976
        33.800
 132511535.604 7                  25216112.115
        43.300


 111707712.391 7  87044783.95045  21257221.097    21257220.1364   21257219.7884
        46.600          32.0004
 117505945.622 5  91563085.32241  22360637.154    22360636.9404   22360639.6664
        35.300          11.4004
 117873773.346 6  91849647.04742  22430632.498    22430632.2354   22430633.3744
        41.300          17.9004
 108661944.318 8  84671948.43148  20677675.140    20677674.8724   20677678.3544
        50.200          48.9004
 106165203.768 7  82726147.78547  20202549.469    20202548.9334   20202553.2564
        46.500          44.4004
 104815872.716 6                  19642449.261    19642447.444
        37.200


 136306233.488 6                  25938202.381
        36.400
 123064843.439 7  95717091.639 6  22989535.544    22989536.088    22989541.302
        45.600          41.800
 125627876.627 7                  23906186.698
        47.000


 110397662.692 8  85864412.915 7  20652069.213    20652069.807    20652076.695
        50.000          45.700
 198905414.541 7                  37850460.437
        43.500
 108216557.298 7  84324598.04347  20592924.519    20592924.1844   20592924.7664
        47.500          44.9004


 202029634.001 7                  38444974.296
        46.600
 120889443.739 7                  23004499.680
        43.200
 145109251.288 5                  27613372.057
        32.100
 101966117.835 8  79307104.963 7  19088276.038    19088276.013    19088281.200
        50.900          46.500
 147764296.826 5                  28118610.239
        33.200
 114516556.053 8  89068413.105 6  21430211.147    21430211.215    21430214.199
        49.500          40.200
 25  1  1 15  5  0.0000000  0 24E10E29G32G16G04G28G03G26R06G09E04R07
                                E21S35R05S31G31E06S33E19E11R16E12R15
 145243850.063 5                  27638987.714
        32.800
 132536454.563 6                  25220851.624
        40.800


 111663325.713 7  87010196.93745  21248774.310    21248773.3454   21248776.3144
        46.300          33.7004
 117465240.989 5  91531367.27741  22352890.997    22352890.4654   22352893.6944
        34.500           7.6004
 117910821.406 6  91878515.68643  22437680.953    22437680.6364   22437684.8554
        40.500          19.0004
 108662417.785 8  84672317.31348  20677765.160    20677764.9244   20677767.6264
        49.100          48.2004
 106159886.310 7  82722004.28947  20201538.353    20201537.7954   20201541.3104
        45.200          43.5004
 104787330.631 6                  19637099.220    19637099.451
        38.200


 136274479.686 7                  25932161.016
        42.500
 123006597.832 7  95671789.497 6  22978657.391    22978656.957    22978660.413
        44.600          41.400
 125617795.736 8                  23904268.870
        48.400


 110436323.208 8  85894482.105 7  20659301.770    20659301.950    20659309.249
        48.600          46.000
 198905413.915 7                  37850451.976
        43.600
 108240514.014 8  84343265.61847  20597484.187    20597483.8524   20597484.3234
        49.000          46.0004


 202029655.843 7                  38444978.030
        46.300
 120887292.108 6                  23004090.017
        41.600
 145125065.768 5                  27616382.214
        30.700
 101966707.756 8  79307563.767 7  19088386.977    19088387.044    19088392.669
        51.700          46.200
 147802137.564 5                  28125810.869
        33.400
 114569474.839 7  89109572.119 6  21440112.827    21440113.145    21440117.211
        46.800          39.700
 25  1  1 15  5 15.0000000  0 25E27E10E29G32G16G04G28G03G26R06G09E04
                                R07E21S35R05S31G31E06S33E19E11R16E12
                                R15


 145274252.318 5                  27644774.146
        33.200
 132561417.001 6                  25225602.323
        38.600


 111619051.239 8  86975697.35045  21240350.321    21240349.3514   21240353.1814
        48.300          35.5004
 117424563.053 6  91499670.21241  22345151.979    22345151.4254   22345153.5834
        40.500          11.0004
 117947899.071 5  91907407.42142  22444736.364    22444736.0784   22444741.0134
        34.300          16.6004
 108663051.928 8  84672811.41948  20677885.660    20677885.4154   20677888.2074
        49.400          48.4004
 106154726.537 7  82717983.68447  20200555.402    20200554.8484   20200559.1944
        45.700          43.0004
 104758916.713 6                  19631775.393    19631774.030
        37.800


 136242734.042 7                  25926119.374
        43.100
 122948360.768 7  95626493.991 6  22967776.472    22967777.106    22967781.371
        43.800          41.400
 125607821.416 8                  23902370.754
        48.500


 110475108.259 7  85924648.227 7  20666557.598    20666556.102    20666565.150
        45.000          46.000
 198905415.744 7                  37850454.458
        42.900
 108264543.603 8  84361989.97547  20602056.523    20602056.1884   20602058.0204
        49.600          46.7004
 148221608.248 5                  28205633.560
        33.100
 202029681.335 7                  38444984.071
        46.300
 120885189.503 6                  23003690.537
        41.000


 101967473.442 8  79308159.334 7  19088529.836    19088530.605    19088535.591
        51.100          45.300
 147839998.385 6                  28133015.959
        37.100
 114622464.118 7  89150785.956 6  21450027.561    21450027.783    21450033.275
        46.200          40.100
 25  1  1 15  5 30.0000000  0 25E27E10E29G32G16G04G28G03G26R06G09E04
                                R07E21S35R05S31G31E06S33E19E11R16E12
                                R15


 145304709.634 5                  27650568.029
        31.300
 132586418.437 5                  25230359.031
        35.200


 111574884.907 8  86941282.02545  21231945.958    21231944.9884   21231949.0624
        48.200          32.8004
 117383907.725 6  91467990.9784   22337413.403    22337412.9304   22337417.3854
        41.300           5.0004
 117985001.793 6  91936318.68942  22451797.484    22451797.1804   22451801.5134
        38.500          14.7004
 108663842.270 8  84673427.25948  20678036.166    20678035.9254   20678039.1114
        49.300          49.4004
 106149719.861 7  82714082.40647  20199601.569    20199601.0194   20199606.8734
        44.800          42.0004
 104730626.673 6                  19626474.451    19626473.865
        40.100


 136210992.147 7                  25920079.627
        42.400
 122890128.050 7  95581201.805 6  22956901.508    22956905.885    22956903.850
        45.000          40.500
 125597949.555 8                  23900492.262
        49.100


 110514013.274 6  85954907.618 7  20673838.151    20673833.632    20673842.877
        41.400          45.400
 198905415.752 6                  37850452.151
        41.100
 108288641.368 8  84380767.42447  20606641.914    20606641.5794   20606644.0174
        50.400          46.2004
 148186006.131 5                  28198859.347
        35.100
 202029704.652 7                  38444988.113
        44.500
 120883131.538 6                  23003297.944
        41.200


 101968410.381 8  79308888.063 7  19088705.241    19088705.397    19088710.543
        49.900          44.100
 147877874.578 5                  28140222.557
        34.000
 114675518.906 8  89192050.731 6  21459957.028    21459958.461    21459962.679
        48.500          41.100
 25  1  1 15  5 45.0000000  0 25E27E10E29G32G16G04G28G03G26R06G09E04
                                R07E21S35R05S31G31E06S33E19E11R16E12
                                R15


 145335224.227 4                  27656374.551
        26.800
 132611461.666 5                  25235126.226
        34.300
 126281162.362 6  98400994.62942  24030506.491    24030506.4784   24030527.1944
        37.000          14.2004
 111530829.973 8  86906953.53845  21223562.650    21223561.6714   21223564.8504
        48.800          32.6004
 117343277.862 7  91436331.49142  22329682.426    22329682.0784   22329684.7074
        42.600          17.4004


 108664791.546 8  84674166.93248  20678216.909    20678216.6734   20678219.7964
        48.800          49.2004
 106144869.121 7  82710302.60147  20198678.730    20198678.1584   20198684.1894
        43.500          42.5004
 104702463.823 6                  19621194.964    19621196.116
        39.700


 136179256.861 6                  25914040.335
        41.500
 122831902.751 7  95535915.428 6  22946035.563                    22946028.533
        42.000          41.800
 125588182.831 7                  23898633.515
        47.600


 110553041.090 7  85985262.517 7  20681134.818    20681134.244    20681142.997
        45.000          44.600
 198905416.123 7                  37850445.376
        42.500
 108312809.705 8  84399599.83247  20611241.305    20611240.9664   20611243.1084
        50.700          46.4004
 148150392.347 5                  28192082.484
        31.900
 202029727.591 7                  38444993.345
        45.900
 120881121.034 6                  23002915.389
        41.300


 101969520.957 8  79309751.868 7  19088913.995    19088913.667    19088918.975
        49.700          44.100
 147915768.677 5                  28147432.612
        33.000
 114728641.446 8  89233368.218 6  21469898.721    21469900.398    21469903.516
        49.400          41.500
 25  1  1 15  6  0.0000000  0 25E27E10E29G32G16G04G28G03G26R06G09E04
                                R07E21S35R05S31G31E06S33E19E11R16E12
                                R15




 132636546.034 6                  25239901.015
        40.100
 126323100.937 6  98433673.68741  24038494.674    24038494.6034   24038504.8154
        36.100           6.8004
 111486885.953 7  86872711.46544  21215199.683    21215198.6774   21215200.7424
        47.600          28.4004
 117302672.948 7  91404691.26843  22321955.531    22321955.2234   22321957.6404
        43.100          23.4004


 108665899.065 8  84675029.92948  20678427.558    20678427.3264   20678430.4234
        49.700          49.8004
 106140173.555 7  82706643.70847  20197786.463    20197785.8784   20197790.5534
        43.100          42.8004
 104674427.667 6                  19615941.793    19615940.828
        38.000


 136147527.604 6                  25908002.256
        38.900
 122773684.430 6  95490634.574 6  22935144.530    22935143.406    22935151.056
        41.600          38.500
 125578520.282 7                  23896794.509
        45.700


 110592190.702 7  86015712.064 7  20688458.968    20688459.576    20688467.318
        45.100          43.000
 198905416.981 6                  37850454.150
        41.400
 108337047.904 8  84418486.71947  20615854.525    20615854.1774   20615855.4214
        49.200          45.8004
 148114766.204 5                  28185301.971
        30.600
 202029751.407 7                  38445001.796
        45.300
 120879157.237 6                  23002540.991
        41.000


 101970804.376 8  79310750.064 7  19089154.070    19089154.612    19089159.177
        50.100          44.900
 147953679.700 4                  28154646.698
        29.700
 114781830.701 8  89274737.622 6  21479852.755    21479853.009    21479857.554
        49.800          41.900
 25  1  1 15  6 15.0000000  0 25E27E10E29G32G16G04G28G03G26R06G09E04
                                R07E21S35R05S31G31E06S33E19E11R16E12
                                R15
 137495269.607 5                  26164479.048
        32.400


 132661672.046 6                  25244681.694
        39.900


 111443053.756 7  86838556.52844  21206858.400    21206857.4084   21206858.0504
        46.400          24.8004
 117262093.842 7  91373071.21244  22314234.240    22314233.9364   22314236.0514
        44.400          27.3004
 118096549.693 5                  22473029.141
        32.900
 108667165.406 8  84676016.67648  20678669.013    20678668.7854   20678671.8014
        50.900          50.3004
 106135633.806 7  82703106.25647  20196922.847    20196922.2714   20196926.3954
        46.300          44.9004
 104646519.424 6                  19610711.578    19610711.467
        39.200


 136115804.942 5                  25901965.856
        35.300
 122715474.153 7  95445359.913 5  22924274.464    22924273.168    22924273.816
        44.800          34.500
 125568962.873 7                  23894975.778
        44.200


 110631462.286 7  86046256.572 7  20695808.161    20695808.540    20695814.606
        46.800          42.500
 198905418.754 6                  37850456.859
        41.800
 108361356.257 8  84437428.24847  20620480.204    20620479.8604   20620480.5374
        50.400          44.9004
 148079128.414 4                  28178520.970
        28.700
 202029776.014 7                  38445001.376
        45.300
 120877241.168 7                  23002176.946
        42.300
 145205519.993 5                  27631691.301
        32.700
 101972261.159 8  79311883.108 7  19089425.909    19089426.343    19089431.383
        49.200          44.400


 114835086.623 8  89316158.889 6  21489817.898    21489819.205    21489823.705
        48.400          41.700
 25  1  1 15  6 30.0000000  0 25E27E10E29G32G16G04G28G03G26R06G09E04
                                R07E21S35R05S31G31E06S33E19E11R16E12
                                R15
 137525790.702 5                  26170293.564
        32.100


 132686838.574 6                  25249470.948
        39.400


 111399332.785 7  86804488.26143  21198537.078    21198536.1314   21198538.9274
        42.200          22.7004
 117221539.522 7  91341470.46345  22306517.314    22306517.0514   22306518.4474
        45.600          30.0004
 118133760.658 4                  22480107.787
        29.800
 108668589.426 8  84677126.27548  20678940.124    20678939.9234   20678942.9434
        52.000          50.1004
 106131248.668 7  82699689.26247  20196087.774    20196087.2114   20196091.7984
        45.900          45.3004
 104618738.187 6                  19605506.078    19605505.711
        39.800


 136084087.875 5                  25895929.524
        34.500
 122657271.011 8  95400090.868 5  22913401.234    22913402.126    22913399.537
        49.400          33.800
 125559509.384 7                  23893177.222
        44.300


 110670855.264 7  86076895.497 6  20703176.663    20703177.291    20703183.397
        43.200          40.200
 198905419.546 7                  37850453.076
        42.300
 108385733.579 8  84456423.52847  20625118.509    20625118.1654   20625118.7854
        50.700          44.2004


 202029799.382 7                  38445004.689
        44.500
 120875371.299 6                  23001821.049
        41.300
 145221883.912 5                  27634805.707
        34.000
 101973889.974 8  79313149.969 7  19089729.509    19089730.199    19089736.499
        48.700          44.800


 114888407.514 8  89357630.641 7  21499797.090    21499798.033    21499802.291
        49.200          42.700
 25  1  1 15  6 45.0000000  0 25E27E10E29G32G16G04G28G03G26R06G09E04
                                R07E21S35R05S31G31E06S33E19E11R16E12
                                R15
 137556387.279 5                  26176118.714
        30.500


 132712050.307 6                  25254268.756
        37.000


 111355727.811 7  86770510.35843  21190240.847    21190239.9044   21190242.3454
        42.500          19.3004
 117181014.630 7  91309892.62744  22298804.877    22298804.6414   22298807.0404
        44.700          29.9004
 118171001.660 5  92081242.42642  22487175.356    22487175.7404   22487180.4134
        34.800          14.0004
 108670175.721 8  84678362.30648  20679240.735    20679240.5344   20679244.5544
        51.200          49.3004
 106127022.716 7  82696396.32947  20195284.469    20195283.8974   20195287.3844
        46.500          45.7004
 104591089.067 6                  19600324.595    19600324.800
        40.700


 136052380.897 5                  25889896.285
        34.100
 122599079.468 7  95354830.687 5  22902529.927    22902530.695    22902529.045
        47.200          32.100
 125550164.477 7                  23891399.056
        43.400


 110710373.442 7  86107631.802 6  20710568.678    20710566.643    20710574.171
        42.500          36.600
 198905424.307 6                  37850454.726
        41.100
 108410184.188 8  84475475.94247  20629771.122    20629770.7874   20629771.5674
        50.500          43.7004


 202029827.974 7                  38445015.895
        45.200
 120873552.671 7                  23001475.878
        42.100
 145238342.660 5                  27637937.840
        35.300
 101975695.240 8  79314554.039 7  19090068.154    19090068.500    19090075.574
        49.100          46.100


 114941797.336 8  89399155.814 7  21509786.847    21509789.208    21509793.537
        49.400          43.100
 25  1  1 15  7  0.0000000  0 25E27E10E29G32G16G04G28G03G26R06G09E04
                                R07E21S35R05S31G31E06S33E19E11R16E12
                                R15




 132737299.513 6                  25259074.354
        39.200


 111312231.507 7  86736617.14744  21181964.300    21181963.3884   21181966.2264
        46.200          24.4004
 117140511.546 7  91278331.73844  22291096.994    22291096.7664   22291099.5994
        43.700          29.3004
 118208265.238 6  92110278.99142  22494271.589    22494272.0454   22494271.6154
        36.700          12.1004
 108671916.517 8  84679718.74248  20679572.485    20679572.2934   20679575.4094
        50.200          48.5004
 106122948.167 7  82693221.35047  20194508.238    20194507.6574   20194512.2914
        46.300          46.1004
 104563564.668 6                  19595165.409    19595165.916
        40.300


 136020676.601 6                  25883862.506
        38.900
 122540892.765 7  95309574.471 6  22891656.948    22891659.094    22891664.629
        46.900          36.100
 125540920.284 7                  23889639.402
        43.700


 110750009.119 7  86138459.383 5  20717983.853    20717985.628    20717986.945
        44.800          35.900
 198905425.753 7                  37850460.039
        43.400
 108434700.012 7  84494579.06446  20634436.362    20634436.0144   20634436.1404
        47.900          41.5004


 202029852.020 7                  38445016.696
        45.600
 120871777.437 6                  23001138.158
        41.500
 145254888.343 5                  27641085.517
        35.200
 101977668.628 8  79316088.905 7  19090438.697    19090437.851    19090444.326
        49.000          45.700


 114995248.430 8  89440728.740 6  21519789.574    21519790.635    21519794.710
        48.400          41.400
 25  1  1 15  7 15.0000000  0 25E27E10E29G32G16G04G28G03G26R06G09E04
                                R07E21S35R05S31G31E06S33E19E11R16E12
                                R15




 132762589.496 6                  25263886.011
        39.700


 111268847.493 7  86702811.39944  21173708.569    21173707.6714   21173711.3654
        47.200          27.1004
 117100034.130 6  91246790.81344  22283394.184    22283393.9794   22283397.4084
        36.900          26.6004
 118245554.583 6  92139335.61141  22501363.927    22501363.9104   22501365.7734
        36.100           6.3004
 108673815.175 8  84681198.20447  20679934.071    20679933.8844   20679936.3144
        48.600          47.3004
 106119028.412 7  82690166.98547  20193762.918    20193762.3954   20193766.7784
        45.500          45.8004
 104536168.651 6                  19590032.282    19590032.154
        41.400


 135988978.212 6                  25877830.379
        40.800
