     2.11           OBSERVATION DATA    M (MIXED)           RINEX VERSION / TYPE
teqc  2019Feb25                         20260317 16:18:01UTCPGM / RUN BY / DATE
Linux 2.4.21-27.ELsmp|Opteron|gcc -static|Linux 64|=+       COMMENT
BIT 2 OF LLI FLAGS DATA COLLECTED UNDER A/S CONDITION       COMMENT
-Unknown-                                                   MARKER NAME
-Unknown-           -Unknown-                               OBSERVER / AGENCY
-Unknown-           -Unknown-           -Unknown-           REC # / TYPE / VERS
-Unknown-           -Unknown-                               ANT # / TYPE
        0.0000        0.0000        0.0000                  APPROX POSITION XYZ
        0.0000        0.0000        0.0000                  ANTENNA: DELTA H/E/N
     1     1                                                WAVELENGTH FACT L1/2
     7    L1    L2    C1    P1    P2    S1    S2            # / TYPES OF OBSERV
 SNR is mapped to RINEX snr flag value [0-9]                COMMENT
  L1 & L2: min(max(int(snr_dBHz/6), 0), 9)                  COMMENT
  2025     1     1     2     0    0.0000000     GPS         TIME OF FIRST OBS
    18                                                      LEAP SECONDS
                                                            END OF HEADER
 25  1  1  2  0  0.0000000  0 23G06G19G12G11G20E27G24G25E34S35R13E15
                                R22R23S31S33R07G17R12E02E13E30R24
 108271909.026 7  84367771.08447  20603445.115    20603444.7894   20603449.1584
        43.900          42.8004
 109628136.046 8  85424525.30746  20861538.518    20861537.3344   20861537.1094
        50.000          39.2004
 111604844.474 8  86964868.55547  21237671.570    21237671.0704   21237671.8454
        48.200          46.3004
 109081756.078 7  84998795.22245  20757563.971    20757563.7214   20757564.9954
        45.500          35.6004
 116329054.641 7  90646007.43843  22136682.328    22136681.2874   22136679.0474
        44.900          22.8004
 129955171.232 7                  24729623.052
        46.300
 128942343.850 6 100474616.91244  24536911.426    24536911.5334   24536917.7724
        37.600          24.4004
 125474997.095 5  97772769.89142  23877101.759    23877101.3974   23877107.7024
        33.400          16.7004
 125157543.896 6                  23816671.658
        39.600


 107565437.195 7                  20143530.787    20143530.273
        44.100
 125675967.246 8                  23915340.133
        50.100
 107617018.375 9  83702179.779 7  20160280.877    20160281.186    20160283.675
        54.000          44.400
 108671468.509 8                  20314937.223    20314937.140
        48.400
 198907056.080 7                  37850752.617
        42.700
 202058286.724 7                  38450417.481
        43.700
                  94578260.823 6                                  22716018.066
                        36.300
 122269419.693 6  95274889.90444  23267094.847    23267094.5434   23267097.4414
        40.200          29.7004
 107423878.651 8  83551934.037 7  20109959.871    20109960.139    20109964.261
        50.600          45.300
 139735336.105 6                  26590742.909
        36.000


 124843903.385 8                  23756987.663
        50.700


 25  1  1  2  0 15.0000000  0 25G06G19G12G11G20E27G24G25E34S35R13E15
                                R22R23S31S33R07G17R12R11E02E13R14E30
                                R24
 108293440.455 7  84384548.84046  20607541.545    20607541.2414   20607545.2944
        43.900          41.3004
 109649379.757 8  85441078.84346  20865581.036    20865579.8524   20865579.5724
        49.500          38.2004
 111576364.440 7  86942676.35947  21232251.989    21232251.4894   21232252.6594
        47.300          46.0004
 109066494.649 7  84986903.20946  20754659.543    20754659.2754   20754660.6454
        47.100          36.6004
 116282390.630 7  90609645.93343  22127802.819    22127801.7824   22127802.1974
        44.500          21.4004
 129929767.654 7                  24724789.299
        46.200
 128981774.111 6 100505341.73343  24544412.321    24544412.3794   24544418.9324
        36.600          22.4004
 125424196.768 5  97733185.43442  23867433.894    23867433.4884   23867441.6064
        34.400          17.3004
 125177618.199 6                  23820492.624
        41.900


 107550552.473 7                  20140744.063    20140744.063
        45.000
 125658963.806 8                  23912104.323
        48.600
 107641850.420 8  83721493.582 7  20164932.120    20164931.781    20164935.316
        52.700          45.500
 108655833.171 8                  20312014.637    20312014.774
        48.800
 198907055.749 6                  37850749.312
        41.600
 202058274.760 7                  38450419.587
        44.300
 121556668.224 6  94544073.644 6  22707813.480                    22707808.551
        37.600          40.000
 122301899.584 6  95300198.93244  23273275.325    23273275.0844   23273278.7354
        40.800          28.0004
 107463916.931 8  83583074.892 7  20117454.587    20117455.397    20117460.177
        50.800          45.200
 129330843.451 4                  24202505.312
        28.600
 139778371.698 5                  26598936.950
        32.500


 128991542.719 6                  24198485.454    24198486.478
        36.300
 124859395.227 8                  23759935.489
        50.300
 130492326.015 4                  24402708.669
        27.400
 25  1  1  2  0 30.0000000  0 23G06G19G12G11G20E27G24G25E34S35R13E15
                                R22R23S31S33R07G17R12E02E13R14E30
 108315058.848 7  84401394.32846  20611655.620    20611655.3574   20611657.4304
        43.300          40.2004
 109670692.562 8  85457686.22446  20869637.198    20869636.0144   20869634.8064
        49.800          37.3004
 111548010.042 8  86920582.05547  21226856.253    21226855.7484   21226856.6454
        48.400          46.0004
 109051339.018 8  84975093.65046  20751775.534    20751775.2574   20751776.8284
        48.900          38.8004
 116235802.021 7  90573343.12343  22118937.653    22118936.6474   22118938.9764
        44.700          19.8004
 129904437.199 8                  24719969.320
        48.100
 129021243.673 5 100536097.14243  24551923.980    24551923.9184   24551928.0294
        34.000          18.9004
 125373454.909 5  97693646.50942  23857777.678    23857777.2134   23857786.7654
        32.600          17.9004
 125197746.383 7                  23824322.310
        42.500


 107535871.115 7                  20137992.910    20137992.719
        42.700
 125642032.577 7                  23908882.724
        46.700
 107666741.513 8  83740853.353 7  20169595.180    20169594.740    20169598.946
        52.100          46.900
 108640282.987 8                  20309107.959    20309107.933
        48.800
 198907058.309 7                  37850751.401
        42.000
 202058265.861 7                  38450416.386
        45.000
                  94509965.650 6                                  22699617.205
                        40.700
 122334412.453 6  95325533.69044  23279460.601    23279460.2484   23279467.1344
        36.100          24.1004
 107504118.918 8  83614343.106 7  20124980.589    20124979.867    20124984.951
        48.700          43.400
 139821444.655 5                  26607133.928
        30.400


                                                  24187159.174

 124874981.923 8                  23762901.366
        49.000
 25  1  1  2  0 45.0000000  0 22G06G19G12G11G20E27G24G25E34S35R13E15
                                R22R23S31S33R07G17R12E02E13E30
 108336761.254 7  84418305.28946  20615785.424    20615785.1384   20615785.8244
        43.600          39.1004
 109692071.733 8  85474345.31946  20873705.403    20873704.2144   20873702.3824
        49.900          36.8004
 111519778.814 8  86898583.71847  21221483.751    21221483.2554   21221484.0264
        48.400          46.0004
 109036286.468 8  84963364.41346  20748911.066    20748910.7854   20748912.6874
        48.800          39.2004
 116189286.358 7  90537097.09743  22110085.104    22110084.0454   22110089.5774
        44.700          19.7004
 129879177.370 8                  24715162.560
        48.900
 129060749.382 5 100566880.70342  24559441.698    24559441.4794   24559443.7944
        32.800          14.9004
 125322769.073 5  97654151.22642  23848131.364    23848130.9224   23848141.4974
        31.400          17.4004
 125217925.606 7                  23828161.888
        44.400


 107521390.329 7                  20135281.076    20135280.823
        42.500
 125625170.820 7                  23905673.941
        46.400
 107691688.661 8  83760256.717 7  20174268.301    20174267.791    20174272.999
        52.100          47.800
 108624815.058 8                  20306216.926    20306216.980
        49.000
 198907061.671 7                  37850750.319
        42.800
 202058257.984 7                  38450414.342
        46.300
 121469053.381 6  94475935.002 6  22691437.719    22691437.844    22691441.939
        39.000          40.200
 122366955.731 6  95350892.18242  23285654.638    23285654.2274   23285659.6654
        38.500          17.5004
 107544481.153 7  83645735.968 7  20132536.201    20132534.191    20132540.965
        46.500          43.700
 139864552.156 5                  26615330.028
        34.300


 124890660.767 7                  23765884.399
        47.800
 25  1  1  2  1  0.0000000  0 22G06G19G12G11G20E27G24G25E34S35R13E15
                                R22R23S31S33R07G17R12E02E13E30
 108358548.355 7  84435282.24146  20619931.618    20619931.3324   20619931.4074
        43.300          39.8004
 109713518.145 8  85491056.81446  20877786.271    20877785.0874   20877783.4394
        50.700          37.0004
 111491671.964 7  86876682.29947  21216135.331    21216134.8404   21216135.0754
        47.000          45.3004
 109021337.838 8  84951716.14346  20746066.462    20746066.1814   20746068.3644
        49.200          39.8004
 116142844.919 7  90500908.93243  22101247.257    22101246.2024   22101253.4414
        44.300          20.0004
 129853989.251 8                  24710369.489
        49.200
 129100291.806 5 100597692.95442  24566964.153    24566963.8584   24566967.6664
        32.300          13.7004
 125272140.523 5  97614700.60943  23838496.762    23838496.3244   23838504.7444
        35.800          18.7004
 125238156.624 7                  23832011.159
        44.200


 107507111.389 7                  20132608.890    20132608.201
        44.600
 125608379.385 7                  23902477.802
        46.200
 107716692.607 8  83779704.227 8  20178952.943    20178952.352    20178956.961
        52.300          48.200
 108609430.296 8                  20303340.691    20303340.953
        48.900
 198907066.239 7                  37850751.338
        43.200
 202058251.220 7                  38450414.020
        44.700
 121425400.630 6  94441982.918 6  22683278.756    22683279.002    22683289.429
        38.300          40.900
 122399530.316 5  95376275.13641  23291852.395    23291852.0154   23291858.9714
        31.200          10.9004
 107585004.329 7  83677253.965 7  20140120.546    20140119.910    20140128.173
        46.800          44.500
 139907694.780 5                  26623540.001
        32.800


 124906432.587 7                  23768885.711
        47.600
 25  1  1  2  1 15.0000000  0 23G06G19G12G11G20E27G24G25E34S35R13E15
                                R22R23S31S33R07G17R12E02E13E30R21
 108380416.277 7  84452322.18046  20624092.661    20624092.3664   20624092.9004
        44.800          40.9004
 109735028.136 8  85507817.84446  20881879.666    20881878.4774   20881877.1074
        50.700          37.4004
 111463686.272 7  86854875.27747  21210809.652    21210809.1564   21210808.9974
        46.300          44.2004
 109006489.493 8  84940146.00546  20743240.779    20743240.5074   20743242.6924
        48.900          40.0004
 116096474.353 7  90464775.89343  22092422.625    22092421.5754   22092432.2354
        45.500          18.4004
 129828869.392 8                  24705589.359
        49.200
 129139866.864 5 100628530.63142  24574496.089    24574495.8264   24574498.6784
        30.300          16.2004
 125221565.930 5  97575292.00443  23828872.754    23828872.2894   23828876.8084
        35.500          20.1004
 125258435.575 7                  23835870.312
        44.500


 107493030.664 7                  20129971.259    20129970.659
        46.200
 125591654.615 7                  23899295.063
        46.100
 107741749.354 8  83799192.822 7  20183646.437    20183645.767    20183650.040
        51.800          47.400
 108594124.674 8                  20300479.693    20300479.405
        48.200
 198907068.985 7                  37850755.005
        42.100
 202058241.879 7                  38450406.177
        45.100
 121381846.091 7  94408107.143 6  22675149.211    22675147.414    22675150.141
        44.700          39.000
 122432132.648 5  95401679.79342  23298058.661    23298058.3804   23298064.7604
        35.500          15.0004
 107625684.240 8  83708893.912 7  20147736.782    20147736.317    20147743.699
        48.600          44.600
 139950868.775 5                  26631751.061
        33.900


 124922293.752 7                  23771904.174
        47.100
 127861293.456 5                  23893941.595    23893948.879
        32.700
 25  1  1  2  1 30.0000000  0 22G06G19G12G11G20E27G24G25E34S35R13E15
                                R22R23S31S33R07G17R12E02E13E30
 108402369.791 7  84469428.83447  20628270.153    20628269.8364   20628271.3194
        45.300          43.0004
 109756606.859 8  85524632.43546  20885985.928    20885984.7354   20885983.7924
        49.700          37.0004
 111435827.176 7  86833166.92247  21205507.223    21205506.7184   21205507.3524
        46.100          42.7004
 108991746.401 7  84928657.89046  20740435.859    20740435.6094   20740436.6734
        46.900          38.2004
 116050180.079 7  90428702.34342  22083612.758    22083611.6584   22083627.2524
        44.700          14.5004
 129803823.063 8                  24700823.453
        49.100
 129179479.132 4 100659397.37042  24582028.545    24582028.3494   24582037.2394
        24.000          14.0004
 125171050.696 5  97535929.63543  23819259.032    23819258.5094   23819262.2344
        33.600          21.1004
 125278767.412 7                  23839739.419
        46.600


 107479153.759 7                  20127373.486    20127372.901
        47.300
 125575001.544 7                  23896125.803
        45.600
 107766863.939 8  83818726.372 7  20188351.520    20188351.471    20188354.389
        52.800          46.900
 108578903.310 8                  20297634.184    20297633.691
        48.800
 198907074.134 6                  37850748.955
        41.300
 202058236.673 7                  38450407.232
        44.700
 121338395.095 7  94374312.052 6  22667028.086    22667027.654    22667033.238
        44.700          38.900
 122464767.838 6  95427109.85943  23304269.177    23304268.9414   23304278.6884
        37.700          21.9004
 107666525.615 8  83740659.421 7  20155383.215    20155383.154    20155389.731
        48.700          45.000
 139994079.082 5                  26639974.916
        35.700
 146524273.563 5                  27882641.305
        31.400
 124938249.326 7                  23774940.877
        47.900
 25  1  1  2  1 45.0000000  0 23G06G19G12G11G20E27G24G25E34S35R13E15
                                R22R23S31S33R07G17R12E02E13E30R24
 108424401.931 7  84486596.73147  20632462.728    20632462.3984   20632464.4584
        46.200          44.3004
 109778247.524 8  85541495.29446  20890103.935    20890102.7284   20890102.1924
        50.200          37.0004
 111408087.827 7  86811551.88747  21200229.015    21200228.4974   21200228.4014
        44.400          42.2004
 108977101.790 8  84917246.50746  20737648.640    20737648.3864   20737648.8844
        48.800          38.2004
 116003955.724 7  90392683.17941  22074816.750    22074815.5124   22074834.6474
        42.600           9.0004
 129778843.641 8                  24696070.078
        48.600


 125120588.414 5  97496608.47443  23809657.140    23809656.5144   23809659.9614
        30.100          20.9004
 125299145.158 7                  23843616.589
        46.600


 107465473.697 7                  20124811.742    20124811.011
        46.600
 125558413.308 7                  23892969.577
        45.400
 107792029.187 8  83838299.371 7  20193065.902    20193065.679    20193068.650
        52.900          46.300
 108563759.230 8                  20294802.814    20294803.280
        48.900
 198907075.285 6                  37850751.772
        41.000
 202058225.851 7                  38450408.328
        44.600
 121295041.299 7  94340592.495 6  22658930.927    22658929.568    22658934.240
        45.500          38.600
 122497429.029 6  95452560.18243  23310483.206    23310482.9784   23310495.7904
        40.400          19.7004
 107707521.161 8  83772544.865 7  20163055.881    20163056.700    20163063.174
        48.600          44.000
 140037318.950 5                  26648200.672
        32.700
 146486226.626 5                  27875397.409
        32.000
 124954292.474 8                  23777994.073
        48.600


 25  1  1  2  2  0.0000000  0 26G06G19G12G11G20E27G24G25G05E34S35R13
                                E15R22R23S31S33R07G17R12E02E13R14E30
                                R24R21
 108446517.724 7  84503829.81147  20636671.437    20636671.0844   20636673.8604
        45.800          46.1004
 109799955.480 8  85558410.61846  20894234.874    20894233.6814   20894233.6674
        51.000          37.7004
 111380473.927 7  86790034.56346  21194973.499    21194973.0124   21194973.4044
        44.100          41.0004
 108962560.911 7  84905915.96046  20734880.820    20734880.5614   20734881.2544
        47.700          36.4004
 115957806.940 7  90356722.89042  22066035.063    22066033.9864   22066054.4564
        45.500          16.6004
 129753936.615 8                  24691330.181
        49.800


 125070184.630 5  97457332.91443  23800066.074    23800065.3994   23800069.0694
        32.700          22.1004
 132517091.915 4                  25217160.247
        28.200
 125319573.964 7                  23847504.655
        47.800


 107451996.076 7                  20122287.398    20122286.762
        47.600
 125541895.199 7                  23889825.711
        45.300
 107817250.311 8  83857915.799 7  20197791.375    20197791.424    20197793.608
        53.500          46.700
 108548697.716 8                  20291986.586    20291986.989
        48.900
 198907077.560 7                  37850752.832
        42.100
 202058217.348 7                  38450400.306
        42.100
 121251790.709 7  94306953.207 6  22650848.124    22650848.626    22650854.975
        44.600          40.000
 122530121.906 5  95478035.16043  23316704.461    23316704.1354   23316716.4074
        33.300          19.1004
 107748675.763 8  83804554.006 7  20170760.166    20170760.518    20170767.360
        48.200          44.600
 140080593.121 5                  26656437.795
        34.100


 128569762.644 6                  24119358.884    24119359.413
        36.800
 124970428.519 8                  23781064.835
        49.500


 128000623.331 5                  23919980.603    23919979.880
        33.300
 25  1  1  2  2 15.0000000  0 25G06G19G12G11G20E27G24G25G05E34S35R13
                                E15R22R23S31S33R07G17R12E02E13R14E30
                                R24
 108468716.024 7  84521127.20647  20640896.021    20640895.6824   20640898.9804
        45.900          46.4004
 109821729.920 8  85575377.72346  20898377.973    20898376.7714   20898377.4444
        50.900          37.5004
 111352984.817 7  86768614.49846  21189741.994    21189741.5344   21189742.0794
        44.200          40.1004
 108948122.768 8  84894665.46746  20732133.446    20732133.1874   20732133.4294
        48.600          36.3004
 115911732.857 7  90320820.99042  22057267.446    22057266.3734   22057284.3524
        42.500          16.8004
 129729101.252 8                  24686603.902
        48.600


 125019838.876 4  97418102.51443  23790487.085    23790486.2184   23790488.6534
        29.500          19.9004
 132458497.496 4                  25206012.588
        28.900
 125340052.693 7                  23851401.316
        47.300
 200849734.646 4                  38220447.120
        27.300
 107438720.277 7                  20119801.103    20119800.544
        47.200
 125525446.227 7                  23886696.332
        45.700
 107842526.051 8  83877574.656 7  20202525.612    20202526.004    20202528.945
        52.900          47.300
 108533717.988 8                  20289186.474    20289187.208
        49.700
 198907081.334 6                  37850755.488
        41.100
 202058208.195 7                  38450407.107
        44.900
 121208643.151 6  94273394.136 6  22642786.347    22642785.218    22642795.537
        41.400          40.400
 122562845.181 5  95503533.95342  23322933.531    23322933.1834   23322942.4934
        35.600          15.8004
 107789988.176 8  83836685.831 7  20178494.917    20178495.339    20178501.089
        48.600          43.000
 140123900.974 6                  26664676.062
        37.600


 128509750.466 5                  24108103.904    24108103.342
        35.600
 124986656.441 8                  23784152.935
        51.200
 130142360.392 4                  24337260.164    24337257.632
        29.800
 25  1  1  2  2 30.0000000  0 26G06G19G12G11G20E27G24G25G05E34S35R13
                                E15R22E36R23S31S33R07G17R12E02E13R14
                                E30R24
 108490996.863 7  84538488.89547  20645135.066    20645134.7274   20645139.0844
        43.800          46.0004
 109843571.061 8  85592396.78746  20902534.432    20902533.2254   20902533.7054
        50.400          37.5004
 111325621.082 6  86747292.12246  21184535.004    21184534.5574   21184534.6744
        41.100          39.6004
 108933787.626 8  84883495.24446  20729405.476    20729405.2264   20729405.6274
        49.400          36.9004
 115865734.149 7  90284977.87843  22048514.783    22048513.6884   22048527.6724
        44.600          18.7004
 129704337.998 7                  24681891.845
        47.900


 124969551.518 5  97378917.70543  23780921.962    23780921.0684   23780919.9844
        32.700          23.0004
 132399890.023 5                  25194857.840
        31.000
 125360581.493 7                  23855307.751
        47.500


 107425646.749 7                  20117352.485    20117352.313
        46.200
 125509066.672 7                  23883579.869
        46.700
 107867856.626 8  83897276.230 7  20207270.842    20207270.861    20207274.553
        52.100          47.600


 108518819.816 8                  20286403.007    20286403.395
        49.700
 198907084.821 6                  37850754.898
        39.800
 202058201.819 7                  38450404.433
        44.500
 121165599.072 6  94239915.430 6  22634746.135    22634744.592    22634755.055
        41.400          40.300
 122595599.135 6  95529056.55543  23329164.853    23329164.5584   23329173.1184
        36.600          18.1004
 107831458.119 8  83868940.235 7  20186258.487    20186259.149    20186265.503
        49.100          44.500
 140167242.417 5                  26672923.067
        35.500


 128449800.717 6                  24096855.249    24096858.284
        37.600
 125002976.557 8                  23787258.461
        51.000


 25  1  1  2  2 45.0000000  0 25G06G19G12G11G20E27G24G25E34S35R13E15
                                R22E36R23S31S33R07G17R12E02E13R14E30
                                R24
 108513358.457 7  84555913.51947  20649391.428    20649391.0714   20649393.7574
        42.500          44.2004
 109865477.125 8  85609466.44146  20906703.569    20906702.3674   20906701.4144
        48.300          36.6004
 111298381.508 7  86726066.49646  21179352.034    21179351.5474   21179352.2514
        42.700          39.9004
 108919553.905 8  84872404.04346  20726696.867    20726696.6264   20726697.2194
        50.100          38.0004
 115819809.712 6  90249192.63143  22039774.695    22039773.6184   22039781.7144
        41.000          19.4004
 129679645.514 7                  24677192.432
        47.200
 129378019.920 5 100814079.46943  24619819.462    24619819.5334   24619826.6224
        34.000          23.6004
 124919321.750 5  97339777.68744  23771362.533    23771361.6034   23771362.5404
        32.800          26.5004
 125381158.646 8                  23859223.181
        48.000


 107412774.086 7                  20114942.253    20114941.608
        47.200
 125492754.909 7                  23880475.526
        46.700
 107893240.125 8  83917018.977 7  20212024.936    20212025.086    20212029.359
        51.000          47.000


 108504001.626 7                  20283629.232    20283630.054
        46.700
 198907088.210 6                  37850755.425
        41.700
 202058192.329 7                  38450402.287
        45.700
 121122657.845 7  94206516.679 6  22626728.152    22626726.181    22626733.313
        42.700          40.300
 122628382.432 6  95554602.01342  23335403.251    23335402.9214   23335409.4044
        38.800          12.8004
 107873083.570 8  83901315.605 7  20194050.957    20194051.094    20194058.660
        48.500          42.800
 140210615.723 5                  26681181.736
        35.400


 128389912.663 5                  24085623.467    24085621.853
        34.500
 125019387.253 8                  23790381.157
        50.800
 130055206.290 6                  24320956.480    24320957.901
        36.500
 25  1  1  2  3  0.0000000  0 24G06G19G12G11G20E27G24G25E34S35R13E15
                                R22E36R23S31S33R07G17R12E02E13E30R24
 108535798.477 6  84573399.23246  20653661.528    20653661.0954   20653663.4104
        40.100          41.7004
 109887446.125 8  85626585.15746  20910883.866    20910882.6504   20910881.8934
        49.600          36.8004
 111271264.062 7  86704936.02447  21174192.558    21174192.0534   21174193.2014
        44.600          43.4004
 108905419.443 8  84861390.20146  20724007.024    20724006.7794   20724007.3414
        50.100          37.3004
 115773957.605 6  90213463.73343  22031050.863    22031049.8224   22031051.5424
        40.700          20.5004
 129655021.905 7                  24672506.818
        46.400
 129417825.933 5 100845097.16843  24627393.264    24627393.5324   24627395.6034
        32.700          18.3004
 124869147.421 6  97300680.85844  23761813.366    23761812.4234   23761815.3574
        36.600          26.0004
 125401781.902 7                  23863147.641
        47.400


 107400100.070 7                  20112568.368    20112567.583
        44.900
 125476508.815 7                  23877383.896
        46.100
 107918674.311 8  83936801.074 7  20216790.800    20216790.713    20216794.789
        51.700          47.800


 108489261.069 7                  20280873.054    20280872.794
        44.200
 198907088.139 7                  37850761.015
        43.000
 202058180.956 7                  38450400.386
        44.000
 121079817.675 7  94173196.691 6  22618722.377    22618722.339    22618726.913
        43.100          36.300
 122661192.783 6  95580168.54742  23341645.270    23341644.8864   23341651.7624
        36.000          16.9004
 107914862.103 8  83933810.013 6  20201872.657    20201872.155    20201875.830
        48.800          39.600
 140254018.640 4                  26689439.791
        29.300


 125035886.422 8                  23793520.502
        49.100
                                                  24312811.159

 25  1  1  2  3 15.0000000  0 24G06G19G12G11G20E27G24G25E34S35R13E15
                                R22E36R23S31R21S33R07R12E02E13E30R24
 108558321.765 6  84590949.79846  20657951.215    20657950.7014   20657949.4244
        36.500          38.6004
 109909483.122 8  85643756.85146  20915076.850    20915075.6344   20915076.0744
        50.300          37.6004
 111244274.216 8  86683905.00847  21169057.157    21169056.6614   21169057.5214
        48.400          45.6004
 108891389.226 8  84850457.59546  20721337.606    20721337.3434   20721337.6444
        49.100          37.5004
 115728183.457 7  90177795.60244  22022339.773    22022338.7364   22022339.1674
        42.800          24.8004
 129630472.339 7                  24667835.178
        46.100
 129457666.063 5 100876141.44442  24634973.388    24634973.6244   24634976.3944
        32.700          16.1004
 124819034.196 5  97261631.62143  23752272.666    23752271.7274   23752279.3274
        30.100          22.1004
 125422456.098 7                  23867081.577
        47.500


 107387630.341 7                  20110234.287    20110233.249
        47.300
 125460333.411 7                  23874305.704
        46.400
 107944163.984 8  83956626.374 7  20221565.835    20221565.959    20221569.650
        51.400          47.100


 108474603.473 7                  20278135.211    20278132.825
        42.400
 198907090.281 7                  37850755.380
        42.200
 128232692.044 5                  23963331.702    23963331.276
        35.600
 202058171.406 7                  38450395.400
        43.900
 121037084.337 6  94139959.648 5  22610739.914    22610739.813    22610743.050
        41.300          33.400
 107956798.331 8  83966427.016 6  20209722.258    20209722.522    20209727.078
        50.300          38.100




 125052479.035 8                  23796678.251
        48.400
 129968174.390 6                  24304683.560    24304686.539
        36.300
 25  1  1  2  3 30.0000000  0 23G06G19G12G11G20E27G24G25E34S35R13E15
                                R22E36R23S31R21S33R12E02E13E30R24
 108580925.890 6  84608563.41946  20662248.161    20662247.5584   20662250.9644
        36.600          37.3004
 109931586.068 8  85660979.92246  20919282.961    20919281.7364   20919282.1054
        49.900          37.5004
 111217410.157 7  86662971.98647  21163943.919    21163943.4374   21163945.2804
        47.400          45.3004
 108877461.122 8  84839604.54746  20718687.452    20718687.1754   20718687.9314
        48.200          36.8004
 115682485.157 7  90142186.56044  22013643.185    22013642.1124   22013641.5214
        45.800          27.1004
 129605994.953 7                  24663176.942
        45.900


 124768980.271 5  97222628.60842  23742745.611    23742744.6904   23742754.1814
        30.000          17.3004
 125443179.026 7                  23871025.026
        46.700


 107375362.804 7                  20107935.990    20107935.175
        47.200
 125444226.509 7                  23871240.573
        46.300
 107969706.930 8  83976493.076 8  20226350.568    20226351.301    20226355.060
        50.900          48.000


 108460026.368 7                  20275408.249    20275407.232
        43.600
 198907092.562 7                  37850766.765
        43.100
 128279023.463 5                  23971987.160    23971985.637
        30.600
 202058162.520 7                  38450393.732
        44.500
 107998889.682 8  83999164.697 7  20217602.729    20217603.685    20217610.974
        49.900          42.500




 125069162.982 8                  23799853.104
        48.100


 25  1  1  2  3 45.0000000  0 26G06G19G12G11G20E27G24G25E34S35R13E15
                                R22E36R23S31R21S33R07G17R12E02E13R14
                                E30R24
 108603610.407 5  84626239.61045  20666565.901    20666565.3434   20666567.4754
        30.700          35.1004
 109953754.524 7  85678254.02846  20923501.322    20923500.0884   20923501.2194
        47.500          36.9004
 111190671.592 8  86642136.77547  21158857.290    21158856.8434   21158857.2624
        48.800          47.2004
 108863634.577 8  84828830.61946  20716056.653    20716056.3904   20716057.2084
        49.400          37.3004
 115636862.555 7  90106636.48744  22004961.799    22004960.7494   22004960.1704
        46.500          28.4004
 129581589.394 7                  24658532.581
        46.500


 124718985.195 5  97183671.44843  23733231.674    23733230.6954   23733240.3924
        33.900          22.6004
 125463949.933 7                  23874978.142
        45.600


 107363297.083 7                  20105676.569    20105675.650
        46.400
 125428187.576 7                  23868188.747
        46.700
 107995302.306 8  83996400.578 8  20231145.575    20231145.923    20231149.091
        51.000          48.000


 108445529.138 7                  20272701.800    20272698.484
        44.400
 198907094.459 6                  37850758.533
        39.700
 128325334.927 4                  23980642.274    23980642.975
        29.700
 202058152.926 7                  38450397.220
        45.300
 120951932.829 6  94073717.746 5  22594834.433    22594830.965    22594836.277
        37.100          34.000
 122759914.974 6                  23360427.662
        36.100
 108041135.199 8  84032022.288 7  20225511.435    20225512.765    20225519.982
        51.300          43.200




 128150953.132 5                  24040796.468    24040797.472
        33.400
 125085937.723 8                  23803045.221
        48.000


 25  1  1  2  4  0.0000000  0 25G06G19G12G11G20E27G24G25E34S35R13E15
                                R22E36R23S31R21S33R07R12E02E13R14E30
                                R24
 108626376.770 5  84643979.60645  20670896.939    20670896.3584   20670899.9014
        35.200          35.2004
 109975990.961 7  85695581.10246  20927732.917    20927731.6794   20927732.5914
        47.000          36.5004
 111164061.451 8  86621401.66247  21153793.833    21153793.4004   21153793.1094
        51.300          47.7004
 108849912.123 8  84818137.80746  20713444.773    20713444.5234   20713446.1744
        50.700          38.7004
 115591318.521 7  90071147.66744  21996293.874    21996292.8644   21996294.2284
        44.400          27.1004
 129557258.375 7                  24653902.267
        46.400
 129577394.581 5 100969411.84642  24657757.427    24657757.7134   24657761.6454
        32.400          15.7004
 124669052.076 6  97144762.57944  23723730.935    23723729.9964   23723737.9714
        37.600          25.8004
 125484771.292 7                  23878939.571
        47.000


 107351435.925 7                  20103454.767    20103453.929
        45.800
 125412219.147 7                  23865149.667
        47.400
 108020952.552 8  84016350.773 7  20235950.730    20235950.878    20235954.918
        50.900          47.700


 108431114.215 7                  20270007.351    20270006.559
        46.600
 198907098.435 6                  37850760.125
        41.700
 128371629.024 5                  23989304.306    23989299.715
        31.000
 202058145.192 7                  38450392.659
        45.500
 120909517.958 6  94040743.445 5  22586915.481    22586921.979    22586914.717
        40.200          34.000
 108083537.006 7  84065001.532 6  20233448.203    20233447.498    20233457.130
        45.100          40.300




 128091409.017 6                  24029624.153    24029625.646
        38.800
 125102805.775 7                  23806254.585
        45.700


 25  1  1  2  4 15.0000000  0 24G06G19G12G11G20E27G24G25E34S35R13E15
                                R22E36R23S31S33R07R12E02E13R14E30R24
 108649218.617 6  84661778.36545  20675245.249    20675244.6914   20675245.9424
        36.700          34.7004
 109998288.235 8  85712955.58546  20931976.041    20931974.7814   20931975.2124
        48.600          37.8004
 111137572.855 8  86600761.20247  21148752.407    21148751.9784   21148751.4274
        51.200          46.8004
 108836286.553 8  84807520.48346  20710851.629    20710851.3844   20710852.8564
        49.300          38.2004
 115545846.358 6  90035714.86344  21987642.348    21987641.3514   21987641.7594
        41.900          25.5004
 129532995.046 7                  24649284.679
        44.800
 129617354.733 4 101000549.58343  24665356.873    24665357.0924   24665366.1184
        28.400          18.7004
 124619174.113 5  97105896.73244  23714239.838    23714238.8914   23714246.1654
        33.200          25.8004
 125505635.769 7                  23882909.909
        44.800


 107339772.354 7                  20101271.271    20101270.266
        44.600
 125396313.990 7                  23862122.417
        47.800
 108046650.281 8  84036337.872 8  20240764.377    20240764.486    20240768.848
        49.800          48.400


 108416774.449 7                  20267324.855    20267324.336
        47.600
 198907096.865 6                  37850764.534
        40.800
 202058131.899 7                  38450392.565
        44.600
 120867204.520 6  94007833.087 6  22579001.323    22579001.980    22579013.825
        37.400          37.800
 108126087.597 8  84098096.446 6  20241414.566    20241413.890    20241422.860
        49.000          41.000




 128031901.203 6                  24018458.809    24018458.444
        38.400
 125119760.019 7                  23809481.667
        47.800


 25  1  1  2  4 30.0000000  0 24G06G19G12G11G20E27G24G25E34S35R13E15
                                R22E36R23S31S33R07R12E02E13R14E30R24
 108672143.347 4  84679641.79745  20679604.826    20679604.3214   20679608.2164
        28.000          34.1004
 110020654.612 7  85730383.93646  20936231.824    20936230.5644   20936230.8744
        46.500          37.0004
 111111214.176 8  86580222.01047  21143735.885    21143735.4704   21143734.5934
        48.500          45.4004
 108822766.072 8  84796985.04046  20708278.812    20708278.5534   20708278.5794
        49.500          37.9004
 115500454.360 6  90000344.49444  21979003.960    21979002.9504   21979003.8284
        41.200          24.2004
 129508807.707 7                  24644682.730
        46.900
 129657347.898 5 101031712.83443  24672982.141    24672982.0924   24672976.5604
        33.400          18.2004
 124569359.852 6  97067080.48545  23704763.164    23704762.2614   23704766.9204
        41.000          30.4004
 125526551.377 7                  23886889.777
        45.100


 107328314.673 7                  20099125.735    20099124.294
        44.100
 125380480.357 8                  23859110.406
        48.000
 108072403.496 8  84056368.171 8  20245590.024    20245590.346    20245593.894
        52.700          48.000


 108402517.728 8                  20264661.138    20264661.919
        48.200
 198907098.957 7                  37850757.004
        43.000
 202058122.334 7                  38450388.648
        44.700
 120825001.661 5  93975008.670 6  22571126.368    22571120.209    22571126.205
        33.700          36.700
 108168794.632 8  84131312.997 6  20249409.406    20249411.137    20249416.927
        49.600          40.500




 127972462.632 6                  24007311.959    24007314.061
        38.100
 125136808.626 7                  23812725.191
        47.100
                 100917517.184 5                  24264091.392    24264099.721
                        33.200
 25  1  1  2  4 45.0000000  0 26G06G19G12G11G20E27G24G25E34S35R13E15
                                R22E36R23S31S33R07G17R12E02E13R08R14
                                E30R24
 108695149.504 6  84697568.70545  20683985.477    20683984.9994   20683986.0774
        39.600          35.7004
 110043088.738 7  85747865.06946  20940501.870    20940500.6234   20940499.5924
        47.200          36.1004
 111084984.362 7  86559783.20647  21138745.108    21138744.6574   21138744.0114
        46.900          44.5004
 108809349.208 8  84786530.34546  20705725.884    20705725.6254   20705726.0834
        50.000          39.7004
 115455141.696 7  89965035.97243  21970381.540    21970380.5034   21970380.0264
        42.500          22.6004
 129484695.189 7                  24640094.096
        46.300
 129697372.438 5 101062900.68243  24680594.081    24680593.8534   24680591.7964
        30.700          18.2004
 124519608.240 6  97028313.09645  23695294.816    23695293.9454   23695298.7334
        39.200          31.4004
 125547516.639 7                  23890879.132
        43.400
 200850045.482 6                  38220492.525
        39.700
 107317062.014 7                  20097017.717    20097016.291
        45.000
 125364716.752 8                  23856110.965
        48.300
 108098210.753 9  84076440.441 8  20250424.893    20250425.462    20250429.230
        54.100          49.200


 108388342.843 8                  20262009.554    20262011.383
        48.100
 198907102.548 7                  37850755.139
        42.600
 202058114.307 7                  38450387.338
        44.700
                  93942269.527 6                  22563283.297    22563265.302
                        37.900


 108211656.333 8  84164649.928 6  20257432.255    20257434.145    20257439.868
        48.100          40.100




 130422876.352 4                  24355553.994
        28.000
 127913091.644 5                  23996173.720    23996172.414
        35.800
 125153950.162 7                  23815987.434
        47.000
 129707817.096 6 100883833.952 5  24255997.622    24255994.741    24256002.815
        38.800          32.000
 25  1  1  2  5  0.0000000  0 25G06G19G12G11G20E27G24G25E34S35R13E15
                                R22E36R23S31S33R07G17R12E02E13R14E30
                                R24
 108718229.207 7  84715552.85446  20688377.123    20688376.6364   20688377.2694
        42.300          36.5004
 110065582.945 7  85765393.02546  20944782.141    20944780.8894   20944780.0394
        46.200          36.9004
 111058875.985 7  86539439.05047  21133777.019    21133776.5414   21133776.3884
        47.800          44.5004
 108796028.211 8  84776150.35446  20703190.713    20703190.4634   20703191.4384
        49.000          40.3004
 115409900.865 6  89929783.41042  21961773.175    21961772.2144   21961769.8194
        37.300          16.0004
 129460649.971 7                  24635518.133
        47.100


 124469911.876 6  96989588.75145  23685837.427    23685836.6274   23685841.7344
        40.300          30.9004
 125568523.564 7                  23894878.422
        46.000


 107306006.312 7                  20094947.528    20094947.334
        45.900
 125349015.469 8                  23853122.693
        49.100
 108124063.808 8  84096548.421 8  20255266.799    20255266.798    20255271.934
        50.800          48.800


 108374241.950 7                  20259373.992    20259374.507
        47.600
 198907099.864 6                  37850761.703
        40.800
 202058100.427 7                  38450383.228
        45.800
                  93909609.812 5                  22555412.199    22555420.122
                        35.200
 122924825.635 5  95785579.20143  23391806.893    23391807.0764   23391808.2094
        35.500          23.4004
 108254664.465 7  84198100.676 6  20265484.335    20265483.436    20265493.180
        47.000          40.600




 127853781.675 5                  23985048.349    23985047.080
        34.500
 125171176.875 7                  23819265.748
        47.500
 129664535.619 6 100850170.738 5  24247899.975    24247899.208    24247909.822
        38.400          34.500
 25  1  1  2  5 15.0000000  0 25G06G19G12G11G20E27G24G25E34S35R13E15
                                R22E36R23S31S33R07G17R12E02E13R14E30
                                R24
 108741393.801 7  84733603.28246  20692783.808    20692783.3354   20692784.3484
        42.800          36.7004
 110088148.917 7  85782976.92646  20949076.252    20949075.0004   20949074.4694
        46.800          37.1004
 111032901.300 8  86519199.04647  21128834.231    21128833.7664   21128833.8854
        49.600          45.9004
 108782814.860 8  84765854.24346  20700676.480    20700676.2394   20700677.6034
        50.500          41.3004
 115364743.840 6  89894596.16942  21953183.338    21953182.3194   21953175.4234
        40.400          15.0004
 129436684.018 8                  24630957.864
        48.100
 129777575.186 5                  24695839.771
        33.600
 124420282.872 6  96950916.88544  23676394.360    23676393.6184   23676396.4604
        38.500          28.2004
 125589583.951 7                  23898884.843
        43.900


 107295159.997 7                  20092917.194    20092916.649
        46.000
 125333388.235 8                  23850149.063
        48.100
 108149974.594 8  84116701.261 7  20260121.972    20260121.751    20260125.957
        52.000          47.800


 108360226.737 7                  20256752.427    20256753.725
        47.600
 198907103.237 7                  37850762.191
        42.900
 202058092.044 7                  38450386.940
        44.600
 120699142.596 6  93877039.766 5  22547588.930    22547586.341    22547597.824
        36.000          35.400
 122957910.883 5  95811359.88943  23398103.650    23398103.7434   23398103.1264
        34.000          21.6004
 108297830.675 7  84231674.365 6  20273565.985    20273565.805    20273573.151
        47.600          39.300
 140646044.933 5                  26764051.016
        30.400


 127794680.269 5  99395803.043 5  23973954.893                    23973940.240
        32.500          32.300
 125188500.548 7                  23822562.098
        47.000
 129621292.176 6                  24239815.917    24239817.860
        40.300
 25  1  1  2  5 30.0000000  0 23G06G19G12G11E27G24G25E34S35R13E15R22
                                E36R23S31S33R07G17R12E02E13R14E30
 108764636.752 7  84751714.72246  20697207.404    20697206.9714   20697208.0214
        42.200          37.1004
 110110780.349 7  85800611.83146  20953383.265    20953382.0364   20953380.9734
        45.600          36.8004
 111007054.054 8  86499058.34447  21123915.362    21123914.9204   21123914.7874
        49.200          45.9004
 108769702.558 8  84755636.86746  20698181.136    20698180.9044   20698182.5594
        48.900          40.9004
 129412791.029 8                  24626412.182
        48.300
 129817685.275 5 101156602.8774   24703459.473    24703459.0894   24703475.6334
        31.500           5.1004
 124370715.187 5  96912292.79344  23666963.033    23666962.3184   23666961.5824
        35.300          26.7004
 125610691.016 7                  23902901.899
        45.600


 107284516.434 7                  20090924.466    20090923.222
        45.700
 125317828.506 8                  23847188.882
        48.000
 108175936.265 8  84136893.644 7  20264984.692    20264985.128    20264988.305
        51.400          47.200


 108346290.306 7                  20254150.296    20254151.138
        46.100
 198907106.035 6                  37850748.552
        40.400
 202058083.577 7                  38450382.021
        46.500
 120657375.441 7  93844554.242 5  22539788.189    22539787.089    22539793.228
        45.400          33.800
 122991025.688 5  95837163.53142  23404410.561    23404410.2084   23404403.1784
        30.100          17.1004
 108341147.717 7  84265365.296 5  20281675.689    20281675.638    20281680.069
        47.800          35.900


 145919341.393 6                  27767508.696
        36.400
 127735509.660 6  99349782.152 5  23962843.467    23962844.794    23962841.530
        37.300          31.500
 125205914.637 7                  23825875.795
        46.900
 25  1  1  2  5 45.0000000  0 25G06G19G12G11G20E27G24G25E34S35R13E15
                                R22R23S31S33R07G17R12E02E13R08R14E30
                                R24
 108787956.778 7  84769886.16746  20701645.373    20701644.9674   20701646.5674
        42.100          37.4004
 110133476.089 7  85818296.82545  20957701.945    20957700.6804   20957700.0994
        44.700          35.8004
 110981333.079 8  86479016.05947  21119020.759    21119020.3394   21119020.3104
        49.800          45.9004
 108756690.295 8  84745497.46846  20695705.314    20695705.0824   20695705.8704
        49.300          39.9004
 115274616.880 6  89824354.20541  21936035.788    21936035.6504   21936024.6764
        39.200          11.5004
 129388970.195 8                  24621879.475
        48.200
 129857821.414 5 101187877.83141  24711104.621    24711104.3174   24711115.8794
        34.900           6.3004
 124321208.029 5  96873715.88843  23657541.413    23657540.7524   23657540.4774
        33.500          21.6004
 125631843.646 7                  23906927.948
        45.300
 200850314.064 5                  38220539.450
        35.300
 107274074.646 7                  20088967.719    20088967.393
        46.400
 125302335.282 7                  23844240.021
        47.500
 108201947.597 8  84157124.717 7  20269856.982    20269857.148    20269860.992
        50.700          46.600
 108332431.968 7                  20251556.083    20251556.984
        44.500
 198907106.998 7                  37850762.879
        42.800
 202058073.035 7                  38450382.272
        45.800
 120615716.313 7  93812152.818 5  22532003.261    22532005.679    22532012.269
        45.300          34.900
 123024169.332 4  95862989.51542  23410725.878    23410725.5484   23410709.7664
        26.600          17.0004
 108384614.195 7  84299172.488 5  20289812.352    20289812.842    20289815.730
        47.700          34.000


 145881788.322 5                  27760354.475
        34.000
 130190553.279 4                  24312163.031
        26.500
 127676406.714 6  99303813.306 4  23951744.431    23951750.332    23951756.534
        36.200          29.500
 125223418.114 7                  23829206.376
        46.800


 25  1  1  2  6  0.0000000  0 24G06G19G12G11G20E27G24G25E34S35R13E15
                                R22R23S31S33R07G17R12E02E13R14E30R24
 108811355.862 7  84788119.19446  20706097.646    20706097.2224   20706099.6594
        43.400          37.5004
 110156238.505 7  85836033.75945  20962033.582    20962032.2864   20962032.1584
        43.900          35.3004
 110955741.137 8  86459074.30847  21114150.892    21114150.4814   21114150.5484
        50.000          46.1004
 108743780.239 8  84735437.68846  20693248.301    20693248.0734   20693248.5534
        49.600          39.9004
 115229694.464 7  89789349.79242  21927488.103    21927487.4514   21927481.9184
        42.400          17.0004
 129365223.940 8                  24617360.483
        49.000
 129897985.890 6 101219181.11641  24718746.928    24718746.6384   24718758.7364
        37.200           9.9004
 124271764.172 4  96835188.28643  23648127.484    23648126.7334   23648132.6934
        29.600          19.6004
 125653043.907 7                  23910962.261
        47.700
 200850350.830 6                  38220546.578
        37.100
 107263837.325 7                  20087051.009    20087049.984
        45.800
 125286910.705 7                  23841305.095
        46.300
 108228010.658 8  84177395.959 7  20274738.722    20274739.141    20274743.418
        49.100          46.900
 108318653.688 7                  20248980.928    20248982.121
        46.700
 198907108.729 7                  37850758.130
        42.300
 202058063.002 7                  38450374.549
        44.000
 120574168.534 7  93779837.972 5  22524241.791    22524242.330    22524251.044
        44.100          35.300


 108428231.833 7  84333097.221 5  20297975.895    20297976.750    20297982.921
        46.300          34.200


 145844267.278 4                  27753213.832
        28.900
 127617372.756 6                  23940670.775    23940672.705
        38.200
 125241013.173 7                  23832554.345
        46.200


 25  1  1  2  6 15.0000000  0 24G06G19G12G11G20E27G24G25E34S35R13E15
                                R22E36R23S31S33R07G17R12E02E13E30R24
 108834834.224 7  84806413.98746  20710565.359    20710564.9534   20710566.8914
        43.300          38.1004
 110179067.962 7  85853822.93945  20966378.056    20966376.7464   20966376.4564
        42.200          33.8004
 110930278.998 7  86439233.71847  21109305.517    21109305.1064   21109304.5844
        46.800          43.5004
 108730972.827 8  84725457.90146  20690811.539    20690811.3074   20690811.1074
        49.700          40.2004
 115184852.534 6  89754408.11443  21918955.526    21918954.8564   21918951.7124
        41.500          20.5004
 129341552.926 8                  24612855.832
        48.300
 129938178.720 5 101250500.0114   24726393.574    24726393.1814   24726408.7164
        34.900           5.4004
 124222384.180 5  96796710.43643  23638734.340    23638733.5044   23638736.7464
        34.600          23.1004
 125674292.099 8                  23915005.191
        48.100
 200850388.425 6                  38220554.542
        38.100
 107253804.959 7                  20085171.568    20085171.455
        46.400
 125271555.220 7                  23838382.834
        46.800
 108254125.706 8  84197707.680 7  20279630.944    20279631.440    20279635.373
        49.800          47.000


 108304955.661 7                  20246420.415    20246421.263
        46.600
 198907110.957 7                  37850758.600
        42.400
 202058054.295 7                  38450373.565
        45.600
 120532732.622 7  93747610.129 6  22516501.638    22516500.127    22516509.785
        42.400          36.400


 108472000.972 7  84367139.837 6  20306170.179    20306170.355    20306182.052
        44.000          37.300
 140821103.171 6                  26797365.957
        36.500
 145806778.726 5                  27746080.101
        31.700
 125258700.290 7                  23835920.268
        46.500
 129448512.611 6 100682229.747 5  24207534.086    24207537.444    24207537.863
        37.100          34.200
 25  1  1  2  6 30.0000000  0 25G06G19G12G11G20E27G24G25E34S35R13E15
                                R22E36R23S31S33R07G17R12E02E13R14E30
                                R24
 108858391.817 7  84824770.56046  20715048.352    20715047.9464   20715048.9464
        44.900          38.5004
 110201964.673 7  85871664.51645  20970734.791    20970733.4724   20970733.1494
        43.400          33.3004
 110904947.121 7  86419494.61847  21104485.542    21104485.1404   21104483.2184
        46.600          44.0004
 108718268.210 8  84715558.21346  20688393.868    20688393.6364   20688393.6144
        50.300          41.1004
 115140091.388 6  89719529.35243  21910438.666    21910437.9424   21910436.3484
        41.500          23.8004
 129317957.504 8                  24608365.950
        48.300
 129978399.608 5                  24734047.688
        34.800
 124173068.747 6  96758282.91744  23629349.351    23629348.4884   23629353.9944
        36.100          25.1004
 125695588.265 8                  23919057.896
        49.500
 200850427.358 5                  38220576.166
        32.400
 107243977.841 7                  20083332.533    20083331.315
        47.000
 125256268.997 8                  23835473.663
        48.000
 108280292.807 8  84218059.851 7  20284533.410    20284534.364    20284537.448
        50.100          46.400


 108291338.092 7                  20243876.459    20243876.427
        47.400
 198907115.073 7                  37850759.986
        43.100
 202058046.565 7                  38450365.136
        44.700
 120491409.946 7  93715470.288 5  22508783.493    22508783.805    22508790.244
        42.600          35.300


 108515920.925 6  84401299.897 5  20314392.154    20314389.474    20314400.219
        40.700          34.000
 140864950.207 5                  26805708.837
        35.600
 145769322.932 5                  27738953.641
        33.500
 127499516.123 4                  23918577.942    23918578.991
        28.900
 125276479.562 7                  23839304.032
        47.100
 129405428.599 5 100648720.126 5  24199486.687    24199482.246    24199481.479
        30.400          35.200
 25  1  1  2  6 45.0000000  0 25G06G19G12G11G20E27G24G25E34S35R13E15
                                R22E36R23S31R21S33R07G17R12E02E13E30
                                R24
 108882024.077 7  84843185.31546  20719544.288    20719543.8994   20719545.9544
        44.000          39.2004
 110224924.252 7  85889555.08345  20975103.507    20975102.1754   20975101.2004
        44.600          33.0004
 110879741.421 8  86399853.85247  21099688.130    21099687.7284   21099687.0134
        49.200          44.5004
 108705661.985 8  84705735.18946  20685994.806    20685994.5744   20685995.2904
        51.400          41.8004
 115095407.099 7  89684710.46944  21901934.995    21901934.2044   21901935.2164
        45.000          25.2004
 129294433.552 7                  24603888.758
        47.300
 130018643.952 4 101313199.7634   24741704.341    24741704.3454   24741720.0844
        29.500           5.7004
 124123813.813 6  96719902.54044  23619977.319    23619976.4704   23619981.6794
        39.900          27.3004
 125716927.917 8                  23923118.835
        49.400
 200850463.051 5                  38220590.628
        30.500
 107234351.821 7                  20081529.677    20081528.254
        46.700
 125241047.633 7                  23832576.973
        47.100
 108306507.305 8  84238448.893 7  20289444.578    20289445.538    20289448.259
        50.800          46.700


 108277796.487 8                  20241344.739    20241345.878
        49.100
 198907116.086 7                  37850761.587
        42.700
 128879460.380 4                  24084205.213    24084205.132
        27.800
 202058035.985 7                  38450370.069
        44.500
 120450195.939 6  93683415.067 5  22501082.672    22501081.686    22501089.537
        41.800          33.700
 123156960.756 6                  23435992.401
        36.200
 108559987.158 7  84435573.628 5  20322641.511    20322641.496    20322647.170
        45.600          34.800
 140908824.449 5                  26814057.124
        33.400
 145731895.762 5                  27731830.596
        31.100
 125294346.665 8                  23842704.264
        48.400
                 100615232.884 5                  24191430.709    24191426.155
                        32.600
 25  1  1  2  7  0.0000000  0 26G06G19G12G11G20E27G24G25E34S35R13E15
                                R22E36R23S31R21S33R07G17R12E02E13R14
                                E30R24
 108905736.035 6  84861662.17946  20724056.400    20724056.0344   20724059.5784
        40.400          39.4004
 110247952.124 7  85907498.86645  20979484.856    20979483.5194   20979483.0994
        42.700          33.7004
 110854667.480 8  86380315.74947  21094916.093    21094915.6824   21094916.3074
        49.100          45.4004
 108693159.338 8  84695992.87547  20683615.754    20683615.5224   20683616.6734
        50.600          42.1004
 115050805.202 7  89649955.76744  21893446.618    21893445.8234   21893449.5124
        45.100          27.6004
 129270986.482 7                  24599426.825
        47.500
 130058916.549 5 101344580.8354   24749369.060    24749369.1184   24749382.1564
        30.600           5.7004
 124074624.960 6  96681573.65944  23610615.951    23610615.0974   23610620.7574
        38.800          26.7004
 125738316.119 8                  23927188.723
        49.100
 200850501.345 5                  38220581.103
        31.900
 107224932.301 7                  20079766.010    20079764.356
        45.900
 125225896.338 7                  23829693.756
        46.300
 108332774.349 8  84258878.838 7  20294365.750    20294366.805    20294369.705
        50.700          46.900


 108264335.926 7                  20238827.042    20238828.394
        47.400
 198907118.909 7                  37850755.792
        42.900
 128925515.081 3                  24092814.383
        23.800
 202058027.137 7                  38450367.877
        45.300
 120409097.020 7  93651449.335 5  22493406.190    22493405.019    22493413.313
        44.300          31.200
 123190257.311 6                  23442331.750
        39.300
 108604204.452 7  84469964.945 5  20330919.599    20330919.896    20330927.099
