     2.11           OBSERVATION DATA    M (MIXED)           RINEX VERSION / TYPE
teqc  2019Feb25                         20260317 16:18:01UTCPGM / RUN BY / DATE
Linux 2.4.21-27.ELsmp|Opteron|gcc -static|Linux 64|=+       COMMENT
BIT 2 OF LLI FLAGS DATA COLLECTED UNDER A/S CONDITION       COMMENT
-Unknown-                                                   MARKER NAME
-Unknown-           -Unknown-                               OBSERVER / AGENCY
-Unknown-           -Unknown-           -Unknown-           REC # / TYPE / VERS
-Unknown-           -Unknown-                               ANT # / TYPE
        0.0000        0.0000        0.0000                  APPROX POSITION XYZ
        0.0000        0.0000        0.0000                  ANTENNA: DELTA H/E/N
     1     1                                                WAVELENGTH FACT L1/2
     7    L1    L2    C1    P1    P2    S1    S2            # / TYPES OF OBSERV
 SNR is mapped to RINEX snr flag value [0-9]                COMMENT
  L1 & L2: min(max(int(snr_dBHz/6), 0), 9)                  COMMENT
  2025     1     1     8     0    0.0000000     GPS         TIME OF FIRST OBS
    18                                                      LEAP SECONDS
                                                            END OF HEADER
 25  1  1  8  0  0.0000000  0 23G18G23G15E29G24E33G10E03G27G29R03E15
                                E26R18S35R17R02S31S33E07E08E13R24
 106866031.919 8  83272254.10447  20335928.874    20335928.6114   20335928.5074
        50.500          42.3004
 109959195.864 7  85682521.39745  20924538.625    20924538.3974   20924538.0994
        45.400          34.3004
 106606620.736 6  83070082.65746  20286547.454    20286547.0884   20286547.5274
        40.900          37.4004


 121171125.931 5  94419083.16442  23058101.098    23058101.0584   23058117.1764
        34.700          12.0004
 148543636.632 5                  28266914.844
        34.300
 125457576.754 6  97759040.44243  23873757.245    23873756.6154   23873759.8134
        37.800          23.4004


 125630779.431 5  97894091.22643  23906729.299    23906728.2174   23906733.9474
        34.800          23.7004
 121569300.726 6  94729327.55644  23133869.371    23133869.5854   23133871.6794
        37.400          25.7004
 107461288.631 8  83581019.594 7  20074656.314    20074656.556    20074660.160
        50.300          46.600


 127748599.071 7                  24309754.107
        42.600
 108411959.027 7  84320403.842 7  20309212.355    20309212.090    20309215.523
        47.800          44.400
 200877108.705 5                  38225661.081
        32.300
 102335148.169 8  79594051.425 7  19123776.277    19123776.491    19123781.930
        51.400          45.500
 105102372.533 6  81746320.648 7  19696136.746    19696132.248    19696140.902
        37.600          46.800
 198898790.339 7                  37849181.065
        42.200
 202027984.666 7                  38444657.106
        44.900
 125194287.198 7                  23823663.873
        46.000
 127436330.795 7                  24250324.046
        43.300
 124011200.995 8                  23598531.759
        49.400
 119735993.629 7  93128031.992 6  22391235.174    22391238.337    22391234.253
        43.800          36.000
 25  1  1  8  0 15.0000000  0 24G18R01G23G15E29G24E33G10G27G29R04R03
                                E15E26R18S35R17R02S31S33E07E08E13R24
 106858787.405 8  83266609.02447  20334549.543    20334549.2714   20334549.7584
        50.500          42.5004
 123522900.211 5                  23107514.807    23107513.962
        34.200
 109942163.768 7  85669249.63645  20921298.441    20921298.2634   20921298.4094
        44.600          34.9004
 106630674.725 7  83088826.02946  20291124.786    20291124.4564   20291125.1534
        43.000          38.2004


 121126254.581 5  94384118.22141  23049561.856    23049561.6374   23049581.0954
        33.900           9.9004
 148504921.448 5                  28259548.342
        35.700
 125422638.231 6  97731815.67544  23867109.113    23867108.4164   23867112.2144
        41.300          28.2004
 125597093.402 6  97867842.35144  23900318.421    23900317.2904   23900323.2194
        38.700          28.0004
 121622737.960 6  94770966.93844  23144037.047    23144037.3064   23144039.8714
        36.800          25.6004


 107433264.865 8  83559223.309 7  20069420.912    20069421.606    20069424.341
        49.200          45.400


 127723478.398 6                  24304974.232
        41.500
 108369877.050 7  84287673.404 7  20301327.818    20301328.508    20301331.126
        46.700          42.400


 102347585.268 8  79603724.725 7  19126100.049    19126099.740    19126105.801
        50.600          44.900
 105130431.778 6  81768144.524 7  19701393.693    19701389.803    19701399.861
        38.800          46.600
 198898791.088 7                  37849189.060
        43.200
 202027956.914 7                  38444654.633
        45.800
 125170591.780 7                  23819155.147
        45.100
 127455063.432 7                  24253889.188
        43.400
 124021777.799 8                  23600544.277
        48.600
 119794570.254 7  93173591.504 6  22402188.123    22402187.109    22402192.912
        42.400          39.800
 25  1  1  8  0 30.0000000  0 23G18G23G15E29G24E33G10G27G29R04R03E15
                                E26R18S35R17R02S31S33E07E08E13R24
 106851651.710 8  83261048.72247  20333192.118    20333191.8554   20333191.8564
        50.300          43.0004
 109925185.342 7  85656019.70846  20918067.522    20918067.3444   20918069.0924
        45.400          36.2004
 106654856.916 7  83107669.31746  20295725.275    20295724.9274   20295727.7194
        46.500          40.3004


 121081445.781 6  94349202.02341  23041036.813    23041036.5944   23041054.9674
        38.400           8.3004
 148466192.026 5                  28252177.089
        34.300
 125387723.212 6  97704609.19345  23860466.587    23860465.9304   23860468.8984
        41.700          30.3004
 125563522.839 7  97841683.42545  23893931.024    23893929.9564   23893933.7084
        42.100          30.9004
 121676219.328 4  94812640.72843  23154213.095    23154213.4164   23154217.0784
        26.500          22.0004
 127583906.849 6                  23825392.635    23825390.816
        36.600
 107405374.103 8  83537530.509 7  20064210.412    20064210.699    20064216.377
        48.800          46.800
 143176731.704 5                  27245626.191
        33.500
 127698393.677 6                  24300200.507
        40.900
 108327908.104 7  84255030.916 6  20293465.008    20293465.254    20293468.650
        46.100          41.500


 102360203.010 8  79613538.518 7  19128457.388    19128457.756    19128464.161
        51.100          44.500
 105158603.688 7  81790056.014 7  19706671.416    19706672.484    19706678.898
        43.300          45.100
 198898791.847 7                  37849188.363
        43.200
 202027929.300 7                  38444649.504
        45.600
 125146983.052 7                  23814662.070
        43.700
 127473880.943 6                  24257469.574
        41.200
 124032420.280 8                  23602569.532
        48.100
 119853222.582 6  93219209.988 6  22413156.456    22413150.428    22413161.512
        38.000          40.900
 25  1  1  8  0 45.0000000  0 24G18R01G23G15E29G24E33G10G27G29R04R03
                                E15E26R18S35R17R02S31S33E07E08E13R24
 106844623.517 8  83255572.20947  20331854.281    20331854.0224   20331855.1184
        50.300          43.4004
 123637286.442 5                  23128916.546    23128915.474
        30.100
 109908259.059 7  85642830.42545  20914847.306    20914847.0924   20914848.7104
        45.400          35.7004
 106679165.265 7  83126610.87146  20300351.356    20300351.0394   20300353.7424
        44.300          39.5004


 121036698.361 6  94314333.98943  23032522.208    23032522.0524   23032538.0564
        41.300          20.3004
 148427446.944 5                  28244805.113
        34.000
 125352830.105 6  97677419.76145  23853825.304    23853824.6474   23853830.2384
        40.900          32.2004
 125530066.495 6  97815613.57845  23887562.797    23887561.7564   23887565.9174
        39.600          30.1004
 121729792.441 6  94854398.22343  23164403.591    23164403.8104   23164412.4314
        36.800          21.6004


 107377614.717 8  83515939.914 7  20059024.727    20059024.471    20059030.408
        49.400          47.600
 143212167.437 6                  27252370.097
        37.400
 127673343.524 6                  24295433.968
        41.300
 108286051.173 7  84222475.594 6  20285622.049    20285621.795    20285626.641
        42.400          40.000


 102372999.843 8  79623491.634 7  19130849.824    19130849.949    19130854.132
        51.300          42.400
 105186886.586 7  81812053.839 7  19711975.262    19711975.850    19711977.690
        45.800          44.600
 198898791.584 7                  37849190.733
        42.700
 202027898.942 7                  38444643.713
        45.800
 125123459.595 7                  23810185.555
        42.300
 127492781.693 6                  24261065.726
        39.800
 124043126.944 7                  23604606.887
        47.100
 119911948.692 5  93264885.917 6  22424135.586    22424131.843    22424143.624
        34.000          41.700
 25  1  1  8  1  0.0000000  0 25G18R01G23G15E29G24E33G10G27G29R04R03
                                E15E26R18S35R17R02S31G13S33E07E08E13
                                R24
 106837702.533 8  83250179.24047  20330537.358    20330537.1044   20330538.2844
        50.300          42.6004
 123694474.831 4                  23139607.888    23139612.672
        29.200
 109891384.464 7  85629681.37545  20911635.377    20911635.1004   20911637.2804
        45.200          34.8004
 106703599.462 7  83145650.56346  20305002.257    20305001.9674   20305003.8364
        44.900          39.4004


 120992012.463 7  94279513.72444  23024019.215    23024019.0504   23024024.0194
        42.300          27.2004
 148388685.861 5                  28237429.717
        34.300
 125317958.527 5  97650247.04744  23847191.762    23847191.1364   23847194.9814
        35.500          26.4004
 125496724.179 6  97789632.53244  23881218.790    23881217.8694   23881219.2894
        38.300          29.2004


 127472222.377 6                  23804545.491    23804543.642
        37.100
 107349986.496 8  83494451.300 7  20053864.911    20053865.184    20053870.299
        50.900          47.600
 143247637.178 5                  27259118.101
        33.700
 127648327.694 7                  24290673.323
        44.500
 108244306.171 7  84190007.317 6  20277803.055    20277801.160    20277806.689
        43.200          41.900


 102385975.509 8  79633583.828 6  19133273.668    19133274.003    19133278.538
        50.800          41.800
 105215279.447 7  81834137.177 7  19717293.834    19717294.577    19717297.946
        46.500          44.200
 198898789.604 7                  37849189.056
        43.200
 118960831.819 5                  22637495.677
        35.000
 202027868.374 7                  38444637.980
        47.000
 125100021.027 7                  23805725.468
        42.700
 127511765.090 6                  24264678.446
        40.700
 124053897.480 8                  23606656.546
        48.000
 119970748.493 7  93310618.925 6  22435129.297    22435131.614    22435139.304
        44.500          41.100
 25  1  1  8  1 15.0000000  0 24G18G23G15E29G24E33G10G27G29R04R03E15
                                E26R18S35R17R02S31G13S33E07E08E13R24
 106830890.727 8  83244871.35146  20329241.187    20329240.9284   20329241.4824
        49.900          41.8004
 109874563.315 7  85616574.01345  20908434.122    20908433.8454   20908435.0314
        46.700          34.4004
 106728160.788 7  83164789.29446  20309676.511    20309676.2254   20309678.0324
        43.400          37.4004


 120947390.239 6  94244743.17844  23015526.543    23015526.3784   23015527.9094
        39.400          29.0004
 148349910.613 5                  28230050.865
        32.900
 125283110.257 6  97623092.52842  23840555.798    23840555.2844   23840562.2954
        38.100          17.1004
 125463497.913 6  97763741.95644  23874896.144    23874895.2734   23874896.0574
        40.100          29.3004
 121836930.353 6  94937883.43344  23184794.386    23184794.1454   23184800.9734
        39.300          25.0004
 127416483.734 6                  23794134.764    23794137.344
        36.100
 107322491.202 8  83473066.109 7  20048726.533    20048727.276    20048734.117
        50.500          46.700
 143283142.488 5                  27265883.821
        30.900
 127623348.090 7                  24285919.681
        45.700
 108202675.594 7  84157627.978 7  20270005.015    20270004.153    20270008.488
        46.800          42.800


 102399131.784 8  79643816.460 6  19135732.835    19135733.775    19135736.549
        51.100          41.700
 105243783.814 7  81856307.253 7  19722633.865    19722633.006    19722640.489
        44.700          45.100
 198898786.802 6                  37849185.246
        41.500
 119007618.331 6                  22646400.909
        37.500
 202027837.253 7                  38444632.579
        44.200
 125076669.174 7                  23801281.981
        46.700
 127530832.732 6                  24268307.528
        40.200
 124064733.700 8                  23608718.656
        48.000
 120029622.562 7  93356409.730 6  22446139.980    22446144.398    22446146.744
        42.500          38.900
 25  1  1  8  1 30.0000000  0 23G18G23G15E29G24E33G10G27G29R03E15E26
                                R18S35R17R02S31G13S33E07E08E13R24
 106824184.031 8  83239645.36846  20327965.192    20327964.9384   20327964.2254
        50.400          41.2004
 109857791.274 7  85603504.88045  20905242.490    20905242.2224   20905243.0124
        47.500          35.2004
 106752844.646 7  83184023.49145  20314373.330    20314373.0314   20314375.3784
        44.500          35.4004


 120902827.837 6  94210019.27644  23007047.453    23007047.3194   23007046.4354
        38.600          27.6004
 148311117.026 4                  28222667.705
        27.800
 125248280.932 6  97595952.76943  23833927.209    23833926.6734   23833932.0544
        37.700          18.4004
 125430383.734 6  97737938.74045  23868595.805    23868594.9784   23868594.3514
        41.400          30.1004
 121890576.105 6  94979685.34944  23195002.484    23195001.9344   23195009.9254
        41.800          25.5004
 107295124.776 8  83451781.070 7  20043616.151    20043616.167    20043619.811
        52.000          45.400
 143318678.935 4                  27272645.821
        28.500
 127598400.644 7                  24281171.583
        45.500
 108161155.353 8  84125334.457 7  20262227.756    20262228.435    20262230.181
        48.300          43.400
 200877223.228 5                  38225662.275
        33.900
 102412464.133 8  79654186.063 7  19138224.086    19138224.321    19138227.869
        49.500          42.000
 105272394.772 7  81878560.229 7  19727997.110    19727995.434    19728002.429
        44.900          44.600
 198898780.556 7                  37849183.292
        42.600
 119054482.260 5                  22655319.209
        32.400
 202027801.593 7                  38444624.642
        45.000
 125053399.887 8                  23796854.256
        48.300
 127549980.210 6                  24271950.874
        40.900
 124075631.409 8                  23610792.827
        48.400
 120088566.556 6  93402255.036 6  22457164.603    22457165.597    22457171.216
        41.300          37.800
 25  1  1  8  1 45.0000000  0 23G18G23G15E29G24E33G10G27G29R04R03E15
                                E26R18S35R17R02S31S33E07E08E13R24
 106817595.945 8  83234511.79946  20326711.326    20326711.0764   20326710.2354
        51.000          41.6004
 109841081.696 7  85590484.39845  20902062.749    20902062.4864   20902063.5864
        45.900          35.6004
 106777664.093 7  83203363.29945  20319094.861    20319094.5444   20319097.1924
        42.100          32.5004


 120858339.134 5  94175352.78644  22998582.739    22998582.5524   22998581.1624
        32.200          24.6004


 125213483.850 6  97568838.17643  23827307.513    23827307.0134   23827312.2064
        39.200          21.9004
 125397395.250 6  97712233.42745  23862317.828    23862317.0414   23862317.7814
        41.100          30.1004
 121944273.139 6  95021527.27944  23205220.245    23205219.7224   23205229.9974
        40.000          25.3004
 127305136.568 5                  23773337.217
        30.400
 107267900.331 8  83430606.503 7  20038528.412    20038529.348    20038531.999
        49.800          42.900


 127573498.785 7                  24276432.691
        45.100
 108119759.550 8  84093137.721 7  20254473.866    20254473.541    20254476.102
        48.400          45.800
 200877234.222 6                  38225654.494
        37.200
 102425986.496 8  79664703.468 7  19140750.959    19140751.691    19140756.674
        49.700          44.000
 105301125.795 7  81900906.550 7  19733382.230    19733382.138    19733385.999
        47.200          44.200
 198898782.954 6                  37849186.990
        41.500
 202027775.674 7                  38444616.476
        44.300
 125030226.534 8                  23792444.990
        48.400
 127569220.637 6                  24275611.569
        40.100
 124086603.996 8                  23612880.296
        48.700
 120147593.675 6  93448164.941 5  22468204.466    22468201.960    22468208.089
        40.700          35.600
 25  1  1  8  2  0.0000000  0 24G18G23G15E29G24E33G10G27G05G29R04R03
                                E15E26R18S35R17R02S31S33E07E08E13R24
 106811114.411 8  83229461.24446  20325477.958    20325477.7084   20325477.0824
        50.300          41.6004
 109824422.397 8  85577503.09646  20898893.468    20898893.2054   20898894.2034
        48.200          37.3004
 106802606.641 7  83222799.02145  20323842.947    20323842.6124   20323841.6914
        42.700          31.4004


 120813912.004 5  94140734.26844  22990125.612    22990125.4114   22990127.6894
        32.500          24.4004


 125178706.832 6  97541739.21343  23820689.289    23820688.7844   23820697.5634
        40.600          23.9004
 125364520.468 6  97686616.68244  23856062.946    23856062.2004   23856063.1574
        36.000          28.8004


 121998008.438 5  95063399.07143  23215446.532    23215445.9964   23215462.2234
        35.500          21.0004


 107240806.215 8  83409533.284 7  20033467.932    20033468.978    20033470.529
        50.200          42.300


 127548630.448 7                  24271701.134
        44.400
 108078476.233 7  84061028.485 7  20246738.195    20246738.770    20246743.217
        47.600          47.600


 102439686.256 7  79675358.889 7  19143310.523    19143310.510    19143317.555
        47.700          45.600
 105329963.752 8  81923336.098 7  19738786.366    19738786.939    19738790.612
        48.700          43.600
 198898781.717 7                  37849185.863
        42.700
 202027746.059 7                  38444611.857
        46.300
 125007137.048 7                  23788051.266
        47.500
 127588541.651 6                  24279288.991
        38.100
 124097639.342 8                  23614980.311
        48.800
 120206690.974 5  93494129.514 5  22479252.680    22479249.908    22479257.298
        34.200          33.300
 25  1  1  8  2 15.0000000  0 24G18G23G15E29G24E33G10G27G05G29R04R03
                                E15E26R18S35R17R02S31S33E07E08E13R24
 106804744.418 8  83224497.62547  20324266.163    20324265.9094   20324265.5274
        51.300          42.0004
 109807818.173 7  85564564.72146  20895733.579    20895733.3074   20895735.2564
        45.500          37.8004
 106827676.918 7  83242334.17945  20328612.710    20328612.3214   20328611.1014
        44.400          31.9004


 120769552.071 6  94106168.08944  22981682.359    22981682.1274   22981686.7644
        36.000          25.5004


 125143954.567 6  97514659.55944  23814076.333    23814075.7834   23814086.0594
        37.300          25.3004
 125331764.432 6  97661092.48444  23849830.604    23849829.8624   23849830.3014
        38.700          28.7004
 127302824.697 5  99197075.99141  24224917.012    24224916.1454   24224937.5764
        32.700           6.6004
 122051786.856 6  95105304.31743  23225680.784    23225680.2614   23225703.1874
        36.200          20.0004


 107213846.537 7  83388564.648 7  20028429.252    20028429.263    20028436.667
        47.000          45.000


 127523800.596 7                  24266976.658
        45.300
 108037310.781 8  84029010.867 7  20239027.177    20239027.842    20239031.198
        48.100          47.800
 200877181.442 6                  38225659.301
        38.300
 102453568.264 8  79686155.989 7  19145906.006    19145906.314    19145911.592
        50.600          44.900
 105358913.284 7  81945852.412 7  19744210.614    19744211.272    19744216.949
        46.700          45.500
 198898783.109 6                  37849185.957
        39.200
 202027717.848 7                  38444608.696
        42.900
 124984136.238 7                  23783673.543
        47.000
 127607947.889 6                  24282981.741
        40.900
 124108742.266 8                  23617093.067
        48.500


 25  1  1  8  2 30.0000000  0 23G18G23G15G24E33G10G27G05R04R03E15E26
                                R18S35R17R02S31G13S33E07E08E13R24
 106798482.478 8  83219618.19647  20323074.207    20323073.9534   20323074.2964
        51.500          42.5004
 109791265.321 8  85551666.38946  20892584.771    20892584.4904   20892585.5264
        49.100          38.5004
 106852870.827 7  83261965.81345  20333406.828    20333406.3864   20333405.0254
        43.300          32.3004
 120725255.838 5  94071651.54944  22973255.465    22973255.1934   22973257.5414
        34.400          27.1004


 125109223.601 5  97487596.46244  23807466.193    23807465.6574   23807474.8234
        34.700          24.0004
 125299123.961 5  97635658.31143  23843618.681    23843617.9214   23843617.8804
        33.000          23.0004
 127345220.990 4  99230111.96041  24232977.754    24232977.5404   24233000.1944
        28.600           6.8004


 107187018.309 8  83367698.235 7  20023421.335    20023419.887    20023423.441
        49.800          44.100


 127499005.792 7                  24262257.957
        43.300
 107996259.984 7  83997082.484 8  20231334.002    20231332.948    20231341.362
        44.200          49.000


 102467629.054 8  79697092.167 7  19148534.268    19148535.065    19148538.528
        51.200          46.300
 105387970.281 8  81968452.293 7  19749657.554    19749657.834    19749661.762
        48.700          44.200
 198898781.861 7                  37849187.169
        42.800
 119242831.275 5                  22691148.003
        33.700
 202027688.374 7                  38444603.039
        44.800
 124961220.569 7                  23779313.269
        45.600
 127627435.497 6                  24286689.618
        41.600
 124119909.186 7                  23619218.139
        47.700
 120325106.429 6  93586230.250 5  22501396.486    22501399.773    22501403.952
        41.900          33.800
 25  1  1  8  2 45.0000000  0 24G18G23G15G24E33G10G27G05G29R04R03E15
                                E26R18S35R17R02S31G13S33E07E08E13R24
 106792332.953 8  83214826.35247  20321903.875    20321903.6254   20321904.2964
        50.800          42.9004
 109774768.092 7  85538811.40746  20889444.276    20889443.9814   20889444.8374
        47.300          37.8004
 106878192.262 7  83281696.77945  20338226.255    20338225.8624   20338224.5534
        42.700          33.3004
 120681027.939 6  94037188.26444  22964839.188    22964838.8754   22964840.9594
        37.100          29.1004


 125074517.898 6  97460553.03544  23800865.797    23800865.2124   23800869.2354
        41.800          24.0004








 107160324.990 8  83346936.725 7  20018435.733    20018435.320    20018437.399
        50.700          44.900


 127474250.258 7                  24257547.389
        45.100
 107955328.470 7  83965246.815 8  20223669.178    20223668.323    20223674.291
        46.700          49.800


 102481872.555 8  79708170.452 7  19151195.147    19151195.569    19151200.699
        49.900          46.600
 105417138.525 7  81991138.802 7  19755121.551    19755120.466    19755128.428
        43.400          42.800
 198898782.097 6                  37849182.501
        40.400
 119290105.451 4                  22700146.476
        29.600
 202027659.773 7                  38444595.187
        44.800
 124938394.289 7                  23774968.909
        44.800
 127647008.502 6                  24290413.516
        40.900
 124131144.366 7                  23621356.257
        46.700
 120384424.277 6  93632366.344 5  22512486.929    22512491.020    22512495.906
        37.900          34.200
 25  1  1  8  3  0.0000000  0 24G18G23G15E29G24E33G10G27G05G29R03E15
                                E26R18S35R17R02S31G13S33E07E08E13R24
 106786291.806 8  83210118.96347  20320754.227    20320753.9774   20320754.2714
        50.500          42.3004
 109758322.132 7  85525996.41646  20886315.110    20886314.8244   20886313.7714
        47.900          36.8004
 106903636.818 6  83301523.68845  20343066.764    20343066.3934   20343068.0134
        41.700          33.1004


 120636864.714 6  94002775.38945  22956436.946    22956436.6694   22956435.7264
        39.800          31.3004


 125039833.304 7  97433526.16843  23794263.302    23794262.7124   23794269.5054
        44.400          23.8004




 122213357.387 6  95231284.70042  23256424.996    23256424.7734   23256452.6084
        36.100          12.7004
 107133762.670 8  83326277.169 7  20013473.094    20013473.098    20013475.561
        51.400          45.300


 127449529.995 7                  24252842.859
        42.600
 107914512.442 8  83933500.973 8  20216022.946    20216023.128    20216028.072
        49.900          50.100


 102496294.681 8  79719387.682 7  19153890.305    19153890.464    19153895.147
        48.100          47.100
 105446413.367 7  82013908.121 6  19760609.490    19760609.593    19760614.653
        43.400          41.400
 198898781.308 7                  37849184.218
        42.600
 119337457.002 6                  22709159.050
        36.300
 202027630.433 7                  38444589.763
        44.900
 124915653.166 7                  23770641.249
        43.700
 127666662.539 6                  24294152.330
        38.900
 124142443.657 7                  23623506.514
        45.100
 120443812.373 6  93678557.029 6  22523598.350    22523598.267    22523602.692
        41.400          37.500
 25  1  1  8  3 15.0000000  0 25G18R01G23G15E29G24E33G10G27G05G29R03
                                E15E26R18S35R17R02S31G13S33E07E08E13
                                R24
 106780358.556 8  83205495.63647  20319625.172    20319624.9224   20319624.7574
        51.100          42.2004
 124209126.930 5                  23235884.786    23235884.385
        35.700
 109741926.885 7  85513220.93846  20883195.424    20883195.1474   20883193.1244
        46.900          36.2004
 106929203.680 6  83321445.90345  20347933.341    20347932.9574   20347933.0904
        38.800          31.9004


 120592765.789 6  93968412.63745  22948043.681    22948043.4494   22948043.8864
        39.700          32.4004


 125005169.192 6  97406515.19743  23787665.082    23787664.4744   23787677.5954
        38.300          21.1004
 125201777.998 6  97559830.17544  23825116.373    23825116.0964   23825115.5184
        36.100          27.0004


 122267292.797 5  95273312.33842  23266690.668    23266690.1904   23266706.8614
        34.200          15.7004
 107107331.089 8  83305719.315 7  20008534.988    20008535.680    20008538.072
        52.400          46.200


 127424844.571 6                  24248145.131
        40.200
 107873811.726 8  83901844.860 8  20208396.796    20208397.169    20208403.767
        49.100          50.200


 102510894.713 7  79730743.243 7  19156618.126    19156618.055    19156623.812
        46.500          47.500
 105475793.970 7  82036759.721 6  19766117.178    19766117.130    19766118.514
        46.500          39.000
 198898777.325 7                  37849190.299
        42.600
 119384884.916 5                  22718185.557
        34.000
 202027597.619 7                  38444583.968
        44.900
 124892996.717 6                  23766330.965
        41.700
 127686396.787 5                  24297908.586
        35.300
 124153806.520 7                  23625668.645
        44.300
 120503269.679 7  93724801.544 6  22534717.492    22534718.606    22534725.929
        42.700          39.800
 25  1  1  8  3 30.0000000  0 24G18G23G15E29G24E33G10G27G05G29R03E15
                                E26R18S35R17R02S31G13S33E07E08E13R24
 106774539.588 8  83200961.37347  20318518.016    20318517.7484   20318517.6414
        50.900          42.6004
 109725588.508 7  85500489.76245  20880086.209    20880085.9324   20880084.3984
        47.300          35.6004
 106954898.700 6  83341467.97645  20352823.394    20352823.0284   20352822.1614
        41.700          32.5004


 120548737.842 6  93934105.19845  22939664.409    22939664.2314   22939667.5894
        36.300          32.4004


 124970531.862 5  97379524.93143  23781075.902    23781075.2544   23781098.6094
        34.300          18.3004
 125169610.549 6  97534764.57245  23818996.431    23818996.4444   23818999.1394
        38.200          30.4004


 122321270.994 5  95315373.27743  23276963.462    23276963.1544   23276969.0564
        32.200          18.4004
 107081036.093 8  83285267.690 7  20003620.487    20003622.114    20003626.039
        51.700          46.700


 127400200.284 6                  24243455.406
        37.800
 107833233.176 8  83870283.729 8  20200796.634    20200796.444    20200802.013
        49.500          49.600


 102525678.874 7  79742242.029 7  19159380.037    19159380.494    19159386.434
        46.100          47.400
 105505286.040 7  82059697.934 6  19771639.622    19771642.021    19771642.863
        46.300          37.300
 198898776.528 7                  37849187.871
        43.400
 119432395.016 5                  22727217.881
        32.500
 202027568.477 7                  38444579.116
        44.800
 124870431.179 7                  23762036.589
        42.800
 127706217.274 5                  24301681.609
        34.000
 124165239.162 7                  23627844.098
        44.700
 120562802.016 7  93771104.462 6  22545850.150    22545850.764    22545856.992
        42.900          38.800
 25  1  1  8  3 45.0000000  0 26G18R01G23G15E29G24E33G10G27G05G29R04
                                R03E15E26R18S35R17R02S31G13S33E07E08
                                E13R24
 106768829.855 8  83196512.24247  20317431.648    20317431.3854   20317431.2794
        50.600          42.6004
 124323438.429 4                  23257257.812    23257256.367
        29.100
 109709301.791 7  85487798.83145  20876986.242    20876985.9524   20876986.0294
        46.000          35.8004
 106980716.406 7  83361585.68445  20357735.434    20357735.0684   20357734.0144
        42.400          33.8004


 120504776.140 5  93899849.33945  22931299.530    22931299.3074   22931303.2314
        35.400          31.3004


 124935915.989 5  97352551.40342  23774487.038    23774486.4214   23774519.0504
        32.800          12.6004
 125137560.103 6  97509790.15745  23812897.424    23812897.2954   23812902.0414
        38.700          30.1004


 122375286.619 6  95357463.34543  23287241.402    23287241.1574   23287243.6824
        36.200          18.0004
 126861928.744 5                  23690570.282
        35.300
 107054872.717 8  83264918.420 7  19998733.115    19998734.000    19998738.046
        51.900          46.400


 127375592.127 5                  24238772.426
        35.900
 107792771.884 8  83838813.831 8  20193215.549    20193215.715    20193221.312
        49.300          48.600


 102540642.218 8  79753880.169 7  19162177.730    19162178.254    19162182.052
        48.000          47.300
 105534883.987 8  82082718.607 6  19777189.801    19777189.941    19777191.932
        49.100          37.200
 198898774.778 7                  37849182.648
        43.100
 119479981.661 5                  22736280.612
        34.100
 202027537.663 7                  38444573.352
        45.400
 124847951.420 7                  23757758.998
        42.600
 127726118.633 5                  24305468.369
        34.000
 124176736.489 7                  23630031.680
        43.800
 120622403.678 6  93817461.337 6  22556993.697    22556994.133    22557006.164
        41.100          38.100
 25  1  1  8  4  0.0000000  0 26G18R01G23G15E29G24E33G10G27G05G29R04
                                R03E15E26R18S35R17R02S31G13S33E07E08
                                E13R24
 106763233.028 8  83192151.09347  20316366.894    20316366.6264   20316366.1834
        50.700          42.7004
 124380588.011 5                  23267952.019    23267951.218
        30.200
 109693070.191 7  85475150.82545  20873897.133    20873896.8524   20873897.8914
        44.300          34.7004
 107006660.081 6  83381801.53745  20362672.160    20362671.7984   20362670.7664
        41.800          34.5004


 120460884.584 5  93865648.14545  22922945.909    22922945.7404   22922950.8974
        32.200          30.1004


 124901324.842 6  97325597.14442  23767900.987    23767900.4024   23767939.4604
        37.000          12.0004
 125105630.423 6  97484909.87344  23806821.244    23806821.1194   23806824.5564
        38.300          28.1004
 127599658.545 5                  24281411.263
        34.300
 122429342.924 5  95399585.03641  23297525.451    23297525.0044   23297529.8674
        33.400           7.9004
 126806765.741 5                  23680270.684    23680270.816
        34.200
 107028844.574 8  83244674.314 7  19993871.050    19993871.951    19993876.963
        51.900          47.700


 127351023.671 5                  24234096.238
        35.900
 107752431.868 8  83807438.231 7  20185658.810    20185659.246    20185663.487
        49.900          47.000


 102555788.003 8  79765660.184 7  19165008.668    19165007.629    19165012.781
        48.100          47.400
 105564590.972 8  82105823.912 6  19782756.252    19782757.375    19782758.633
        50.700          37.600
 198898774.271 7                  37849182.076
        42.700
 119527648.153 5                  22745344.412
        33.200
 202027508.863 7                  38444565.263
        46.600
 124825561.006 7                  23753497.754
        43.800
 127746104.194 5                  24309271.712
        32.300
 124188302.033 7                  23632232.267
        45.100
 120682077.993 6  93863874.733 5  22568154.111    22568150.272    22568163.972
        37.700          35.400
 25  1  1  8  4 15.0000000  0 24G18G23G15E29G24E33G10G27G05R04R03E15
                                E26R18S35R17R02S31G13S33E07E08E13R24
 106757747.303 8  83187876.51047  20315323.234    20315322.9534   20315322.0104
        50.200          42.5004
 109676891.782 6  85462544.24545  20870818.633    20870818.3164   20870819.7644
        40.300          31.8004
 107032727.407 7  83402113.74045  20367631.864    20367631.4934   20367631.6254
        44.700          35.9004






 124866756.795 6  97298660.77441  23761327.674    23761327.1114   23761364.9584
        36.700           8.0004
 125073819.787 6  97460122.34944  23800767.919    23800767.7234   23800770.3864
        38.100          27.8004
 127642087.491 4                  24289487.340
        29.100


 107002949.533 8  83224533.743 8  19989035.138    19989035.292    19989039.616
        52.100          48.700


 127326493.207 5                  24229428.430
        35.400
 107712211.647 8  83776155.839 7  20178124.819    20178124.888    20178128.450
        49.800          46.300


 102571114.247 8  79777580.590 8  19167872.726    19167872.360    19167877.799
        49.200          48.100
 105594404.678 8  82129012.326 6  19788343.203    19788343.643    19788345.080
        49.800          38.500
 198898773.580 6                  37849181.459
        40.900
 119575392.114 5                  22754435.626
        34.800
 202027478.819 7                  38444562.379
        44.700
 124803258.010 7                  23749254.210
        46.900
 127766171.736 5                  24313090.590
        34.800
 124199933.884 7                  23634445.506
        46.200
 120741822.883 6  93910342.937 5  22579329.378    22579326.113    22579334.308
        39.700          31.800
 25  1  1  8  4 30.0000000  0 24G18R01G23G15E29G24E33G10G27R04R03E15
                                E26R18S35R17R02S31G13S33E07E08E13R24
 106752372.124 8  83183688.05347  20314299.897    20314299.6114   20314299.4794
        50.100          42.7004
 124494869.717 4                  23289330.863    23289337.696
        28.900
 109660765.772 6  85449978.54045  20867751.874    20867751.4544   20867751.8784
        41.900          31.5004
 107058917.313 7  83422521.48146  20372615.461    20372615.0724   20372615.6154
        43.600          38.0004






 124832210.907 6  97271742.12941  23754754.811    23754754.0604   23754795.4434
        40.200          10.4004
 125042127.688 5  97435427.24144  23794737.258    23794737.0304   23794737.7874
        34.700          25.1004


 106977186.983 8  83204496.222 8  19984220.997    19984221.966    19984226.786
        52.000          48.900


 127302000.059 6                  24224769.550
        36.400
 107672110.889 8  83744966.360 7  20170612.168    20170611.901    20170615.883
        49.500          46.000
 200877219.553 6                  38225664.547
        36.900
 102586620.199 8  79789640.721 7  19170770.314    19170770.159    19170774.803
        49.900          47.500
 105624323.793 8  82152282.736 6  19793950.448    19793950.275    19793953.448
        50.000          41.200
 198898772.486 7                  37849185.148
        42.500
 119623212.527 6                  22763534.177
        39.300
 202027449.283 7                  38444555.873
        44.100
 124781041.821 7                  23745026.513
        45.700
 127786320.452 6                  24316924.573
        38.200
 124211631.381 7                  23636671.796
        47.000
 120801636.885 6  93956864.875 5  22590509.491    22590508.770    22590519.509
        36.100          32.500
 25  1  1  8  4 45.0000000  0 23G18G23G15E29G24E33G10G27R04R03E15E26
                                R18S35R17R02S31G13S33E07E08E13R24
 106747109.747 8  83179587.48947  20313298.636    20313298.3464   20313298.3994
        48.900          42.4004
 109644694.222 7  85437455.27945  20864692.297    20864691.8284   20864694.0444
        43.700          33.9004
 107085231.619 7  83443026.15346  20377622.322    20377621.9384   20377623.1484
        44.600          38.5004


 120329619.358 6  93763361.77043  22897971.104    22897970.9884   22897968.3804
        37.300          22.7004
 147805649.079 5                  28126478.655
        33.900
 124797689.195 7  97244842.52941  23748185.388    23748184.4274   23748230.8644
        42.200          11.8004
 125010556.499 5  97410826.30543  23788729.876    23788729.6314   23788726.8224
        34.400          22.6004


 106951558.978 8  83184563.348 8  19979434.370    19979434.830    19979439.011
        52.400          48.800


 127277546.600 6                  24220114.837
        39.900
 107632132.245 8  83713871.860 7  20163123.060    20163123.471    20163127.239
        49.300          46.700
 200877227.286 5                  38225681.633
        31.400
 102602308.084 8  79801842.421 7  19173701.420    19173701.559    19173705.983
        49.700          46.800
 105654350.341 8  82175636.715 6  19799576.671    19799576.931    19799580.596
        49.500          41.400
 198898772.264 7                  37849188.551
        43.300
 119671110.927 6                  22772644.945
        37.800
 202027419.894 7                  38444551.625
        45.700
 124758914.566 7                  23740816.184
        45.900
 127806552.202 6                  24320774.851
        40.900
 124223396.637 8                  23638911.564
        48.200
 120861521.812 6                  22601711.462    22601709.884
        39.300
 25  1  1  8  5  0.0000000  0 23G18G23G15E29G24E33G10G27R04R03E15E26
                                R18S35R17R02S31G13S33E07E08E13R24
 106741960.763 8  83175575.28847  20312318.228    20312317.9244   20312318.8734
        49.500          42.3004
 109628677.577 7  85424974.80145  20861644.168    20861643.6904   20861646.5044
        45.300          35.3004
 107111670.203 7  83463627.65946  20382654.801    20382654.4484   20382654.2154
        43.600          40.9004


 120286007.190 6  93729378.34744  22889670.450    22889670.3794   22889668.5884
        38.000          25.4004
 147766675.507 5                  28119063.708
        35.100
 124763192.218 6  97217962.18441  23741620.622    23741619.5364   23741670.4434
        41.400           7.8004
 124979106.927 5  97386320.16343  23782740.383    23782740.1824   23782741.9624
        34.600          22.9004


 106926065.757 8  83164735.313 8  19974671.692    19974672.611    19974676.992
        52.900          48.600


 127253133.228 6                  24215468.398
        40.800
 107592276.540 8  83682872.983 7  20155658.269    20155658.146    20155661.239
        50.900          46.800
 200877236.129 5                  38225673.159
        32.600
 102618178.184 8  79814185.800 7  19176667.108    19176667.112    19176671.388
        50.500          46.500
 105684483.978 7  82199074.009 6  19805221.623    19805221.469    19805226.793
        47.300          41.600
 198898773.093 6                  37849182.952
        41.800
 119719087.477 6                  22781775.727
        38.300
 202027392.507 7                  38444538.845
        44.700
 124736876.762 7                  23736621.408
        43.100
 127826867.283 7                  24324640.282
        42.900
 124235230.200 7                  23641163.561
        47.900
 120921477.803 6                  22612921.664    22612920.381
        38.700
 25  1  1  8  5 15.0000000  0 24G18G23G15E29G24E33G10G27G29R04R03E15
                                E26R18S35R17R02S31G13S33E07E08E13R24
 106736921.509 8  83171648.59347  20311359.317    20311359.0094   20311359.8754
        50.100          42.8004
 109612711.997 7  85412534.11046  20858605.392    20858604.9504   20858607.6384
        47.600          36.1004
 107138229.272 6  83484323.01946  20387707.908    20387707.5334   20387708.6114
        41.500          40.4004


 120242463.402 5  93695448.16443  22881384.042    22881384.2524   22881386.2404
        35.200          23.8004
 147727686.958 5                  28111643.145
        34.700
 124728716.078 7  97191097.88843  23735059.683    23735058.6194   23735112.4604
        42.600          20.2004
 124947775.268 5  97361905.88444  23776783.067    23776782.9474   23776781.8084
        35.300          25.1004


 126531766.632 5                  23628918.442    23628918.198
        35.300
 106900703.669 8  83145009.269 7  19969933.346    19969934.148    19969938.324
        52.600          47.600
 143856071.622 6                  27374899.968
        36.400
 127228756.379 7                  24210830.115
        42.700
 107552540.444 8  83651967.116 7  20148212.786    20148213.601    20148218.970
        51.300          47.000
 200877242.719 5                  38225669.358
        34.700
 102634226.625 8  79826667.900 7  19179666.002    19179666.515    19179670.617
        49.400          46.100
 105714720.702 7  82222591.489 6  19810889.330    19810888.701    19810893.716
        46.200          41.900
 198898772.386 6                  37849182.925
        41.100
 119767137.985 5                  22790919.237
        33.300
 202027362.734 7                  38444538.608
        45.300
 124714924.580 7                  23732444.127
        43.300
 127847261.648 7                  24328521.835
        43.800
 124247128.284 8                  23643427.924
        49.300
 120981500.639 6  94096735.526 5  22624149.380    22624147.601    22624152.608
        38.700          32.500
 25  1  1  8  5 30.0000000  0 23G18G23G15E29G24E33G10G27G29R03E15E26
                                R18S35R17R02S31G13S33E07E08E13R24
 106731993.074 8  83167808.23647  20310421.368    20310421.0694   20310421.9304
        51.000          42.4004
 109596798.442 7  85400133.94445  20855576.345    20855575.8984   20855578.4544
        45.400          34.1004
 107164909.557 7  83505112.83546  20392785.549    20392785.1654   20392785.9154
        42.900          40.6004


 120198989.297 5  93661572.24044  22873111.575    22873111.7274   22873117.6604
        34.300          26.0004
 147688684.492 5                  28104220.221
        34.500
 124694261.690 6  97164250.16542  23728502.948    23728502.0274   23728557.3884
        41.500          15.1004
 124916562.872 6  97337584.59044  23770846.410    23770846.3574   23770844.4644
        36.400          25.8004


 106875473.818 8  83125386.052 7  19965220.606    19965221.045    19965225.131
        51.500          47.100
 143892175.410 5                  27381768.493
        33.200
 127204417.208 7                  24206199.414
        44.200
 107512925.296 8  83621155.332 7  20140790.792    20140791.066    20140797.659
        49.000          47.000
 200877248.580 5                  38225668.321
        35.600
 102650454.390 8  79839289.462 7  19182698.180    19182699.183    19182703.509
        48.600          46.500
 105745060.887 8  82246189.385 7  19816575.228    19816575.353    19816579.813
        48.000          43.300
 198898770.057 6                  37849190.102
        39.900
 119815262.885 5                  22800079.371
        31.800
 202027330.762 7                  38444529.919
        44.800
 124693059.098 7                  23728283.263
        42.100
 127867736.099 6                  24332416.773
        41.000
 124259091.894 8                  23645704.637
        49.000


 25  1  1  8  5 45.0000000  0 24G18G23G15E29G24E33G10G27G29R04R03E15
                                E26R18S35R17R02S31G13S33E07E08E13R24
 106727180.182 8  83164057.92647  20309505.829    20309505.5344   20309505.6994
        50.900          42.5004
 109580941.383 7  85387777.80245  20852561.541    20852561.0414   20852560.4714
        43.100          33.2004
 107191715.205 7  83526000.36546  20397886.202    20397885.8274   20397886.7304
        45.400          41.6004


 120155589.629 5  93627754.30143  22864852.275    22864852.4044   22864861.4534
        35.300          22.6004
 147649672.628 5                  28096795.506
        33.100
 124659833.731 6  97137423.61241  23721955.174    23721954.2094   23722009.6984
        39.200          11.5004
 124885474.426 6  97313359.82244  23764930.757    23764930.6414   23764929.6524
        36.800          29.4004
 122808794.101 5                  23369738.738
        35.400


 106850380.588 8  83105869.135 7  19960531.439    19960532.137    19960537.717
        50.600          47.400
 143928317.306 5                  27388645.345
        30.500
 127180120.324 7                  24201575.617
        43.600
 107473436.193 8  83590441.592 7  20133394.017    20133392.999    20133399.467
        48.400          45.100
 200877256.621 6                  38225674.925
        38.000
 102666866.149 7  79852054.179 7  19185765.805    19185765.594    19185771.601
        47.600          47.000
 105775509.171 8  82269871.368 7  19822281.182    19822281.926    19822286.113
        49.000          43.500
 198898770.470 7                  37849187.531
        42.200
 119863415.537 5                  22809249.573
        33.300
 202027302.936 7                  38444524.316
        44.100
 124671284.874 7                  23724140.126
        44.100
 127888295.001 6                  24336329.967
        41.900
 124271125.635 8                  23647994.669
        49.900
                  94190264.986 6                                  22646646.059
                        37.200
 25  1  1  8  6  0.0000000  0 24G18G23G15E29G24E33G10G27G29R04R03E15
                                E26R18S35R17R02S31G13S33E07E08E13R24
 106722475.426 8  83160391.87847  20308611.038    20308610.7664   20308610.6684
        52.100          43.4004
 109565133.295 7  85375459.81245  20849553.128    20849552.6414   20849552.1554
        46.300          35.1004
 107218638.302 7  83546979.39747  20403009.144    20403008.7474   20403010.3514
        44.400          42.2004
 143992828.028 5                  27400924.779
        35.500
 120112257.458 5  93593988.98343  22856603.913    22856604.0384   22856616.0404
        35.000          20.2004
 147610643.883 5                  28089368.082
        30.400
 124625424.504 5  97110611.20241  23715402.729    23715401.7374   23715464.7454
        30.500           6.8004
 124854502.730 6  97289226.04945  23759034.533    23759034.3864   23759035.6294
        36.000          30.8004
 122863143.234 6  95737541.70943  23380086.336    23380085.8404   23380085.5854
        39.200          19.4004
 126367464.883 5  98285787.253 5  23598244.157    23598244.365    23598227.038
        33.500          34.200
 106825416.239 8  83086452.390 7  19955867.768    19955868.758    19955874.293
        51.100          47.100
 143964489.676 5                  27395528.098
        30.800
 127155858.346 7                  24196959.073
        44.900
 107434065.927 8  83559820.333 7  20126017.965    20126017.424    20126021.585
        49.500          44.000
 200877260.710 6                  38225678.185
        36.900
 102683453.933 8  79864955.784 7  19188864.542    19188865.515    19188870.887
        48.500          46.500
 105806057.057 8  82293630.793 7  19828005.170    19828006.390    19828010.725
        48.900          42.800
 198898767.231 7                  37849182.769
        43.200
 119911689.905 5                  22818437.447
        33.900
 202027271.003 7                  38444520.779
        43.900
 124649594.389 7                  23720012.333
        43.700
 127908930.606 6                  24340256.089
        41.900
 124283221.995 8                  23650296.334
        50.500


 25  1  1  8  6 15.0000000  0 25G18G23G15E29G24E33G10G27G05G29R04R03
                                E15E26R18S35R17R02S31G13S33E07E08E13
                                R24
 106717882.908 8  83156813.30447  20307736.743    20307736.4844   20307737.1504
        51.700          43.4004
 109549378.081 8  85363183.01946  20846553.778    20846553.3054   20846554.0894
        48.800          37.7004
 107245682.598 7  83568052.87546  20408156.659    20408156.2754   20408156.6614
        43.500          41.4004
 143948012.448 5                  27392391.277
        34.200
 120068997.048 6  93560279.60342  22848374.648    22848374.7774   22848381.8924
        37.200          17.5004
 147571602.439 4                  28081939.590
        27.700


 124823651.826 6  97265186.38045  23753163.055    23753162.9034   23753164.0844
        36.500          30.7004
 127981696.132 5                  24354103.573
        33.300


 126312787.622 5  98243260.356 5  23588024.404    23588024.615    23588016.338
        35.400          35.700
 106800585.023 8  83067139.231 7  19951229.865    19951231.391    19951235.392
        51.500          47.200
 144000696.221 5                  27402418.410
        30.700
 127131635.381 7                  24192349.517
        45.400
 107394819.063 8  83529295.025 7  20118665.082    20118665.473    20118670.426
        48.900          44.400
 200877264.575 5                  38225693.804
        34.400
 102700221.728 8  79877997.402 7  19191998.387    19191997.507    19192004.135
        48.300          46.600
 105836708.251 7  82317470.619 6  19833748.996    19833748.928    19833753.397
        46.500          41.600
 198898763.354 6                  37849189.704
        41.600
 119960038.588 5                  22827641.531
        34.600
 202027237.514 7                  38444516.536
        43.800
 124627991.660 7                  23715902.151
        44.500
 127929646.621 6                  24344198.108
        38.800
 124295384.962 8                  23652610.411
        49.600
                  94284001.808 5                                  22669182.267
                        35.100
 25  1  1  8  6 30.0000000  0 24G18G23G15E29G24E33G10G27G05R04R03E15
                                E26R18S35R17R02S31G13S33E07E08E13R24
 106713411.079 8  83153328.77547  20306885.634    20306885.3714   20306886.0884
        49.900          42.7004
 109533684.002 7  85350953.87346  20843566.157    20843565.6884   20843567.6624
        47.700          36.8004
 107272855.982 7  83589226.96746  20413325.766    20413325.3824   20413327.2124
        43.500          39.6004
 143903226.268 5                  27383863.102
        31.000
 120025817.194 6  93526633.00643  22840157.597    22840157.7044   22840158.2114
        40.300          21.9004
 147532556.469 5                  28074510.747
        32.000


 124792930.378 5  97241247.59044  23747316.320    23747316.1334   23747317.8364
        33.600          29.2004
 128024167.953 4  99759016.8704   24362183.312    24362183.5404   24362170.5864
        26.300           5.3004
 126258173.695 6  98200782.805 5  23577820.464    23577821.861    23577817.529
        38.100          35.800
 106775895.314 8  83047936.131 7  19946618.854    19946619.247    19946623.173
        51.800          47.400


 127107459.874 7                  24187748.833
        46.400
 107355704.365 8  83498872.502 7  20111339.121    20111337.901    20111342.720
        49.500          44.400


 102717178.167 8  79891185.704 7  19195167.579    19195167.780    19195172.289
        51.600          45.000
 105867470.789 7  82341397.053 6  19839512.986    19839512.067    19839517.672
        45.000          41.300
 198898766.782 7                  37849186.145
        42.400
 120008469.478 5                  22836851.660
        31.000
 202027212.703 7                  38444510.029
        42.600
 124606485.047 7                  23711809.718
        45.100
 127950451.275 6                  24348157.591
        38.300
 124307622.892 7                  23654938.156
        46.700
 121282620.967 6  94330954.923 5  22680465.651    22680467.629    22680468.652
        39.900          30.300
 25  1  1  8  6 45.0000000  0 24G18G23G15E29G24E33G10G27G05R04R03E15
                                E26R18S35R17R02S31G13S33E07E08E13R24
 106709047.583 7  83149928.66346  20306055.385    20306055.1444   20306055.2304
        47.600          39.4004
 109518038.559 7  85338762.62946  20840589.962    20840589.5114   20840590.2104
        46.900          36.0004
 107300145.706 6  83610491.68846  20418518.803    20418518.4594   20418520.3004
        41.500          38.9004
 143858457.300 4                  27375344.205
        28.600
 119982705.830 7  93493039.75644  22831953.343    22831953.3924   22831952.8514
        42.900          26.7004
 147493493.684 5                  28067076.419
        34.900
 124522186.703 6                  23695788.538
        36.200
 124762325.941 6  97217399.99944  23741494.355    23741494.1544   23741493.6464
        38.500          28.3004
 128066639.284 4  99792111.2614   24370267.321    24370267.7414   24370256.4164
        28.900           4.3004
 126203610.561 6  98158344.886 5  23567635.258    23567636.243    23567626.839
        37.100          32.800
 106751334.219 8  83028833.060 8  19942030.378    19942031.564    19942035.480
        51.600          48.200


 127083319.405 7                  24183155.524
        46.700
 107316709.580 8  83468543.214 7  20104034.494    20104033.157    20104038.078
        48.300          45.900
 200877294.199 5                  38225676.960
        33.000
 102734310.531 8  79904510.875 7  19198369.117    19198369.971    19198373.716
        53.200          45.500
 105898331.692 7  82365399.967 6  19845297.055    19845296.737    19845300.580
        46.700          40.400
 198898766.704 6                  37849178.856
        41.700
 120056969.797 4                  22846085.476
        29.600
 202027183.200 7                  38444506.300
        43.800
 124585062.057 7                  23707732.518
        43.200
 127971331.756 6                  24352130.386
        38.700
 124319923.321 7                  23657278.852
        45.600
                                                  22691775.482

 25  1  1  8  7  0.0000000  0 26G18G23G15E29G24E33G10G27G05R19G29R04
                                R03E15E26R18S35R17R02S31G13S33E07E08
                                E13R24
 106704796.444 7  83146616.08646  20305246.133    20305245.8834   20305246.3584
        45.700          38.5004
 109502445.600 7  85326612.29245  20837623.308    20837622.8794   20837622.1394
        45.000          34.5004
 107327555.363 7  83631849.86146  20423734.731    20423734.4184   20423736.2064
        43.100          38.9004
 143813709.303 4                  27366832.311
        29.400
 119939667.167 6  93459503.16445  22823762.933    22823762.9594   22823764.4874
        41.100          31.7004
 147454417.906 6                  28059641.874
        37.700
 124487871.526 7  97003805.52242  23689259.017    23689259.1064   23689319.8444
        42.500          16.8004
 124731842.722 6  97193646.81944  23735692.104    23735691.9124   23735692.5704
        37.200          27.3004
 128109114.011 4  99825208.2734   24378353.299    24378353.3164   24378342.1024
        27.200           3.2004
 126383225.120 5                  23626012.432
        30.400
 123080895.662 6  95907227.13242  23421516.362    23421516.9614   23421524.2814
        38.700          14.4004
 126149102.558 5  98115949.633 5  23557458.527    23557457.408    23557449.726
        34.700          33.600
 106726905.811 8  83009833.185 8  19937467.210    19937468.523    19937472.739
        51.700          48.400


 127059218.051 7                  24178569.738
        47.500
 107277839.087 8  83438310.592 7  20096753.598    20096753.422    20096756.238
        50.800          45.400
 200877300.397 5                  38225675.252
        30.800
 102751622.473 8  79917975.683 7  19201604.982    19201605.553    19201610.254
        53.500          46.200
 105929294.398 8  82389482.043 6  19851100.080    19851100.755    19851103.011
        48.100          40.100
 198898764.923 7                  37849187.607
        45.000
 120105542.765 4                  22855326.884
        28.800
 202027152.611 7                  38444497.589
        44.300
 124563726.682 7                  23703672.184
        42.000
 127992291.809 6                  24356117.415
        38.300
 124332290.151 7                  23659632.544
        44.500
                                                  22703083.786

 25  1  1  8  7 15.0000000  0 24G18G23G15E29G24E33G10G27R19G29R04R03
                                E15E26R18S35R17R02S31S33E07E08E13R24
 106700658.870 7  83143391.99246  20304458.951    20304458.7194   20304459.3934
        45.400          38.2004
 109486906.122 7  85314503.60345  20834666.195    20834665.7534   20834664.6974
        45.800          33.0004
 107355085.705 7  83653302.08146  20428973.784    20428973.4714   20428975.1684
        44.100          40.0004
 143768983.573 4                  27358321.392
        26.900
 119896702.728 6  93426024.42345  22815587.577    22815587.5994   22815590.8844
        39.900          31.9004
 147415330.389 6                  28052203.429
        36.200
 124453579.620 7  96977084.14642  23682733.152    23682732.9744   23682790.2104
