     2.11           OBSERVATION DATA    M (MIXED)           RINEX VERSION / TYPE
teqc  2019Feb25                         20260317 16:18:01UTCPGM / RUN BY / DATE
Linux 2.4.21-27.ELsmp|Opteron|gcc -static|Linux 64|=+       COMMENT
BIT 2 OF LLI FLAGS DATA COLLECTED UNDER A/S CONDITION       COMMENT
-Unknown-                                                   MARKER NAME
-Unknown-           -Unknown-                               OBSERVER / AGENCY
-Unknown-           -Unknown-           -Unknown-           REC # / TYPE / VERS
-Unknown-           -Unknown-                               ANT # / TYPE
        0.0000        0.0000        0.0000                  APPROX POSITION XYZ
        0.0000        0.0000        0.0000                  ANTENNA: DELTA H/E/N
     1     1                                                WAVELENGTH FACT L1/2
     7    L1    L2    C1    P1    P2    S1    S2            # / TYPES OF OBSERV
 SNR is mapped to RINEX snr flag value [0-9]                COMMENT
  L1 & L2: min(max(int(snr_dBHz/6), 0), 9)                  COMMENT
  2025     1     1     4     0    0.0000000     GPS         TIME OF FIRST OBS
    18                                                      LEAP SECONDS
                                                            END OF HEADER
 25  1  1  4  0  0.0000000  0 27R01G06G12G11G20E27E03G25G05E34G29E05
                                E15R22S35R23S31R15S33R07E08E21E13R14
                                E30R24R08
 118603032.388 6  92246846.262 5  22187149.268    22187149.747    22187155.566
        36.400          30.300
 124341765.881 6  96889621.87144  23661452.050    23661451.8274   23661458.8834
        38.800          26.2004
 114541627.096 7  89253270.87947  21796521.769    21796521.3404   21796523.6524
        45.600          42.5004
 111819587.245 7  87132171.30545  21278554.639    21278554.3444   21278556.1624
        46.500          30.5004
 106392861.810 7  82903510.49645  20245888.973    20245887.7534   20245887.2374
        46.700          33.4004
 128287607.633 6                  24412294.045
        41.600
 139818692.623 5                  26606612.687
        34.500
 113046634.918 6  88088307.82744  21512064.554    21512063.8974   21512067.2384
        37.300          28.4004
 108886807.506 8  84846852.72247  20720467.772    20720467.4374   20720466.1024
        48.400          45.0004
 138028862.206 6                  26266011.722
        37.500
 120827317.325 7  94151117.10745  22992678.204    22992677.7044   22992673.4114
        46.300          33.1004
 134819883.466 5                  25655367.416
        30.900
 124146177.432 8                  23624228.834
        51.900
 123389175.666 5                  23114895.977
        31.700


 108740750.132 7                  20327927.534    20327927.562
        46.800
 198906398.583 7                  37850630.582
        42.700
 125770117.429 7  97821126.524 5  23536150.202    23536155.095    23536152.243
        42.200          30.500
 202051673.740 7                  38449148.976
        43.800
 118874264.408 6  92457806.318 6  22206709.722    22206707.577    22206713.506
        37.300          37.200




 132418717.383 6                  25198429.775
        36.200
 114791697.905 6  89282343.445 5  21534611.697    21534611.320    21534610.511
        40.700          32.700
 141055740.325 5                  26842017.289
        33.200
 112954338.814 7  87853353.527 7  21123021.070    21123023.846    21123029.926
        47.200          46.500
 109189793.027 7  84925392.181 5  20390416.640    20390416.845    20390418.670
        46.400          35.800
 25  1  1  4  0 15.0000000  0 26R01G06G12G11G20E27E03G25G05E34G29E05
                                E15S35R23S31R15S33R07E08E21E13R14E30
                                R24R08
 118539364.833 6                  22175238.141    22175238.087
        41.700
 124380876.994 6  96920098.02044  23668894.076    23668893.7504   23668902.5654
        39.600          25.2004
 114580983.224 7  89283938.01246  21804011.589    21804011.1604   21804013.1144
        45.800          41.2004
 111841596.128 7  87149321.07644  21282743.706    21282743.4024   21282744.5164
        45.300          28.6004
 106402263.367 7  82910836.37345  20247678.471    20247677.2554   20247676.1854
        46.900          34.0004
 128308420.976 7                  24416255.992
        45.000
 139785823.073 5                  26600359.006
        35.600
 113054086.972 6  88094114.57744  21513485.441    21513484.7804   21513485.4274
        38.300          26.9004
 108856688.830 8  84823383.61747  20714736.605    20714736.2884   20714735.6104
        49.100          44.9004
 138058337.285 6                  26271621.289
        36.600
 120782049.188 7  94115843.28945  22984063.949    22984063.4354   22984058.3964
        46.600          31.7004
 134816906.115 4                  25654800.276
        29.700
 124153475.179 8                  23625617.433
        50.000


 108754228.590 7                  20330446.585    20330446.610
        45.600
 198906392.439 6                  37850628.266
        41.200
 125733624.493 7                  23529312.103    23529314.420
        42.800
 202051654.709 7                  38449157.999
        42.800
 118912155.338 5  92487320.603 4  22213789.411    22213788.995    22213796.127
        33.400          29.800


 136424625.110 5                  25960730.370
        30.000
 132397140.175 6                  25194324.087
        38.000
                  89292195.981 5                                  21536994.038
                        30.500
 141101804.056 6                  26850782.631
        37.100
 112924537.286 8  87830174.466 7  21117450.656    21117451.096    21117456.532
        49.200          44.900
 109174361.318 7                  20387535.259    20387534.947
        45.900
 25  1  1  4  0 30.0000000  0 25R01G06G12G11G20E27E03G25G05E34G29R13
                                E05E15S35R23S31R15S33R07E21E13E30R24
                                R08
 118475750.122 7  92147822.074 5  22163340.011    22163340.494    22163344.932
        42.900          34.000
 124419993.045 6  96950578.06943  23676335.804    23676335.5004   23676345.3264
        37.500          23.3004
 114620442.313 7  89314685.31646  21811519.808    21811519.3704   21811522.0154
        46.500          41.1004
 111863652.200 7  87166507.61444  21286940.835    21286940.4964   21286942.6194
        46.300          28.4004
 106411783.755 7  82918254.87345  20249490.192    20249488.9764   20249487.8094
        46.100          34.0004
 128329329.043 6                  24420233.776
        40.100
 139753003.161 6                  26594114.456
        37.100
 113061687.127 6  88100036.59943  21514926.270    21514925.4214   21514931.4654
        36.400          23.1004
 108826693.427 7  84800010.58847  20709027.588    20709027.2674   20709028.1834
        47.000          44.3004
 138087812.008 5                  26277229.788
        32.600
 120736807.062 7  94080589.76245  22975455.218    22975454.7004   22975451.7254
        45.900          34.8004
 121513343.238 5                  22755538.674    22755539.161
        30.400
 134814029.870 5                  25654255.083
        31.600
 124160801.688 8                  23627011.707
        49.600
 200865027.958 6                  38223347.151
        36.100
 108767759.330 7                  20332977.493    20332977.106
        47.500
 198906384.949 6                  37850626.866
        41.100
 125697280.375 6  97764503.152 5  23522514.200    23522514.186    23522520.703
        39.100          31.900
 202051634.060 7                  38449149.995
        46.100
 118950258.522 6  92516956.471 6  22220909.701    22220915.635    22220920.848
        39.200          36.000
 136404220.547 5                  25956839.479
        34.900
 132375591.972 6                  25190223.599
        38.100
 141147885.552 5                  26859551.861
        35.300
 112894765.013 8  87807018.243 7  21111884.493    21111883.215    21111889.563
        49.300          46.900
 109159126.498 7  84901518.283 6  20384688.417    20384688.227    20384694.403
        44.300          37.600
 25  1  1  4  0 45.0000000  0 27R01G06G12G11G20E27E03G25G05E34G29R13
                                E05E15R22S35R23S31R15S33R07E21E13R14
                                E30R24R08
 118412192.015 7  92098388.054 5  22151449.674    22151450.302    22151454.199
        42.300          33.500
 124459117.146 5  96981064.38843  23683782.421    23683782.1714   23683790.3364
        33.200          21.4004
 114660006.978 7  89345514.87946  21819048.801    21819048.3414   21819049.0844
        45.200          39.0004
 111885758.197 7  87183733.05043  21291146.262    21291145.9184   21291147.8764
        43.500          23.7004
 106421425.597 7  82925767.99945  20251324.871    20251323.6644   20251321.9984
        46.700          32.5004
 128350334.432 6                  24424230.414
        40.900
 139720235.975 6                  26587877.448
        37.800
 113069440.047 6  88106077.81044  21516403.291    21516402.4334   21516406.2644
        39.600          28.5004
 108796824.709 7  84776736.28547  20703344.359    20703344.0384   20703344.2234
        46.800          43.8004
 138117289.015 6                  26282840.617
        40.400
 120691593.958 7  94045358.78246  22966852.734    22966852.2254   22966849.0214
        46.600          36.6004
 121572154.265 5                  22766548.271    22766553.322
        33.000
 134811257.707 5                  25653725.793
        33.100
 124168159.753 8                  23628412.253
        48.600




 108781345.528 7                  20335515.179    20335513.969
        43.200
 198906380.157 7                  37850623.387
        42.200
                                                  23515738.149

 202051615.647 7                  38449146.901
        46.600
 118988520.973 4  92546716.076 5  22228074.685    22228070.558    22228065.312
        29.800          34.600
 136383912.872 5                  25952965.775
        33.700
 132354075.409 7                  25186129.594
        42.800
 114830258.551 6  89312323.254 5  21541840.918    21541842.618    21541844.434
        41.700          32.000
 141193987.878 5                  26868324.449
        34.200
 112865025.058 8  87783887.190 7  21106322.042    21106322.063    21106325.845
        50.800          43.000
 109144091.578 7  84889824.474 6  20381881.084    20381882.995    20381888.460
        47.300          37.800
 25  1  1  4  1  0.0000000  0 26R01G06G12G11G20E27E03G25G05E34G29E05
                                E15R22S35R23S31R15S33R07E21E13R14E30
                                R24R08
 118348687.798 7  92048996.015 5  22139569.973    22139570.967    22139574.158
        45.300          35.700
 124498246.220 5  97011554.54743  23691230.347    23691230.2134   23691235.4764
        34.300          22.1004
 114699673.839 7  89376424.11746  21826597.186    21826596.7044   21826596.1904
        42.600          38.9004
 111907911.102 6  87200995.05043  21295361.741    21295361.4734   21295361.5174
        41.200          21.9004
 106431185.890 7  82933373.41145  20253182.032    20253180.8344   20253179.5414
        47.600          34.0004
 128371434.238 7                  24428247.311
        45.000
 139687518.727 6                  26581651.019
        40.400
 113077341.794 6  88112234.99945  21517908.780    21517907.8914   21517909.4904
        40.100          31.7004
 108767079.638 8  84753558.30747  20697684.103    20697683.7774   20697683.8064
        48.500          43.7004
 138146765.568 6                  26288448.075
        38.800
 120646406.994 7  94010148.12746  22958252.539    22958252.0034   22958251.8804
        43.400          36.1004
 134808586.724 5                  25653217.552
        34.300
 124175546.405 8                  23629818.060
        49.300




 108794984.445 7                  20338066.464    20338066.957
        45.700
 198906374.081 7                  37850621.992
        43.100
 125625046.074 6                  23508995.075    23508995.161
        40.800
 202051596.494 7                  38449146.275
        44.800
                  92576596.995 6                                  22235244.766
                        36.900
 136363698.365 5                  25949119.207
        34.800
 132332587.645 6                  25182040.104
        40.700
 114843483.506 7  89322609.265 5  21544323.508    21544324.333    21544324.914
        42.200          33.700
 141240107.570 4                  26877100.754
        29.300
 112835314.528 8  87760779.063 7  21100765.780    21100764.816    21100771.857
        48.400          45.000
 109129253.710 7  84878283.820 5  20379109.287    20379109.686    20379114.712
        44.600          33.300
 25  1  1  4  1 15.0000000  0 28R01G06G09G12G11G20E27E03G25G05E34G29
                                E05E15R22S35R23S31R15S33R07E08E21E13
                                R14E30R24R08
 118285243.051 6  91999650.102 5  22127696.309    22127697.490    22127706.476
        41.900          35.400
 124537384.961 6  97042052.22243  23698677.514    23698677.4384   23698682.3194
        40.500          22.3004


 114739447.407 7  89407416.47946  21834166.655    21834166.1864   21834164.7694
        44.100          38.3004
 111930115.657 5  87218297.25243  21299583.014    21299582.7914   21299586.1004
        33.500          19.7004
 106441069.205 7  82941074.69645  20255062.587    20255061.3854   20255060.7354
        46.400          33.0004
 128392633.004 7                  24432280.875
        43.800
 139654856.585 6                  26575434.592
        40.200
 113085396.975 7  88118511.75545  21519442.027    21519441.1474   21519442.0534
        42.800          33.8004
 108737463.251 8  84730480.60847  20692048.204    20692047.8784   20692047.9794
        48.200          43.7004
 138176246.374 6                  26294056.937
        38.300
 120601251.298 7  93974961.85045  22949658.823    22949658.2564   22949659.3804
        43.100          35.0004
 134806021.907 5                  25652729.314
        34.800
 124182966.368 8                  23631229.651
        48.900




 108808680.433 7                  20340625.144    20340625.629
        45.600
 198906372.088 7                  37850625.520
        42.200
 125589158.428 6  97680440.732 5  23502276.724    23502277.107    23502293.730
        41.200          34.800
 202051580.271 7                  38449136.969
        44.000
 119065471.535 5  92606602.512 6  22242442.250    22242438.109    22242450.446
        31.900          36.900


 136343582.109 6                  25945293.037
        38.600
 132311133.437 7                  25177958.664
        45.300
 114856897.442 6  89333117.473 5  21546843.075    21546843.935    21546841.052
        40.500          33.900
 141286249.265 5                  26885880.118
        31.700
 112805638.189 8  87737697.510 6  21095216.255    21095216.520    21095218.478
        50.400          40.600
 109114618.095 7  84866900.655 6  20376375.805    20376375.986    20376383.763
        43.800          40.300
 25  1  1  4  1 30.0000000  0 27R01G06G09G12G11G20E27E03G25G05E34G29
                                R13E05E15S35R23S31R15S33R07E21E13R14
                                E30R24R08
 118221850.236 6  91950344.618 5  22115839.648    22115837.746    22115847.357
        40.000          33.700
 124576525.393 6  97072551.24743  23706124.221    23706124.1324   23706129.0154
        39.800          22.0004


 114779319.351 6  89438485.49646  21841753.991    21841753.5404   21841752.7824
        41.600          39.7004


 106451067.236 7  82948865.36745  20256964.520    20256963.3224   20256964.2824
        43.600          33.7004
 128413922.703 7                  24436331.541
        47.500
 139622241.835 6                  26569227.392
        36.900
 113093597.479 7  88124901.77145  21521000.328    21520999.4304   21521002.5114
        44.800          34.6004
 108707967.278 8  84707496.71547  20686435.335    20686435.0184   20686435.1984
        48.200          43.3004
 138205723.349 5                  26299663.149
        31.400
 120556119.279 6  93939794.05645  22941071.184    22941070.5764   22941071.0834
        40.500          34.4004
 121748746.197 5                  22799633.702
        35.700
 134803555.109 6                  25652260.440
        36.100
 124190411.555 8                  23632646.222
        49.300


 108822425.628 7                  20343198.333    20343198.471
        46.500
 198906366.107 7                  37850627.631
        44.700
 125553418.010 6                  23495588.505    23495587.328
        39.900
 202051561.618 7                  38449131.635
        45.800
 119104201.934 6  92636726.141 6  22249675.439    22249674.326    22249683.693
        37.100          36.200
 136323555.969 6                  25941484.720
        40.300
 132289704.731 6                  25173877.374
        39.900
 114870491.445 5  89343691.324 5  21549393.507    21549390.194    21549393.964
        35.400          30.600
 141332404.839 5                  26894667.977
        33.900
 112775988.180 7  87714636.378 7  21089670.526    21089670.273    21089674.148
        47.700          42.200
 109100176.995 7  84855668.715 7  20373679.318    20373680.040    20373685.939
        45.100          42.800
 25  1  1  4  1 45.0000000  0 28R01G06G12G11G20E27E03G25G05E34G29R13
                                E05E15R22S35R23S31R15S33R07E08E21E13
                                R14E30R24R08
 118158512.477 7  91901081.968 5  22103990.596    22103989.846    22103999.065
        42.300          35.900
 124615670.232 6  97103053.74444  23713575.088    23713575.0084   23713577.3524
        41.700          26.8004
 114819291.864 7  89469632.88346  21849360.764    21849360.3224   21849360.6794
        42.600          40.5004
 111974644.735 6  87252970.40544  21308064.680    21308064.6674   21308064.0694
        38.800          24.7004
 106461182.867 7  82956747.68145  20258890.251    20258889.0494   20258889.8344
        42.400          33.6004
 128435305.778 8                  24440401.300
        48.000
 139589677.301 5                  26563032.972
        35.000
 113101945.796 7  88131406.95546  21522591.000    21522590.0794   21522592.4954
        42.100          36.2004
 108678595.215 8  84684609.41947  20680846.073    20680845.7744   20680846.6814
        48.100          43.1004
 138235199.153 4                  26305273.613
        27.600
 120511013.649 7  93904646.80446  22932488.573    22932487.9614   22932487.4644
        43.500          36.8004
 121807711.529 5                  22810673.319    22810674.116
        33.100
 134801189.166 6                  25651810.235
        37.800
 124197884.551 7                  23634068.126
        47.400
 123657578.923 5  96178082.829 5  23165229.880                    23165222.067
        32.400          35.700


 108836223.028 7                  20345771.718    20345772.824
        43.500
 198906358.329 7                  37850623.441
        43.500
 125517828.054 6  97624921.252 5  23488930.519    23488927.342    23488936.318
        37.900          34.400
 202051540.002 7                  38449132.663
        47.300
 119143129.109 5  92666969.319 5  22256937.976    22256937.131    22256946.239
        35.400          35.100


 136303622.985 5                  25937687.887
        35.200
 132268304.147 6                  25169807.808
        39.400
 114884166.537 6                  21551972.648
        41.300
 141378576.610 4                  26903451.696
        26.900
 112746367.327 8  87691598.006 6  21084131.044    21084130.952    21084135.838
        49.700          41.800
 109085932.938 7  84844590.034 7  20371020.620    20371020.226    20371026.598
        43.400          45.300
 25  1  1  4  2  0.0000000  0 28R01G06G12G11G20E27E03G25G05E34G29R13
                                E05E15R22S35R23S31R15S33R07E08E21E13
                                R14E30R24R08
 118095236.048 7  91851867.025 6  22092152.316    22092152.048    22092164.410
        42.400          37.700
 124654824.766 6  97133563.75844  23721026.065    23721025.9944   23721029.0034
        41.300          27.9004
 114859369.962 7  89500862.56346  21856986.261    21856985.8014   21856988.1184
        45.500          40.5004
 111996990.374 7  87270382.62844  21312317.127    21312317.1494   21312315.9604
        43.900          26.2004
 106471421.314 7  82964725.67345  20260839.411    20260838.2044   20260838.2414
        42.500          33.6004
 128456787.671 7                  24444488.601
        46.500
 139557168.755 5                  26556845.438
        35.800
 113110447.386 6  88138031.57946  21524209.698    21524208.7554   21524212.3364
        41.100          36.5004
 108649352.477 7  84661822.87246  20675280.076    20675279.7554   20675281.6844
        43.400          37.9004


 120465940.447 6  93869524.82746  22923910.288    22923909.6714   22923910.0024
        40.900          37.0004
 121866718.806 4                  22821721.778    22821721.849
        29.300
 134798929.587 6                  25651380.328
        36.600
 124205390.884 7                  23635496.715
        47.800
 123696035.667 6  96207993.747 5  23172432.009    23172433.740    23172434.458
        38.400          32.800
 200865230.652 6                  38223380.035
        36.600
 108850078.237 7                  20348364.287    20348364.451
        43.900
 198906354.678 7                  37850614.913
        42.800
 125482393.962 6  97597361.402 5  23482297.640    23482296.458    23482303.171
        36.300          31.500
 202051523.163 7                  38449131.586
        46.300
 119182172.742 7  92697336.489 5  22264236.902    22264236.460    22264240.412
        44.100          35.700


 136283788.703 6                  25933914.536
        39.900
 132246937.215 6                  25165741.443
        38.400
 114898133.051 7  89365217.509 5  21554591.649    21554593.065    21554601.177
        42.200          30.400
 141424770.196 5                  26912242.568
        32.600
 112716780.933 8  87668586.389 6  21078599.108    21078598.791    21078602.787
        49.000          41.200
 109071892.020 7  84833669.385 7  20368396.915    20368398.495    20368404.349
        44.100          47.400
 25  1  1  4  2 15.0000000  0 27R01G06G12G11G20E27E03G25G05E34G29E05
                                E15R22S35R23S31R15S33R07E08E21E13R14
                                E30R24R08
 118032015.365 6  91802695.388 6  22080326.339    22080325.412    22080336.284
        40.800          37.900
 124693983.004 6  97164076.67944  23728478.090    23728477.9974   23728480.6264
        39.100          28.3004
 114899547.639 7  89532169.84546  21864630.995    21864630.5044   21864633.7934
        43.500          40.4004
 112019381.390 7  87287830.19245  21316578.425    21316578.2244   21316577.2694
        47.100          30.0004
 106481776.267 7  82972794.45545  20262808.670    20262807.4364   20262808.4024
        42.500          32.0004
 128478362.195 7                  24448594.836
        46.900
 139524710.424 6                  26550668.657
        37.300
 113119095.963 6  88144770.72945  21525855.427    21525854.4624   21525859.4364
        40.700          35.9004
 108620233.112 7  84639132.45645  20669740.235    20669739.9144   20669738.8084
        42.100          34.3004


 120420893.484 7  93834423.31946  22915338.588    22915338.0124   22915337.8574
        42.200          37.4004
 134796770.442 6                  25650969.447
        38.200
 124212924.343 7                  23636930.282
        46.500
                  96237919.675 5                  23179617.492    23179633.766
                        32.000
 200865255.828 6                  38223378.304
        36.900
 108863984.851 7                  20350965.891    20350965.818
        44.700
 198906349.507 6                  37850615.955
        41.900
 125447110.044 6  97569918.306 5  23475699.810    23475696.182    23475700.780
        37.400          32.500
 202051504.523 7                  38449123.148
        45.400
 119221368.870 7  92727822.333 6  22271558.962    22271559.748    22271563.338
        43.800          38.400


 136264047.191 6                  25930156.132
        40.000
 132225597.711 7                  25161681.110
        43.800
 114912281.870 7  89376246.121 4  21557248.410    21557248.207    21557257.379
        42.200          29.700
 141470978.825 5                  26921041.607
        35.000
 112687223.138 8  87645596.958 7  21073073.382    21073073.233    21073076.836
        50.000          44.000
 109058048.128 7  84822901.929 7  20365813.187    20365813.272    20365818.830
        44.700          47.200
 25  1  1  4  2 30.0000000  0 27R01G06G12G11G20E27E03G25G05E34G29E05
                                E15R22S35R23S31R15S33R07E08E21E13R14
                                E30R24R08
 117968855.259 7  91753570.886 6  22068512.167    22068512.315    22068519.919
        43.000          37.200
 124733149.104 6  97194595.71344  23735932.259    23735932.1704   23735933.7264
        39.900          27.5004
 114939828.730 7  89563557.70746  21872297.509    21872296.9954   21872299.3484
        42.900          39.1004
 112041821.913 8  87305316.33545  21320848.599    21320848.3854   21320846.8464
        49.000          30.5004
 106492251.711 7  82980957.12345  20264801.604    20264800.3394   20264801.4094
        43.400          32.2004
 128500033.430 7                  24452718.568
        46.900
 139492306.764 5                  26544502.006
        33.500
 113127895.801 7  88151627.75846  21527529.097    21527528.1054   21527532.9724
        45.500          37.1004
 108591241.508 7  84616541.62945  20664223.509    20664223.1074   20664220.0034
        42.300          32.7004
 138323594.851 6                  26322104.713
        36.000
 120375877.451 7  93799345.92246  22906772.099    22906771.5184   22906770.3314
        44.300          36.6004
 134794715.990 6                  25650578.736
        38.300
 124220489.134 7                  23638370.019
        46.200
 123772916.229 5                  23186843.236
        34.900
 200865283.217 5                  38223397.492
        32.800
 108877947.534 7                  20353576.290    20353574.911
        42.900
 198906346.122 7                  37850615.978
        44.300
 125411981.019 5  97542595.658 5  23469129.438                    23469129.606
        35.400          34.700
 202051487.712 7                  38449123.818
        46.900
 119260721.287 7  92758429.837 6  22278909.394    22278908.954    22278915.736
        42.600          40.000


 136244402.917 6                  25926419.039
        37.900
 132204289.866 7                  25157625.180
        42.700
 114926616.780 6  89387395.404 5  21559937.404    21559936.753    21559946.412
        41.600          33.600
 141517206.866 5                  26929837.769
        31.200
 112657698.417 8  87622633.280 7  21067550.447    21067550.815    21067555.858
        50.500          44.800
 109044405.755 7  84812291.251 8  20363264.407    20363264.170    20363271.137
        43.500          48.000
 25  1  1  4  2 45.0000000  0 28R01G06G12G11G20E27E03G25G05E34G29R13
                                E05E15R22S35R23S31R15S33R07E08E21E13
                                R14E30R24R08
 117905751.802 6  91704490.511 6  22056705.391    22056705.729    22056713.565
        38.400          36.000
 124772318.706 6  97225117.47044  23743385.663    23743385.5654   23743386.2934
        39.900          26.2004
 114980208.512 7  89595022.46046  21879980.906    21879980.3704   21879983.0844
        43.200          37.7004
 112064307.600 7  87322837.62444  21325126.620    21325126.4064   21325125.6164
        46.200          28.8004
 106502843.164 7  82989210.18645  20266816.855    20266815.5814   20266816.3854
        44.500          33.0004
 128521796.932 7                  24456860.016
        46.800
 139459953.797 5                  26538346.871
        35.000
 113136842.380 7  88158599.12246  21529230.027    21529229.0084   21529233.8034
        46.600          38.1004
 108562373.474 7  84594047.07346  20658729.330    20658728.8924   20658725.7304
        46.200          36.0004
 138353074.017 6                  26327715.166
        37.500
 120330888.169 7  93764289.36445  22898209.911    22898209.3034   22898208.0054
        42.300          35.5004
 122043975.583 6                  22854919.471    22854919.752
        37.900
 134792762.013 6                  25650207.184
        37.400
 124228080.900 7                  23639814.624
        46.500
 123811434.917 6                  23194063.234    23194060.609
        38.100
 200865308.806 5                  38223399.661
        35.200
 108891961.629 6                  20356194.877    20356192.380
        39.800
 198906340.720 7                  37850616.702
        44.200
 125377002.895 6  97515390.562 5  23462595.376    23462593.564    23462583.575
        36.400          33.400
 202051469.351 7                  38449117.603
        46.100
 119300225.636 6  92789155.469 7  22286289.723    22286289.094    22286298.081
        40.000          42.700


 136224851.683 5                  25922698.457
        35.500
 132183009.401 7                  25153577.022
        43.700
 114941133.536 5  89398686.238 6  21562659.711    21562655.656    21562671.696
        34.200          36.600
 141563449.735 5                  26938643.003
        33.400
 112628202.263 8  87599691.816 7  21062034.901    21062036.312    21062041.252
        51.300          45.500
 109030960.973 7  84801834.181 7  20360754.752    20360755.661    20360760.307
        46.500          47.500
 25  1  1  4  3  0.0000000  0 27R01G06G12G11G20E27E03G25G05E34G29R13
                                E05E15R22S35R23S31S33R07E08E21E13R14
                                E30R24R08
 117842709.968 6  91655457.942 5  22044914.139    22044911.941    22044918.923
        37.700          34.800
 124811496.058 6  97255645.29544  23750839.497    23750839.4134   23750838.6054
        40.600          24.6004
 115020690.804 6  89626567.09945  21887685.189    21887684.6664   21887685.6644
        40.500          35.4004
 112086842.601 7  87340397.37544  21329414.272    21329414.0534   21329413.7994
        44.800          25.4004
 106513554.883 6  82997556.98545  20268855.282    20268854.0304   20268854.2424
        41.600          32.7004
 128543656.895 7                  24461019.941
        47.200
 139427656.086 6                  26532201.384
        37.000
 113145939.911 7  88165688.14546  21530961.440    21530960.4214   21530964.6474
        44.300          39.0004
 108533633.348 8  84571652.18446  20653260.717    20653260.3154   20653257.4904
        48.200          39.1004
 138382555.664 5                  26333326.674
        34.700
 120285930.263 6  93729257.21745  22889655.084    22889654.3874   22889653.1204
        40.300          34.1004
 122103129.361 5                  22865994.276    22865995.934
        35.700
 134790912.825 6                  25649854.401
        36.900
 124235703.926 7                  23641265.182
        46.200
 123849977.212 6  96327794.852 5  23201277.634    23201280.307    23201279.518
        37.500          31.000
 200865336.438 5                  38223389.072
        34.300
 108906031.917 7                  20358826.473    20358827.167
        44.200
 198906337.923 7                  37850616.478
        43.300
 202051452.990 7                  38449117.764
        46.500
 119339885.911 7  92820002.295 6  22293698.927    22293703.442    22293706.035
        45.500          41.700


 136205397.977 5                  25918996.978
        35.800
 132161760.607 7                  25149534.235
        43.700
 114955835.792 6  89410121.375 6  21565416.943    21565413.592    21565426.940
        38.900          36.800
 141609711.413 5                  26947441.587
        33.300
 112598739.170 8  87576776.075 7  21056525.499    21056526.325    21056530.035
        51.000          44.300
 109017718.267 7  84791534.342 7  20358281.657    20358282.223    20358286.709
        47.200          46.400
 25  1  1  4  3 15.0000000  0 29R01G06G19G12G11G20E27E03G25G05E34G29
                                R13E05E15R22S35R23S31R15S33R07E08E21
                                E13R14E30R24R08
 117779726.032 6  91606470.445 5  22033130.280    22033130.275    22033137.910
        38.600          35.600
 124850676.840 6  97286175.78343  23758294.807    23758294.6824   23758294.8434
        39.000          22.3004
 127788203.206 5                  24317281.319
        31.300
 115061270.865 7  89658187.90245  21895407.270    21895406.8014   21895406.4624
        43.000          34.6004
 112109422.508 7  87357992.13043  21333712.016    21333711.8064   21333710.9264
        44.000          23.8004
 106524382.314 6  83005993.97745  20270915.089    20270913.8464   20270915.0024
        41.900          32.4004
 128565608.850 7                  24465196.978
        46.500
 139395409.477 6                  26526063.381
        36.700
 113155183.948 7  88172891.29046  21532721.076    21532720.0614   21532724.6954
        44.800          39.2004
 108505017.002 8  84549353.74146  20647814.645    20647814.2484   20647814.2784
        48.200          40.4004
 138412035.340 5                  26338931.352
        34.000
 120240999.670 7  93694246.38746  22881104.886    22881104.1584   22881103.1054
        44.400          36.3004
 122162316.054 5                  22877073.492
        30.900
 134789164.181 6                  25649522.519
        38.900
 124243353.736 7                  23642720.830
        46.300
 123888538.865 6                  23208502.698    23208503.413
        37.000


 108920153.677 7                  20361464.823    20361465.908
        43.300
 198906332.995 7                  37850617.489
        44.100
                  97461340.237 5                                  23449578.138
                        35.600
 202051434.346 7                  38449109.142
        45.300
 119379696.976 7  92850966.435 7  22301138.159    22301140.135    22301144.333
        45.000          43.100


 136186037.388 6                  25915311.566
        38.000
 132140539.001 7                  25145495.536
        45.800
 114970719.360 7  89421697.349 5  21568219.135    21568219.790    21568214.809
        42.400          35.500
 141655987.442 4                  26956248.915
        29.700
 112569304.797 8  87553882.691 7  21051019.635    21051019.969    21051025.986
        50.200          43.700
 109004673.234 8  84781388.216 7  20355846.671    20355846.960    20355849.786
        50.200          44.300
 25  1  1  4  3 30.0000000  0 27R01G06G19G12G11G20E27E03G25G05E34G29
                                E05E15R22S35R23S31S33R07E08E21E13R14
                                E30R24R08
 117716802.802 6  91557530.129 6  22021359.202    22021357.249    22021367.312
        40.100          36.200
 124889863.170 6  97316710.58143  23765756.403    23765756.2964   23765752.4954
        38.500          23.7004
 127838566.911 5                  24326863.941
        31.800
 115101950.584 6  89689886.36245  21903148.378    21903147.8824   21903146.9614
        40.000          33.1004
 112132049.392 6  87375623.50842  21338015.696    21338015.3754   21338016.1684
        40.200          17.1004
 106535327.572 7  83014522.73545  20272998.566    20272997.3234   20272998.0504
        43.700          34.7004
 128587654.845 7                  24469391.777
        46.900
 139363216.549 5                  26519935.919
        33.100
 113164576.554 6  88180210.16946  21534508.409    21534507.4124   21534512.5894
        41.100          39.3004
 108476527.037 7  84527153.76146  20642393.613    20642393.2164   20642394.4974
        46.500          41.4004
 138441515.572 5                  26344557.947
        32.300
 120196098.909 7  93659258.77645  22872560.634    22872559.9194   22872558.8454
        43.700          35.4004
 134787518.344 6                  25649207.866
        37.500
 124251032.552 7                  23644182.387
        46.300
 123927121.957 5                  23215727.827    23215727.172
        35.700
 200865355.355 6                  38223412.651
        38.700
 108934329.499 7                  20364117.287    20364116.708
        43.700
 198906328.428 7                  37850614.117
        44.900
 202051416.792 7                  38449109.769
        47.000
 119419660.743 7  92882049.426 6  22308601.565    22308602.665    22308609.077
        42.200          40.800


 136166772.698 6                  25911645.354
        38.300
 132119346.799 6                  25141462.812
        41.100
 114985785.908 6  89433415.724 6  21571033.141    21571036.250    21571044.827
        37.800          39.400
 141702313.655 5                  26965056.437
        33.900
 112539901.675 8  87531013.629 6  21045521.034    21045520.955    21045525.519
        49.100          41.100
 108991828.389 8  84771397.787 7  20353448.592    20353449.039    20353452.245
        51.900          45.400
 25  1  1  4  3 45.0000000  0 28R01G06G19G12G11G20E27E03G25G05E34G29
                                E05E15R22S35R23S31R15S33R07E08E21E13
                                R14E30R24R08
 117653939.597 6  91508636.518 6  22009602.702    22009601.639    22009609.471
        40.600          36.200
 124929054.058 5  97347248.94843  23773205.482    23773205.3484   23773210.8484
        33.400          20.5004
 127888968.412 5                  24336457.636
        35.500
 115142728.917 6  89721661.67345  21910907.981    21910907.5164   21910906.8764
        37.100          32.4004
 112154722.212 6  87393290.67442  21342330.580    21342330.1384   21342330.1884
        38.400          13.3004
 106546389.487 7  83023142.39946  20275103.741    20275102.5394   20275103.2404
        44.000          36.2004
 128609793.797 7                  24473604.333
        46.200
 139331076.405 5                  26513821.334
        33.500
 113174116.604 6  88187643.96146  21536323.859    21536322.8624   21536327.1474
        41.500          36.5004
 108448162.509 7  84505051.52746  20636996.352    20636995.9504   20636998.5184
        46.300          41.8004


 120151226.993 7  93624293.63146  22864021.646    22864020.8824   22864021.4714
        46.300          39.0004
 134785974.331 6                  25648914.242
        36.700
 124258739.255 7                  23645648.952
        46.000
 123965725.472 5                  23222967.159    23222967.797
        33.900
 200865380.425 5                  38223422.600
        34.000
 108948558.313 6                  20366773.638    20366774.748
        40.400
 198906322.950 7                  37850611.837
        43.100
 125238638.587 6  97407767.290 6  23436688.113    23436689.159    23436690.162
        37.300          37.000
 202051397.458 7                  38449103.159
        46.200
 119459775.712 6  92913250.023 6  22316097.267    22316095.566    22316102.997
        40.400          40.500


 136147602.659 6                  25907997.802
        38.700
 132098182.991 7                  25137435.277
        42.100
 115001034.194 7  89445275.609 6  21573900.811    21573898.688    21573903.822
        42.100          38.600
 141748621.137 4                  26973864.094
        26.100
 112510528.723 8  87508168.053 7  21040029.337    21040029.253    21040034.067
        50.100          42.400
 108979183.000 8  84761562.479 7  20351086.587    20351087.025    20351090.956
        52.300          45.400
 25  1  1  4  4  0.0000000  0 28R01G06G19G12G11G20E27E03G25G05E34G29
                                E05E15R22S35R23S31R15S33R07E08E21E13
                                R14E30R24R08
 117591135.872 6  91459789.210 5  21997852.210    21997851.919    21997860.493
        40.200          35.100
 124968248.196 5  97377789.86342  23780669.405    23780668.9904   23780669.8194
        30.300          15.8004
 127939406.479 6                  24346055.789
        37.200
 115183603.989 6  89753512.37444  21918687.126    21918686.7064   21918685.0454
        37.500          28.9004
 112177439.644 7  87410992.50441  21346654.491    21346654.0584   21346652.6424
        43.600          11.4004
 106557566.666 7  83031851.89246  20277231.196    20277230.0164   20277230.5974
        45.200          37.6004
 128632024.281 7                  24477834.375
        43.100
 139298988.212 5                  26507715.435
        32.900
 113183802.717 6  88195191.53445  21538165.830    21538164.8064   21538169.8224
        39.600          34.8004
 108419922.233 7  84483046.11247  20631622.633    20631622.2404   20631625.3144
        46.900          42.2004
 138500461.972 6                  26355763.013
        37.400
 120106383.052 7  93589350.30446  22855488.713    22855487.9584   22855488.9054
        46.600          40.6004
 134784531.037 6                  25648640.279
        36.700
 124266472.628 7                  23647120.159
        46.100
 124004348.610 6  96447850.509 5  23230203.884    23230204.993    23230200.292
        36.100          34.400
 200865403.366 5                  38223426.567
        35.700
 108962839.055 6                  20369442.885    20369440.854
        36.400
 198906314.902 7                  37850608.850
        45.500
 125204428.475 5  97381159.356 6  23430283.469    23430280.881    23430289.808
        35.900          39.100
 202051376.108 7                  38449101.031
        46.100
 119500040.561 6  92944567.190 6  22323618.967    22323616.585    22323623.793
        38.800          37.300


 136128526.369 6                  25904368.284
        40.900
 132077046.323 6                  25133411.064
        39.600
 115016462.857 7  89457275.641 6  21576797.177    21576796.729    21576796.751
        45.300          38.600
 141794942.052 4                  26982675.969
        29.600
 112481184.586 8  87485344.818 7  21034541.240    21034542.393    21034547.328
        50.200          43.600
 108966735.815 8  84751881.329 7  20348761.078    20348761.992    20348765.793
        51.000          44.600
 25  1  1  4  4 15.0000000  0 28R01G06G19G12G11G20E27E03G25G05E34G29
                                E05E15R22S35R23S31R15S33R07E08E21E13
                                R14E30R24R08
 117528396.976 6                  21986114.268    21986114.330
        38.800
 125007450.377 5  97408336.95142  23788132.110    23788131.6054   23788130.0234
        30.800          16.6004
 127989885.649 6                  24355662.594
        38.600
 115224579.896 6  89785441.63245  21926485.679    21926485.1974   21926483.1614
        38.100          31.7004
 112200206.403 6  87428732.82042  21350987.673    21350987.2224   21350984.6834
        41.900          14.1004
 106568863.570 7  83040654.70346  20279380.943    20279379.7674   20279380.8084
        46.300          39.3004
 128654350.935 7                  24482083.572
        44.700


 113193639.418 6  88202856.56845  21540037.136    21540036.0684   21540042.0684
        40.200          33.8004
 108391810.989 7  84461141.26446  20626272.385    20626272.0194   20626274.9644
        47.500          41.2004
 138529942.117 5                  26361372.477
        35.000
 120061572.100 8  93554432.70746  22846961.888    22846961.1604   22846961.9234
        48.300          41.9004
 134783193.135 6                  25648385.863
        38.800
 124274237.221 7                  23648597.409
        44.300
 124042995.745 5  96477909.308 4  23237442.607    23237442.632    23237434.460
        31.500          28.800
 200865429.031 6                  38223416.013
        37.700
 108977176.463 7                  20372126.173    20372125.894
        42.700
 198906310.315 7                  37850608.971
        42.800
 125170375.979 4  97354674.198 6  23423910.988    23423907.505    23423915.295
        29.700          36.700
 202051358.105 7                  38449100.347
        45.900
 119540459.393 7  92976004.051 5  22331171.121    22331171.673    22331173.698
        44.200          34.800


 136109548.645 5                  25900756.317
        35.300
 132055941.469 6                  25129395.488
        41.100
 115032076.759 8  89469419.736 6  21579724.824    21579726.612    21579725.463
        48.600          37.900


 112451874.490 8  87462548.070 7  21029060.104    21029061.011    21029067.203
        49.200          44.100
 108954492.123 8  84742358.468 7  20346474.732    20346475.231    20346479.738
        49.200          43.800
 25  1  1  4  4 30.0000000  0 28R01G06G19G12G11G20E27E03G25G05E34G29
                                E05E15R22S35R23S31R15S33R07E08E21E13
                                R14E30R24R08
 117465718.818 6                  21974388.250    21974388.577
        36.900
 125046655.627 6  97438886.49843  23795590.289    23795589.7934   23795590.5544
        36.600          19.6004
 128040401.237 6                  24365274.843
        39.100
 115265652.162 6  89817445.98545  21934300.673    21934300.1324   21934300.4074
        41.600          34.3004
 112223017.651 7  87446507.64241  21355327.482    21355327.1024   21355325.4354
        43.400          10.1004
 106580275.362 8  83049547.04646  20281552.633    20281551.4624   20281553.0024
        48.100          40.6004
 128676769.001 7                  24486349.683
        44.200


 113203622.111 7  88210635.29845  21541938.290    21541937.2314   21541941.8954
        42.100          34.3004
 108363824.593 7  84439333.73046  20620946.649    20620946.2744   20620947.9694
        46.900          40.1004
 138559420.380 6                  26366985.112
        41.300
 120016789.737 7  93519537.38547  22838440.159    22838439.4624   22838441.1664
        47.400          43.3004
 134781956.125 6                  25648150.286
        37.600
 124282028.442 7                  23650079.720
        46.300
 124081747.334 5                  23244680.558
        34.000
 200865452.580 5                  38223426.195
        34.300
 108991565.969 7                  20374815.525    20374816.701
        45.100
 198906303.360 7                  37850605.916
        43.000
 125136476.913 5  97328308.285 5  23417561.964    23417559.719    23417570.913
        30.500          34.800
 202051337.504 7                  38449088.779
        43.900
 119581027.147 7  93007556.649 5  22338747.321    22338746.986    22338747.464
        42.100          34.200


 136090665.107 6                  25897161.653
        38.200
 132034863.664 6                  25125386.557
        37.500
 115047870.258 7  89481703.627 6  21582684.582    21582686.535    21582688.476
        47.500          39.200


 112422593.480 7  87439773.977 7  21023585.358    21023584.606    21023590.427
        47.700          44.100
 108942447.201 8  84732990.232 7  20344226.592    20344227.587    20344230.772
        50.500          43.700
 25  1  1  4  4 45.0000000  0 28R01G06G19G12G11G20E27E03G25G05E34G29
                                E05E15R22S35R23S31R15S33R07E08E21E13
                                R14E30R24R08
 117403106.441 6                  21962676.805    21962675.980
        41.900
 125085868.829 6  97469442.21143  23803051.519    23803051.0284   23803051.4974
        39.300          20.6004
 128090957.336 6  99811220.0944   24374894.699    24374894.4894   24374921.2554
        37.100           3.6004
 115306825.065 6  89849528.77045  21942134.846    21942134.2884   21942135.7674
        41.900          35.8004
 112245877.940 7  87464320.79543  21359678.313    21359677.9424   21359677.2984
        46.000          19.3004
 106591806.559 7  83058532.39746  20283747.072    20283745.8924   20283747.3834
        47.700          41.4004
 128699282.823 7                  24490634.249
        45.700
 139203052.022 4                  26489459.989
        29.700
 113213755.106 6  88218531.17345  21543865.673    21543864.5914   21543869.7234
        41.900          34.5004
 108335967.653 7  84417627.05946  20615646.969    20615646.5724   20615646.3604
        42.900          40.2004
 138588901.349 6                  26372594.252
        40.800
 119972040.952 8  93484668.20447  22829924.836    22829924.1664   22829925.6714
        48.600          43.8004
 134780824.704 6                  25647934.235
        37.000
 124289850.782 7                  23651568.139
        46.500
 124120438.361 4  96538071.109 5  23251924.034    23251923.740    23251928.277
        28.800          33.200
 200865479.145 6                  38223420.731
        41.200
 109006012.119 7                  20377514.287    20377513.828
        42.500
 198906299.201 7                  37850613.688
        43.300
 125102736.714 6  97302065.854 6  23411254.563    23411254.892    23411254.428
        37.000          36.700
 202051320.247 7                  38449090.344
        43.200
 119621747.940 7  93039228.453 5  22346356.149    22346355.403    22346362.011
        43.100          35.000


 136071880.370 6                  25893588.918
        41.400
 132013817.571 6                  25121380.196
        39.500
 115063848.160 7  89494130.751 6  21585682.825    21585682.992    21585689.141
        47.300          40.900


 112393346.461 7  87417026.305 6  21018116.421    21018114.676    21018120.076
        46.800          41.300
 108930605.951 8  84723780.432 7  20342013.968    20342014.501    20342018.835
        49.200          43.000
 25  1  1  4  5  0.0000000  0 28G06G09G19G12G11G20E27E03G25G05E34G29
                                R13E05E15R22S35R23S31R15S33R07E21E13
                                R14E30R24R08
 125125085.617 6  97500000.73643  23810514.603    23810514.1164   23810513.1064
        39.000          22.4004


 128141549.852 5  99850643.1084   24384523.467    24384523.1104   24384546.5534
        34.900           3.8004
 115348093.890 6  89881686.28245  21949987.751    21949987.1974   21949989.3004
        36.700          34.7004
 112268783.133 7  87482169.02343  21364036.316    21364036.0034   21364038.2084
        43.600          19.3004
 106603452.692 8  83067607.30846  20285963.088    20285961.9124   20285962.9074
        48.600          40.6004
 128721888.236 7                  24494935.226
        44.700
 139171183.804 5                  26483394.967
        32.300


 108308235.642 7  84396017.72846  20610369.231    20610368.8424   20610368.5894
        43.500          40.2004
 138618380.764 6                  26378205.162
        41.600
 119927321.431 8  93449821.85547  22821415.007    22821414.3504   22821414.8904
        51.000          44.0004
 122577586.958 5                  22954839.621
        33.700
 134779794.596 5                  25647737.771
        32.500
 124297700.037 7                  23653061.634
        45.600


 200865415.886 7                  38223423.454
        42.700
 109020510.835 6                  20380224.601    20380223.886
        40.900
 198906293.472 6                  37850598.923
        41.400
 125069150.649 6  97275943.546 6  23404969.428    23404967.728    23404973.829
        38.800          36.600
 202051301.081 7                  38449089.964
        42.900
 119662617.376 6  93070986.778 5  22353986.880    22353987.148    22353992.576
        41.400          31.200
 136053190.304 6                  25890031.082
        37.700
 131992798.983 6                  25117380.474
        38.000
 115080005.510 8  89506697.654 7  21588713.640    21588713.572    21588721.692
        49.300          42.800


 112364129.263 8  87394301.877 7  21012653.292    21012652.991    21012655.606
        49.000          42.200
 108918964.238 8  84714725.742 7  20339841.617    20339841.838    20339844.423
        48.900          43.800
 25  1  1  4  5 15.0000000  0 29R01G06G09G19G12G11G20E27E03G25G05E34
                                G29R13E05E15R22S35R23S31R15S33R07E21
                                E13R14E30R24R08
 117278070.188 6  91216298.860 5  21939285.485    21939283.698    21939292.294
        39.100          31.200
 125164307.346 6  97530563.03544  23817980.146    23817979.6954   23817977.8674
        39.300          25.4004


 128192180.184 5                  24394155.640
        34.600
 115389459.479 7  89913919.19846  21957860.488    21957859.9434   21957861.0204
        45.100          39.3004
 112291734.259 5  87500053.07241  21368402.402    21368402.0634   21368405.8164
        34.700          11.1004
 106615214.970 8  83076772.71846  20288201.694    20288200.5104   20288200.8154
        48.600          41.1004
 128744586.355 7                  24499255.446
        45.400
 139139370.744 5                  26477341.161
        34.400
 113234460.578 6  88234660.20745  21547805.853    21547805.3974   21547808.4804
        41.200          33.7004
 108280630.642 7  84374507.33946  20605115.700    20605115.3034   20605115.4254
        44.500          40.0004
 138647860.068 6                  26383814.380
        40.900
 119882632.926 7  93414999.67946  22812910.388    22812909.7544   22812908.8984
        47.800          38.5004
 122637033.170 5                  22965966.348    22965967.835
        32.800
 134778867.198 5                  25647561.391
        34.100
 124305577.456 7                  23654560.613
        45.400
 124197881.012 6                  23266432.332    23266430.990
        38.600
 200865441.960 6                  38223433.422
        39.600
 109035063.464 7                  20382947.891    20382948.361
        44.800
 198906288.088 7                  37850607.714
        42.100
 125035721.127 5  97249942.774 7  23398714.716    23398712.349    23398718.794
        35.700          42.400
 202051281.646 7                  38449083.431
        44.500
 119703636.165 6  93102890.288 5  22361651.683    22361651.585    22361655.743
        37.200          30.700
 136034596.613 6                  25886493.981
        39.800
 131971809.116 6                  25113385.073
        41.300
 115096343.755 7  89519405.133 6  21591777.134    21591776.906    21591783.632
        46.600          40.400
 142026818.686 5                  27026815.209
        33.800
 112334943.307 8  87371601.695 7  21007195.408    21007196.033    21007200.061
        51.400          44.400
 108907523.589 8  84705827.458 7  20337704.735    20337704.993    20337707.260
        49.200          43.300
 25  1  1  4  5 30.0000000  0 29R01G06G19G12G11G20E27E03G25G05E34G29
                                R13E05E15R22S35R23S31R15S33R07E08E21
                                E13R14E30R24R08
 117215650.132 6  91167749.992 5  21927607.092    21927606.100    21927615.032
        39.400          31.600
 125203535.303 5  97561130.22444  23825443.281    23825442.8704   23825445.2134
        34.400          25.3004
 128242849.220 4                  24403799.365
        29.300
 115430922.975 7  89946228.37146  21965750.832    21965750.2964   21965750.2234
        44.100          39.6004
 112314732.522 6  87517973.96241  21372780.319    21372779.9304   21372782.2334
        40.100           9.7004
 106627094.644 8  83086029.62346  20290462.134    20290460.9454   20290461.0874
        48.900          41.1004
 128767378.358 7                  24503593.408
        46.100
 139107614.345 5                  26471299.453
        32.700
 113245035.304 7  88242900.23546  21549819.233    21549818.4424   21549822.2944
        42.900          36.5004
 108253153.947 7  84353096.95346  20599886.632    20599886.2084   20599887.0924
        44.600          40.2004
 138677340.425 6                  26389424.484
        36.000
 119837976.999 7  93380202.90246  22804412.004    22804411.3744   22804408.7874
        47.400          37.1004
 122696510.600 5                  22977106.420    22977103.896
        35.600
 134778043.955 6                  25647404.759
        36.300
 124313484.340 7                  23656065.825
        45.700
 124236635.815 6  96628442.630 5  23273690.533    23273692.006    23273697.419
        37.200          31.900


 109049671.568 6                  20385674.762    20385676.891
        41.200
 198906283.061 6                  37850603.193
        40.000
                  97224064.796 6                  23392483.388    23392490.293
                        39.100
 202051264.182 7                  38449081.883
        46.300
 119744805.202 6  93134910.653 5  22369342.698    22369342.271    22369343.379
        39.100          33.400


 136016100.579 6                  25882973.697
        38.000
 131950849.226 6                  25109397.033
        40.000
 115112864.019 7  89532254.197 6  21594875.086    21594874.399    21594882.927
        42.100          40.400
 142073232.007 4                  27035632.281
        29.200
 112305789.908 8  87348926.842 7  21001741.146    21001742.747    21001747.552
        49.800          43.700
 108896285.632 8  84697086.859 7  20335604.871    20335604.828    20335609.166
        48.400          44.100
 25  1  1  4  5 45.0000000  0 28R01G06G09G19G12G11G20E27E03G25G05E34
                                G29E05E15R22S35R23S31S33R07E08E21E13
                                R14E30R24R08
 117153294.909 6  91119251.539 5  21915942.234    21915942.593    21915951.677
        39.000          31.300
 125242767.617 5  97591700.80543  23832906.858    23832906.5374   23832911.5524
        33.500          22.4004


 128293555.157 5                  24413450.232
        34.000
 115472482.100 7  89978612.08446  21973658.769    21973658.1484   21973658.3194
        45.800          39.2004
 112337776.298 6  87535930.15942  21377165.223    21377164.8754   21377167.4694
        40.400          12.2004
 106639089.711 8  83095376.43646  20292744.901    20292743.7174   20292743.2424
        49.600          40.5004
 128790262.378 7                  24507947.298
        44.600
 139075912.799 4                  26465265.344
        28.000
 113255756.540 7  88251254.47246  21551859.454    21551858.7934   21551863.9074
        45.700          40.3004
 108225804.042 7  84331785.34446  20594682.688    20594682.2464   20594682.6964
        45.100          41.6004


 119793352.243 7  93345430.38546  22795920.572    22795919.9784   22795915.1544
        47.500          36.0004
 134777323.149 6                  25647268.173
        37.200
 124321418.754 7                  23657576.461
        45.200
 124275411.455 6  96658601.518 5  23280956.649    23280957.091    23280959.947
        37.800          33.100


 109064333.282 6                  20388416.789    20388418.282
        36.800
 198906277.857 6                  37850592.882
        39.400
 202051245.187 7                  38449075.355
        44.900
 119786122.542 5                  22377060.878    22377060.470
        34.700


 135997700.689 6                  25879471.699
        40.800
 131929917.638 7                  25105414.451
        42.500
 115129564.177 6  89545243.166 6  21598009.482    21598006.784    21598015.236
        37.700          40.200
 142119658.864 5                  27044467.621
        30.900
 112276667.587 7  87326276.136 7  20996294.116    20996295.295    20996299.900
        46.200          42.900
 108885248.565 8  84688502.465 7  20333543.208    20333543.750    20333547.833
        49.000          44.200
 25  1  1  4  6  0.0000000  0 27R01G06G12G11G20E27E03G25G05E34G29E05
                                E15R22S35R23S31R15S33R07E08E21E13R14
                                E30R24R08
 117091008.033 5  91070806.305 5  21904286.680    21904287.684    21904297.729
        33.300          30.600


 115514139.640 7  90011072.48046  21981585.220    21981584.5994   21981585.5444
        45.500          40.0004
 112360868.470 6  87553923.92841  21381558.863    21381558.4794   21381561.9474
        41.900          11.9004
 106651203.023 8  83104815.35046  20295049.476    20295048.2874   20295047.9794
        49.000          38.3004
