     2.11           OBSERVATION DATA    M (MIXED)           RINEX VERSION / TYPE
teqc  2019Feb25                         20260317 16:18:01UTCPGM / RUN BY / DATE
Linux 2.4.21-27.ELsmp|Opteron|gcc -static|Linux 64|=+       COMMENT
BIT 2 OF LLI FLAGS DATA COLLECTED UNDER A/S CONDITION       COMMENT
-Unknown-                                                   MARKER NAME
-Unknown-           -Unknown-                               OBSERVER / AGENCY
-Unknown-           -Unknown-           -Unknown-           REC # / TYPE / VERS
-Unknown-           -Unknown-                               ANT # / TYPE
        0.0000        0.0000        0.0000                  APPROX POSITION XYZ
        0.0000        0.0000        0.0000                  ANTENNA: DELTA H/E/N
     1     1                                                WAVELENGTH FACT L1/2
     7    L1    L2    C1    P1    P2    S1    S2            # / TYPES OF OBSERV
 SNR is mapped to RINEX snr flag value [0-9]                COMMENT
  L1 & L2: min(max(int(snr_dBHz/6), 0), 9)                  COMMENT
  2025     1     1     3     0    0.0000000     GPS         TIME OF FIRST OBS
    18                                                      LEAP SECONDS
                                                            END OF HEADER
 25  1  1  3  0  0.0000000  0 27G09G06G19G12G11G20E27G25G05E34G29R13
                                E05E15R22R23S31S33R07R12E21E13R14E30
                                R24R08S35


 115312717.823 5  89854090.91543  21943265.579    21943265.7084   21943269.6794
        32.100          22.8004
 116618363.280 6  90871426.93142  22191732.072    22191730.9554   22191733.0854
        40.200          12.1004
 108789511.950 8  84771104.99148  20701929.822    20701929.3984   20701928.9274
        50.000          48.9004
 108197177.555 7  84309514.58146  20589233.133    20589232.9504   20589232.9714
        47.700          36.1004
 107841918.685 7  84032644.07146  20521636.991    20521635.8474   20521636.2844
        47.600          37.0004
 126248449.853 8                  24024256.066
        48.600
 115629779.948 6  90101197.60246  22003614.322    22003613.8044   22003615.3404
        39.800          37.2004
 119202353.105 7  92884930.26445  22683459.899    22683459.6544   22683463.4404
        43.200          33.6004
 131072318.540 5                  24942225.859
        30.800
 132013006.805 5 102867329.39441  25121244.007    25121244.0074   25121246.5114
        31.700           8.2004
 109816244.822 7                  20565036.528    20565036.521
        45.700
 138238424.223 5                  26305898.377
        30.400
 123442670.551 8                  23490356.320
        51.100
 114770758.182 6  89266171.681 5  21500435.409    21500433.996    21500430.739
        36.500          35.400
 107011988.263 8                  20004715.720    20004715.786
        49.700
 198907176.405 6                  37850764.520
        39.000
 202055549.174 7                  38449900.155
        45.000
 115001255.577 7  89445439.761 7  21483190.404    21483191.055    21483198.768
        46.900          45.400
 120526065.718 7  93742566.172 7  22562730.785    22562729.867    22562738.569
        45.600          44.800
 143670302.992 6                  27339549.715
        36.900
 138551049.477 5                  26365389.133
        35.800
                  91241217.783 6                  22007083.485    22007082.833
                        40.900
 131051884.362 6                  24938328.191
        38.800
 120910584.280 7  94041638.185 5  22610892.751    22610893.139    22610897.497
        44.900          31.600
 117792928.319 7  91616745.263 6  21996988.803    21996989.878    21996996.657
        44.900          39.600
 200857850.483 5                  38221974.362
        32.600
 25  1  1  3  0 15.0000000  0 26G09G06G19G12G11G20E27G25G05E34R13E05
                                E15R22R23S31S33R07R12E21E13R14E30R24
                                R08S35


 115347819.948 5  89881443.34343  21949946.994    21949947.1324   21949949.0764
        33.900          19.7004
 116655326.946 6  90900229.6934   22198763.459    22198762.4044   22198766.7774
        38.800           3.8004
 108796080.234 8  84776223.13048  20703179.443    20703179.0144   20703178.6204
        49.300          49.0004
 108204171.972 7  84314964.78945  20590564.475    20590564.3064   20590563.1184
        47.100          35.6004
 107820224.403 7  84015739.45746  20517508.310    20517507.1614   20517508.1944
        47.800          38.2004
 126244413.703 8                  24023487.834
        48.700
 115601721.140 7  90079333.60946  21998275.127    21998274.5104   21998276.7244
        43.400          39.7004
 119149139.178 7  92843464.86845  22673332.640    22673332.3954   22673338.1714
        42.300          33.2004
 131100177.059 5                  24947527.075
        33.900
 109848871.859 7                  20571145.708    20571145.768
        45.000
 138214423.767 5                  26301331.950
        30.200
 123440393.977 8                  23489923.002
        49.800
 114804240.641 6  89292213.483 5  21506698.746    21506700.430    21506699.525
        41.600          31.700
 107012826.324 8                  20004871.434    20004871.828
        49.400
 198907171.638 7                  37850776.549
        43.000
 202055532.026 7                  38449885.461
        43.600
 114994272.310 7  89440008.341 7  21481887.129    21481887.796    21481893.841
        47.900          45.400
 120590272.336 7  93792504.664 7  22574750.560    22574748.753    22574758.129
        44.400          44.300
 143632523.425 5                  27332362.952
        34.800
 138521246.297 5                  26359732.271
        35.500
                  91215756.077 6                  22000928.033    22000942.486
                        40.000
 131087246.880 6                  24945057.936
        38.900
 120874145.789 7  94013297.242 5  22604081.396    22604081.252    22604089.787
        47.700          34.600
 117741182.944 7  91576498.948 6  21987326.143    21987327.099    21987333.995
        45.400          40.200
 200857879.916 6                  38221988.783
        38.500
 25  1  1  3  0 30.0000000  0 25G09G06G19G12G11G20E27G25G05E34R13E15
                                R22R23S31S33R07R12E21E13R14E30R24R08
                                S35


 115382962.228 5  89908826.93143  21956636.559    21956636.6214   21956636.6874
        34.300          23.1004
 116692361.624 5  90929087.86841  22205809.125    22205808.2184   22205813.4954
        35.100           7.3004
 108802812.993 7  84781469.42747  20704460.867    20704460.4254   20704459.5974
        46.800          47.0004
 108211253.087 7  84320482.53445  20591912.268    20591912.1034   20591910.0964
        46.400          34.0004
 107798666.136 8  83998940.82046  20513405.889    20513404.7364   20513406.3474
        48.500          39.2004
 126240489.117 8                  24022740.930
        49.700
 115573801.633 7  90057578.16146  21992962.433    21992961.8124   21992964.1054
        45.200          39.1004
 119095995.243 7  92802054.08545  22663220.718    22663220.4994   22663224.4024
        42.900          32.6004
 131128059.974 5                  24952831.087
        31.300
 109881677.361 7                  20577288.504    20577288.812
        45.700
 123438176.680 8                  23489501.230
        50.500
 114837753.678 7  89318279.195 5  21512979.901    21512980.649    21512981.108
        44.900          34.100
 107013729.308 8                  20005040.116    20005040.471
        48.200
 198907174.606 7                  37850766.640
        42.900
 202055522.357 7                  38449889.883
        45.600
 114987491.512 8  89434734.380 7  21480620.806    21480620.923    21480626.324
        48.600          44.600
 120654523.487 7  93842477.722 7  22586777.657    22586775.848    22586785.980
        44.500          44.100
 143594799.616 5                  27325183.205
        32.000
 138491488.327 5                  26354053.433
        35.400
 117244808.636 5  91190432.016 6  21994830.241    21994830.081    21994834.495
        35.600          40.000
 131122685.311 6                  24951802.361
        41.900
 120837744.126 7  93984984.752 5  22597271.024    22597272.272    22597284.031
        44.200          33.400
 117689536.781 7  91536329.774 7  21977678.756    21977680.392    21977688.947
        43.900          42.600
 200857917.579 6                  38221998.764
        36.500
 25  1  1  3  0 45.0000000  0 24G06G19G12G11G20E27G25G05E34R13E15R22
                                R23S31S33R07R12E21E13R14E30R24R08S35
 115418130.797 6  89936231.05044  21963328.317    21963328.4464   21963330.1924
        36.200          24.1004
 116729453.617 5  90957990.80841  22212870.829    22212869.7654   22212871.1564
        35.800           7.5004
 108809696.603 7  84786833.30447  20705771.654    20705771.1854   20705769.5504
        46.600          46.4004
 108218407.124 8  84326057.13945  20593272.941    20593272.7764   20593270.9134
        48.100          34.0004
 107777230.329 8  83982237.59146  20509326.781    20509325.6324   20509327.6464
        48.500          39.3004
 126236662.426 8                  24022012.958
        50.300
 115546008.058 7  90035920.84646  21987673.469    21987672.8434   21987673.7424
        45.200          36.8004
 119042907.772 6  92760687.28044  22653118.811    22653118.5394   22653117.8204
        41.100          28.5004
 131155953.663 5                  24958141.989
        32.600
 109914646.980 7                  20583463.084    20583462.665
        45.000
 123436004.898 8                  23489087.683
        50.300
 114871283.604 7  89344358.034 5  21519258.472    21519260.404    21519266.988
        43.200          35.200
 107014683.339 8                  20005218.283    20005218.705
        48.200
 198907171.666 7                  37850773.616
        44.100
 202055507.322 7                  38449888.935
        44.900
 114980898.773 7  89429606.716 7  21479388.802    21479387.211    21479395.639
        46.200          45.700
 120718804.713 7  93892474.218 7  22598811.705    22598810.156    22598818.853
        44.800          42.300
 143557118.105 5                  27318013.061
        34.800
 138461762.007 5                  26348398.005
        30.200
 117212412.117 7  91165234.820 7  21988753.052    21988754.327    21988760.538
        45.000          43.600
 131158185.985 6                  24958556.629
        39.900
 120801365.178 6  93956690.059 5  22590469.521    22590465.738    22590473.276
        40.100          31.800
 117637976.590 7  91496227.424 7  21968051.725    21968051.428    21968061.145
        42.800          43.000
 200857949.190 6                  38222009.746
        36.100
 25  1  1  3  1  0.0000000  0 24G06G19G12G11G20E27G25G05E34R13E15R22
                                R23S31S33R07R12E21E13R14E30R24R08S35
 115453331.855 5  89963660.38443  21970023.201    21970023.3844   21970029.3004
        35.300          20.6004
 116766609.059 6  90986943.11242  22219939.999    22219938.8954   22219941.3634
        36.900          13.2004
 108816737.389 8  84792319.64048  20707110.569    20707110.0914   20707109.6014
        48.900          48.3004
 108225640.277 8  84331693.38045  20594649.048    20594648.8794   20594647.2564
        48.400          35.0004
 107755923.473 7  83965634.84246  20505272.332    20505271.1744   20505273.1994
        47.400          39.0004
 126232940.034 8                  24021304.195
        50.000
 115518346.977 7  90014366.77346  21982409.679    21982409.0404   21982409.6674
        45.400          36.6004
 118989883.830 6  92719369.97244  22643029.075    22643028.7314   22643023.7094
        40.200          26.8004
 131183864.092 5                  24963449.027
        34.700
 109947786.731 7                  20589669.139    20589667.989
        43.900
 123433884.875 8                  23488684.208
        49.600
 114904836.805 6  89370454.901 5  21525543.782    21525542.778    21525551.760
        39.900          32.900
 107015694.746 7                  20005408.125    20005408.570
        47.600
 198907170.284 7                  37850769.846
        44.000
 202055493.277 7                  38449888.278
        44.700
 114974500.903 7  89424630.574 7  21478194.651    21478193.986    21478200.978
        47.700          45.400
 120783121.938 7  93942498.715 7  22610851.864    22610851.113    22610859.372
        43.700          42.200
 143519485.495 6                  27310851.331
        36.100
 138432073.697 5                  26342748.330
        31.400
 117180185.463 7  91140169.714 7  21982705.724    21982704.933    21982715.459
        45.200          44.600
 131193754.907 6                  24965326.366
        41.200
 120765015.757 7  93928418.326 5  22583674.219    22583669.248    22583697.636
        44.000          35.200
 117586509.411 7  91456197.415 7  21958442.072    21958440.641    21958450.064
        42.500          43.000
 200857981.687 5                  38222013.869
        34.600
 25  1  1  3  1 15.0000000  0 25G06G19G12G11G20E27G25G05E34R13E05E15
                                R22R23S31S33R07R12E21E13R14E30R24R08
                                S35


 116803828.082 5  91015944.94242  22227023.448    22227022.3534   22227023.8724
        33.400          13.7004
 108823935.275 8  84797928.37848  20708479.951    20708479.4734   20708479.3754
        48.800          48.3004
 108232952.334 8  84337391.09446  20596040.395    20596040.2174   20596039.0584
        49.600          36.2004
 107734745.574 7  83949132.57546  20501242.545    20501241.3834   20501242.8634
        47.200          38.9004
 126229321.997 8                  24020616.038
        50.300
 115490818.592 7  89992916.10445  21977171.486    21977170.8204   21977171.0684
        43.500          33.3004
 118936923.304 6  92678102.07444  22632952.013    22632951.6564   22632943.4514
        40.500          27.1004
 131211791.356 5                  24968763.281
        35.200
 109981096.062 7                  20595907.154    20595905.187
        42.700


 123431816.480 8                  23488291.140
        49.800
 114938413.185 7  89396569.875 5  21531835.413    21531834.427    21531841.692
        42.000          31.500
 107016763.675 7                  20005609.153    20005608.711
        46.000
 198907168.842 7                  37850766.573
        42.900
 202055479.579 7                  38449882.885
        44.500
 114968298.260 7  89419806.305 7  21477035.564    21477035.692    21477041.442
        47.800          45.100
 120847474.496 7  93992550.659 6  22622898.347    22622898.384    22622905.257
        45.400          40.200
 143481901.941 6                  27303699.971
        37.600
 138402423.255 4                  26337107.886
        28.200
 117148129.334 7  91115237.176 7  21976691.006    21976689.737    21976700.331
        45.100          43.800
 131229391.965 6                  24972107.210
        40.700
 120728695.507 7  93900169.335 6  22576881.919    22576879.961    22576888.156
        44.900          36.700
 117535135.746 7  91416240.100 7  21948850.463    21948849.807    21948855.612
        45.200          42.300
 200858015.171 5                  38222015.220
        33.300
 25  1  1  3  1 30.0000000  0 25G06G19G12G11G20E27G25G05E34R13E05E15
                                R22R23S31S33R07R12E21E13R14E30R24R08
                                S35
 115523829.353 5  90018593.23642  21983440.097    21983440.4014   21983442.7724
        31.300          15.0004
 116841109.036 5  91044995.01142  22234120.400    22234119.2874   22234117.7444
        35.900          14.4004
 108831288.810 8  84803658.39647  20709879.647    20709879.1784   20709878.4844
        48.500          47.8004
 108240341.740 8  84343149.07546  20597446.248    20597446.0704   20597446.3004
        50.500          38.1004
 107713695.430 7  83932729.86546  20497237.124    20497235.9624   20497236.7954
        45.900          38.4004
 126225806.977 8                  24019947.056
        49.500
 115463421.786 7  89971567.97745  21971957.606    21971956.9404   21971956.8474
        42.300          30.6004
 118884024.926 7  92636882.60244  22622884.445    22622884.1194   22622877.0464
        42.900          28.3004
 131239733.875 5                  24974082.730
        34.400
 110014573.236 7                  20602173.795    20602173.458
        43.700


 123429798.217 8                  23487907.214
        49.900
 114972011.139 6  89422701.649 5  21538126.303    21538127.038    21538131.619
        39.400          32.900
 107017888.329 7                  20005819.563    20005819.105
        45.400
 198907167.047 7                  37850769.310
        43.100
 202055465.175 7                  38449877.926
        45.000
 114962289.408 7  89415132.797 7  21475911.910    21475912.474    21475918.698
        46.200          44.500
 120911860.525 7  94042628.668 6  22634951.241    22634951.777    22634958.471
        44.400          39.600
 143444366.299 6                  27296557.215
        37.500
 138372809.265 4                  26331473.984
        29.000
 117116242.445 7  91090436.290 6  21970708.411    21970708.549    21970716.714
        45.600          41.400
 131265095.574 6                  24978900.984
        39.600
 120692403.188 7  93871941.969 6  22570095.624    22570093.876    22570103.211
        45.700          37.800
 117483854.694 7  91376354.840 6  21939273.339    21939275.097    21939276.918
        46.100          40.700
 200858047.710 5                  38222035.606
        35.900
 25  1  1  3  1 45.0000000  0 25G06G19G12G11G20E27G25G05E34R13E05E15
                                R22R23S31S33R07R12E21E13R14E30R24R08
                                S35
 115559126.694 5  90046097.44742  21990157.890    21990158.3684   21990159.3154
        32.000          14.2004
 116878454.833 6  91074095.61242  22241225.628    22241224.4174   22241223.6934
        39.000          15.1004
 108838800.622 8  84809511.75247  20711309.302    20711308.8374   20711307.6724
        49.000          47.7004
 108247811.122 8  84348969.36346  20598867.779    20598867.6054   20598868.6744
        50.100          38.7004
 107692775.899 7  83916428.94746  20493256.654    20493255.5144   20493255.4954
        46.700          37.6004
 126222397.761 8                  24019298.332
        49.000
 115436159.470 6  89950324.66244  21966768.657    21966767.9294   21966767.4984
        39.000          26.8004
 118831191.497 7  92595713.72644  22612830.925    22612830.6264   22612823.6314
        43.900          28.8004
 131267694.378 5                  24979404.695
        33.300
 110048220.740 7                  20608476.136    20608475.893
        44.700


 123427832.712 8                  23487532.818
        50.500
 115005633.452 6  89448852.320 5  21544423.886    21544424.088    21544433.057
        37.100          33.100
 107019071.360 7                  20006039.569    20006039.896
        44.300
 198907167.653 7                  37850766.072
        42.400
 202055453.447 7                  38449873.566
        44.100
 114956477.193 7  89410612.201 7  21474827.787    21474825.937    21474834.692
        45.200          45.200
 120976282.219 7  94092734.393 6  22647012.394    22647011.600    22647018.651
        44.000          39.600
 143406881.485 6                  27289424.593
        38.100
 138343234.512 5                  26325845.012
        31.900
 117084527.987 7  91065769.505 6  21964761.645    21964760.754    21964764.104
        47.600          37.600
 131300868.291 6                  24985707.872
        38.700
 120656141.442 7  93843738.343 6  22563314.259    22563314.252    22563321.503
        46.400          36.100
 117432669.498 7  91336544.151 6  21929712.805    21929714.853    21929717.586
        46.100          40.300
 200858082.416 5                  38222036.048
        34.700
 25  1  1  3  2  0.0000000  0 25G06G19G12G11G20E27G25G05E34R13E05E15
                                R22R23S31S33R07R12E21E13R14E30R24R08
                                S35


 116915862.060 6  91103244.02942  22248343.664    22248342.4754   22248340.9204
        38.100          14.8004
 108846467.304 8  84815485.77548  20712767.927    20712767.4674   20712766.4684
        50.800          48.4004
 108255357.008 8  84354849.26546  20600304.111    20600303.9244   20600304.8204
        49.600          38.7004
 107671983.745 7  83900227.29746  20489298.871    20489297.7364   20489298.4624
        47.800          37.5004
 126219091.092 8                  24018668.675
        48.100
 115409028.632 6  89929183.80643  21961606.392    21961605.5884   21961600.6644
        39.700          23.8004
 118778420.550 7  92554593.56744  22602787.704    22602787.3874   22602781.7844
        42.000          28.1004
 131295669.253 6                  24984729.132
        37.900
 110082034.638 7                  20614809.126    20614808.185
        44.500


 123425916.573 8                  23487168.142
        50.500
 115039276.790 5  89475019.363 5  21550726.872    21550723.929    21550734.633
        33.800          34.800
 107020309.475 7                  20006271.593    20006271.929
        44.200
 198907166.684 7                  37850772.382
        43.200
 202055439.845 7                  38449873.683
        44.100
 114950858.460 7  89406242.059 7  21473777.199    21473777.521    21473784.719
        44.800          43.300
 121040735.701 6  94142864.896 6  22659076.439    22659075.188    22659083.550
        40.900          39.300
 143369444.371 6                  27282300.772
        37.400
 138313695.662 5                  26320223.538
        33.600
 117052982.870 7  91041234.486 5  21958844.022    21958843.644    21958846.698
        47.300          34.900
 131336706.624 6                  24992528.609
        37.200
 120619906.760 7  93815555.802 6  22556535.154    22556534.369    22556543.346
        44.200          36.000
 117381577.710 7  91296806.150 6  21920171.491    21920173.363    21920176.521
        44.300          40.400
 200858115.920 5                  38222041.566
        35.200
 25  1  1  3  2 15.0000000  0 25G06G19G12G11G20E27G25G05E34R13E05E15
                                R22R23S31S33R07R12E21E13R14E30R24R08
                                S35


 116953328.945 6  91132438.98442  22255472.185    22255470.9784   22255470.5644
        37.400          15.8004
 108854287.269 8  84821579.25848  20714255.794    20714255.3294   20714254.9064
        52.300          49.7004
 108262977.624 8  84360787.40246  20601754.116    20601753.9204   20601754.8164
        49.000          38.4004
 107651317.581 7  83884123.81246  20485366.402    20485365.2714   20485365.7334
        46.200          37.3004
 126215885.413 7                  24018058.968
        47.800
 115382027.856 7  89908144.34044  21956468.779    21956467.9164   21956459.5094
        42.100          25.5004
 118725710.950 5  92513521.21444  22592756.675    22592756.3404   22592753.0624
        33.800          25.7004
 131323656.923 6                  24990054.730
        41.700
 110116012.765 7                  20621171.688    20621170.606
        44.900


 123424048.051 8                  23486812.746
        50.300
 115072939.351 6  89501201.254 5  21557037.393    21557035.857    21557039.576
        38.200          32.900
 107021600.863 6                  20006509.396    20006510.333
        40.800
 198907162.420 6                  37850763.300
        40.600
 202055423.565 7                  38449874.125
        45.600
 114945431.670 6  89402021.322 6  21472765.651    21472760.043    21472768.740
        37.800          40.300
 121105218.886 7  94193018.397 6  22671147.366    22671147.424    22671154.122
        43.500          38.300
 143332053.550 6                  27275184.828
        36.900
 138284191.060 6                  26314607.713
        36.800
 117021605.542 7  91016829.888 5  21952955.484    21952955.568    21952958.855
        44.800          32.900
 131372608.796 6                  24999361.003
        39.400
 120583697.512 7  93787393.045 6  22549764.235    22549762.351    22549770.698
        42.200          36.600
 117330577.930 7  91257139.721 6  21910648.162    21910647.269    21910653.190
        43.700          41.000
 200858145.845 5                  38222054.856
        31.400
 25  1  1  3  2 30.0000000  0 25G06G19G12G11G20E27G25G05E34R13E05E15
                                R22R23S31S33R07R12E21E13R14E30R24R08
                                S35


 116990861.169 6  91161684.83942  22262616.687    22262615.5074   22262612.9484
        38.700          14.9004
 108862265.873 8  84827796.34248  20715773.820    20715773.3514   20715773.5004
        51.800          50.1004
 108270678.359 8  84366787.96046  20603219.682    20603219.4864   20603220.0994
        49.100          38.4004
 107630782.904 7  83868122.78946  20481459.159    20481458.0154   20481458.2284
        46.500          37.4004
 126212786.276 7                  24017468.414
        46.700
 115355162.867 7  89887210.62544  21951356.414    21951355.5074   21951347.0144
        45.000          27.5004
 118673068.536 6  92472501.18743  22582740.837    22582740.5384   22582738.0854
        39.200          23.6004
 131351662.701 7                  24995384.270
        43.700
 110150160.394 7                  20627565.573    20627565.482
        45.100


 123422232.540 8                  23486467.064
        50.400
 115106626.628 6  89527402.432 5  21563344.419    21563344.762    21563350.681
        40.900          34.700
 107022951.008 6                  20006763.142    20006762.917
        40.300
 198907160.948 7                  37850773.236
        42.000
 202055409.374 7                  38449871.612
        45.900
 114940202.236 6  89397953.999 6  21471787.376    21471784.268    21471794.615
        39.400          39.100
 121169736.689 7  94243198.907 6  22683228.362    22683229.753    22683231.791
        47.700          39.500
 143294714.754 5                  27268078.792
        34.100
 138254726.170 6                  26309003.241
        41.200
 116990402.170 7  90992560.607 5  21947101.745    21947101.364    21947107.562
        45.900          32.500
 131408580.112 6                  25006204.908
        41.000
 120547519.359 6  93759254.545 5  22542997.806    22542997.314    22543001.516
        40.300          34.700
 117279676.350 7  91217549.674 6  21901143.050    21901144.382    21901148.166
        45.000          41.900


 25  1  1  3  2 45.0000000  0 25G06G19G12G11G20E27G25G05E34R13E05E15
                                R22R23S31S33R07R12E21E13R14E30R24R08
                                S35
 115700591.637 5  90156319.07544  22017086.788    22017086.6104   22017091.8354
        30.600          29.3004
 117028455.761 6  91190979.22342  22269769.135    22269767.8794   22269766.1324
        38.600          16.8004
 108870400.488 8  84834134.99848  20717322.399    20717321.9264   20717321.6114
        51.800          50.6004
 108278456.483 8  84372848.83146  20604699.453    20604699.2524   20604700.0954
        48.900          37.0004
 107610377.160 7  83852222.21846  20477576.223    20477575.0794   20477575.3934
        47.900          38.1004
 126209791.201 7                  24016899.158
        46.800
 115328431.342 7  89866380.92045  21946269.126    21946268.2104   21946263.6514
        47.100          32.5004
 118620490.774 6  92431531.50144  22572732.649    22572732.3014   22572733.9214
        38.500          24.9004
 131379683.937 7                  25000715.790
        45.600
 110184474.350 7                  20633992.270    20633992.564
        46.100


 123420467.402 8                  23486131.077
        50.400
 115140336.059 6  89553620.864 5  21569660.798    21569660.580    21569664.679
        41.700          34.900
 107024357.280 7                  20007027.849    20007027.678
        42.000
 198907159.768 7                  37850768.120
        42.100
 202055395.959 7                  38449869.694
        45.600
 114935167.897 6  89394038.407 6  21470845.165    21470842.384    21470853.620
        36.600          38.800
 121234286.082 8  94293403.941 6  22695313.000    22695314.147    22695317.273
        48.100          41.500
 143257425.687 5                  27260984.345
        33.800
 138225298.423 6                  26303403.281
        39.500
 116959370.606 6  90968425.053 4  21941279.049    21941278.216    21941281.798
        41.500          28.900
 131444617.850 7                  25013063.138
        43.100
 120511369.774 6  93731138.252 6  22536238.031    22536233.998    22536243.669
        37.600          38.000
 117228870.985 7  91178034.402 7  21891654.205    21891655.000    21891661.140
        44.800          43.700


 25  1  1  3  3  0.0000000  0 24G06G19G12G11G20E27G25G05E34R13E15R22
                                R23S31S33R07R12E21E13R14E30R24R08S35


 117066110.970 6  91220320.86243  22276933.853    22276932.5934   22276932.2874
        38.500          20.0004
 108878689.420 8  84840593.90348  20718899.496    20718899.0144   20718899.0704
        51.500          50.6004
 108286310.084 8  84378968.52946  20606193.587    20606193.3824   20606193.9524
        49.700          36.6004
 107590098.534 8  83836420.68746  20473716.779    20473715.6394   20473716.5664
        48.000          38.5004
 126206898.406 8                  24016348.504
        48.300
 115301831.734 7  89845653.97046  21941206.756    21941205.8714   21941206.0814
        46.600          36.9004
 118567976.044 6  92390610.92744  22562740.030    22562739.8114   22562743.2834
        37.400          27.6004
 131407718.731 7                  25006049.361
        45.200
 110218952.734 7                  20640448.722    20640448.715
        45.500
 123418750.720 8                  23485804.600
        50.500
 115174065.684 7  89579855.026 5  21575977.872    21575978.665    21575983.605
        42.300          35.200
 107025817.801 7                  20007298.890    20007298.099
        42.000
 198907156.801 6                  37850768.044
        41.900
 202055380.226 7                  38449864.525
        44.200
 114930327.149 6  89390273.398 6  21469938.328    21469941.459    21469951.873
        41.800          38.700
 121298864.457 7  94343631.501 7  22707402.559    22707404.668    22707406.546
        47.200          42.200
 143220184.691 5                  27253898.405
        35.900
 138195906.025 6                  26297807.183
        37.900
 116928509.136 7  90944421.761 6  21935489.609    21935487.823    21935497.012
        43.200          36.300
 131480720.032 7                  25019933.345
        44.000
 120475246.688 6  93703042.557 6  22529486.369    22529486.123    22529489.811
        39.200          39.800
 117178160.532 7  91138592.993 7  21882186.420    21882185.172    21882191.648
        42.800          44.000


 25  1  1  3  3 15.0000000  0 25G09G06G19G12G11G20E27G25G05E34R13E15
                                R22R23S31S33R07R12E21E13R14E30R24R08
                                S35




 117103829.764 7  91249712.09243  22284113.801    22284112.6124   22284111.8754
        42.200          23.9004
 108887135.518 8  84847175.27648  20720507.141    20720506.6634   20720506.3104
        51.900          50.6004
 108294241.989 8  84385149.25045  20607703.106    20607702.8964   20607702.8294
        48.400          35.4004
 107569950.227 8  83820720.70846  20469882.866    20469881.7264   20469881.9894
        48.300          38.1004
 126204110.961 7                  24015817.867
        47.600
 115275367.248 7  89825032.29846  21936170.907    21936170.0494   21936174.0344
        45.700          40.2004
 118515527.779 6  92349742.16345  22552761.240    22552761.0354   22552764.2894
        40.200          32.0004
 131435769.894 7                  25011387.225
        42.200
 110253597.634 7                  20646937.051    20646937.271
        45.800
 123417085.387 8                  23485487.601
        49.900
 115207818.602 7  89606107.312 5  21582300.874    21582301.951    21582309.502
        42.800          35.500
 107027335.736 7                  20007583.229    20007583.125
        45.800
 198907154.262 7                  37850768.482
        42.600
 202055365.641 7                  38449860.460
        44.800
 114925682.914 6  89386661.268 6  21469074.280    21469080.251    21469084.512
        36.700          38.400
 121363474.558 7  94393883.814 7  22719496.829    22719497.205    22719502.718
        43.400          42.800
 143182994.986 5                  27246818.724
        33.900
 138166551.948 6                  26292223.294
        36.500
 116897821.212 7  90920553.415 7  21929733.564    21929730.962    21929745.634
        44.300          42.900
 131516889.474 7                  25026816.895
        43.300
 120439153.131 7  93674969.820 6  22522738.841    22522738.136    22522742.450
        42.300          40.600
 117127548.766 7  91099228.300 7  21872735.133    21872734.179    21872740.511
        44.800          44.600
 200858286.060 5                  38222068.812
        34.200
 25  1  1  3  3 30.0000000  0 27G09G06G19G12G11G20E27G25G05E34G29R13
                                E15R22R23S31S33R07G17R12E21E13R14E30
                                R24R08S35




 117141613.460 6  91279153.97744  22291302.721    22291301.4834   22291303.5724
        41.800          25.8004
 108895740.106 8  84853880.16448  20722144.459    20722143.9814   20722143.7154
        52.100          50.3004
 108302253.445 7  84391391.95945  20609228.193    20609227.9614   20609226.8124
        47.600          34.1004
 107549933.728 8  83805123.43046  20466073.756    20466072.6164   20466072.2334
        48.200          37.9004
 126201430.311 7                  24015308.439
        47.900
 115249039.551 7  89804517.20046  21931160.584    21931159.7214   21931166.1704
        45.000          40.4004
 118463147.811 6  92308926.63045  22542794.367    22542794.1484   22542797.8034
        40.200          33.2004
 131463838.769 7                  25016728.986
        42.200
 131362148.881 6 102360128.96742  24997386.711    24997386.5734   24997388.0354
        37.600          15.3004
 110288410.270 7                  20653454.688    20653455.587
        44.400
 123415472.705 8                  23485180.657
        49.200
 115241596.083 7  89632378.734 5  21588630.431    21588630.469    21588633.744
        44.400          34.800
 107028912.202 8                  20007878.854    20007879.495
        48.500
 198907155.322 7                  37850768.692
        43.300
 202055354.083 7                  38449859.427
        44.900
 114921236.942 6  89383203.398 6  21468248.659    21468248.892    21468253.774
        39.100          38.600
 131503108.597 6                  25024210.635
        36.700
 121428117.139 5  94444161.487 7  22731594.554    22731591.585    22731605.317
        35.300          44.400
 143145858.163 5                  27239750.714
        34.200
 138137237.582 6                  26286644.467
        37.200
 116867308.508 7  90896821.321 7  21924011.158    21924009.539    21924019.721
        45.700          44.300
 131553127.374 7                  25033713.480
        43.100
 120403090.456 7  93646921.101 6  22515998.322    22515998.851    22515999.748
        42.600          38.300
 117077037.456 7  91059941.736 7  21863301.082    21863302.838    21863306.640
        44.100          44.100
 200858320.318 5                  38222083.774
        34.200
 25  1  1  3  3 45.0000000  0 27G09G06G19G12G11G20E27G25G05E34G29R13
                                E15R22R23S31S33R07G17R12E21E13R14E30
                                R24R08S35


 115842549.359 5  90266925.08543  22044099.564    22044098.6974   22044104.8714
        33.700          22.7004
 117179455.695 6  91308641.46144  22298503.944    22298502.6614   22298506.2834
        41.200          26.6004
 108904496.644 8  84860703.45248  20723810.820    20723810.3334   20723810.0214
        51.900          49.8004
 108310337.970 8  84397691.57945  20610766.775    20610766.5254   20610764.8454
        48.200          33.2004
 107530042.832 7  83789624.03146  20462288.360    20462287.2074   20462287.4034
        47.500          37.3004
 126198850.161 8                  24014817.384
        48.500
 115222842.471 7  89784103.88246  21926175.249    21926174.3554   21926180.7184
        42.500          37.7004
 118410829.948 6  92268159.46745  22532839.849    22532839.5864   22532840.9394
        38.600          30.9004
 131491918.916 7                  25022072.358
        42.600
 131315577.946 5 102323839.97442  24988523.412    24988523.5054   24988523.2354
        35.200          14.8004
 110323383.864 7                  20660005.081    20660004.748
        43.900
 123413906.196 8                  23484882.329
        48.800
 115275391.620 6  89658664.187 5  21594960.492    21594962.215    21594964.149
        41.000          33.800
 107030540.668 8                  20008183.302    20008182.975
        48.300
 198907152.767 7                  37850769.417
        42.400
 202055338.306 7                  38449857.017
        44.700
 114916982.678 7  89379894.536 6  21467457.635    21467455.962    21467461.251
        42.700          38.900
 131543312.030 5 102501288.37341  25031861.400    25031861.9414   25031860.2764
        32.400           9.0004
 121492785.412 6  94494459.032 7  22743699.234    22743698.445    22743711.766
        36.900          43.900
 143108768.114 5                  27232692.976
        34.000
 138107956.577 5                  26281073.323
        31.100
 116836964.892 7  90873220.735 7  21918318.894    21918316.247    21918325.566
        45.500          44.300
 131589427.219 7                  25040620.159
        43.500
 120367052.295 5  93618891.453 6  22509247.791    22509245.601    22509265.292
        33.200          38.800
 117026620.776 7  91020728.821 7  21853885.732    21853885.516    21853892.412
        43.900          44.800
 200858351.666 5                  38222084.302
        35.800
 25  1  1  3  4  0.0000000  0 27G09G06G19G12G11G20E27G25G05E34G29R13
                                E15R22R23S31S33R07G17R12E21E13R14E30
                                R24R08S35


 115878117.070 6  90294640.16344  22050871.675    22050871.0184   22050872.2694
        37.600          25.2004
 117217360.268 6  91338177.51644  22305716.896    22305715.6314   22305719.9854
        40.500          25.6004
 108913409.015 8  84867648.17148  20725506.671    20725506.1934   20725505.9914
        52.200          48.9004
 108318499.229 8  84404051.00145  20612319.578    20612319.3244   20612317.5984
        48.600          32.6004
 107510281.458 7  83774225.56646  20458528.009    20458526.8474   20458527.6404
        47.800          37.2004
 126196374.362 8                  24014346.275
        49.200
 115196780.046 6  89763795.47045  21921216.366    21921215.4544   21921219.3284
        40.400          35.0004
 118358578.228 6  92227443.89945  22522895.814    22522895.6404   22522895.3804
        37.400          31.7004
 131520013.999 7                  25027418.555
        42.600
 131268997.241 6 102287543.39042  24979659.753    24979659.6064   24979657.3854
        37.000          13.1004
 110358521.530 7                  20666584.550    20666584.821
        43.700
 123412389.586 8                  23484593.824
        48.800
 115309208.999 6  89684966.616 5  21601294.315    21601291.998    21601302.540
        38.000          34.200
 107032225.005 8                  20008497.570    20008497.250
        48.400
 198907149.274 7                  37850768.406
        42.900
 202055322.351 7                  38449852.362
        45.000
 114912924.270 7  89376737.946 6  21466697.021    21466697.977    21466704.952
        46.200          36.600
 131583544.019 4 102532637.81241  25039525.742    25039526.1134   25039514.6484
        29.400           6.8004
 121557482.687 6  94544779.092 7  22755813.429    22755814.154    22755822.395
        40.800          43.300
 143071728.776 6                  27225645.033
        37.100
 138078712.682 5                  26275518.002
        33.000
 116806794.620 7  90849754.987 7  21912660.668    21912659.823    21912664.452
        47.100          44.300
 131625792.674 7                  25047539.765
        44.200
 120331042.490 5  93590883.893 5  22502516.457    22502512.889    22502521.607
        34.900          34.300
 116976303.186 7  90981592.985 7  21844491.786    21844489.475    21844496.594
        44.700          45.800
 200858382.935 5                  38222096.299
        32.700
 25  1  1  3  4 15.0000000  0 26G06G19G12G11G20E27G25G05E34G29R13E15
                                R22R23S31S33R07G17R12E21E13R14E30R24
                                R08S35
 115913715.297 5  90322379.03344  22057639.499    22057639.1194   22057645.4814
        35.900          28.0004
 117255327.910 6  91367762.70744  22312941.417    22312940.1654   22312944.9284
        41.100          24.5004
 108922478.075 8  84874714.96848  20727232.090    20727231.6214   20727231.6314
        51.100          48.5004
 108326737.944 8  84410470.78045  20613887.430    20613887.1804   20613884.1904
        48.600          32.5004
 107490650.774 8  83758928.94846  20454792.076    20454790.8924   20454792.2524
        48.900          37.1004
 126194003.869 8                  24013894.816
        49.300
 115170853.411 5  89743592.89045  21916282.988    21916282.0184   21916284.7404
        35.600          34.0004
 118306394.186 7  92186781.08345  22512966.727    22512966.6254   22512963.0164
        42.200          33.2004
 131548124.793 7                  25032767.877
        42.200
 131222407.284 5 102251239.56642  24970793.661    24970793.3624   24970790.4574
        35.200          13.7004
 110393824.038 7                  20673195.259    20673195.900
        43.100
 123410923.646 8                  23484315.115
        49.400
 115343049.167 6  89711286.780 4  21607635.171    21607635.620    21607638.775
        40.900          27.000
 107033965.990 8                  20008823.252    20008823.213
        49.600
 198907147.652 6                  37850770.199
        41.800
 202055308.261 7                  38449850.918
        45.000
 114909062.845 6  89373734.427 5  21465973.800    21465973.073    21465981.519
        40.200          35.900
 131623805.292 5 102564010.0374   25047179.761    25047180.3374   25047176.1524
        31.800           3.8004
 121622209.029 6  94595121.817 6  22767934.671    22767935.355    22767938.592
        40.700          41.100
 143034741.293 6                  27218605.709
        38.500
 138049507.108 5                  26269957.596
        35.200
 116776798.852 7  90826424.977 7  21907031.289    21907032.604    21907036.012
        46.000          44.300
 131662224.337 7                  25054472.543
        43.300
 120295061.795 7  93562898.860 5  22495789.585    22495787.788    22495790.250
        42.400          32.600
 116926086.241 7  90942535.394 7  21835112.554    21835112.679    21835119.740
        45.000          46.600
 200858415.012 5                  38222102.676
        30.100
 25  1  1  3  4 30.0000000  0 26G06G19G12G11G20E27G25G05E34G29R13E15
                                R22R23S31S33R07G17R12E21E13R14E30R24
                                R08S35
 115949345.472 6  90350142.83745  22064422.163    22064421.9184   22064424.9124
        40.600          30.9004
 117293360.320 7  91397398.35343  22320179.942    22320178.6824   22320181.2524
        42.200          23.8004
 108931705.192 8  84881904.93147  20728988.345    20728987.8764   20728987.5744
        50.000          47.9004
 108335055.585 8  84416952.03545  20615470.077    20615469.8364   20615466.1794
        48.900          32.5004
 107471152.094 8  83743735.18246  20451081.733    20451080.5404   20451081.5034
        49.000          37.8004
 126191740.306 8                  24013464.074
        49.000
 115145064.362 6  89723497.55845  21911376.094    21911375.1064   21911377.5994
        38.800          34.4004
 118254279.713 6  92146172.41545  22503049.018    22503048.8314   22503046.0494
        41.900          34.5004
 131576252.828 6                  25038119.896
        40.700
 131175809.725 5 102214929.87942  24961927.232    24961927.0094   24961924.0214
        32.600          15.1004
 110429292.209 7                  20679838.853    20679837.709
        42.000
 123409509.879 8                  23484046.094
        50.900


 107035765.364 8                  20009159.686    20009160.226
        49.900
 198907147.767 6                  37850769.368
        40.300
 202055297.100 7                  38449851.508
        43.600
 114905399.941 5  89370885.411 6  21465284.275    21465285.669    21465297.554
        34.900          38.000
 131664097.468 5 102595406.5114   25054848.651    25054849.0804   25054843.3524
        31.000           4.9004
 121686965.840 6  94645488.163 6  22780058.012    22780058.768    22780059.680
        40.400          40.400
 142997807.484 6                  27211578.927
        38.200
 138020340.874 6                  26264398.496
        41.700
 116746979.399 6  90803232.135 7  21901436.406    21901433.690    21901443.058
        38.600          45.600
 131698723.748 7                  25061418.914
        44.400
 120259111.852 7  93534937.853 5  22489063.786    22489063.120    22489067.805
        42.300          31.400
 116875971.941 7  90903557.685 7  21825751.882    21825754.311    21825761.336
        44.700          45.500
 200858449.446 4                  38222103.910
        28.800
 25  1  1  3  4 45.0000000  0 27G09G06G19G12G11G20E27G25G05E34G29R13
                                E15R22R23S31S33R07G17R12E21E13R14E30
                                R24R08S35
 128167212.740 5                  24389408.263
        31.000
 115985000.994 6  90377926.34545  22071206.758    22071206.4104   22071210.1754
        38.100          30.9004
 117331450.878 6  91427079.27743  22327426.965    22327425.7184   22327427.5704
        41.900          21.4004
 108941083.954 8  84889213.06647  20730773.021    20730772.5614   20730772.4814
        50.300          47.3004
 108343445.567 8  84423489.66245  20617066.438    20617066.1884   20617062.9464
        49.400          32.6004
 107451779.133 8  83728639.38746  20447395.595    20447394.4064   20447394.8074
        48.800          38.2004
 126189577.306 8                  24013052.616
        49.500
 115119406.734 6  89703504.60445  21906493.297    21906492.2204   21906495.6564
        40.200          35.3004
 118202228.715 6  92105613.21845  22493141.052    22493140.8244   22493141.3874
        36.700          30.4004
 131604391.513 6                  25043474.878
        40.300
 131129198.499 5 102178609.50142  24953060.219    24953060.0594   24953054.8664
        33.000          14.9004
 110464919.458 7                  20686511.537    20686510.367
        43.400
 123408141.754 8                  23483785.510
        50.300
 115410795.608 5                  21620322.951    21620322.079
        33.600
 107037616.311 8                  20009505.356    20009505.261
        49.100
 198907144.387 7                  37850770.235
        42.200
 202055280.416 7                  38449844.461
        45.000
 114901929.019 6  89368185.860 6  21464644.033    21464648.467    21464647.281
        38.100          36.000
 131704413.741 5                  25062516.876
        30.600
                  94695872.703 6                                  22792184.968
                        37.400
 142960921.113 7                  27204561.636
        42.100
 137991207.781 6                  26258855.226
        41.400
 116717330.410 5  90780171.885 7  21895879.893    21895874.560    21895880.516
        35.400          43.900
 131735284.259 7                  25068376.305
        44.200
 120223186.253 7  93506995.594 5  22482346.369    22482344.905    22482368.018
        43.300          32.600
 116825954.394 7  90864655.166 7  21816419.165    21816418.945    21816420.671
        45.900          44.300
 200858480.436 5                  38222103.378
        32.700
 25  1  1  3  5  0.0000000  0 26G09G06G19G12G11G20E27G25G05E34G29R13
                                E15R22R23S31S33R07R12E21E13R14E30R24
                                R08S35
 128160354.854 4                  24388102.529
        29.200
 116020686.278 6  90405733.07845  22077999.305    22077998.9084   22078000.7814
        39.700          30.3004
 117369604.262 6  91456809.09343  22334687.488    22334686.2324   22334685.0904
        40.500          19.4004
 108950618.921 8  84896642.92147  20732587.239    20732586.7744   20732586.7924
        49.400          46.9004
 108351912.388 8  84430087.18945  20618677.551    20618677.2924   20618673.7054
        48.100          31.5004
 107432536.652 8  83713645.25046  20443734.159    20443732.9704   20443732.8344
        49.600          38.6004
 126187519.527 8                  24012660.916
        50.100
 115093885.317 7  89683617.80346  21901636.094    21901635.0444   21901639.5684
        43.700          37.4004
 118150246.010 6  92065107.24645  22483249.158    22483248.8324   22483249.9344
        40.600          30.3004
 131632545.396 6                  25048833.289
        41.500
 131082578.134 4 102142281.97742  24944194.660    24944194.5584   24944184.3794
        28.100          13.6004
 110500709.803 7                  20693214.415    20693213.468
        43.900
 123406823.802 8                  23483534.750
        50.200
                                                  21626670.531

 107039523.483 8                  20009862.166    20009861.448
        48.300
 198907141.785 6                  37850767.315
        40.500
 202055265.180 7                  38449843.164
        45.200
 114898655.215 6  89365639.527 5  21464029.601    21464033.668    21464030.949
        39.500          30.600
                  94746278.422 6                                  22804318.738
                        38.900
 142924087.049 6                  27197551.144
        41.500
 137962112.448 6                  26253318.008
        40.300
 116687856.683 7  90757247.892 7  21890347.252    21890347.196    21890352.169
        43.800          46.200
 131771910.268 7                  25075346.660
        45.800
 120187289.687 7  93479076.271 5  22475635.985    22475634.069    22475635.140
        43.600          31.200
 116776038.875 6  90825832.054 7  21807089.193    21807090.049    21807099.833
        41.700          43.000
 200858511.954 5                  38222111.435
        34.900
 25  1  1  3  5 15.0000000  0 26G09G06G19G12G11G20E27G25G05E34G29R13
                                E15R22R23S31S33R07R12E21E13R14E30R24
                                R08S35
 128153624.937 5  99860019.82741  24386827.741    24386827.3574   24386833.1204
        33.000           8.5004
 116056403.535 6  90433564.69144  22084794.589    22084794.1694   22084797.8664
        39.700          28.6004
 117407822.598 6  91486589.54043  22341960.532    22341959.2764   22341957.6834
        36.100          18.2004
 108960312.152 8  84904196.08547  20734432.221    20734431.7614   20734431.2474
        48.900          46.5004
 108360458.156 8  84436746.26345  20620303.871    20620303.6394   20620299.6994
        48.500          30.7004
 107413427.167 8  83698754.75246  20440097.597    20440096.4084   20440096.3194
        50.700          39.4004
 126185569.317 8                  24012290.000
        50.100
 115068502.650 7  89663839.09546  21896804.659    21896803.6094   21896809.9304
        43.900          39.2004
 118098334.061 6  92024656.41145  22473370.391    22473370.0744   22473370.9844
        39.300          33.0004
 131660716.619 6                  25054193.829
        40.800


 110536664.975 6                  20699946.154    20699944.646
        40.300
 123405558.166 8                  23483293.996
        49.300


 107041488.921 8                  20010229.104    20010229.503
        48.400
 198907142.021 7                  37850763.340
        42.600
 202055252.610 7                  38449841.183
        45.100
 114895580.685 6                  21463461.594    21463458.872
        37.400
 121881710.108 6  94796707.021 7  22816500.700                    22816460.589
        36.600          42.000
 142887307.716 6                  27190552.326
        41.000
 137933057.127 6                  26247788.426
        39.000
 116658560.855 7  90734462.283 7  21884853.352    21884851.961    21884857.189
        44.100          46.500
 131808603.974 7                  25082328.983
        46.000
 120151424.033 6                  22468926.049    22468927.198
        38.400
 116726228.409 7  90787090.522 6  21797789.581    21797789.892    21797798.058
        43.500          39.800
 200858546.780 5                  38222134.397
        33.000
 25  1  1  3  5 30.0000000  0 26G09G06G19G12G11G20E27G25G05E34G29R13
                                E15R22R23S31S33R07R12E21E13R14E30R24
                                R08S35
 128147019.940 5  99854873.03941  24385573.028    24385572.5554   24385576.6254
        32.800           7.8004
 116092149.123 6  90461418.40844  22091595.728    22091595.3314   22091601.7084
        37.800          29.7004
 117446102.374 5  91516417.87742  22349246.290    22349245.0434   22349242.6854
        33.400          16.3004
 108970160.313 8  84911869.97947  20736305.573    20736305.1224   20736305.2154
        49.600          46.5004
 108369079.376 8  84443464.11745  20621944.214    20621943.9954   20621940.5924
        49.600          31.8004
 107394447.141 8  83683965.12346  20436485.415    20436484.2314   20436484.6254
        50.900          40.3004
 126183723.330 8                  24011938.657
        50.200
 115043255.596 6  89644166.11346  21891999.089    21891998.0704   21892005.5654
        40.700          36.2004
 118046489.909 6  91984258.39645  22463506.502    22463506.2394   22463504.6404
        37.500          33.8004
 131688901.727 6                  25059557.967
        41.400
 130989348.316 6 102069611.95043  24926445.761    24926445.4624   24926442.1614
        36.500          23.2004
 110572781.264 7                  20706711.304    20706711.034
        43.600
 123404341.409 8                  23483062.645
        48.800


 107043509.645 8                  20010606.803    20010607.637
        48.000
 198907141.643 7                  37850770.660
        43.600
 202055240.849 7                  38449837.167
        45.000
 114892701.952 6                  21462914.054    21462916.049
        39.300
                  94847155.230 6                  22828592.186    22828603.910
                        41.700
 142850579.994 6                  27183563.214
        40.600
 137904038.397 6                  26242267.382
        40.300
 116629439.656 7  90711812.540 7  21879385.818    21879386.149    21879394.753
        44.800          46.200
 131845361.726 7                  25089323.477
        46.300
 120115586.067 6                  22462226.648    22462229.960
        37.000
 116676519.842 7  90748428.394 6  21788506.224    21788506.849    21788513.199
        43.800          37.800
 200858580.537 5                  38222124.926
        35.300
 25  1  1  3  5 45.0000000  0 25G06G19G12G11G20E27G25G05E34G29R13E15
                                R22R23S31S33R07R12E21E13R14E30R24R08
                                S35
 116127919.529 6  90489291.45244  22098404.726    22098404.2974   22098411.1804
        38.500          27.6004
 117484440.326 5  91546291.61942  22356539.806    22356538.5504   22356538.6964
        31.000          17.6004
 108980159.831 7  84919661.81147  20738208.187    20738207.7634   20738207.6444
        46.400          44.8004
 108377772.427 8  84450237.91845  20623598.199    20623597.9984   20623596.5504
        49.400          33.7004
 107375593.407 8  83669273.91246  20432897.551    20432896.3714   20432897.0424
        49.700          40.3004
 126181978.167 8                  24011606.856
        50.300
 115018140.882 6  89624596.20345  21887222.682    21887221.6414   21887225.5794
        37.500          33.7004
 117994710.229 7  91943910.61446  22453653.694    22453653.4714   22453650.9144
        43.200          36.5004
 131717097.167 7                  25064923.857
        44.500
 130942698.228 5 102033261.25843  24917570.999    24917570.7274   24917565.2254
        33.100          22.5004
 110609054.757 6                  20713502.378    20713500.938
        39.900
 123403169.945 8                  23482840.058
        49.600


 107045581.562 7                  20010993.412    20010993.435
        44.600
 198907138.232 7                  37850773.991
        43.300
 202055223.721 7                  38449836.501
        45.500
 114890015.973 6  89358876.550 6  21462411.674    21462411.037    21462420.092
        40.700          38.100
 122011455.263 5  94897620.028 6  22840741.036    22840738.942    22840750.259
        34.500          41.600
 142813900.609 6                  27176583.403
        41.600
 137875052.887 6                  26236749.521
        38.700
 116600490.192 6  90689296.274 7  21873954.834    21873954.000    21873962.675
        40.700          44.100
 131882179.909 7                  25096328.867
        44.300
 120079772.476 6  93395403.817 6  22455527.963    22455527.346    22455533.601
        40.600          36.800
 116626910.464 7  90709843.337 6  21779244.689    21779245.179    21779248.493
        46.800          37.300
 200858610.826 5                  38222159.707
        31.600
 25  1  1  3  6  0.0000000  0 25G06G19G12G11G20E27G25G05E34G29R13E15
                                R22R23S31S33R07R12E21E13R14E30R24R08
                                S35
 116163719.276 5  90517187.51642  22105216.757    22105216.3514   22105227.8384
        35.100          15.0004
 117522841.121 4  91576214.26042  22363849.393    22363848.1734   22363846.9914
        28.200          16.7004
 108990315.329 7  84927575.18147  20740140.690    20740140.2484   20740139.8824
        45.900          44.0004
 108386541.928 8  84457071.30145  20625266.548    20625266.3474   20625267.2334
        48.200          35.5004
 107356870.757 8  83654684.84646  20429334.903    20429333.7194   20429334.3624
        49.600          39.9004
 126180338.639 8                  24011294.790
        50.300
 114993163.519 7  89605133.34245  21882470.317    21882469.2624   21882471.1224
        42.500          34.1004
 117943000.405 7  91903617.24546  22443812.244    22443812.0304   22443811.9274
        42.500          39.2004
 131745307.571 6                  25070290.953
        41.800
 130896039.532 4 101996903.83543  24908682.100    24908681.9444   24908686.1934
        27.800          20.3004
 110645489.535 6                  20720326.800    20720324.509
        38.100
 123402048.434 8                  23482625.913
        49.500
 115580537.424 6                  21652128.910    21652125.215
        39.100
 107047709.730 7                  20011390.512    20011391.311
        44.200
 198907134.298 7                  37850757.813
        42.400
 202055207.551 7                  38449829.914
        44.200
 114887527.267 7  89356940.968 6  21461946.995    21461955.679    21461954.171
        44.000          37.100
 122076364.172 6  94948104.651 6  22852890.755    22852890.030    22852900.597
        38.900          41.500
 142777274.613 6                  27169612.637
        38.700
 137846105.203 6                  26231243.841
        38.200
 116571717.398 7  90666917.542 7  21868560.001    21868560.494    21868564.841
        46.800          44.600
 131919063.113 7                  25103347.945
        44.100
