     2.11           OBSERVATION DATA    M (MIXED)           RINEX VERSION / TYPE
teqc  2019Feb25                         20260317 16:18:01UTCPGM / RUN BY / DATE
Linux 2.4.21-27.ELsmp|Opteron|gcc -static|Linux 64|=+       COMMENT
BIT 2 OF LLI FLAGS DATA COLLECTED UNDER A/S CONDITION       COMMENT
-Unknown-                                                   MARKER NAME
-Unknown-           -Unknown-                               OBSERVER / AGENCY
-Unknown-           -Unknown-           -Unknown-           REC # / TYPE / VERS
-Unknown-           -Unknown-                               ANT # / TYPE
        0.0000        0.0000        0.0000                  APPROX POSITION XYZ
        0.0000        0.0000        0.0000                  ANTENNA: DELTA H/E/N
     1     1                                                WAVELENGTH FACT L1/2
     7    L1    L2    C1    P1    P2    S1    S2            # / TYPES OF OBSERV
 SNR is mapped to RINEX snr flag value [0-9]                COMMENT
  L1 & L2: min(max(int(snr_dBHz/6), 0), 9)                  COMMENT
  2025     1     1    20     0    0.0000000     GPS         TIME OF FIRST OBS
    18                                                      LEAP SECONDS
                                                            END OF HEADER
 25  1  1 20  0  0.0000000  0 30G21E31G07G02G30G08G13G27G04R19E33E24
                                R10E09G09E04R09G14S35S31E05E06S33R08
                                R11R21R01R20R02E26
 116567686.051 6  90831999.76542  22182087.705    22182086.3914   22182094.4584
        36.500          14.0004
 123490155.158 8                  23499384.341
        49.100
 106896245.049 8  83295727.25048  20341668.006    20341667.4614   20341668.6274
        48.900          48.4004
 121099736.983 6  94363472.43842  23044513.156    23044512.2494   23044519.8954
        41.300          16.6004
 111703147.094 7  87041414.01746  21256397.064    21256396.3944   21256400.1574
        43.700          41.6004
 109868713.216 6  85612043.19845  20907303.914    20907303.3964   20907311.5034
        39.200          32.8004
 127206608.748 6  99122033.82841  24206614.371    24206614.1304   24206612.9854
        38.800          11.3004






 140529697.112 5                  26741908.286
        32.000
 139038650.921 6                  26458179.790
        41.900
 108434624.828 5                  20342061.902    20342059.535
        35.900
 128734143.868 7                  24497297.294
        47.200
 121391757.948 6  94591034.27744  23100087.212    23100087.6324   23100101.4214
        41.200          27.8004
 135069686.823 6                  25702900.158
        39.000


 118227485.276 6  92125302.95143  22497932.705    22497932.4774   22497932.2314
        40.800          20.5004


 198899796.280 7                  37849393.557
        44.200
 132305078.285 7                  25176818.158
        44.800
 128904643.933 6                  24529748.815
        41.600
 202049428.645 7                  38448747.871
        45.400
                  93022990.028 6                                  22334638.731
                        37.400
 110233725.080 7  85737349.207 6  20628740.404    20628740.751    20628748.600
        43.400          41.500
 117086251.200 6  91067091.245 6  21880315.634    21880312.728    21880328.782
        38.800          39.000
 115704732.312 7                  21644973.340    21644977.171
        47.500
 109510262.318 6  85174677.748 7  20478971.751    20478971.739    20478978.396
        38.100          44.200
 126515940.032 6  98401325.037 5  23709032.205    23709029.119    23709044.034
        36.100          34.400
 140057695.021 5                  26652093.817
        31.500
 25  1  1 20  0 15.0000000  0 30G21E31G07G02G30G08G13G27G04R19E33E24
                                R10E09G09E04R09G14S35S31E05E06S33R08
                                R11R21R01R20R02E26
 116541232.983 5  90811387.10542  22177054.692    22177053.4544   22177060.1184
        33.700          12.5004
 123488430.586 7                  23499055.869
        47.700
 106891975.896 8  83292400.61548  20340856.031    20340855.4904   20340856.1514
        48.500          48.7004
 121060439.921 6  94332851.55643  23037037.299    23037036.3434   23037042.2474
        40.100          18.3004
 111671287.340 7  87016588.25546  21250333.643    21250333.0094   21250338.2564
        42.600          41.3004
 109901172.152 7  85637335.91545  20913481.958    20913481.5114   20913486.7334
        43.200          34.0004
 127161870.564 6  99087172.83642  24198101.705    24198101.4284   24198098.9264
        39.700          13.3004






 140490751.507 5                  26734498.474
        33.900
 139011483.932 6                  26453009.140
        41.600
 108450104.229 6                  20344964.399    20344963.925
        37.600
 128746042.639 7                  24499561.129
        46.300
 121444862.725 7  94632414.31944  23110193.073    23110193.4934   23110205.9384
        43.000          27.5004
 135112395.456 6                  25711028.941
        40.200


 118193745.187 6  92099012.03643  22491511.900    22491511.7044   22491512.8464
        41.600          20.5004


 198899787.597 7                  37849384.913
        43.300
 132277636.097 7                  25171595.886
        43.800
 128934205.742 7                  24535373.824
        42.400
 202049440.678 7                  38448741.410
        44.800
                  93066540.093 5                                  22345094.064
                        34.800
 110208258.714 7  85717542.043 7  20623976.695    20623977.619    20623983.331
        43.200          44.300
 117025475.188 6  91019821.377 6  21868954.427    21868954.230    21868971.827
        36.100          39.100
 115714559.431 7  90000270.796 5  21646807.392    21646809.986    21646814.693
        47.300          33.300
 109497200.435 6  85164518.482 6  20476527.856    20476529.710    20476534.739
        39.300          41.900
 126476379.179 5  98370555.418 5  23701616.951                    23701623.524
        30.600          32.400


 25  1  1 20  0 30.0000000  0 29G21E31G07G02G30G08G13G27G04E33E24R10
                                E09G09E04R09G14S35S31E05E06S33R08R11
                                R21R01R20R02E26
 116514905.528 5  90790872.12941  22172044.215    22172042.9104   22172049.9024
        34.700           6.1004
 123486747.226 8                  23498735.990
        49.100
 106887815.152 7  83289158.50547  20340063.645    20340063.0914   20340064.1914
        46.200          46.7004
 121021213.211 7  94302285.60443  23029572.835    23029571.8794   23029578.8404
        42.700          18.4004
 111639503.997 7  86991821.95846  21244285.762    21244285.1364   21244288.5894
        45.300          39.1004
 109933748.340 6  85662719.89945  20919678.116    20919677.6834   20919685.0644
        39.600          31.1004
 127117222.918 5  99052382.50141  24189601.364    24189601.0434   24189602.2804
        33.800          11.4004




 140451845.106 5                  26727091.750
        33.800
 138984347.585 6                  26447846.290
        40.600
 108465647.944 6                  20347882.228    20347880.729
        36.700
 128758052.290 8                  24501846.745
        48.600
 121498005.796 6  94673824.24844  23120304.901    23120305.2944   23120319.7384
        40.600          27.0004
 135155149.595 6                  25719162.721
        40.300


 118160047.219 6  92072753.91043  22485099.332    22485099.1674   22485099.4624
        40.800          20.8004


 198899783.930 7                  37849393.145
        45.100
 132250281.008 6                  25166389.590
        41.000
 128963853.132 7                  24541015.711
        45.500
 202049458.644 7                  38448742.492
        45.200
                  93110146.462 6                                  22355564.069
                        36.800
 110182836.800 6  85697769.578 6  20619219.503    20619220.546    20619223.315
        40.300          37.400
 116964780.701 6  90972614.935 6  21857613.409    21857615.505    21857631.023
        36.900          39.000
 115724582.563 7  90008066.593 5  21648683.634    21648684.365    21648693.387
        45.300          33.800
 109484349.479 6  85154523.321 6  20474124.030    20474124.617    20474129.633
        38.400          41.900
 126436967.557 6                  23694234.599    23694235.190
        38.000
 140032947.392 5                  26647383.807
        30.200
 25  1  1 20  0 45.0000000  0 29G21E31G07G02G30G08G13G27G04E33E24R10
                                E09G09E04R09G14S35S31E05E06S33R08R11
                                R21R01R20R02E26
 116488691.445 5  90770445.66841  22167053.090    22167051.7584   22167061.2614
        34.400           6.5004
 123485092.537 8                  23498421.035
        49.800
 106883750.410 7  83285991.16647  20339290.475    20339289.9254   20339290.9894
        44.400          46.3004
 120982044.458 6  94271764.82541  23022119.074    23022118.0914   23022126.1704
        38.000          11.5004
 111607784.768 7  86967105.66246  21238249.443    21238248.8174   21238251.8404
        44.500          40.4004
 109966428.929 6  85688185.31144  20925896.101    20925895.6054   20925902.4224
        40.300          27.1004
 127072653.576 6  99017653.15942  24181122.355    24181122.0384   24181121.1684
        39.600          14.3004
 124380990.523 5                  23668912.958
        31.200


 140412965.379 5                  26719695.934
        33.400
 138957229.261 7                  26442683.911
        44.200
 108481243.406 6                  20350811.540    20350810.415
        37.500
 128770160.144 8                  24504150.154
        48.300
 121551174.078 6  94715253.89543  23130423.440    23130423.8334   23130438.7694
        41.300          23.1004
 135197936.413 6                  25727303.802
        36.700


 118126378.751 6  92046518.67343  22478692.034    22478691.9544   22478692.9814
        41.400          21.9004


 198899774.050 7                  37849396.821
        45.500
 132223000.652 6                  25161198.570
        40.600
 128993573.478 7                  24546671.052
        46.400
 202049469.907 6                  38448744.741
        41.900
 119769112.047 4  93153798.732 6  22366039.367                    22366048.463
        28.300          40.600
 110157446.927 6  85678021.659 6  20614468.550    20614469.630    20614472.158
        41.900          37.100
 116904155.222 5  90925461.937 6  21846285.564    21846284.941    21846302.154
        33.400          41.000
 115734788.862 6  90016004.932 5  21650592.013    21650591.016    21650602.381
        41.200          34.900
 109471697.218 6  85144682.675 7  20471758.087    20471757.282    20471766.510
        37.300          43.800
 126397693.121 6                  23686872.276    23686873.052
        37.000


 25  1  1 20  1  0.0000000  0 26E31G07G02G30G08G13G27E33E24R10E09G09
                                E04R09G14S35S31E05E06S33R11R21R01R20
                                R02E26
 123483475.789 8                  23498113.619
        48.900
 106879791.150 7  83282906.02947  20338537.047    20338536.5024   20338537.6104
        46.200          46.3004
 120942943.431 6  94241296.68041  23014675.111    23014673.9854   23014685.6144
        36.500          11.9004
 111576139.371 7  86942446.93546  21232228.086    21232227.4384   21232229.5754
        47.000          39.6004


 127028172.336 7  98982992.49842  24172658.035    24172657.7094   24172656.8124
        42.900          16.9004
 124435155.094 5                  23679220.454
        30.300
 140374122.060 5                  26712303.098
        34.800
 138930138.184 6                  26437528.177
        38.500
                                                  20353737.052

 128782375.546 8                  24506475.269
        48.200


 135240764.670 5                  25735452.639
        34.500
 121988988.599 5                  22844617.569    22844618.705
        32.400
 118092749.047 6  92020313.81043  22472292.299    22472292.2644   22472294.1434
        40.600          20.2004
 200819115.873 6                  38214605.437
        36.100
 198899766.495 7                  37849388.316
        46.900
 132195804.424 6                  25156022.789
        41.800
 129023375.877 7                  24552342.286
        43.200
 202049484.155 7                  38448741.888
        43.900
 110132098.126 7                  20609722.107    20609723.786
        44.700


 115745187.426 6  90024092.725 5  21652535.442    21652535.063    21652546.606
        41.200          34.600
 109459252.988 6  85135003.844 7  20469430.303    20469430.428    20469440.309
        36.900          46.300
 126358565.771 6                  23679538.603    23679537.874
        36.800


 25  1  1 20  1 15.0000000  0 29G21E31G07G30G08G13G27R19G17E33E24R10
                                E09G09E04R09G14S35S31E05E06S33R08R11
                                R21R01R20R02E26
 116436589.824 5  90729840.90541  22157147.643    22157147.9204   22157153.8634
        30.900           9.6004
 123481888.563 8                  23497811.448
        49.900
 106875929.083 7  83279896.59847  20337801.868    20337801.3184   20337802.4984
        47.600          46.1004
 111544559.515 7  86917839.27446  21226218.585    21226217.9424   21226220.1624
        47.600          41.4004
 110032121.532 5  85739248.32944  20938399.458    20938398.8594   20938403.4554
        34.700          28.4004
 126983770.884 6  98948393.94043  24164208.280    24164207.9594   24164209.3584
        41.600          19.3004
 124489357.126 4                  23689534.968
        26.900


 126075762.857 4                  23991413.915
        28.200


 138903065.974 6                  26432376.199
        36.400
 108512575.763 4                  20356697.570
        29.900
 128794689.986 8                  24508819.402
        48.900
 121657604.427 5  94798187.88742  23150679.930    23150680.1314   23150690.6144
        35.600          14.0004
 135283626.477 5                  25743610.992
        33.700
 122027903.546 5                  22851911.351    22851915.271
        35.200
 118059149.816 6  91994132.62343  22465898.449    22465898.4234   22465900.0144
        39.800          19.1004
 200819090.808 6                  38214595.640
        36.400
 198899752.577 7                  37849385.655
        45.200
 132168684.200 7                  25150861.755
        43.100
 129053251.736 7                  24558026.537
        42.900
 202049491.291 7                  38448750.957
        43.700
                  93241254.453 6                  22387045.525    22387046.720
                        39.800
 110106782.417 7  85638604.057 5  20604985.672    20604986.169    20604986.152
        43.900          32.900
 116782865.252 6  90831334.392 6  21823670.517    21823670.587    21823678.990
        39.700          36.700
 115755769.582 6  90032323.276 5  21654516.293    21654516.672    21654523.842
        41.800          32.000
 109447008.590 6  85125480.440 7  20467143.825    20467142.738    20467150.561
        39.400          45.500
 126319577.405 6                  23672233.474    23672230.854
        37.200


 25  1  1 20  1 30.0000000  0 30G21E31G07G02G30G08G13G27G04R19G17E33
                                E24R10E09G09E04R09G14S35S31E05E06S33
                                R11R21R01R20R02E26
 116410741.124 4  90709699.4124   22152235.126    22152235.0594   22152233.4104
        29.700           4.6004
 123480342.814 8                  23497517.570
        50.100
 106872176.454 7  83276972.45847  20337087.378    20337086.8204   20337088.4654
        46.400          46.2004
 120864951.811 6  94180537.98241  22999834.268    22999834.5404   22999847.8674
        36.800          10.1004
 111513057.581 7  86893292.33746  21220223.651    21220223.0124   21220226.0774
        46.800          39.5004
 110065136.602 6  85764974.35845  20944683.867    20944683.4654   20944688.0354
        41.700          33.3004
 126939461.774 7  98913867.40743  24155777.442    24155777.0494   24155777.5234
        42.000          18.3004




                  98038778.141 5                                  23563692.826
                        31.600
 126021797.773 5  98198874.41341  23981144.362    23981144.7864   23981164.5454
        33.200           9.0004


 138876024.786 6                  26427231.088
        39.600
 108528350.627 6                  20359650.832    20359652.253
        39.000
 128807115.415 7                  24511182.745
        47.700
 121710869.367 6  94839692.58242  23160815.865    23160816.2314   23160824.6884
        37.900          14.5004
 135326532.936 6                  25751780.484
        38.600


 118025593.116 7  91967984.54243  22459515.358    22459515.3624   22459513.0074
        42.200          22.1004
 200819071.191 5                  38214589.576
        34.100
 198899745.321 7                  37849382.364
        44.300
 132141652.254 7                  25145717.456
        43.900
 129083212.901 7                  24563728.924
        42.900
 202049505.190 7                  38448750.469
        42.600
 110081511.899 8  85618949.365 6  20600259.189    20600259.020    20600259.732
        48.700          37.600
 116722473.691 6  90784363.440 6  21812387.590    21812385.141    21812398.120
        38.500          41.300
 115766547.334 7  90040705.893 5  21656533.335    21656533.534    21656539.846
        44.900          34.400
 109434976.547 6  85116122.193 7  20464892.423    20464892.353    20464899.918
        37.600          46.000
 126280740.359 5                  23664955.396    23664952.837
        34.800


 25  1  1 20  1 45.0000000  0 28E31G07G02G30G08G13G27G04G17E33E24R10
                                E09G09E04R09G14S35S31E05E06S33R08R11
                                R21R01R20E26
 123478832.196 8                  23497229.810
        49.100
 106868527.169 8  83274128.80247  20336394.096    20336393.5294   20336393.8034
        49.100          47.2004
 120826049.199 5  94150224.39741  22992430.724    22992431.1264   22992441.7964
        34.800          11.2004
 111481627.586 7  86868801.49847  21214243.307    21214242.6504   21214245.3764
        47.000          42.2004
 110098261.368 7  85790785.86545  20950987.058    20950986.5894   20950992.2094
        44.300          31.4004
 126895238.845 6  98879407.95743  24147362.905    24147362.4904   24147363.4194
        40.800          21.5004
 124597877.224 5                  23710190.129
        32.000


 125967868.345 6  98156851.86842  23970880.792    23970880.8274   23970904.4434
        36.100          14.9004


 138849008.115 6                  26422090.385
        39.200
 108544183.630 6                  20362619.874    20362619.953
        37.300
 128819645.464 7                  24513567.836
        47.700
 121764164.837 5  94881221.05742  23170953.508    23170953.9194   23170964.1724
        35.200          15.1004
 135369477.985 6                  25759948.184
        40.800
 122105821.214 5                  22866496.641    22866497.925
        32.100
 117992072.699 7  91941864.79443  22453134.928    22453134.9684   22453135.1104
        42.400          21.8004


 198899737.880 7                  37849379.569
        44.700
 132114702.363 7                  25140589.837
        43.800
 129113252.939 7                  24569445.946
        44.300
 202049519.129 7                  38448757.964
        43.800
 119994363.470 5  93328914.184 6  22408102.168                    22408113.218
        33.200          36.200
 110056280.505 7  85599324.980 7  20595536.908    20595535.730    20595541.794
        43.100          44.000
 116662160.431 6  90737453.442 6  21801124.177    21801113.938    21801127.350
        38.100          41.300
 115777514.117 7  90049235.601 6  21658585.920    21658585.669    21658592.714
        43.900          36.600
 109423150.635 6  85106924.314 7  20462680.933    20462679.669    20462688.920
        38.100          46.500


 25  1  1 20  2  0.0000000  0 27E31G07G02G30G08G13G27G04E33E24R10E09
                                G09E04R09G14S35S31E05E06S33R08R11R21
                                R01R20E26
 123477355.350 8                  23496948.474
        50.100
 106864980.111 8  83271364.85148  20335718.560    20335718.0024   20335719.1924
        50.900          48.9004
 120787211.712 6  94119961.59442  22985041.696    22985041.8484   22985049.6584
        40.600          16.0004
 111450268.531 7  86844365.89047  21208275.541    21208274.8754   21208278.2594
        46.600          43.0004
 110131494.471 7  85816681.71345  20957309.203    20957308.6854   20957315.0524
        42.000          30.1004
 126851101.373 6  98845015.13743  24138963.033    24138962.6184   24138964.8894
        38.800          20.2004
 124652217.947 5                  23720527.788
        31.100


 140219062.923 5                  26682801.949
        33.300
 138822014.761 5                  26416953.510
        31.400
 108560074.615 6                  20365602.974    20365603.415
        39.700
 128832278.842 8                  24515972.413
        49.200
 121817489.068 5  94922772.09743  23181101.886    23181102.4534   23181112.0554
        34.400          19.1004
 135412459.915 6                  25768130.946
        41.400
 122144838.320 5                  22873809.176    22873810.043
        30.600
 117958587.365 7  91915772.35544  22446762.888    22446762.9504   22446765.7354
        43.300          24.1004


 198899728.773 7                  37849378.787
        44.000
 132087833.609 7                  25135476.880
        44.100
 129143370.377 7                  24575175.654
        45.500
 202049531.780 7                  38448762.569
        44.500
                  93372816.808 6                  22418635.540    22418633.658
                        36.100
 110031087.149 6  85579729.907 7  20590824.413    20590823.668    20590827.761
        37.100          45.700
 116601924.367 7  90690603.581 6  21789859.897    21789861.131    21789870.376
        42.300          40.700
 115788668.363 7  90057911.121 6  21660669.789    21660671.190    21660678.945
        42.600          36.200
 109411529.922 6  85097886.017 7  20460507.772    20460507.664    20460515.756
        38.500          45.100
 139960989.710 5                  26633689.627
        30.200
 25  1  1 20  2 15.0000000  0 30G21E31G07G02G30G08G13G27G04G17E33E24
                                R10E09G09E04R09G14S35S31E05E06S33R08
                                R11R21R01R20R02E26
 116333941.243 5                  22137611.674
        32.400
 123475910.853 8                  23496673.412
        50.200
 106861534.074 8  83268679.61248  20335062.810    20335062.2744   20335063.5984
        50.300          49.3004
 120748438.739 6  94089749.07443  22977660.899    22977660.6674   22977670.3904
        41.000          20.5004
 111418979.200 8  86819984.59247  21202322.595    21202321.9474   21202324.4234
        49.000          45.0004
 110164834.126 7  85842660.66145  20963653.170    20963652.5764   20963658.1824
        42.100          30.4004
 126807048.250 6  98810688.06543  24130580.372    24130579.9524   24130581.7554
        39.500          18.4004
 124706593.318 5  97173994.11841  23730870.843    23730870.4374   23730882.1794
        30.700          11.3004


 125860062.520 5  98072874.77542  23950377.048    23950377.3524   23950398.7444
        32.800          15.5004


 138795043.545 5                  26411817.362
        32.300
 108576021.350 6                  20368596.191    20368595.427
        40.700
 128845014.141 8                  24518395.198
        48.400
 121870840.351 5  94964344.27443  23191253.681    23191254.1284   23191267.9054
        32.400          20.1004
 135455477.349 7                  25776315.713
        43.400
 122183922.784 5                  22881125.761
        31.700
 117925135.661 7  91889706.10344  22440397.364    22440397.3904   22440401.5834
        44.200          25.0004


 198899716.979 7                  37849381.148
        44.800
 132061044.686 7                  25130379.865
        43.300
 129173563.761 6                  24580920.021
        38.300
 202049541.193 7                  38448758.093
        45.700
                  93416765.673 6                                  22429189.558
                        36.300
 110005929.884 6  85560163.203 7  20586114.987    20586113.095    20586119.594
        41.500          45.300
                  90643813.244 6                  21778612.801    21778629.177
                        41.900
 115800008.629 6  90066731.252 6  21662793.472    21662792.514    21662803.498
        41.200          38.500
 109400112.867 6  85089006.121 7  20458372.299    20458371.811    20458379.452
        36.900          43.100
 126165275.337 5                  23643314.302
        32.700
 139949346.252 4                  26631468.391
        29.800
 25  1  1 20  2 30.0000000  0 30G21E31G07G02G30G08G13G27G04G17E33E24
                                R10E09G09E04R09G14S35S31E05E06S33R08
                                R11R21R01R20R02E26
 116308576.030 5                  22132784.465
        31.400
 123474501.289 8                  23496405.333
        49.100
 106858191.881 8  83266075.29748  20334427.726    20334427.1994   20334427.5994
        50.000          49.2004
 120709733.157 6  94059589.06343  22970296.765    22970296.4754   22970303.5584
        41.300          19.2004
 111387762.659 8  86795659.99547  21196381.946    21196381.2764   21196384.2844
        49.200          46.3004
 110198282.553 6  85868724.38945  20970018.663    20970018.1004   20970021.6284
        41.300          32.3004
 126763082.605 6  98776429.16443  24122213.930    24122213.5414   24122214.6564
        40.200          18.2004
 124761010.417 5  97216396.86941  23741239.155    23741238.9014   23741238.0284
        31.900           6.9004


 125806240.122 5  98030935.49841  23940133.452    23940133.8584   23940158.9614
        33.400          10.2004


 138768096.805 6                  26406697.136
        39.900
 108592026.892 6                  20371596.812    20371596.739
        39.200
 128857853.831 7                  24520838.858
        47.300


 135498532.477 7                  25784510.107
        42.200
 122223000.634 5  95062409.779 4  22888444.363    22888445.977    22888461.636
        33.200          29.800
 117891720.267 7  91863668.17543  22434039.385    22434039.4294   22434040.0434
        47.300          21.8004


 198899705.076 7                  37849371.525
        44.100
 132034338.422 6                  25125297.178
        38.400
 129203835.387 7                  24586682.588
        42.600
 202049551.095 7                  38448766.021
        46.600
                  93460762.396 6                                  22439755.644
                        37.700
 109980812.084 7  85540627.007 7  20581417.256    20581415.200    20581418.751
        45.400          46.200
 116481685.264 5  90597084.937 6  21767381.875    21767380.764    21767399.359
        33.200          39.200
 115811537.170 6  90075697.930 6  21664950.732    21664951.686    21664959.755
        41.400          38.600
 109388902.681 5  85080287.130 6  20456276.628    20456275.899    20456282.793
        35.200          41.600
 126127018.796 5                  23636109.784    23636112.150
        35.300
 139937803.596 5                  26629276.721
        33.400
 25  1  1 20  2 45.0000000  0 28E31G07G02G30G08G13G27G04G17E33E24R10
                                E09G09E04G14S35S31E05E06S33R08R11R21
                                R01R20R02E26
 123473125.945 8                  23496143.490
        49.100
 106854953.072 8  83263551.54248  20333811.337    20333810.8104   20333811.3834
        50.800          49.7004
 120671094.622 6  94029481.33242  22962940.607    22962940.2104   22962949.9304
        39.100          13.4004
 111356618.352 8  86771391.69647  21190455.265    21190454.5864   21190458.6914
        49.700          46.7004
 110231838.818 7  85894872.16645  20976405.258    20976404.7134   20976406.9624
        44.100          32.9004
 126719203.970 5  98742238.02842  24113861.401    24113860.9954   24113864.5184
        35.000          15.8004
 124815516.366 5  97258792.56841  23751593.389    23751593.1174   23751589.9014
        32.300           6.4004


 125752454.417 5  97989025.2894   23929900.533    23929901.0874   23929924.2844
        30.600           4.3004


 138741173.680 6                  26401566.985
        37.300
 108608090.593 6                  20374610.532    20374607.546
        39.300
 128870797.141 7                  24523302.013
        46.700
 121977646.807 5  95047589.23944  23211576.754    23211576.9594   23211592.9374
        35.700          24.3004
 135541624.384 6                  25792709.940
        37.800
 117858340.502 7  91837658.00443  22427686.536    22427686.5804   22427683.0014
        45.800          20.2004
 200818988.784 5                  38214576.157
        32.600
 198899692.618 7                  37849374.485
        44.400
 132007714.251 6                  25120231.564
        40.000
 129234184.426 6                  24592459.456
        37.700
 202049559.848 7                  38448764.635
        47.100
                  93504806.070 5                                  22450324.427
                        31.100
 109955732.843 7  85521120.947 7  20576721.925    20576722.862    20576726.718
        45.500          46.900


 115823253.181 6  90084810.462 6  21667138.050    21667138.412    21667152.093
        37.300          36.300
 109377898.506 5  85071728.383 6  20454215.432    20454216.185    20454223.539
        34.300          38.600
 126088908.864 5                  23628971.555    23628971.783
        34.300
 139926361.335 5                  26627093.062
        32.400
 25  1  1 20  3  0.0000000  0 27E31G07G02G30G08G13G27G04E33E24R10E09
                                G09E04G14S35S31E05E06S33R08R11R21R01
                                R20R02E26
 123471791.881 8                  23495890.091
        49.000
 106851824.917 8  83261114.01248  20333216.266    20333215.7484   20333215.9734
        50.700          50.0004
 120632530.825 5  93999431.72641  22955600.984    22955600.4934   22955611.0584
        35.900           6.3004
 111325553.677 8  86747185.43847  21184543.222    21184542.5074   21184547.1484
        49.100          45.7004
 110265509.783 7  85921109.31945  20982812.254    20982811.6604   20982815.5354
        42.400          34.2004
 126675419.636 5  98708120.39042  24105531.457    24105531.0604   24105532.4944
        35.600          16.6004
 124870021.833 4  97301264.2354   23761962.826    23761962.3934   23761965.7154
        29.600           5.0004




 138714281.627 6                  26396451.845
        40.000
 108624220.109 6                  20377637.051    20377635.862
        39.600
 128883851.149 7                  24525786.409
        45.500
 122031090.787 6  95089233.66744  23221748.580    23221748.6064   23221764.0944
        39.600          27.3004
 135584760.116 5                  25800912.644
        30.700
 117825003.480 7  91811681.12742  22421343.519    22421343.5194   22421336.1724
        43.300          17.0004


 198899686.343 7                  37849365.860
        43.000
 131981179.561 6                  25115181.462
        38.100
 129264617.879 7                  24598250.535
        42.900
 202049575.057 7                  38448770.797
        46.800
 120277070.179 5  93548901.822 5  22460893.537                    22460910.904
        35.900          33.000
 109930699.569 7  85501650.663 7  20572034.345    20572036.115    20572041.075
        46.500          46.000
 116361921.145 5  90503820.449 6  21744989.724    21744978.441    21744990.507
        34.800          40.700
 115835163.803 6  90094074.170 5  21669370.414    21669367.628    21669377.123
        37.100          32.000
 109367108.031 5  85063335.863 6  20452196.562    20452198.030    20452207.633
        33.100          40.700
 126050952.739 5                  23621863.045    23621859.828
        35.500
 139915026.771 5                  26624936.181
        31.800
 25  1  1 20  3 15.0000000  0 28E31G07G02G30G08G13G27G04E33E24R10E09
                                G09E04R09G14S35S31E05E06S33R08R11R21
                                R01R20R02E26
 123470488.977 8                  23495642.209
        49.100
 106848797.460 8  83258754.94548  20332639.523    20332639.0004   20332639.3304
        51.000          49.8004
 120594032.044 4  93969433.4394   22948274.865    22948274.4504   22948285.0874
        27.600           2.6004
 111294558.928 7  86723033.69147  21178645.764    21178645.0314   21178648.4254
        47.100          45.4004
 110299284.997 6  85947427.65645  20989240.392    20989239.7804   20989243.5104
        37.800          32.1004
 126631720.267 6  98674068.89442  24097215.777    24097215.3714   24097216.8014
        37.900          16.7004
 124924564.505 4  97343764.9064   23772338.109    23772337.5954   23772345.9564
        28.600           3.0004




 138687410.399 6                  26391339.018
        40.100
 108640404.678 7                  20380672.673    20380672.975
        43.000
 128897005.709 7                  24528290.266
        44.300
 122084559.247 6  95130897.13044  23231921.107    23231921.0944   23231937.7734
        40.100          27.1004
 135627950.868 5                  25809140.832
        34.500
 122340432.639 6  95153705.073 5  22910433.257    22910432.588    22910444.893
        37.800          33.100
 117791699.212 7  91785729.90942  22415005.808    22415005.7734   22414997.3524
        42.000          16.3004


 198899676.115 7                  37849366.575
        44.900
 131954724.516 6                  25110146.401
        37.200
 129295125.451 7                  24604055.056
        45.600
 202049586.525 7                  38448771.003
        46.300
 120333821.717 4                  22471519.381
        27.600
 109905702.165 7  85482208.176 7  20567357.505    20567358.006    20567363.539
        46.900          44.900
 116302086.684 7  90457282.807 6  21733796.572    21733797.274    21733808.893
        42.600          40.900
 115847256.405 5  90103481.139 5  21671627.506    21671627.492    21671640.909
        35.700          33.600
 109356521.082 5  85055101.614 7  20450220.982    20450220.383    20450230.000
        34.200          43.700
 126013140.912 5                  23614779.765    23614784.778
        35.000
 139903789.872 5                  26622798.165
        30.600
 25  1  1 20  3 30.0000000  0 28E31G07G02G30G08G13G27G04E33E24R10E09
                                G09E04R09G14S35S31E05E06S33R08R11R21
                                R01R20R02E26
 123469220.428 8                  23495400.565
        49.800
 106845874.065 8  83256476.96848  20332083.343    20332082.8074   20332082.9264
        50.300          49.5004
 120555601.795 6  93939488.01141  22940964.385    22940964.0724   22940972.0124
        39.500          11.3004
 111263637.550 8  86698939.11947  21172762.264    21172761.5274   21172763.5914
        49.200          45.7004
 110333167.328 7  85973829.45645  20995687.660    20995687.0214   20995691.3574
        42.900          33.9004
 126588109.182 6  98640086.27542  24088918.011    24088917.5694   24088917.9664
        36.900          12.9004
 124979147.355 5  97386297.07841  23782730.195    23782729.9144   23782735.6024
        32.700           9.8004




 138660563.112 7                  26386231.047
        43.200
 108656647.910 7                  20383719.805    20383719.755
        44.200
 128910263.947 7                  24530813.617
        43.100
 122138055.098 6  95172581.99745  23242103.016    23242102.7884   23242116.2324
        41.400          30.0004
 135671090.611 6                  25817354.644
        37.000
 122379640.570 5  95184199.914 5  22917777.393    22917774.129    22917790.450
        34.200          35.900
 117758430.965 7  91759806.58243  22408676.991    22408676.9654   22408668.3744
        43.200          20.1004


 198899665.941 7                  37849365.153
        44.000
 131928352.322 5                  25105128.568
        34.400
 129325710.251 7                  24609873.894
        44.400
 202049597.854 7                  38448770.989
        46.000
 120390631.998 5                  22482105.467    22482111.752
        32.700
 109880743.967 7  85462796.288 7  20562687.592    20562686.806    20562692.638
        46.600          44.000
 116242333.901 7  90410808.703 7  21722630.279    21722629.982    21722643.877
        42.700          44.000
 115859538.290 6  90113033.619 5  21673927.438    21673927.096    21673938.840
        39.800          33.400
 109346141.117 5  85047028.355 7  20448279.518    20448277.204    20448289.240
        33.800          44.100
                  97980825.269 5                                  23607725.733
                        32.500
 139892653.945 5                  26620679.869
        34.900
 25  1  1 20  3 45.0000000  0 30G21E31G07G02G30G08G13G27G04G17E33E24
                                R10E09G09E04R09G14S35S31E05E06S33R08
                                R11R21R01R20R02E26
 116183595.684 4  90532710.61541  22109002.413    22109002.6004   22109012.3574
        26.400           7.0004
 123467988.583 8                  23495166.074
        49.900
 106843057.350 8  83254282.10448  20331547.747    20331547.2204   20331546.6404
        49.700          48.5004
 120517242.936 6  93909598.24442  22933662.170    22933661.8354   22933671.6904
        39.400          15.0004
 111232792.230 7  86674903.79447  21166891.959    21166891.2444   21166893.2404
        47.000          46.1004
 110367158.918 6  86000316.40045  21002154.754    21002154.0394   21002159.5684
        40.000          34.9004
 126544589.203 6  98606174.60042  24080635.472    24080634.9764   24080636.5884
        36.900          14.8004
 125033772.258 5  97428862.07141  23793125.434    23793125.3634   23793132.3434
        34.300          11.0004


 125537754.031 6  97821711.65342  23889040.270    23889039.7884   23889059.5304
        37.200          14.9004


 138633742.324 6                  26381125.763
        40.700
 108672952.173 7                  20386778.680    20386778.551
        42.000
 128923628.231 7                  24533355.946
        43.700
 122191580.506 6  95214289.84745  23252288.136    23252287.8374   23252302.7324
        39.700          31.5004
 135714334.857 6                  25825584.840
        38.100
 122418882.717 6  95214721.324 5  22925124.750    22925124.613    22925133.909
        38.600          32.900
 117725201.123 7  91733913.28244  22402351.833    22402351.7354   22402351.0354
        42.400          24.3004


 198899657.376 7                  37849362.528
        43.500
 131902065.826 5                  25100125.142
        34.200
 129356374.408 7                  24615709.598
        44.500
 202049610.754 7                  38448777.455
        47.500
 120447502.988 6  93681493.515 5  22492739.864    22492739.873    22492751.057
        38.400          32.800
 109855827.573 7  85443416.950 6  20558023.358    20558023.780    20558023.039
        45.200          37.900
 116182665.760 7  90364400.415 7  21711479.505    21711480.304    21711493.873
        47.100          43.900
 115872009.341 6  90122733.296 5  21676262.297    21676260.389    21676270.389
        40.400          32.700
 109335970.544 5  85039117.901 7  20446377.150    20446378.580    20446386.019
        34.700          43.700
 125937963.482 5  97951648.342 5  23600679.198    23600686.360    23600696.508
        30.200          34.100
 139881621.572 5                  26618576.202
        34.900
 25  1  1 20  4  0.0000000  0 27E31G07G30G08G13G27G04G17E33E24R10E09
                                G09E04R09G14S35S31E05E06S33R08R11R21
                                R01R20E26
 123466791.288 8                  23494937.861
        48.400
 106840345.545 8  83252168.98248  20331031.829    20331031.3064   20331029.8064
        49.700          48.2004
 111202021.138 7  86650926.32747  21161036.708    21161036.0384   21161037.9194
        47.000          45.5004
 110401257.351 7  86026886.59346  21008645.581    21008644.9154   21008648.5684
        43.600          38.5004
 126501158.537 6  98572332.54842  24072371.582    24072371.0244   24072372.4174
        38.200          16.0004
 125088436.880 6  97471457.85142  23803527.570    23803527.4864   23803537.3574
        38.200          14.3004


 125484163.739 6  97779953.50043  23878833.121    23878832.8004   23878853.9644
        36.200          18.3004
 139910693.827 5                  26624118.809
        34.900
 138606945.861 6                  26376026.862
        39.900
 108689315.637 6                  20389849.654    20389846.182
        36.500
 128937096.379 7                  24535918.861
        45.000
 122245132.911 6  95256018.70545  23262478.714    23262478.4244   23262493.6004
        39.800          30.6004
 135757615.460 5                  25833820.092
        32.500
 122458156.901 6                  22932479.299    22932478.545
        39.500
 117692007.642 6  91708048.25244  22396037.823    22396037.7034   22396037.1674
        41.600          25.8004


 198899648.800 6                  37849348.094
        41.300
 131875862.982 5                  25095137.139
        34.400
 129387115.737 7                  24621560.393
        43.600
 202049623.623 7                  38448789.064
        46.000
 120504432.209 6  93725771.308 5  22503373.947    22503374.469    22503384.647
        40.300          32.100
 109830951.032 7  85424068.544 5  20553369.559    20553372.385    20553367.753
        44.800          34.800
 116123080.814 7  90318056.864 6  21700345.130    21700345.352    21700355.696
        47.200          41.100
 115884667.554 7  90132578.408 5  21678631.925    21678633.081    21678636.012
        43.400          32.600
 109326007.248 6  85031368.684 7  20444514.219    20444514.231    20444522.247
        36.000          44.800
 139870690.762 6                  26616499.017
        37.300
 25  1  1 20  4 15.0000000  0 29E31G07G30G08G13G27G04R19G17E33E24R10
                                E09G09E04R09G14S35S31E05E06S33R08R11
                                R21R01R20R02E26
 123465625.597 8                  23494716.495
        49.500
 106837735.881 8  83250135.48147  20330534.731    20330534.2264   20330532.4994
        49.700          46.4004
 111171321.683 7  86627004.66247  21155195.023    21155194.3354   21155196.9074
        42.000          43.7004
 110435459.440 7  86053537.55146  21015153.617    21015152.9074   21015157.7084
        44.700          41.1004
 126457814.727 5  98538558.10942  24064122.273    24064121.7014   24064125.0594
        35.700          14.8004
 125143137.928 6  97514081.83841  23813935.993    23813935.9004   23813947.1514
        36.900           8.0004


                  98476991.158 5                                  23669015.675
                        32.300
 125430609.660 5  97738223.62142  23868642.254    23868642.5534   23868660.8874
        32.800          15.4004
 139872312.152 5                  26616808.390
        31.600
 138580170.853 6                  26370932.662
        38.700
 108705735.260 6                  20392931.800    20392929.693
        40.100
 128950665.426 7                  24538500.831
        45.300
 122298709.088 6  95297766.09745  23272674.240    23272673.9774   23272689.8964
        40.100          31.6004
 135800929.165 6                  25842060.094
        37.600
 122497460.440 5                  22939841.647    22939837.195
        35.700
 117658847.764 5  91682209.40243  22389723.585    22389723.4514   22389727.3194
        34.200          23.3004


 198899636.458 7                  37849364.835
        44.300
 131849741.027 6                  25090172.952
        38.500
 129417931.130 7                  24627423.896
        43.900
 202049633.569 7                  38448777.169
        45.900
 120561415.924 5                  22514002.752
        34.900
 109806111.318 7  85404748.819 6  20548718.226    20548718.356    20548722.493
        44.300          40.600
 116063576.840 7  90271776.332 6  21689225.536    21689224.798    21689234.136
        47.500          38.900
 115897509.360 6  90142566.404 5  21681030.923    21681032.173    21681042.210
        39.500          35.100
 109316248.978 5  85023778.868 7  20442688.165    20442689.536    20442698.541
        34.800          45.100
                  97893640.136 5                                  23586724.016
                        30.300
 139859858.815 6                  26614437.826
        37.400
 25  1  1 20  4 30.0000000  0 29E31G07G02G30G08G13G27G04R19G17E33E24
                                R10E09G09E04R09G14S35S31E05E06S33R08
                                R11R21R01R20E26
 123464493.686 8                  23494500.716
        48.000
 106835230.493 8  83248183.24447  20330057.549    20330057.0354   20330055.9094
        48.400          45.5004
 120402527.192 4  93820189.57242  22911838.086    22911838.2554   22911848.8134
        27.400          13.1004
 111140696.230 7  86603140.63946  21149366.497    21149365.8184   21149369.5604
        43.300          40.7004
 110469766.905 8  86080270.62746  21021682.381    21021681.6484   21021686.3884
        48.000          41.6004
 126414560.157 6  98504853.18242  24055891.482    24055890.8794   24055894.1394
        36.300          12.5004
 125197877.200 5  97556735.87541  23824358.033    23824357.9044   23824364.4894
        34.900           7.6004


                  98517359.209 4                                  23678718.372
                        29.500
 125377093.858 5  97696523.47142  23858458.018    23858458.0804   23858475.7474
        31.500          13.6004
 139833967.248 5                  26609512.395
        33.400
 138553419.360 6                  26365840.897
        37.200
 108722213.421 6                  20396018.507    20396016.561
        38.700
 128964337.368 7                  24541102.603
        46.800
 122352310.782 5  95339533.36144  23282873.053    23282872.8304   23282890.9824
        33.500          29.7004
 135844278.005 6                  25850308.794
        37.200
 122536795.441 5                  22947209.884    22947209.242
        35.500
 117625723.487 5  91656351.31942  22383419.572    22383419.1524   22383418.9064
        31.900          14.0004


 198899624.043 7                  37849359.255
        44.900
 131823702.403 6                  25085218.491
        40.500
 129448822.438 7                  24633301.939
        42.600
 202049642.268 7                  38448784.784
        46.300
 120618455.848 5                  22524648.703    22524648.249
        33.800
 109781310.803 6  85385459.515 7  20544081.959    20544077.058    20544083.668
        41.200          44.000
 116004156.352 7  90225560.715 6  21678119.738    21678119.009    21678129.917
        45.200          40.000
 115910537.029 5  90152698.958 6  21683470.357    21683467.732    21683481.292
        30.000          36.400
 109306697.945 5  85016350.318 7  20440901.872    20440901.437    20440910.477
        30.400          42.700
 139849127.909 5                  26612395.058
        35.100
 25  1  1 20  4 45.0000000  0 29G21E31G07G02G30G08G13G27R19G17E33E24
                                R10E09G09E04R09G14S35S31E05E06S33R08
                                R11R21R01R20E26
 116085842.342 6  90456544.63641  22090400.302    22090400.1734   22090412.0354
        38.300           8.5004
 123463398.022 8                  23494292.371
        48.500
 106832832.141 7  83246314.39647  20329600.784    20329600.2574   20329601.0064
        47.200          45.2004
 120364424.589 5  93790507.35241  22904592.557    22904592.4734   22904599.8394
        33.600          11.5004
 111110147.559 7  86579336.48346  21143550.945    21143550.2434   21143556.2454
        43.600          40.3004
 110504182.132 7  86107087.65346  21028231.121    21028230.3664   21028235.1154
        45.300          41.0004
 126371397.685 6  98471220.07342  24047678.260    24047677.6434   24047680.6814
        37.200          13.2004




 125323619.442 6  97654855.62842  23848285.265    23848285.2614   23848300.0514
        36.400          16.4004
 139795662.112 6                  26602222.960
        36.500
 138526693.930 6                  26360754.273
        37.100
 108738752.599 6                  20399123.891    20399124.603
        40.400
 128978114.779 7                  24543722.953
        43.800
 122405940.209 5  95381322.17644  23293080.137    23293080.0174   23293095.9904
        32.100          27.0004
 135887664.433 6                  25858566.525
        37.500
 122576164.455 5                  22954586.788    22954579.647
        32.300
 117592637.416 6  91630569.97643  22377124.234    22377123.6764   22377125.3614
        37.100          19.1004


 198899612.920 7                  37849361.021
        45.300
 131797749.790 6                  25080280.828
        40.200
 129479792.172 6                  24639195.534
        40.300
 202049652.516 7                  38448778.005
        45.500
 120675554.232 6                  22535314.369    22535315.515
        38.500
 109756552.006 6  85366202.693 7  20539444.673    20539443.468    20539451.232
        40.800          44.500
 115944822.566 6  90179412.523 6  21667033.538    21667030.217    21667044.930
        41.100          40.600
 115923752.862 7  90162977.875 5  21685944.279    21685944.059    21685953.903
        42.200          34.100
 109297356.430 4  85009084.747 6  20439153.416    20439154.464    20439163.330
        26.900          41.200
 139838500.869 5                  26610372.504
        35.800
 25  1  1 20  5  0.0000000  0 27G21E31G07G02G30G08G13G27G17E33E24R10
                                E09G09E04G14S35S31E05E06S33R08R11R21
                                R01R20E26
 116061722.402 5  90437749.98441  22085808.396    22085808.2984   22085817.2464
        33.300           7.9004
 123462338.202 8                  23494090.484
        48.100
 106830540.729 7  83244528.88447  20329165.186    20329164.6504   20329165.8954
        46.100          45.2004
 120326417.523 6  93760891.65343  22897365.383    22897365.0034   22897369.1224
        41.200          23.0004
 111079675.695 6  86555592.16646  21137752.589    21137751.8964   21137756.8634
        41.000          39.8004
 110538704.357 7  86133988.07646  21034800.682    21034799.9364   21034803.9874
        46.400          40.4004
 126328327.357 6  98437658.77142  24039482.641    24039482.0914   24039484.6534
        36.500          13.0004
 125307476.458 5  97642158.29441  23845205.292    23845205.0204   23845212.3394
        34.000           7.8004
 125270186.335 6  97613219.93242  23838115.999    23838115.9324   23838131.7604
        37.400          16.3004
 139757396.631 6                  26594941.265
        38.300
 138499994.299 6                  26355674.686
        36.300
 108755352.399 6                  20402237.437    20402235.408
        38.600
 128991997.183 7                  24546365.725
        44.700


 135931087.547 6                  25866827.796
        36.100
 117559589.215 6  91604818.13343  22370835.499    22370835.0264   22370836.8694
        37.600          20.0004


 198899602.971 7                  37849361.848
        45.500
 131771883.156 6                  25075356.045
        38.600
 129510839.790 7                  24645103.926
        43.400
 202049664.895 7                  38448782.048
        46.900
 120732709.957 6                  22546006.008    22546007.133
        36.100
 109731835.046 7  85346978.371 7  20534818.458    20534817.092    20534824.377
        42.100          44.600
 115885575.834 7  90133331.878 6  21655961.126    21655962.817    21655973.054
        42.200          41.400
 115937156.238 7  90173402.647 4  21688452.453    21688452.728    21688454.854
        42.900          29.200
 109288224.966 5  85001982.492 6  20437447.661    20437447.851    20437456.726
        31.100          40.200
 139827977.222 5                  26608372.294
        33.000
 25  1  1 20  5 15.0000000  0 27E31G07G02G30G08G13G27E33E24R10E09G09
                                E04R09G14S35S31E05E06S33R08R11R21R01
                                R20R02E26
 123461314.654 7                  23493895.435
        46.600
 106828356.891 7  83242827.18847  20328750.200    20328749.6954   20328750.2404
        47.200          45.6004
 120288484.071 7  93731333.36344  22890145.915    22890145.2814   22890150.7384
        44.400          26.0004
 111049281.414 7  86531908.30446  21131970.157    21131969.4474   21131972.3014
        43.700          41.8004
 110573333.818 7  86160972.06446  21041389.469    21041388.7184   21041393.2184
        45.100          37.8004
 126285350.026 6  98404170.00441  24031304.320    24031303.8334   24031306.5564
        37.700          11.9004
 125362335.938 5  97684905.70941  23855648.197    23855647.8404   23855654.2574
        30.800          11.3004
 139719171.527 5                  26587666.274
        35.100
 138473320.873 5                  26350597.962
        33.100
 108772013.642 6                  20405363.159    20405360.821
        37.200
 129005985.027 7                  24549027.997
        44.900


 135974548.017 5                  25875095.532
        34.600


 117526579.596 6  91579096.32944  22364552.752    22364552.4224   22364555.2634
        40.000          24.7004
 200818631.422 5                  38214513.196
        32.900
 198899595.090 7                  37849357.775
        45.400
 131746103.034 6                  25070449.862
        40.500
 129541965.551 7                  24651027.348
        45.900
 202049678.287 7                  38448776.959
        43.300
                                                  22556676.170

 109707160.344 7  85327786.870 7  20530202.649    20530202.065    20530206.399
        43.400          45.300
 115826417.300 6  90087319.859 6  21644904.350    21644904.436    21644915.777
        41.700          40.600
 115950747.361 6                  21690993.009    21690992.950
        41.900
 109279303.804 5  84995043.814 6  20435778.953    20435778.993    20435785.605
        33.400          37.800
 125715839.644 6                  23559101.629    23559101.576
        40.200


 25  1  1 20  5 30.0000000  0 25G21E31G07G02G30G08G13G27G17E33E24R10
                                E09G09E04G14S31E05E06S33R11R21R01R20
                                E26
 116013867.904 5                  22076705.081
        33.400
 123460326.034 8                  23493707.624
        49.000
 106826279.637 8  83241208.52947  20328354.600    20328354.0824   20328354.6134
        49.200          46.5004
 120250623.223 7  93701831.65444  22882940.400    22882939.4124   22882945.5154
        45.700          25.9004
 111018963.549 7  86508283.96547  21126202.598    21126201.8704   21126202.3034
        46.700          43.7004
 110608068.826 7  86188038.32146  21047998.738    21047998.0054   21048002.2414
        43.900          36.8004
 126242464.743 6  98370752.79841  24023141.002    24023140.3944   24023145.9124
        36.100          10.3004


 125163378.216 6  97529968.11143  23817801.464    23817801.3214   23817815.1984
        36.900          19.1004
 139680985.757 5                  26580399.451
        34.100
 138446672.123 6                  26345527.806
        39.300
 108788734.937 6                  20408501.675    20408501.564
        41.500
 129020076.857 7                  24551708.397
        43.800




 117493607.055 8  91553403.43844  22358279.153    22358278.8814   22358280.5884
        48.400          28.4004
 198899587.622 7                  37849356.053
        45.200
 131720408.190 6                  25065559.728
        38.200
 129573167.966 7                  24656964.781
        44.100
 202049693.031 7                  38448790.758
        46.500
 109682526.604 7  85308627.334 7  20525595.448    20525596.173    20525597.497
        47.400          45.400
 115767345.918 6  90041375.719 6  21633863.720    21633864.161    21633877.604
        41.000          39.400
 115964524.636 5  90194696.275 5  21693570.793    21693567.540    21693575.538
        34.700          31.800
 109270591.926 5  84988267.988 7  20434150.506    20434151.197    20434160.233
        34.900          42.600


 25  1  1 20  5 45.0000000  0 27G21E31G07G02G30G08G13G27G17E33E24R10
                                E09G09E04G14S31E05E06S33R08R11R21R01
                                R20R02E26
 115990123.837 5  90381991.93941  22072192.159    22072192.3024   22072205.6854
        35.700           7.5004
 123459367.053 8                  23493525.218
        48.400
 106824303.737 8  83239668.88447  20327978.693    20327978.1884   20327978.8314
        49.800          47.9004
 120212830.294 7  93672382.86344  22875748.606    22875747.5064   22875751.5504
        44.800          27.2004
 110988717.226 7  86484715.44347  21120446.765    21120446.0144   21120446.3454
        44.300          42.6004
 110642903.889 6  86215182.50845  21054626.809    21054626.1344   21054631.3054
        39.400          32.8004
 126199666.556 5  98337403.44341  24014998.200    24014997.4404   24015002.5554
        35.200           9.8004


 125110064.121 5  97488425.17542  23807657.446    23807656.9734   23807669.0644
        34.800          16.9004
 139642834.463 6                  26573143.810
        38.200
 138420043.176 6                  26340459.279
        37.900
 108805510.913 7                  20411648.412    20411649.680
        42.500
 129034267.500 7                  24554408.807
        45.600
 122620722.075 6  95548704.37644  23333951.666    23333951.3674   23333966.9374
        39.700          24.6004


 117460666.487 7  91527735.50544  22352011.026    22352010.7674   22352012.9974
        46.200          28.8004
 198899575.403 7                  37849351.698
        46.000
 131694793.799 6                  25060685.342
        40.500
 129604441.669 7                  24662915.936
        44.300
 202049702.506 7                  38448789.113
        45.600
 120904508.439 5  94036929.023 5  22578081.447    22578078.724    22578085.427
        33.400          33.400
 109657928.672 7  85289495.602 7  20520989.389    20520990.276    20520994.548
        46.500          45.200
 115708357.264 6  89995495.834 6  21622840.858    21622840.905    21622853.087
        37.900          39.000
 115978483.869 6                  21696184.784
        36.200
 109262083.941 6  84981650.667 7  20432560.827    20432560.605    20432567.713
        37.200          43.000




 25  1  1 20  6  0.0000000  0 28G21E31G07G02G30G08G13G27G17E33E24R10
                                E09G09E04R09G14S35S31E05E06S33R08R11
                                R21R01R20E26
 115966509.581 5  90363591.2114   22067692.005    22067691.7194   22067709.2414
        32.100           4.4004
 123458444.609 8                  23493350.017
        48.600
 106822436.408 8  83238213.80648  20327623.520    20327623.0114   20327623.8164
        50.000          48.7004
 120175112.422 7  93642992.61544  22868571.602    22868570.5204   22868573.7514
        44.400          26.3004
 110958549.673 8  86461208.27747  21114706.091    21114705.3314   21114706.7404
        48.800          44.1004
 110677845.588 6  86242409.75645  21061276.731    21061276.1774   21061281.1844
        40.200          30.0004
 126156962.813 6  98304127.68141  24006873.090    24006872.1964   24006877.3404
        40.400           9.2004


 125056879.642 6  97446905.42842  23797517.876    23797517.3624   23797530.2464
        36.900          14.3004
