     2.11           OBSERVATION DATA    M (MIXED)           RINEX VERSION / TYPE
teqc  2019Feb25                         20260317 16:18:01UTCPGM / RUN BY / DATE
Linux 2.4.21-27.ELsmp|Opteron|gcc -static|Linux 64|=+       COMMENT
BIT 2 OF LLI FLAGS DATA COLLECTED UNDER A/S CONDITION       COMMENT
-Unknown-                                                   MARKER NAME
-Unknown-           -Unknown-                               OBSERVER / AGENCY
-Unknown-           -Unknown-           -Unknown-           REC # / TYPE / VERS
-Unknown-           -Unknown-                               ANT # / TYPE
        0.0000        0.0000        0.0000                  APPROX POSITION XYZ
        0.0000        0.0000        0.0000                  ANTENNA: DELTA H/E/N
     1     1                                                WAVELENGTH FACT L1/2
     7    L1    L2    C1    P1    P2    S1    S2            # / TYPES OF OBSERV
 SNR is mapped to RINEX snr flag value [0-9]                COMMENT
  L1 & L2: min(max(int(snr_dBHz/6), 0), 9)                  COMMENT
  2025     1     1     7     0    0.0000000     GPS         TIME OF FIRST OBS
    18                                                      LEAP SECONDS
                                                            END OF HEADER
 25  1  1  7  0  0.0000000  0 22G18R01G23G15E03G05G29R03E15E26R18S35
                                R17R02S31G13S33E07E08E21E13R24
 111274622.830 7  86707520.07545  21174855.768    21174855.4874   21174855.3414
        47.700          34.4004
 110526233.398 7  85964876.119 7  20676218.907    20676217.609    20676223.160
        44.100          42.000
 115630340.485 6  90101561.27644  22003723.053    22003722.7494   22003723.0884
        40.000          25.8004
 105011484.717 7  81827119.33847  19983003.025    19983002.7124   19983003.0524
        44.600          44.5004
 138820665.501 6                  26416687.908
        36.100
 117071586.184 5  91224609.87242  22277964.967    22277965.1864   22277967.8574
        31.200          14.5004
 110870460.819 7  86392528.92247  21097949.223    21097948.6514   21097949.5984
        44.800          42.7004
 117748985.243 6  91582565.035 6  21996489.531    21996487.152    21996493.412
        37.200          39.400
 135706685.147 5                  25824116.803
        31.000
 134490711.644 6                  25592693.753
        40.600
 120708303.437 7  93884252.267 6  22612733.378    22612731.633    22612737.690
        43.700          37.600
 200875408.461 5                  38225304.796
        34.100
 104227867.071 8  81066167.944 8  19477475.322    19477476.515    19477479.365
        49.600          48.000
 102420448.101 8  79660379.088 7  19193543.342    19193543.391    19193548.669
        50.800          46.600
 198899769.163 7                  37849375.397
        42.700
 110837016.506 8  86366522.56145  21091587.127    21091586.8284   21091586.1834
        49.200          30.7004
 202035308.949 7                  38446051.997
        44.500
 133117482.764 7                  25331400.816
        44.000
 125702476.928 8                  23920381.437
        48.800


 123172192.168 8                  23438872.712
        48.700
 108540746.810 7  84420588.336 7  20297667.569    20297668.079    20297673.962
        46.800          42.800
 25  1  1  7  0 15.0000000  0 21G18R01G23G15E03G29R03E15E26R18S35R17
                                R02S31G13S33E07E08E21E13R24
 111247272.681 7  86686208.28045  21169650.828    21169650.5564   21169650.1714
        46.900          33.6004
 110573062.254 7  86001298.582 6  20684978.782    20684977.629    20684984.079
        42.900          41.200
 115600034.738 7  90077946.43744  21997957.078    21997956.7524   21997956.6444
        46.100          28.1004
 104999677.952 7  81817919.26347  19980755.576    19980755.2814   19980756.4874
        46.100          46.4004
 138852893.248 6                  26422820.907
        37.100
 110902980.202 7  86417868.69647  21104138.695    21104138.1014   21104139.2044
        44.300          43.1004
 117693267.586 7  91539229.013 6  21986085.112    21986082.831    21986084.195
        44.800          40.100
 135732975.268 5                  25829118.391
        30.700
 134460821.811 6                  25587005.500
        39.000
 120652068.256 7  93840513.826 6  22602200.920    22602199.549    22602201.921
        47.300          36.700
 200875407.698 5                  38225306.790
        31.900
 104202217.121 7  81046217.971 8  19472680.595    19472682.256    19472686.456
        47.400          48.000
 102412256.753 8  79654008.055 7  19192009.127    19192009.195    19192014.420
        52.200          47.100
 198899758.429 6                  37849373.551
        41.200
 110853870.322 8  86379655.39245  21094794.157    21094793.8584   21094792.9894
        48.900          30.7004
 202035275.416 7                  38446042.276
        44.000
 133076637.416 7                  25323628.857
        43.500
 125697394.128 8                  23919414.385
        49.500


 123169563.379 8                  23438372.246
        48.800
 108573349.777 7  84445946.193 7  20303764.205    20303764.859    20303770.205
        46.400          42.400
 25  1  1  7  0 30.0000000  0 23G18R01G23G15G26E03G05G29R03E15E26R18
                                S35R17R02S31G13S33E07E08E21E13R24
 111219988.275 7  86664947.71345  21164459.149    21164458.8774   21164457.9384
        46.200          32.6004
 110619993.284 6  86037800.574 6  20693758.196    20693753.698    20693762.970
        37.000          40.800
 115569793.122 6  90054381.57644  21992202.853    21992202.5184   21992201.9884
        41.900          27.6004
 104988036.160 7  81808847.75347  19978540.575    19978540.2854   19978540.8564
        47.700          47.4004


 138885195.898 5                  26428966.298
        35.800
 117149174.225 6  91285072.40343  22292750.082    22292750.4754   22292745.2144
        36.200          18.6004
 110935632.408 7  86443311.98847  21110351.842    21110351.2124   21110352.9314
        46.700          43.9004
 117637644.608 7  91495966.722 6  21975693.788    21975693.759    21975694.397
        47.200          40.600
 135759310.402 4                  25834175.588
        28.500
 134430946.689 7                  25581322.542
        42.200
 120595852.120 7  93796790.171 6  22591668.733    22591668.260    22591672.041
        46.300          36.100
 200875414.559 5                  38225310.094
        35.300
 104176697.560 6  81026369.389 8  19467908.007    19467908.749    19467917.113
        40.600          48.300
 102404249.952 8  79647780.533 7  19190508.509    19190508.563    19190513.922
        52.100          46.700
 198899754.602 7                  37849370.309
        43.100
 110870887.308 8  86392915.35744  21098032.802    21098032.5034   21098030.0464
        48.800          29.7004
 202035248.372 6                  38446038.551
        41.900
 133035851.388 7                  25315867.662
        43.900
 125692425.838 8                  23918469.077
        49.700


 123166985.589 8                  23437881.872
        49.200
 108606090.774 6  84471411.532 7  20309886.398    20309883.331    20309893.185
        38.100          42.500
 25  1  1  7  0 45.0000000  0 23G18R01G23G15G26E03G05G29R03E15E26R18
                                S35R17R02S31G13S33E07E08E21E13R24
 111192757.452 7  86643728.88045  21159277.670    21159277.3894   21159275.7614
        46.500          32.2004
 110667013.551 7  86074371.905 6  20702553.907    20702553.082    20702558.893
        44.500          40.000
 115539603.351 7  90030857.16544  21986459.097    21986458.7984   21986455.8994
        42.300          27.5004
 104976546.816 8  81799895.03648  19976354.193    19976353.9074   19976354.3314
        49.500          48.1004




 117188050.028 6  91315365.20943  22300147.328    22300147.5964   22300144.0464
        40.300          22.6004
 110968404.763 7  86468848.87947  21116587.253    21116586.6414   21116589.2434
        45.400          44.2004
 117582103.790 7  91452768.373 7  21965316.925    21965315.659    21965320.135
        44.400          43.900


 134401074.200 6                  25575637.505
        40.600
 120539643.080 7  93753072.030 6  22581136.987    22581135.711    22581143.056
        43.200          37.700
 200875417.134 6                  38225307.496
        38.900
 104151296.120 6  81006612.715 8  19463163.136    19463161.179    19463171.179
        39.500          48.400
 102396414.985 8  79641686.670 7  19189040.144    19189040.275    19189045.298
        51.500          46.400
 198899746.363 6                  37849364.554
        39.900
 110888055.033 8  86406292.77645  21101299.833    21101299.5614   21101296.8974
        50.400          30.6004
 202035218.366 7                  38446034.204
        44.300
 132995112.503 7                  25308115.024
        43.800
 125687559.698 8                  23917543.115
        49.500
 146430678.934 6                  27864832.748
        37.500
 123164446.676 8                  23437398.798
        48.800
 108638957.658 7  84496974.558 6  20316032.316    20316030.260    20316038.983
        43.200          41.500
 25  1  1  7  1  0.0000000  0 24G18R01G23G15G26G10E03G05G29R03E15E26
                                R18S35R17R02S31G13S33E07E08E21E13R24
 111165587.852 7  86622557.76645  21154107.676    21154107.4044   21154105.6804
        45.100          31.6004
 110714130.062 7  86111018.069 6  20711366.803    20711367.303    20711373.373
        46.700          39.500
 115509472.797 7  90007378.84544  21980726.087    21980725.7574   21980720.5294
        45.400          27.9004
 104965217.370 8  81791066.91147  19974198.283    19974198.0114   19974198.5034
        49.900          47.3004






 117226956.449 6  91345681.92444  22307549.697    22307549.7014   22307550.5204
        40.200          24.5004
 111001304.440 7  86494484.98047  21122847.664    21122847.0794   21122850.1364
        47.600          45.2004
 117526653.421 7  91409640.373 6  21954955.884    21954954.570    21954960.794
        42.200          41.400
 135812186.123 5                  25844188.694
        30.900
 134371211.541 6                  25569956.128
        41.800
 120483449.110 7  93709365.654 6  22570610.933    22570609.677    22570616.915
        42.900          39.200
 200875421.866 6                  38225321.868
        38.500
 104126020.682 7  80986953.961 8  19458444.276    19458443.393    19458448.086
        46.100          48.900
 102388759.348 8  79635732.288 7  19187606.145    19187605.859    19187611.021
        52.400          46.900
 198899741.138 7                  37849376.390
        42.200
 110905380.689 8  86419793.26745  21104596.651    21104596.3434   21104594.4864
        49.000          31.3004
 202035190.570 7                  38446026.603
        42.100
 132954428.341 7                  25300372.807
        43.400
 125682803.117 8                  23916638.088
        49.100
 146467793.385 5                  27871894.064
        31.600
 123161954.005 8                  23436924.214
        48.800
 108671957.417 7  84522641.067 6  20322204.975    20322205.446    20322208.740
        47.300          40.300
 25  1  1  7  1 15.0000000  0 24G18R01G23G15G26G10E03G05G29R03E15E26
                                R18S35R17R02S31G13S33E07E08E21E13R24
 111138476.384 7  86601431.97945  21148949.449    21148949.1904   21148946.9214
        44.800          30.2004
 110761338.882 7  86147736.017 6  20720198.256    20720199.142    20720204.774
        46.600          39.100
 115479398.195 7  89983944.12245  21975001.176    21975000.8104   21974998.2834
        46.300          30.3004
 104954044.603 8  81782360.86647  19972072.285    19972072.0044   19972072.1264
        50.900          47.4004






 117265890.310 6  91376019.91544  22314959.472    22314959.3614   22314963.0264
        40.200          28.0004
 111034327.860 7  86520217.50047  21129131.159    21129130.6014   21129134.1704
        47.300          44.6004
 117471290.167 7  91366580.085 6  21944615.512    21944613.415    21944618.405
        42.200          38.900
 135838629.208 5                  25849219.215
        32.200
 134341355.742 7                  25564275.036
        42.200
 120427266.990 6  93665668.446 6  22560084.410    22560081.863    22560091.118
        38.900          38.200
 200875427.118 5                  38225317.947
        32.300
 104100868.274 8  80967390.958 8  19453741.467    19453743.807    19453747.789
        48.200          49.300
 102381279.515 8  79629914.601 7  19186203.869    19186204.166    19186209.163
        52.100          47.100
 198899735.541 6                  37849374.365
        41.900
 110922860.803 7  86433414.10645  21107923.307    21107923.0124   21107922.5944
        45.400          31.7004
 202035161.557 7                  38446028.226
        44.000
 132913795.764 7                  25292640.715
        42.400
 125678152.838 8                  23915753.303
        49.800
 146504918.311 5                  27878961.465
        33.600
 123159504.509 8                  23436458.334
        49.700
 108705086.981 8  84548408.430 6  20328400.149    20328400.275    20328403.556
        49.600          38.900
 25  1  1  7  1 30.0000000  0 24G18R01G23G15G26G10E03G05G29R03E15E26
                                R18S35R17R02S31G13S33E07E08E21E13R24
 111111424.311 7  86580352.45744  21143800.211    21143799.9614   21143798.7964
        42.600          29.1004
 110808640.878 8  86184526.398 6  20729047.554    20729048.962    20729054.759
        48.700          40.300
 115449380.520 7  89960553.73645  21969287.931    21969287.5744   21969287.8154
        44.100          30.2004
 104943029.630 8  81773777.76047  19969975.917    19969975.6404   19969975.4414
        51.700          47.2004
 134051310.091 5                  25509111.670
        30.500




 117304852.705 6  91406380.19344  22322373.637    22322373.4904   22322379.4084
        41.900          25.6004
 111067475.706 7  86546046.95547  21135439.396    21135438.8384   21135440.6924
        46.300          42.2004
 117416015.599 7  91323588.762 6  21934291.410    21934289.745    21934293.308
        44.500          39.700


 134311507.716 6                  25558594.262
        41.000
 120371098.176 7  93621981.522 6  22549563.820    22549566.338    22549567.883
        45.300          39.200
 200875390.669 5                  38225318.210
        34.800
 104075840.460 7  80947924.882 8  19449062.474    19449063.128    19449069.868
        47.600          48.100
 102373976.424 8  79624234.458 7  19184835.486    19184835.505    19184840.672
        51.800          47.800
 198899729.691 6                  37849371.713
        41.400
 110940495.993 7  86447155.78645  21111278.949    21111278.6414   21111279.2984
        45.500          31.3004
 202035133.414 7                  38446016.103
        43.100
 132873216.036 7                  25284918.662
        44.200
 125673609.818 8                  23914888.065
        48.300
 146542054.488 4                  27886026.352
        28.300
 123157099.183 8                  23436000.420
        49.100
 108738347.158 8  84574277.412 6  20334619.881    20334620.723    20334623.069
        50.700          40.300
 25  1  1  7  1 45.0000000  0 25G18R01G23G15G26G16G10E03G05G29R03E15
                                E26R18S35R17R02S31G13S33E07E08E21E13
                                R24
 111084431.711 7  86559319.25045  21138663.969    21138663.6794   21138662.4264
        45.800          30.4004
 110856035.258 7  86221388.737 6  20737914.118    20737914.857    20737920.918
        47.400          40.000
 115419419.766 6  89937207.67144  21963587.426    21963587.0604   21963587.8924
        39.500          28.9004
 104932172.454 8  81765317.60747  19967910.042    19967909.7704   19967909.3054
        50.600          46.6004
 134078055.068 5                  25514199.726
        35.200
 131037020.815 5                  24935516.272
        31.500
 134247378.598 5 104608372.22941  25546423.606    25546423.5574   25546434.3484
        30.600           8.0004


 117343843.181 6  91436762.19343  22329794.880    22329794.7424   22329797.3524
        38.200          20.7004
 111100747.809 7  86571973.23846  21141770.473    21141769.9064   21141770.6904
        43.400          39.7004
 117360829.668 7  91280666.424 6  21923981.316    21923980.271    21923982.412
        47.300          38.500


 134281667.680 6                  25552915.835
        40.300
 120314943.136 6  93578305.456 6  22539045.065    22539046.103    22539048.301
        39.300          37.400


 104050937.480 8  80928555.905 7  19444410.717    19444410.454    19444415.222
        49.400          45.600
 102366849.836 8  79618691.580 7  19183499.604    19183499.747    19183505.195
        51.600          47.900
 198899725.077 6                  37849365.408
        39.300
 110958286.100 7  86461018.18945  21114664.237    21114663.9294   21114664.0714
        47.400          32.0004
 202035105.939 7                  38446016.859
        43.800
 132832689.395 7                  25277206.389
        43.600
 125669174.100 8                  23914043.876
        48.000


 123154738.141 8                  23435550.996
        48.700
 108771737.670 8  84600247.846 6  20340863.753    20340863.126    20340866.505
        48.200          40.300
 25  1  1  7  2  0.0000000  0 25G18R01G23G15G26G16G10E03G05G29R03E15
                                E26R18S35R17R02S31G13S33E07E08E21E13
                                R24
 111057497.710 7  86538331.70745  21133538.442    21133538.1434   21133536.7224
        47.300          32.8004
 110903520.539 7  86258321.699 6  20746796.248    20746796.729    20746801.994
        47.000          39.100
 115389514.757 7  89913905.09744  21957897.282    21957897.0014   21957897.7124
        42.200          28.9004
 104921471.795 8  81756979.45047  19965873.705    19965873.4194   19965873.0274
        49.900          45.3004
 134104863.508 5                  25519299.017
        30.800
 131044142.943 5 102112325.8834   24936873.035    24936873.1114   24936873.4064
        30.900           5.6004
 134206922.161 5 104576847.65841  25538726.210    25538726.1794   25538733.7624
        31.900          11.0004


 117382860.501 7  91467165.28443  22337219.563    22337219.4874   22337220.7644
        42.100          18.6004
 111134142.637 7  86597995.16246  21148126.701    21148126.1384   21148125.8494
        45.200          39.6004
 117305731.763 7  91237812.494 6  21913689.612    21913690.495    21913690.428
        46.400          40.400


 134251834.417 5                  25547238.475
        35.500
 120258800.591 4  93534639.033 6  22528522.829    22528522.417    22528531.644
        29.200          38.600


 104026158.506 8  80909283.356 7  19439781.901    19439781.931    19439785.563
        50.900          45.900
 102359898.776 8  79613285.181 8  19182197.930    19182198.299    19182203.278
        51.900          48.300
 198899719.397 7                  37849372.401
        43.200
 110976230.181 7  86475000.56345  21118077.843    21118077.5354   21118077.6634
        46.300          30.0004
 202035077.267 7                  38446012.374
        44.500
 132792214.655 6                  25269503.802
        40.800
 125664844.405 7                  23913219.850
        45.200


 123152420.332 8                  23435109.623
        48.400
 108805257.465 8  84626318.730 7  20347132.299    20347132.922    20347136.967
        51.500          42.600
 25  1  1  7  2 15.0000000  0 25G18R01G23G15G26G16G10E03G05G29R03E15
                                E26R18S35R17R02S31G13S33E07E08E21E13
                                R24
 111030620.793 8  86517388.66646  21128423.701    21128423.4024   21128422.8714
        48.700          36.5004
 110951094.483 7  86295323.590 6  20755697.428    20755698.003    20755701.721
        47.800          37.800
 115359663.831 7  89890644.61044  21952214.980    21952214.7124   21952217.8264
        42.800          28.4004
 104910926.302 8  81748762.18147  19963866.854    19963866.5554   19963866.0064
        49.300          45.3004


 131051390.616 6 102117973.31341  24938251.415    24938251.6434   24938251.8194
        36.200           8.2004
 134166485.892 4 104545338.79041  25531028.786    25531028.9734   25531038.7984
        27.100           7.0004


 117421902.700 7  91497587.77443  22344648.114    22344648.1274   22344647.9864
        43.000          21.3004
 111167658.380 7  86624111.36046  21154504.964    21154504.3834   21154505.0394
        44.000          40.9004
 117250720.562 7  91195026.024 6  21903406.994    21903407.293    21903414.795
        42.300          40.200
 135944625.359 5                  25869408.215
        35.600
 134222006.416 5                  25541562.045
        35.600
                  93490981.518 6                                  22518015.537
                        37.200
 200875403.376 5                  38225319.941
        34.200
 104001502.412 8  80890106.422 7  19435173.844    19435174.308    19435176.801
        51.100          45.100
 102353121.381 8  79608013.898 8  19180927.218    19180927.415    19180933.252
        50.500          48.700
 198899711.471 6                  37849360.297
        41.700
 110994326.202 7  86489101.34745  21121522.010    21121521.6894   21121520.8884
        45.700          30.3004
 202035046.428 7                  38446000.166
        44.000
 132751790.484 6                  25261811.934
        40.700
 125660619.118 7                  23912416.218
        44.600
 146653544.440 5                  27907242.332
        33.800
 123150144.156 8                  23434676.408
        48.300
 108838904.338 8  84652488.482 7  20353423.551    20353424.030    20353430.221
        50.200          43.900
 25  1  1  7  2 30.0000000  0 25G18R01G23G15G26G16G10E03G05G29R03E15
                                E26R18S35R17R02S31G13S33E07E08E21E13
                                R24
 111003804.469 8  86496492.80846  21123321.390    21123321.0954   21123320.8084
        48.600          37.8004
 110998759.841 7  86332396.586 6  20764613.923    20764614.195    20764618.870
        46.900          37.900
 115329870.289 7  89867428.82944  21946546.029    21946545.7884   21946548.6404
        42.900          28.2004
 104900539.230 8  81740668.35547  19961890.202    19961889.8984   19961889.5094
        49.700          45.3004


 131058767.124 5 102123721.14941  24939653.902    24939653.9284   24939655.4664
        34.500           9.9004




 117460972.923 7  91528032.07043  22352082.737    22352082.7414   22352080.6454
        42.500          20.3004
 111201297.955 7  86650324.05347  21160905.399    21160904.8364   21160907.2224
        47.800          43.6004
 117195799.421 6  91152309.583 6  21893148.756    21893148.926    21893156.987
        41.600          40.500
 135971252.897 5                  25874471.598
        32.700
 134192187.051 4                  25535887.263
        28.600
 120146529.393 7  93447335.730 6  22507502.633    22507504.123    22507504.313
        44.300          38.900
 200875407.025 5                  38225336.486
        31.900
 103976972.679 8  80871027.804 7  19430589.182    19430589.437    19430593.016
        51.200          45.800
 102346520.735 8  79602880.068 8  19179690.200    19179690.541    19179696.084
        50.400          48.700
 198899704.263 7                  37849357.828
        42.500
 111012577.347 7  86503323.00845  21124995.281    21124994.9554   21124993.8594
        46.300          30.6004
 202035016.645 7                  38446000.283
        45.500
 132711420.404 6                  25254129.914
        39.600
 125656501.558 7                  23911632.539
        44.900
 146690719.049 5                  27914312.446
        31.100
 123147913.091 8                  23434252.064
        48.200
 108872681.957 8  84678759.916 7  20359741.443    20359741.091    20359748.365
        50.500          45.000
 25  1  1  7  2 45.0000000  0 25G18R01G23G15G26G16G10E03G05G29R03E15
                                E26R18S35R17R02S31G13S33E07E08E21E13
                                R24
 110977048.689 7  86475644.13246  21118229.451    21118229.1834   21118230.2244
        45.800          36.9004
 111046516.003 7  86369540.259 6  20773548.031    20773548.162    20773553.561
        45.900          39.600
 115300133.848 7  89844257.56244  21940886.643    21940886.4024   21940890.2984
        42.900          26.9004
 104890310.320 8  81732697.77047  19959943.267    19959942.9724   19959943.0614
        48.100          44.6004


 131066271.981 5 102129569.03741  24941082.963    24941082.8744   24941083.9754
        32.300          10.1004




 117500070.408 7  91558497.57542  22359521.781    22359521.8434   22359515.8364
        42.000          16.0004
 111235060.679 7  86676632.66347  21167329.046    21167328.4884   21167331.5444
        46.000          43.0004
 117140968.529 7  91109663.366 6  21882907.745    21882908.865    21882910.479
        44.400          38.900
 135997918.329 5                  25879546.661
        30.600
 134162375.991 5                  25530214.883
        34.800
 120090428.372 7  93403701.607 6  22496994.609    22496995.617    22496993.930
        45.200          38.100
 200875411.515 5                  38225328.750
        32.900
 103952569.534 8  80852047.604 7  19426027.834    19426027.645    19426032.932
        50.800          46.200
 102340096.773 8  79597883.652 8  19178486.619    19178486.906    19178491.943
        51.200          48.100
 198899698.232 7                  37849355.476
        43.300
 111030983.007 7  86517665.06845  21128498.051    21128497.7214   21128495.9534
        46.900          31.3004
 202034987.409 7                  38445988.952
        45.100
 132671104.379 6                  25246458.008
        39.700
 125652491.395 7                  23910869.154
        42.800
 146727903.643 4                  27921390.723
        27.900
 123145726.915 8                  23433836.200
        48.800
 108906589.779 8  84705132.652 7  20366080.785    20366081.069    20366088.169
        49.200          44.000
 25  1  1  7  3  0.0000000  0 24G18R01G23G15G26G10E03G05G29R03E15E26
                                R18S35R17R02S31G13S33E07E08E21E13R24
 110950353.585 7  86454842.72745  21113150.739    21113150.4714   21113151.1894
        42.300          33.9004
 111094362.299 7  86406754.028 6  20782499.366    20782497.976    20782503.585
        44.100          40.000
 115270454.379 6  89821130.74943  21935238.581    21935238.3984   21935240.2154
        41.400          23.2004
 104880239.571 7  81724850.42947  19958026.583    19958026.2794   19958026.8764
        47.300          43.6004






 117539195.733 6  91588984.87442  22366968.522    22366968.5754   22366958.1054
        40.100          12.9004
 111268946.541 7  86703037.21747  21173778.493    21173777.9614   21173779.2574
        45.200          42.7004
 117086228.250 7  91067087.631 6  21872681.225    21872685.413    21872683.181
        45.900          37.300
 136024621.448 4                  25884626.614
        27.000
 134132573.365 6                  25524543.400
        36.900
 120034342.511 7  93360079.148 5  22486490.157    22486490.488    22486485.800
        43.500          35.800
 200875416.112 5                  38225336.714
        34.900
 103928293.116 8  80833165.923 7  19421491.874    19421491.957    19421496.998
        51.400          47.200
 102333849.228 8  79593024.459 7  19177316.056    19177316.334    19177320.244
        51.800          47.200
 198899692.301 7                  37849355.378
        43.300
 111049542.798 7  86532127.23145  21132029.570    21132029.2354   21132027.7394
        47.400          31.8004
 202034958.531 7                  38445980.697
        44.400
 132630842.373 6                  25238796.308
        40.500
 125648588.522 7                  23910126.808
        44.100
 146765097.760 4                  27928467.429
        24.500
 123143585.591 8                  23433429.358
        49.500
 108940627.769 8  84731606.611 7  20372446.026    20372446.335    20372452.687
        49.000          42.600
 25  1  1  7  3 15.0000000  0 24G18R01G23G15G26G16E03G05G29R03E15E26
                                R18S35R17R02S31G13S33E07E08E21E13R24
 110923716.696 6  86434086.67444  21108080.195    21108079.9184   21108082.2654
        37.600          28.5004
 111142295.707 6  86444035.590 6  20791466.396    20791461.871    20791470.964
        39.800          41.000
 115240829.247 6  89798046.28843  21929601.643    21929601.4604   21929598.0074
        41.200          18.3004
 104870324.276 7  81717124.22247  19956139.529    19956139.2034   19956140.1564
        46.700          43.0004
 134239817.044 5                  25544985.330
        34.900
 131081662.915 4                  24944008.625
        24.400


 117578345.853 6  91619491.45642  22374420.270    22374420.2124   22374407.4034
        41.200          15.5004
 111302952.513 7  86729535.37247  21180250.071    21180249.5624   21180249.5474
        46.400          43.0004
 117031575.852 7  91024580.254 6  21862471.752    21862471.511    21862475.817
        45.000          39.000
 136051359.662 5                  25889715.021
        30.700
 134102776.561 6                  25518873.736
        38.900
 119978269.754 4  93316467.078 5  22475968.704    22475967.871    22475978.207
        28.900          34.000
 200875418.782 5                  38225331.397
        34.000
 103904141.338 8  80814381.205 7  19416978.945    19416978.735    19416983.267
        50.400          47.100
 102327775.061 8  79588300.145 7  19176176.736    19176177.022    19176182.144
        51.500          47.200
 198899684.110 7                  37849354.332
        42.900
 111068253.819 7  86546707.22445  21135589.325    21135588.9774   21135588.8274
        46.900          32.0004
 202034926.938 7                  38445978.774
        44.600
 132590631.928 6                  25231144.239
        40.100
 125644790.265 7                  23909403.294
        43.800


 123141486.587 8                  23433029.874
        50.300
 108974792.865 8  84758179.440 6  20378836.359    20378836.131    20378841.683
        48.800          41.300
 25  1  1  7  3 30.0000000  0 23G18R01G23G15G26G10E03G05G29R03E15E26
                                S35R17R02S31G13S33E07E08E21E13R24
 110897144.612 6  86413381.12044  21103022.866    21103022.3934   21103024.6194
        37.700          25.9004
 111190322.212 6  86481389.627 6  20800446.599    20800443.930    20800455.670
        39.200          41.700
 115211264.914 6  89775009.22242  21923977.540    21923977.3214   21923969.9914
        37.700          15.6004
 104860570.880 7  81709524.18247  19954284.011    19954283.6764   19954283.9094
        44.700          42.1004
 134267005.233 5 104623625.65841  25550160.656    25550161.1524   25550159.5374
        32.100           6.1004




 117617526.961 7  91650022.17842  22381875.508    22381875.4824   22381865.8284
        42.100          17.5004
 111337084.800 7  86756131.97947  21186744.437    21186743.9324   21186743.7614
        47.900          43.6004
 116977018.663 6  90982146.930 6  21852277.864    21852276.775    21852284.372
        39.600          39.300
 136078139.456 5                  25894811.493
        35.500
 134072992.081 6                  25513205.155
        39.400
 200875425.945 5                  38225328.495
        34.400
 103880120.918 8  80795698.669 7  19412489.354    19412488.256    19412493.936
        48.400          46.600
 102321880.851 8  79583715.758 7  19175072.735    19175072.572    19175077.028
        51.800          47.000
 198899680.716 7                  37849355.852
        43.300
 111087122.638 7  86561410.18344  21139180.115    21139179.8164   21139179.9794
        43.700          29.8004
 202034901.029 7                  38445971.749
        44.600
 132550479.773 6                  25223503.138
        40.100
 125641103.071 7                  23908701.451
        42.700


 123139436.441 8                  23432639.667
        50.400
 109009091.734 8  84784856.312 6  20385249.890    20385249.838    20385255.502
        48.800          38.500
 25  1  1  7  3 45.0000000  0 24G18R01G23G15G26G10E03G05G29R03E15E26
                                R18S35R17R02S31G13S33E07E08E21E13R24
 110870629.186 7  86392719.74644  21097978.001    21097977.5544   21097977.1364
        43.800          28.9004
 111238432.988 7  86518809.070 7  20809447.719    20809448.382    20809456.509
        45.300          42.500
 115181752.959 7  89752012.95343  21918363.097    21918362.9014   21918354.8054
        42.100          18.8004
 104850971.164 7  81702043.89147  19952457.609    19952457.2924   19952456.7604
        46.900          42.2004
 134294251.169 5 104644856.26141  25555349.360    25555349.8334   25555347.0754
        30.600           9.6004
 133924352.565 5 104356680.5344   25484960.327    25484960.7874   25484974.5574
        34.900           5.6004


 117656730.187 7  91680570.09243  22389335.208    22389335.2164   22389329.9414
        44.400          21.0004
 111371334.625 8  86782820.16547  21193262.102    21193261.6244   21193261.1644
        48.500          43.9004
 116922548.053 6  90939780.870 6  21842102.037    21842103.888    21842108.707
        36.300          40.700
 136104952.478 5                  25899914.659
        35.600
 134043211.641 6                  25507538.878
        41.200
 119866337.159 6  93229283.399 6  22454982.745                    22454984.292
        37.400          41.400
 200875428.481 6                  38225334.425
        36.600
 103856223.741 7  80777111.997 7  19408023.676    19408021.610    19408028.708
        47.300          46.900
 102316158.087 8  79579264.724 7  19174000.461    19174000.192    19174005.050
        52.100          47.200
 198899672.665 7                  37849351.921
        42.300
 111106140.553 6  86576229.34644  21142799.212    21142798.9044   21142799.2974
        37.400          26.3004
 202034869.644 7                  38445961.943
        43.800
 132510377.729 5                  25215871.910
        32.600
 125637518.538 7                  23908019.747
        42.100


 123137426.871 8                  23432257.031
        49.900
 109043515.721 7  84811630.474 6  20391686.640    20391686.998    20391693.364
        47.800          37.200
 25  1  1  7  4  0.0000000  0 25G18R01G23G15G26G16G10E03G05G29R03E15
                                E26R18S35R17R02S31G13S33E07E08E21E13
                                R24
 110844174.025 8  86372105.38945  21092943.477    21092943.0574   21092941.5214
        48.100          31.8004
 111286630.565 7  86556296.088 6  20818465.152    20818465.727    20818471.891
        45.800          41.800
 115152296.740 7  89729060.10844  21912755.449    21912755.2714   21912754.2994
        43.000          24.1004
 104841528.445 7  81694685.91647  19950659.998    19950659.6814   19950659.9904
        47.700          43.7004
 134321557.986 4 104666134.30141  25560539.617    25560540.3814   25560544.5544
        28.000           9.0004
 131105713.200 6                  24948586.104
        36.000
 133884073.292 5 104325294.1954   25477295.457    25477296.2574   25477313.7424
        30.000           4.0004
 139344311.895 6                  26516341.631
        36.300
 117695959.106 7  91711138.04943  22396799.580    22396799.5884   22396797.8504
        43.400          23.9004
 111405705.168 8  86809602.38447  21199802.639    21199802.1614   21199802.6204
        48.000          44.2004
 116868167.724 5  90897485.066 6  21831945.823    21831939.782    21831950.066
        31.600          40.400
 136131802.042 6                  25905023.015
        37.000
 134013438.724 6                  25501873.653
        41.600
 119810311.415 7  93185707.696 7  22444488.520    22444487.764    22444490.034
        43.000          43.300
 200875430.887 6                  38225328.437
        37.800
 103832453.753 8  80758624.204 7  19403583.024    19403581.459    19403586.809
        49.200          46.700
 102310609.928 8  79574949.502 8  19172961.216    19172961.273    19172964.884
        52.800          48.100
 198899664.058 6                  37849350.526
        41.700
 111125310.660 6  86591167.07444  21146447.278    21146446.9794   21146447.2284
        37.000          26.0004
 202034838.258 7                  38445962.873
        44.200
 132470329.213 5                  25208252.272
        35.100
 125634040.038 7                  23907358.465
        43.500


 123135461.356 8                  23431882.964
        49.000
 109078067.977 7  84838504.259 5  20398147.899    20398148.577    20398149.729
        47.700          33.200
 25  1  1  7  4 15.0000000  0 25G18R01G23G15G26G16G10E03G05G29R03E15
                                E26R18S35R17R02S31G13S33E07E08E21E13
                                R24
 110817783.781 8  86351541.61745  21087921.990    21087921.5934   21087919.4784
        49.400          34.9004
 111334919.377 7  86593854.028 6  20827499.246    20827499.585    20827504.385
        47.300          40.800
 115122900.779 7  89706154.21144  21907161.216    21907161.0384   21907163.9934
        44.200          26.6004
 104832247.213 8  81687453.77547  19948894.563    19948894.2734   19948894.6654
        48.900          45.6004
 134348929.782 5 104687463.0054   25565759.007    25565759.8704   25565753.5834
        31.600           5.4004
 131113982.691 5                  24950159.065
        30.500
 133843820.390 5 104293928.14941  25469623.992    25469624.9224   25469652.2924
        30.800           9.7004
 139377596.420 5                  26522675.147
        34.800
 117735218.143 6  91741729.42844  22404271.694    22404271.7254   22404270.7054
        40.600          26.1004
 111440200.757 7  86836482.10147  21206368.039    21206367.5834   21206368.5194
        46.600          44.3004
 116813882.544 6  90855263.245 7  21821804.512    21821801.840    21821810.228
        39.400          42.200
 136158692.840 6                  25910139.568
        37.800
 133983677.925 6                  25496209.975
        41.500
 119754306.042 7  93142147.913 7  22433992.954    22433995.947    22433997.953
        43.600          44.200
 200875436.743 5                  38225331.473
        35.600
 103808815.892 8  80740239.140 7  19399165.843    19399166.005    19399169.181
        51.600          46.300
 102305240.783 8  79570773.497 8  19171954.145    19171954.805    19171959.059
        51.800          48.700
 198899659.679 7                  37849351.157
        42.600
 111144637.254 6  86606226.76944  21150126.685    21150126.4174   21150125.0934
        41.500          27.6004
 202034810.743 7                  38445953.425
        43.400
 132430338.928 6                  25200642.215
        36.400
 125630672.049 7                  23906718.086
        44.200


 123133544.458 8                  23431518.327
        49.300
 109112753.130 7  84865481.448 5  20404634.788    20404634.460    20404636.842
        45.800          33.300
 25  1  1  7  4 30.0000000  0 25G18R01G23G15G26G16G10E03G05G29R03E15
                                E26R18S35R17R02S31G13S33E07E08E21E13
                                R24
 110791454.686 8  86331025.46146  21082912.466    21082912.1044   21082910.6794
        49.700          37.2004
 111383294.769 7  86631479.370 6  20836549.248    20836549.018    20836554.658
        47.100          40.300
 115093561.094 6  89683292.13544  21901577.802    21901577.6064   21901582.1424
        41.700          26.5004
 104823123.770 8  81680344.59547  19947158.272    19947157.9914   19947158.9204
        49.600          46.4004
 134376362.148 5 104708839.1404   25570982.014    25570982.7924   25570974.9674
        31.700           4.7004
 131122378.717 5                  24951762.403
        33.500
 133803589.869 5 104262579.63541  25461971.315    25461972.3614   25461996.2434
        30.600          11.7004
 139410944.569 5                  26529021.168
        34.400
 117774502.755 6  91772340.81844  22411746.935    22411746.9704   22411747.9784
        40.700          25.7004
 111474816.954 7  86863455.78347  21212954.902    21212954.4604   21212955.9834
        47.100          43.9004
 116759689.294 7  90813112.924 6  21811681.838    21811680.121    21811685.907
        44.300          41.600
 136185620.734 6                  25915263.465
        38.000
 133953925.197 6                  25490547.946
        41.700
 119698317.440 7  93098601.263 7  22423510.398    22423513.659    22423508.175
        44.500          44.100
 200875442.122 5                  38225336.155
        35.700
 103785306.208 8  80721953.834 7  19394771.413    19394771.678    19394776.554
        50.700          46.900
 102300046.476 8  79566733.483 8  19170980.961    19170981.015    19170985.413
        50.900          49.100
 198899654.734 6                  37849353.670
        41.700
 111164116.199 7  86621405.16345  21153831.879    21153831.5984   21153831.8814
        44.600          30.2004
 202034782.640 7                  38445952.584
        43.100
 132390403.147 6                  25193040.590
        36.700
 125627410.544 7                  23906097.221
        45.500


 123131672.268 8                  23431162.004
        49.100
 109147566.921 7  84892558.896 5  20411144.814    20411145.760    20411151.509
        47.300          35.900
 25  1  1  7  4 45.0000000  0 25G18R01G23G15G26G16G10E03G05G29R03E15
                                E26R18S35R17R02S31G13S33E07E08E21E13
                                R24
 110765185.625 8  86310556.07246  21077913.793    21077913.4404   21077913.3954
        49.700          38.1004
 111431755.159 8  86669170.723 6  20845615.295    20845616.288    20845619.934
        48.700          39.300
 115064276.340 6  89660472.85243  21896004.400    21896004.0964   21896009.8484
        37.600          21.1004
 104814156.807 8  81673357.34547  19945452.360    19945452.0794   19945451.5924
        48.200          46.5004
 134403853.690 4 104730260.9594   25576222.610    25576223.2364   25576206.9044
        26.500           2.0004
 131130899.545 4                  24953376.599
        29.100
 133763380.412 5 104231247.53241  25454322.090    25454323.0464   25454344.0234
        34.000           8.9004
 139444354.914 5                  26535380.285
        32.000
 117813811.764 6  91802971.19344  22419227.182    22419227.1654   22419230.0184
        41.300          24.8004
 111509552.109 7  86890522.11247  21219564.721    21219564.2884   21219565.0954
        47.600          43.6004
 116705586.538 7  90771033.041 6  21801573.820    21801573.879    21801578.860
        46.500          40.300
 136212584.487 6                  25920393.222
        36.900
 133924179.351 7                  25484888.223
        43.300
 119642344.292 6  93055066.535 7  22413018.093    22413020.487    22413022.349
        41.200          44.200
 200875447.152 5                  38225333.231
        33.600
 103761923.838 8  80703767.523 7  19390401.238    19390400.860    19390407.050
        48.300          46.800
 102295025.784 8  79562828.483 8  19170039.490    19170039.917    19170044.861
        50.800          49.800
 198899648.409 7                  37849349.847
        42.100
 111183745.707 7  86636700.87345  21157567.169    21157566.8924   21157567.6534
        45.100          31.5004
 202034752.363 7                  38445941.271
        43.500
 132350520.774 6                  25185451.432
        36.200
 125624254.169 7                  23905496.551
        46.200


 123129843.589 8                  23430814.075
        48.500
 109182507.665 7  84919734.983 6  20417678.952    20417679.713    20417685.448
        47.400          38.200
 25  1  1  7  5  0.0000000  0 25G18R01G23G15G26G16G10E03G05G29R03E15
                                E26R18S35R17R02S31G13S33E07E08E21E13
                                R24
 110738977.321 8  86290134.00846  21072926.200    21072925.8564   21072927.1474
        48.500          38.4004
 111480300.372 7  86706928.120 6  20854696.428    20854697.326    20854700.785
        47.800          38.300
 115035046.990 6  89637696.70943  21890441.788    21890441.5604   21890446.8724
        38.200          19.9004
 104805346.652 8  81666492.30647  19943775.798    19943775.4994   19943774.7744
        48.300          46.7004


 131139545.490 4                  24955026.410
        28.200
 133723192.522 6 104199932.32641  25446675.790    25446676.6934   25446695.1694
        36.600          10.4004
 139477827.530 4                  26541746.698
        28.700
 117853145.460 6  91833620.82943  22426709.666    22426709.5644   22426717.7104
        36.700          20.3004
 111544406.565 7  86917681.39547  21226196.877    21226196.4444   21226196.2704
        46.300          42.7004
 116651574.817 7  90729023.934 6  21791485.869    21791484.378    21791488.429
        46.800          39.300
 136239584.569 6                  25925531.897
        37.500
 133894441.037 7                  25479228.227
        43.300
 119586387.568 6  93011544.712 7  22402550.717                    22402539.390
        39.800          43.300
 200875450.400 5                  38225342.201
        32.500
 103738669.700 7  80685680.943 7  19386054.280    19386054.841    19386061.514
        47.200          46.800
 102290178.884 8  79559058.665 8  19169131.963    19169132.107    19169136.527
        51.400          49.500
 198899640.915 6                  37849346.359
        41.800
 111203526.426 7  86652114.40745  21161330.264    21161329.9434   21161332.3304
        45.800          32.3004
 202034721.662 7                  38445940.935
        44.400
 132310692.451 6                  25177872.785
        37.400
 125621203.442 7                  23904916.413
        45.900


 123128058.995 7                  23430474.441
        47.200
 109217576.104 7  84947010.418 6  20424236.447    20424238.174    20424244.174
        46.500          40.300
 25  1  1  7  5 15.0000000  0 24G18R01G23G15G16G10E03G05G29R03E15E26
                                R18S35R17R02S31G13S33E07E08E21E13R24
 110712830.307 8  86269759.67846  21067950.539    21067950.1824   21067951.7114
        48.500          37.1004
 111528930.411 7  86744751.438 6  20863793.813    20863793.630    20863798.779
        45.700          38.600
 115005873.319 6  89614964.00243  21884892.335    21884892.2514   21884893.0324
        38.100          19.0004
 104796693.656 8  81659749.72547  19942128.470    19942128.1754   19942128.4524
        49.100          47.4004
 131148316.872 5                  24956697.796
        30.100
 133683026.708 6 104168634.41542  25439033.829    25439034.7004   25439049.0704
        36.100          15.7004
 139511362.700 4                  26548129.224
        28.100
 117892503.881 5  91864289.78242  22434201.200    22434201.0624   22434209.2564
        34.800          17.6004
 111579380.179 7  86944933.51147  21232852.163    21232851.6944   21232851.2614
        47.500          42.6004
 116597655.183 8  90687086.515 6  21781413.073    21781412.670    21781416.094
        48.300          39.000
 136266621.371 6                  25930677.334
        36.000
 133864710.619 7                  25473571.209
        42.800
                  92968036.360 7                                  22392061.556
                        44.300
 200875453.123 6                  38225338.780
        37.600
 103715544.530 7  80667694.718 7  19381733.279    19381732.870    19381739.574
        46.300          46.100
 102285506.227 8  79555424.371 8  19168256.327    19168256.313    19168260.572
        51.800          48.700
 198899632.988 6                  37849345.648
        41.500
 111223458.461 7  86667645.86045  21165124.408    21165124.0604   21165125.1114
        46.300          33.2004
 202034690.889 7                  38445929.685
        44.000
 132270918.710 6                  25170305.495
        39.800
 125618258.693 7                  23904356.527
        46.600


 123126318.944 7                  23430143.337
        47.200
 109252772.383 7  84974385.272 6  20430815.777    20430816.937    20430826.773
        42.500          41.100
 25  1  1  7  5 30.0000000  0 24G18R01G23G15G16G10E03G05G29R03E15E26
                                R18S35R17R02S31G13S33E07E08E21E13R24
 110686750.902 8  86249438.04546  21062987.657    21062987.2954   21062988.8004
        48.900          36.9004
 111577650.852 7  86782645.111 6  20872907.267    20872906.685    20872912.876
        44.000          38.500
 114976761.679 6  89592279.54243  21879353.451    21879353.4254   21879351.2704
        41.200          22.2004
 104788203.926 7  81653134.35247  19940512.573    19940512.2744   19940513.1954
        47.000          46.8004
 131157219.627 5                  24958388.694
        31.300
 133642889.110 4 104137358.34642  25431391.393    25431392.1444   25431407.7834
        29.300          14.2004
 139544966.363 4                  26554518.418
        25.800
 117931893.430 5  91894983.02242  22441697.573    22441697.5424   22441706.6384
        33.700          16.5004
 111614478.816 7  86972283.03346  21239530.834    21239530.3564   21239531.0604
        46.600          41.7004
 116543834.068 7  90645225.706 5  21771354.092    21771355.208    21771359.679
        44.500          34.400
 136293701.048 6                  25935831.521
        38.000
 133834994.347 7                  25467916.394
        42.100
 119474532.661 4  92924546.439 7  22381575.675    22381573.729    22381586.333
        29.500          43.000
 200875461.222 6                  38225345.223
        37.000
 103692554.918 7  80649813.876 7  19377438.514    19377438.798    19377442.958
        47.200          45.500
 102281013.834 8  79551930.301 8  19167414.217    19167414.709    19167418.373
        52.600          48.200
 198899630.258 6                  37849352.284
        41.500
 111243547.623 7  86683299.76245  21168948.839    21168948.4504   21168947.6644
        47.700          34.8004
 202034665.276 7                  38445925.428
        43.800
 132231205.802 6                  25162747.318
        40.200
 125615425.948 7                  23903816.866
        46.300
 147137477.481 5                  27999330.994
        33.600
 123124629.653 7                  23429821.148
        45.200
 109288102.512 7  85001864.254 6  20437426.077    20437426.210    20437433.238
        45.000          41.500
 25  1  1  7  5 45.0000000  0 24G18R01G23G15G26G10E03G05G29R03E15E26
                                R18S35R17R02S31G13S33E07E08E21E13R24
 110660728.201 7  86229160.64546  21058035.211    21058034.8674   21058036.7914
        47.900          37.3004
 111626449.851 7  86820599.919 6  20882036.042    20882035.552    20882042.114
        44.600          37.500
 114947700.690 6  89569634.52243  21873826.311    21873826.2764   21873820.5124
        41.700          23.9004
 104779866.526 7  81646637.69847  19938927.282    19938926.9874   19938926.6904
        46.200          47.3004


 133602768.439 5 104106095.57541  25423758.702    25423759.4844   25423771.7454
        32.100           8.7004
 139578627.094 4                  26560924.028
        26.600
 117971302.455 6  91925691.33142  22449196.626    22449196.6434   22449207.3554
        38.000          13.8004
 111649691.376 7  86999721.34947  21246231.861    21246231.3834   21246232.1354
        47.900          42.5004
 116490100.281 7  90603432.825 6  21761319.368    21761317.086    21761324.737
        43.200          36.900
 136320812.421 6                  25940990.030
        40.100
 133805281.047 6                  25462262.800
        40.300
 119418629.863 5  92881066.481 7  22371104.370    22371103.206    22371112.885
        34.800          42.100
 200875463.900 6                  38225335.234
        40.000
 103669689.911 7  80632029.999 7  19373165.832    19373165.536    19373170.667
        47.600          45.800
 102276689.982 8  79548567.345 8  19166603.473    19166603.234    19166608.786
        51.300          48.600
 198899621.914 6                  37849345.625
        41.300
 111263782.710 8  86699067.37745  21172798.477    21172798.0934   21172797.3024
        49.200          34.7004
 202034633.437 7                  38445920.053
        43.600
 132191542.767 6                  25155200.040
        39.900
 125612694.090 7                  23903296.176
        44.600
 147174752.550 5                  28006421.366
        33.900
 123122980.053 7                  23429507.092
        45.700
 109323555.212 7  85029438.492 7  20444056.978    20444056.499    20444063.840
        46.800          42.900
 25  1  1  7  6  0.0000000  0 24G18R01G23G15G26G10E03G05G29R03E15E26
                                R18S35R17R02S31G13S33E07E08E21E13R24
 110634769.824 7  86208933.34345  21053095.130    21053094.7954   21053096.0114
        47.300          33.8004
 111675334.669 7  86858621.407 6  20891181.400    20891181.612    20891184.597
        45.500          37.800


 104771688.916 7  81640265.53847  19937370.974    19937370.6754   19937370.5654
        46.400          46.3004






 118010738.277 5  91956420.87441  22456702.345    22456702.3854   22456714.1184
        31.000           6.6004
 111685024.913 7  87027253.97346  21252955.947    21252955.4474   21252955.6714
        45.700          40.7004
 116436461.739 6  90561713.995 5  21751298.577    21751295.344    21751302.400
        41.800          35.600
 136347962.988 7                  25946157.935
        42.000
 133775578.351 7                  25456610.264
        44.800
 119362580.764 6  92837602.510 6  22360639.884    22360640.119    22360641.615
        40.200          39.200
 200875467.548 6                  38225327.918
        41.100
 103646957.417 8  80614349.178 7  19368917.375    19368917.987    19368923.354
        48.700          46.500
 102272542.513 8  79545341.516 7  19165826.263    19165826.209    19165830.849
        51.700          47.400
 198899615.272 6                  37849345.455
        41.000
 111284170.782 8  86714954.18045  21176677.750    21176677.3574   21176676.5644
        49.100          35.6004
 202034602.836 7                  38445910.381
        42.700
 132151937.352 7                  25147663.427
        42.700
 125610070.526 7                  23902797.257
        44.000
 147212035.269 6                  28013520.043
        36.800
 123121377.637 6                  23429201.961
        41.100
 109359137.706 7  85057113.773 7  20450710.650    20450710.310    20450717.257
        45.100          43.700
 25  1  1  7  6 15.0000000  0 22G18R01G23G15G10E03G29R03E15E26R18S35
                                R17R02S31G13S33E07E08E21E13R24
 110608877.211 7  86188757.30845  21048168.500    21048168.1614   21048166.8874
        45.200          30.7004
 111724306.108 7  86896710.287 6  20900343.076    20900342.661    20900347.354
        45.900          38.900


 104763672.195 7  81634018.75047  19935844.771    19935844.4724   19935844.6694
        46.400          45.4004
 133522664.125 5                  25408521.540
        31.800


 111720480.445 8  87054881.69746  21259702.896    21259702.3914   21259702.0534
        48.100          40.2004
 116382920.209 7  90520070.555 6  21741296.761    21741295.450    21741304.652
        44.100          39.000
 136375154.004 7                  25951332.365
        43.800
 133745887.533 7                  25450960.579
        46.000
 119306720.966 6  92794156.076 6  22350176.474    22350175.901    22350179.695
        40.400          40.000
 200875474.971 6                  38225330.566
        38.600
 103624358.998 8  80596772.607 7  19364692.877    19364693.547    19364700.269
        48.700          46.000
 102268572.391 8  79542253.666 7  19165082.636    19165082.427    19165086.891
        51.900          47.500
 198899611.292 7                  37849342.075
        42.600
 111304712.888 7  86730961.00246  21180586.859    21180586.4754   21180585.8224
        47.800          36.1004
 202034575.795 7                  38445909.500
        43.800
 132112390.920 7                  25140137.656
        42.400
 125607556.505 7                  23902318.566
        44.100
 147249326.717 5                  28020613.846
        33.200
 123119823.818 6                  23428906.796
        41.600
 109394851.339 7  85084891.006 7  20457388.074    20457388.982    20457397.168
        44.900          44.200
 25  1  1  7  6 30.0000000  0 23G18R01G23G15G26G10E03G29R03E15E26R18
                                S35R17R02S31G13S33E07E08E21E13R24
 110583047.964 7  86168630.66145  21043254.006    21043253.6674   21043251.5014
        45.200          30.6004
 111773360.952 7  86934864.059 6  20909519.785    20909519.437    20909525.194
        47.600          40.800


 104755813.918 7  81627895.41047  19934349.416    19934349.1264   19934348.9294
        47.800          46.2004


 133482616.613 5                  25400900.745
        30.300


 111756054.969 8  87082602.10546  21266472.291    21266471.8134   21266470.7084
        49.100          40.5004
 116329473.034 7  90478500.525 5  21731311.327    21731311.752    21731316.881
        45.500          34.300
 136402382.861 7                  25956514.225
        43.000
 133716206.125 7                  25445312.699
        44.700
 119250880.830 7  92750724.846 6  22339715.877    22339716.413    22339717.471
        43.900          36.200
 200875482.113 6                  38225344.311
        39.500
 103601892.300 7  80579298.518 7  19360494.909    19360495.377    19360501.478
        47.600          44.600
 102264776.868 8  79539301.606 8  19164371.006    19164371.282    19164376.172
        51.700          48.400
 198899608.354 7                  37849343.354
        42.600
 111325406.234 7  86747085.66145  21184525.187    21184524.8254   21184524.1994
        47.100          35.4004
 202034549.252 7                  38445904.621
        43.700
 132072900.961 7                  25132623.084
        42.600
 125605149.302 7                  23901860.230
        44.800
 147286623.928 4                  28027711.704
        27.100
 123118316.037 7                  23428619.994
        42.300
 109430693.093 6  85112767.916 7  20464089.277    20464089.753    20464098.928
        41.000          43.000
 25  1  1  7  6 45.0000000  0 25G18R01G23G15G26G16G10E03G05G29R03E15
                                E26R18S35R17R02S31G13S33E07E08E21E13
                                R24
 110557276.423 7  86148548.93945  21038349.057    21038348.7044   21038348.1664
        45.500          31.6004
 111822492.685 7  86973077.578 6  20918710.841    20918710.039    20918717.401
        47.800          41.700


 104748108.235 8  81621890.98647  19932882.404    19932882.1414   19932882.7334
        48.100          46.6004


 131203603.013 5 102236590.95741  24967216.454    24967216.2944   24967217.8244
        35.000           8.2004
 133442586.729 5                  25393272.272
        30.400


 118129199.181 6  92048772.18842  22479241.539    22479241.9724   22479249.7594
        37.900          13.2004
 111791742.300 7  87110410.41046  21273263.637    21273263.1504   21273261.3904
        47.500          40.0004
 116276114.758 8  90436999.649 6  21721344.651    21721345.547    21721349.992
        48.300          38.200
 136429643.757 7                  25961701.734
        42.700
 133686528.353 7                  25439664.779
        42.600
 119195055.212 7  92707304.955 6  22329258.047    22329258.952    22329260.631
        45.600          37.200
 200875483.955 6                  38225344.879
        38.600
 103579552.049 8  80561922.742 7  19356321.910    19356322.021    19356327.196
        50.000          44.400
