     2.11           OBSERVATION DATA    M (MIXED)           RINEX VERSION / TYPE
teqc  2019Feb25                         20260317 16:18:01UTCPGM / RUN BY / DATE
Linux 2.4.21-27.ELsmp|Opteron|gcc -static|Linux 64|=+       COMMENT
BIT 2 OF LLI FLAGS DATA COLLECTED UNDER A/S CONDITION       COMMENT
-Unknown-                                                   MARKER NAME
-Unknown-           -Unknown-                               OBSERVER / AGENCY
-Unknown-           -Unknown-           -Unknown-           REC # / TYPE / VERS
-Unknown-           -Unknown-                               ANT # / TYPE
        0.0000        0.0000        0.0000                  APPROX POSITION XYZ
        0.0000        0.0000        0.0000                  ANTENNA: DELTA H/E/N
     1     1                                                WAVELENGTH FACT L1/2
     7    L1    L2    C1    P1    P2    S1    S2            # / TYPES OF OBSERV
 SNR is mapped to RINEX snr flag value [0-9]                COMMENT
  L1 & L2: min(max(int(snr_dBHz/6), 0), 9)                  COMMENT
  2025     1     1     0     0    0.0000000     GPS         TIME OF FIRST OBS
    18                                                      LEAP SECONDS
                                                            END OF HEADER
 25  1  1  0  0  0.0000000  0 22G06G14G19G11E27G24G03E25E34S35E15R22
                                E36S31S33G17R12R11E02R10E30R21
 110909343.685 8  86422904.06647  21105339.593    21105339.3614   21105344.9324
        48.000          47.5004
 109887313.871 7  85626535.01946  20910845.009    20910844.8574   20910850.4914
        47.800          37.6004
 106933192.881 7  83324600.71946  20348693.734    20348692.4154   20348694.3944
        47.800          41.2004
 127148247.301 6  99076599.24442  24195509.903    24195510.5464   24195518.0014
        37.100          13.3004
 146757033.822 5                  27926936.057
        34.400
 120518162.924 6  93910325.50146  22933834.205    22933834.1034   22933842.8104
        40.800          36.6004




 124078048.762 7                  23611254.752
        46.900


 141377038.742 5                  26903150.483
        34.200
 106486845.078 8  82823147.481 7  19948567.277    19948567.190    19948572.979
        51.300          46.800
 128918154.772 6                  24532301.523
        37.000
 198904438.939 7                  37850269.905
        43.500
 202060732.743 7                  38450881.425
        45.700
 110011585.759 7  85723348.19046  20934498.606    20934498.2354   20934502.3664
        44.500          37.2004
 109509627.169 8  85174172.715 7  20500424.432    20500424.885    20500430.613
        48.400          44.600
 103641436.940 7  80609998.293 8  19395055.333    19395056.895    19395062.039
        47.700          49.500
 125013498.347 7                  23789266.052
        44.200
 123343826.942 5                  23138990.071    23138989.534
        32.800
 127012907.998 7                  24169740.626
        44.600
 106231777.527 7  82624705.748 6  19851938.952    19851938.905    19851947.295
        47.700          40.200
 25  1  1  0  0 15.0000000  0 21G06G14G19G11E27G24G03E25E34S35E15R22
                                E36S31S33G17R12R11E02E30R21
 110874084.148 7  86395429.15648  21098629.712    21098629.4844   21098635.9784
        47.300          48.0004
 109915678.264 7  85648637.15246  20916243.096    20916242.9404   20916248.1834
        47.700          37.8004
 106922960.542 8  83316627.48146  20346746.918    20346745.6044   20346748.0624
        48.500          41.5004
 127093930.080 4  99034274.15941  24185178.054    24185179.0334   24185180.0844
        29.000           9.0004
 146718812.531 5                  27919662.275
        35.000
 120504527.104 6  93899700.24646  22931240.247    22931240.1224   22931248.5404
        39.200          36.2004




 124058679.612 7                  23607569.136
        47.800


 141331771.619 5                  26894537.108
        33.200
 106459285.740 8  82801712.469 7  19943403.749    19943404.085    19943410.276
        50.700          47.100
 128941643.514 6                  24536772.321
        39.900
 198904445.269 7                  37850269.185
        44.200
 202060728.899 7                  38450879.708
        44.600
 110029443.795 7  85737263.55446  20937897.295    20937896.9244   20937900.2904
        44.600          37.9004
 109465879.995 7  85140147.232 7  20492231.143    20492230.932    20492241.314
        44.300          44.300
 103664404.901 7  80627862.263 8  19399352.395    19399352.850    19399359.429
        47.800          48.400
 125029580.643 7                  23792325.949
        44.000
 126992530.419 7                  24165862.882
        43.800
 106264039.972 8  82649798.754 6  19857968.209    19857969.129    19857974.501
        49.500          38.200
 25  1  1  0  0 30.0000000  0 21G06G14G19G11E27G24G03E25E34S35E15R22
                                E36S31S33G17R12R11E02E30R21
 110838939.584 8  86368043.83048  21091942.124    21091941.9234   21091948.3494
        48.400          48.9004
 109944139.420 7  85670814.66946  20921659.060    20921658.8824   20921663.5284
        47.100          36.9004
 106912797.602 8  83308708.32547  20344812.661    20344811.3384   20344814.5104
        49.000          42.3004
 127039647.423 4  98991976.38441  24174866.869    24174867.4634   24174849.0934
        28.400           8.6004
 146680583.660 5                  27912387.824
        35.700
 120491037.075 6  93889188.58245  22928672.050    22928671.9304   22928681.6144
        36.300          35.2004




 124039405.886 8                  23603901.908
        48.500


 141286535.873 6                  26885928.580
        36.500
 106431866.718 8  82780386.606 7  19938266.360    19938266.558    19938273.947
        49.600          47.500
 128965212.569 7                  24541257.374
        42.000
 198904450.974 7                  37850267.705
        43.800
 202060725.845 7                  38450876.019
        43.600
 110047343.160 7  85751211.14546  20941303.442    20941303.0674   20941305.6674
        44.900          37.7004
 109422241.892 7  85106206.556 7  20484062.052    20484062.087    20484072.979
        46.500          45.800
 103687544.377 8  80645859.603 7  19403682.819    19403684.565    19403689.011
        49.500          47.100
 125045725.171 7                  23795397.795
        42.500
 126972197.118 7                  24161994.374
        45.800
 106296410.655 8  82674975.996 6  19864017.953    19864019.601    19864024.749
        50.300          39.300
 25  1  1  0  0 45.0000000  0 23G06G14G19G11E27G24G03E25E34S35G30E15
                                R22E36S31S33G17R12R11E02R10E30R21
 110803909.667 8  86340747.83748  21085276.234    21085276.0474   21085281.5844
        49.200          48.8004
 109972696.798 7  85693067.16945  20927093.195    20927093.0214   20927097.4614
        46.800          35.5004
 106902703.666 8  83300842.95647  20342891.842    20342890.5194   20342893.3094
        50.200          42.3004
 126985399.942 5  98949705.80641  24164538.831    24164539.1754   24164525.1984
        33.700           9.0004
 146642346.745 5                  27905111.854
        35.100
 120477692.500 6  93878790.24745  22926132.000    22926131.9474   22926142.1484
        37.000          33.4004
 121275310.327 6  94500216.53041  23077925.739    23077925.4674   23077918.5444
        36.900           9.1004


 124020227.160 8                  23600252.448
        48.700




 141241331.165 6                  26877326.416
        39.200
 106404587.608 8  82759169.585 7  19933157.200    19933156.289    19933163.960
        49.100          47.400
 128988861.322 6                  24545757.471
        41.600
 198904456.092 7                  37850262.840
        43.000
 202060722.046 7                  38450874.441
        44.500
 110065283.292 7  85765190.50046  20944716.542    20944716.1404   20944718.1414
        44.000          36.5004
 109378713.101 7  85072350.902 7  20475916.400    20475916.114    20475923.832
        47.900          45.900
 103710854.859 8  80663989.958 7  19408045.351    19408045.792    19408051.705
        49.900          47.000
 125061931.405 7                  23798481.701
        42.700
 123526470.856 5                  23173252.072
        33.800
 126951907.645 7                  24158133.792
        46.300
 106328888.629 8  82700236.651 6  19870087.713    19870089.453    19870093.086
        50.600          39.000
 25  1  1  0  1  0.0000000  0 24G06G14G19G11E27G24G03E25E34S35G30E15
                                R22E36R23S31S33G17R12R11E02R10E30R21
 110768999.612 8  86313545.25948  21078632.772    21078632.5854   21078637.8354
        48.900          49.0004
 110001355.379 7  85715398.53245  20932545.817    20932545.6344   20932550.7974
        45.500          33.7004
 106892683.719 8  83293035.22947  20340984.886    20340983.5634   20340985.8224
        49.600          42.2004
 126931192.696 6  98907466.55541  24154222.472    24154222.6644   24154209.5324
        37.500           7.6004
 146604106.907 6                  27897834.437
        36.800
 120464498.344 5  93868509.15345  22923621.430    22923621.3414   22923631.3864
        33.500          32.0004
 121267967.489 5  94494494.79442  23076528.471    23076528.0424   23076524.6954
        31.000          12.5004


 124001148.484 8                  23596622.204
        48.200




 141196162.618 6                  26868731.278
        36.800
 106377453.531 8  82738065.343 7  19928074.756    19928074.209    19928080.150
        50.600          46.900
 129012594.563 6                  24550273.887
        41.800
 126134058.407 5                  23579433.563    23579432.200
        34.600
 198904466.259 6                  37850263.515
        41.700
 202060722.314 7                  38450879.020
        44.500
 110083269.098 7  85779205.45346  20948139.516    20948139.1014   20948140.1714
        44.900          36.8004
 109335298.838 8  85038584.304 7  20467789.810    20467788.452    20467797.364
        48.300          46.400
 103734341.225 8  80682257.092 7  19412440.709    19412441.603    19412447.565
        50.800          47.900
 125078204.486 7                  23801578.621
        43.300
 123587458.119 5                  23184691.138    23184692.334
        32.400
 126931667.208 7                  24154281.715
        45.800
 106361478.600 8  82725584.379 6  19876179.915    19876181.109    19876182.582
        52.000          38.100
 25  1  1  0  1 15.0000000  0 24G06G14G19G11E27G24G03E25E34S35G30E15
                                R22E36R23S31S33G17R12R11E02R10E30R21
 110734201.992 8  86286430.31448  21072011.454    21072011.2354   21072015.5464
        50.000          48.4004
 110030107.483 7  85737802.77445  20938017.445    20938017.2894   20938022.0514
        43.900          32.0004
 106882730.040 8  83285279.15446  20339091.176    20339089.8574   20339091.2494
        49.000          41.1004
 126877018.479 6  98865252.98041  24143894.049    24143894.0934   24143900.3854
        36.200           9.3004
 146565856.660 5                  27890554.324
        35.100
 120451447.122 5  93858339.43044  22921137.630    22921137.4874   22921147.9274
        33.100          28.6004
 121260765.188 4  94488882.62241  23075155.384    23075154.7854   23075156.8974
        29.400           9.6004
 146123060.657 5                  27806293.451
        35.000
 123982162.319 8                  23593008.895
        48.800




 141151022.796 5                  26860140.397
        34.700
 106350456.770 8  82717067.940 7  19923017.421    19923016.514    19923022.441
        49.700          46.800
 129036404.464 7                  24554805.464
        42.200
 126078201.034 6                  23568990.132    23568991.686
        38.900
 198904472.721 7                  37850266.444
        42.600
 202060720.316 7                  38450877.338
        45.300
 110101292.608 7  85793249.78446  20951569.457    20951569.0604   20951570.3664
        47.400          37.7004
 109291992.148 8  85004901.355 7  20459682.109    20459682.747    20459690.245
        50.200          46.900
 103757995.667 8  80700654.998 8  19416867.768    19416868.523    19416874.015
        51.200          48.000
 125094536.791 7                  23804686.294
        42.400
 123648496.613 5                  23196145.081    23196148.868
        30.600
 126911468.399 7                  24150437.910
        45.900
 106394172.335 8  82751012.848 6  19882288.450    19882288.876    19882293.259
        50.900          40.000
 25  1  1  0  1 30.0000000  0 25G06G14G19G12G11E27G24G03E25E34S35G30
                                E15R22E36R23S31S33G17R12R11E02R10E30
                                R21
 110699519.928 8  86259405.40848  21065411.111    21065410.8614   21065415.4934
        48.500          48.5004
 110058955.956 7  85760282.08845  20943508.093    20943507.9504   20943511.6744
        42.600          30.0004
 106872845.494 7  83277576.94646  20337210.696    20337209.3734   20337210.4404
        47.800          40.8004
 133336828.543 4                  25373149.827
        28.700
 126822880.205 4  98823067.35341  24133591.486    24133591.7094   24133598.2904
        29.200          10.3004
 146527598.961 5                  27883273.184
        33.100
 120438541.869 4  93848283.43544  22918682.428    22918682.3974   22918692.2024
        29.100          24.2004
 121253706.414 6  94483382.19143  23073815.355    23073814.9224   23073816.1754
        36.900          18.1004
 146159873.394 5                  27813297.655
        35.000
 123963271.567 8                  23589414.028
        49.000
 200831659.089 5                  38216999.114
        34.300


 141105914.873 5                  26851557.184
        33.000
 106323600.397 8  82696179.689 7  19917986.611    19917987.088    19917990.887
        50.200          46.200
 129060293.790 7                  24559351.694
        42.500
 126022401.395 6                  23558564.274    23558558.371
        36.700
 198904479.076 7                  37850272.937
        42.800
 202060717.324 7                  38450877.379
        44.400
 110119356.748 7  85807325.76646  20955006.631    20955006.2474   20955008.2484
        47.000          37.5004
 109248796.202 8  84971304.574 7  20451595.107    20451595.947    20451604.018
        50.100          47.000
 103781821.064 8  80719185.854 7  19421326.214    19421326.569    19421332.482
        51.400          47.800
 125110931.262 7                  23807806.680
        43.300
 123709588.943 4                  23207598.955    23207600.662
        29.000
 126891314.207 7                  24146602.801
        46.200
 106426972.293 8  82776523.950 6  19888417.553    19888416.859    19888423.729
        49.800          40.800
 25  1  1  0  1 45.0000000  0 24G06G14G19G12G11E27G24G03E25E34S35E15
                                R22E36R23S31S33G17R12R11E02R10E30R21
 110664952.435 7  86232469.78848  21058832.704    21058832.4504   21058837.5354
        47.900          48.9004
 110087899.593 7  85782835.58844  20949016.421    20949016.2784   20949018.4784
        44.100          27.6004
 106863028.840 8  83269927.64246  20335342.202    20335340.8654   20335342.3264
        49.200          41.0004
 133284471.672 4                  25363193.430
        26.900


 146489332.727 5                  27875992.289
        34.100


 121246790.071 6  94477992.80242  23072498.238    23072497.9884   23072500.5344
        37.400          16.1004
 146196712.652 5                  27820307.263
        33.500
 123944475.171 8                  23585837.530
        50.000


 141060837.726 5                  26842979.141
        34.900
 106296883.234 8  82675399.738 8  19912981.185    19912981.504    19912987.087
        48.300          48.500
 129084261.251 5                  24563907.946
        34.500
 125966658.256 4                  23548137.335    23548155.338
        26.400
 198904484.351 7                  37850274.234
        42.600
 202060713.159 7                  38450877.410
        44.600
 110137460.232 7  85821432.40446  20958451.594    20958451.2194   20958453.7634
        47.800          39.0004
 109205710.375 7  84937793.469 7  20443527.753    20443528.849    20443536.880
        47.300          46.200
 103805816.205 8  80737848.756 7  19425816.441    19425816.517    19425822.702
        50.500          46.300
 125127386.757 6                  23810937.887
        41.500
 123770733.096 5                  23219072.929    23219080.600
        32.400
 126871203.627 7                  24142775.981
        46.700
 106459877.172 8  82802116.608 6  19894566.624    19894566.096    19894571.933
        49.800          40.400
 25  1  1  0  2  0.0000000  0 22G06G14G19G11E27G24G03E25E34S35E15R22
                                E36S31S33G17R12R11E02R10E30R21
 110630500.589 8  86205624.25348  21052277.436    21052277.1864   21052281.5734
        49.000          48.7004
 110116939.207 7  85805463.81044  20954542.137    20954541.9904   20954542.5374
        46.000          27.3004
 106853281.163 7  83262332.10246  20333486.873    20333485.5234   20333487.3534
        47.700          40.6004
 126714697.305 5  98738750.20641  24113008.722    24113008.6154   24113011.3914
        31.800           9.6004
 146451059.022 5                  27868711.276
        33.000


 121240017.228 5  94472715.30642  23071210.405    23071210.1914   23071210.7894
        34.200          13.2004
 146233579.132 5                  27827325.393
        32.600
 123925774.048 8                  23582278.863
        50.700


 141015792.478 6                  26834407.725
        36.600
 106270306.199 7  82654728.757 7  19907999.479    19907999.822    19908006.469
        45.200          46.100
 129108307.271 5                  24568486.674
        32.700
 198904488.847 6                  37850273.541
        41.900
 202060708.354 7                  38450869.701
        43.000
 110155603.872 8  85835570.36546  20961904.201    20961903.8214   20961904.9614
        48.300          38.2004
 109162736.054 7  84904368.999 7  20435483.190    20435482.983    20435490.821
        47.500          45.600
 103829981.813 8  80756644.255 7  19430339.500    19430339.809    19430344.496
        51.200          46.900
 125143904.331 6                  23814080.861
        40.100
 123831930.028 4                  23230556.648
        26.900
 126851137.674 7                  24138958.197
        47.700
 106492887.251 8  82827791.072 6  19900735.019    19900734.918    19900740.138
        51.000          39.900
 25  1  1  0  2 15.0000000  0 22G06G14G19G11E27G24G03E25E34S35E15R22
                                E36R23S31S33G17R12R11E02E30R21
 110596164.027 7  86178868.54448  21045743.217    21045742.9724   21045748.1124
        47.600          49.5004
 110146074.174 7  85828166.39744  20960085.485    20960085.3294   20960085.2834
        46.300          28.2004
 106843601.687 8  83254789.68946  20331645.961    20331644.6294   20331644.8304
        49.700          40.6004
 126660666.253 6  98696648.20641  24102728.027    24102727.8174   24102732.1554
        38.300          11.8004
 146412777.294 5                  27861427.209
        34.500
 120400644.095 5  93818708.35444  22911479.346    22911479.3064   22911488.5834
        33.100          27.5004
 121233387.632 6  94467549.44441  23069949.686    23069949.5214   23069949.1974
        37.200          11.6004
 146270472.381 4                  27834340.510
        28.800
 123907167.631 8                  23578738.154
        51.300




 106243868.820 7  82634166.393 8  19903050.766    19903049.879    19903055.015
        46.700          48.200
 129132431.288 6                  24573078.836
        36.800
 125855467.711 5                  23527326.707    23527326.041
        33.000
 198904492.338 7                  37850280.892
        42.700
 202060702.567 6                  38450875.778
        41.900
 110173787.273 7  85849739.27746  20965364.462    20965364.0824   20965366.0284
        47.100          38.3004
 109119873.024 8  84871031.217 7  20427461.418    20427460.248    20427467.470
        49.300          45.900
 103854317.194 8  80775571.784 7  19434893.666    19434893.772    19434898.012
        51.800          47.000
 125160483.243 7                  23817236.368
        43.400
 126831115.921 8                  24135147.593
        48.000
 106526001.584 8  82853546.661 7  19906923.183    19906924.449    19906929.798
        52.900          42.600
 25  1  1  0  2 30.0000000  0 22G06G14G19G11E27G24G03E25E34S35E15R22
                                E36R23S31S33G17R12R11E02E30R21
 110561946.575 7  86152205.64848  21039232.458    21039232.1994   21039237.2064
        47.800          49.6004
 110175308.138 7  85850946.06144  20965648.506    20965648.3464   20965647.5074
        44.400          26.3004
 106833994.103 8  83247303.29646  20329817.729    20329816.4064   20329816.1164
        48.800          41.4004


 146374491.177 5                  27854140.068
        35.600
 120388323.815 5  93809108.16444  22909135.904    22909135.8464   22909145.8114
        35.700          28.7004
 121226904.851 4  94462498.49541  23068715.266    23068715.1064   23068715.9954
        27.000           8.2004
 146307395.866 5                  27841369.019
        34.400
 123888659.662 8                  23575216.542
        51.400
 200831736.720 6                  38217017.108
        38.200
 140925795.217 5                  26817281.986
        30.800
 106217574.819 7  82613715.538 8  19898122.901    19898121.287    19898129.433
        44.000          48.400
 129156636.794 6                  24577683.358
        39.200
 125799901.723 5                  23516939.141    23516940.680
        31.300
 198904498.326 7                  37850275.857
        42.600
 202060699.195 7                  38450865.010
        44.800
 110192013.670 7  85863941.61546  20968832.919    20968832.5304   20968835.1674
        46.200          38.0004
 109077125.677 8  84837783.379 7  20419457.982    20419457.564    20419465.434
        48.100          45.400
 103878825.980 8  80794634.172 7  19439479.570    19439479.752    19439484.627
        50.600          46.500
 125177127.302 6                  23820402.759
        41.700
 126811142.219 8                  24131346.705
        48.100
 106559223.521 8  82879385.937 7  19913132.097    19913132.715    19913137.953
        53.700          43.200
 25  1  1  0  2 45.0000000  0 23G06G14G19G11E27G24G03E25E34S35G30E15
                                R22E36R23S31S33G17R12R11E02E30R21
 110527849.287 7  86125636.39948  21032744.031    21032743.7594   21032748.6184
        47.000          48.7004
 110204641.814 7  85873803.50644  20971230.473    20971230.3044   20971229.3094
        45.400          26.3004
 106824459.116 8  83239873.46546  20328002.807    20328001.4624   20328001.2634
        48.700          40.2004


 146336201.840 5                  27846854.201
        33.700
 120376153.398 6  93799624.81744  22906820.622    22906820.7424   22906828.0884
        38.600          27.0004
 121220570.247 4  94457562.56041  23067511.329    23067511.2184   23067510.9734
        27.800          10.9004
 146344350.383 5                  27848400.534
        30.900
 123870251.045 8                  23571712.606
        49.900
 200831773.990 6                  38217020.144
        36.800


 140880853.075 5                  26808730.726
        34.300
 106191425.088 7  82593376.879 7  19893224.605    19893225.134    19893229.974
        47.100          47.400
 129180924.348 6                  24582306.009
        41.100
 125744398.458 5                  23506564.734    23506564.137
        31.300
 198904507.811 7                  37850276.309
        43.500
 202060699.384 7                  38450872.862
        43.700
 110210283.788 7  85878178.03346  20972310.404    20972309.9844   20972312.0684
        44.200          36.6004
 109034495.149 8  84804626.315 7  20411477.880    20411478.016    20411483.722
        50.100          45.200
 103903508.980 8  80813832.062 7  19444099.487    19444099.238    19444103.581
        50.600          46.600
 125193837.370 7                  23823583.022
        42.000
 126791217.548 8                  24127555.370
        48.800
 106592553.520 8  82905309.281 7  19919361.145    19919361.194    19919366.780
        53.200          44.700
 25  1  1  0  3  0.0000000  0 23G06G14G19G11E27G24G03E25E34S35G30E15
                                R22E36R23S31S33G17R12R11E02E30R21
 110493865.435 8  86099155.54248  21026276.656    21026276.3934   21026281.1364
        50.000          49.1004
 110234068.277 7  85896733.23544  20976830.493    20976830.3194   20976830.0164
        47.900          29.2004
 106814989.769 8  83232494.78146  20326200.641    20326199.2874   20326199.1324
        48.800          39.8004
 126498902.206 4  98570533.26241  24071924.214    24071923.8794   24071931.4314
        28.500           9.1004
 146297902.264 6                  27839565.869
        37.400
 120364125.999 6  93790252.85144  22904530.934    22904530.9424   22904536.7484
        38.800          26.3004
 121214486.300 5                  23066345.382
        31.000
 146381329.036 4                  27855439.327
        28.000
 123851934.870 8                  23568227.511
        50.400






 106165412.685 7  82573145.072 7  19888351.337    19888351.642    19888356.639
        46.000          46.800
 129205286.787 6                  24586941.655
        41.000
 125688950.712 5                  23496198.454    23496200.606
        35.100
 198904513.966 7                  37850275.405
        42.400
 202060695.952 7                  38450872.276
        43.300
 110228590.702 7  85892443.21645  20975793.767    20975793.3254   20975794.9934
        44.000          35.3004
 108991974.932 8  84771555.169 7  20403516.894    20403516.811    20403523.724
        50.300          45.400
 103928359.008 8  80833159.887 7  19448748.600    19448748.974    19448753.393
        49.600          46.000
 125210606.549 7                  23826773.984
        44.400
 126771335.125 7                  24123771.582
        47.800
 106625984.153 8  82931310.899 7  19925607.301    19925607.308    19925615.207
        51.600          44.000
 25  1  1  0  3 15.0000000  0 22G06G14G19G12G11E27G24E25E34S35E15R22
                                E36R23S31S33G17R12R11E02E30R21
 110460001.083 8  86072767.81548  21019830.970    21019830.6804   21019836.8984
        48.400          48.4004
 110263593.368 8  85919739.81845  20982448.672    20982448.4854   20982449.8574
        48.000          31.7004
 106805592.053 8  83225171.90446  20324412.421    20324411.0624   20324410.9974
        50.100          39.7004
 132970112.971 5                  25303374.597
        34.800
 126445026.600 4  98528552.39641  24061674.334    24061674.1784   24061679.7984
        29.800          11.3004
 146259598.686 5                  27832275.348
        35.000
 120352247.736 7  93780997.13644  22902270.535    22902270.5484   22902277.3364
        43.000          26.3004
 146418337.736 5                  27862481.999
        30.200
 123833717.139 8                  23564761.005
        50.400




 106139543.631 7  82553024.721 7  19883504.243    19883503.218    19883509.919
        45.900          45.800
 129229729.933 6                  24591592.238
        40.800
 125633565.038 4                  23485839.037    23485840.903
        27.900
 198904522.601 7                  37850280.651
        42.600
 202060695.509 7                  38450866.884
        44.400
 110246940.104 7  85906741.46345  20979285.074    20979284.6274   20979285.2424
        42.100          34.6004
 108949571.643 8  84738574.886 7  20395578.978    20395579.359    20395586.192
        50.500          46.800
 103953381.954 8  80852622.148 7  19453431.500    19453431.805    19453436.564
        48.900          47.000
 125227440.891 7                  23829979.087
        44.700
 126751501.007 7                  24119997.495
        47.000
 106659521.103 8  82957395.171 7  19931875.085    19931874.953    19931881.971
        53.300          45.600
 25  1  1  0  3 30.0000000  0 22G06G14G19G12G11E27G24G03E25E34S35E15
                                R22E36S31S33G17R12R11E02E30R21
 110426250.406 8  86046468.65848  21013409.236    21013408.9464   21013414.4674
        49.800          50.0004
 110293210.966 7  85942818.42545  20988084.668    20988084.4634   20988086.6914
        47.700          30.0004
 106796259.872 8  83217900.10246  20322636.747    20322635.3844   20322635.9694
        48.500          40.3004
 132917692.443 5 103572324.5064   25293395.248    25293395.3324   25293417.9384
        31.000           5.3004
 126391185.932 6  98486598.88741  24051427.144    24051426.9794   24051433.5584
        36.900          11.1004
 146221284.932 5                  27824982.685
        31.200
 120340512.563 6  93771853.07344  22900036.279    22900036.2534   22900045.6924
        40.800          27.0004




 123815591.848 8                  23561310.822
        48.100
 200831908.004 5                  38217018.682
        35.600


 106113811.799 7  82533011.143 7  19878683.901    19878684.115    19878690.632
        45.400          45.500
 129254247.523 6                  24596258.360
        41.300
 198904527.243 6                  37850277.427
        40.500
 202060690.547 7                  38450868.417
        43.200
 110265326.069 7  85921068.20346  20982784.668    20982784.2084   20982785.4494
        47.800          41.6004
 108907279.433 8  84705681.075 7  20387662.221    20387662.463    20387668.129
        50.500          45.800
 103978571.476 8  80872213.989 7  19458144.926    19458144.837    19458150.436
        48.600          47.700
 125244334.233 7                  23833192.500
        42.300
 126731709.274 7                  24116231.288
        46.900
 106693157.547 8  82983556.901 7  19938159.932    19938159.971    19938167.172
        50.900          46.800
 25  1  1  0  3 45.0000000  0 22G06G14G19G12G11E27G24G03E25E34S35E15
                                R22E36S31S33G17R12R11E02E30R21
 110392621.771 8  86020264.59348  21007009.857    21007009.5854   21007015.7364
        49.500          50.6004
 110322929.264 8  85965975.56745  20993741.182    20993740.9774   20993741.7784
        48.600          30.9004
 106787001.307 8  83210685.65346  20320874.821    20320873.4534   20320874.8784
        48.800          40.7004
 132865267.345 5 103531473.34341  25283418.660    25283418.9954   25283437.7104
        30.000          10.0004
 126337388.384 6  98444678.91942  24041189.648    24041189.8984   24041196.0824
        40.800          12.1004
 146182969.440 5                  27817693.205
        32.800
 120328928.735 6  93762826.71044  22897833.203    22897833.1634   22897840.0114
        41.400          29.6004




 123797567.156 7                  23557881.430
        47.900
 200831945.710 5                  38217040.692
        30.800


 106088225.505 7  82513110.753 7  19873890.627    19873890.213    19873897.080
        44.100          44.500
 129278847.594 6                  24600939.533
        41.600
 198904536.992 7                  37850281.536
        43.300
 202060691.144 7                  38450871.677
        43.700
 110283756.525 7  85935429.63446  20986292.227    20986291.7674   20986292.5694
        47.200          39.2004
 108865107.183 8  84672880.544 7  20379766.148    20379766.781    20379774.127
        50.100          46.300
 104003935.854 7  80891941.846 7  19462891.484    19462891.518    19462896.742
        47.600          46.600
 125261294.908 7                  23836421.128
        46.800
 126711968.292 7                  24112474.349
        46.400
 106726901.677 8  83009802.362 7  19944465.926    19944465.969    19944473.966
        52.600          47.000
 25  1  1  0  4  0.0000000  0 23G06G14G19G12G11E27G24G03E25E34S35E15
                                R22E36R23S31S33G17R12R11E02E30R21
 110359111.706 8  85994152.90548  21000632.776    21000632.5174   21000639.3194
        50.000          50.4004
 110352744.433 7  85989208.20144  20999414.283    20999414.0784   20999415.4844
        45.500          29.2004
 106777812.814 8  83203525.82646  20319126.227    20319124.8504   20319126.4614
        48.900          40.2004
 132812835.071 5 103490617.44342  25273449.958    25273450.5794   25273456.8294
        34.000          13.5004
 126283630.517 6  98402789.79241  24030958.739    24030959.0074   24030966.5934
        38.300           9.0004
 146144648.570 5                  27810399.612
        30.200
 120317492.567 7  93753915.42745  22895656.757    22895656.7134   22895663.7664
        43.800          33.9004




 123779639.517 7                  23554469.613
        46.700
 200831983.937 5                  38217067.244
        33.700
 140656608.383 5                  26766063.528
        33.600
 106062781.170 7  82493320.790 7  19869125.422    19869123.759    19869129.454
        45.800          44.400
 129303526.181 6                  24605636.058
        41.100
 125467619.597 6                  23454856.535    23454856.302
        37.500
 198904546.935 7                  37850285.467
        42.900
 202060692.067 7                  38450864.961
        43.300
 110302227.998 7  85949823.01645  20989806.768    20989806.2864   20989806.0894
        42.600          35.3004
 108823051.539 8  84640170.681 7  20371892.273    20371894.109    20371902.551
        49.500          47.800
 104029471.238 8  80911802.717 8  19467670.701    19467670.596    19467676.889
        48.800          48.400
 125278319.245 7                  23839660.390
        47.000
 126692274.554 7                  24108727.157
        45.900
 106760749.157 8  83036128.171 7  19950790.690    19950791.089    19950798.956
        52.800          47.500
 25  1  1  0  4 15.0000000  0 24G06G14G19G12G11E27G24G03E25E34S35E15
                                R22E36R23S31S33G17R12R11E02R10E30R21
 110325716.450 8  85968130.68448  20994277.945    20994277.6864   20994284.8034
        50.200          51.4004
 110382652.521 7  86012513.25544  21005104.732    21005104.5454   21005106.4474
        43.500          26.7004
 106768690.571 8  83196417.63646  20317390.049    20317388.6684   20317390.3804
        48.100          39.4004
 132760391.784 5 103449752.96842  25263468.987    25263469.6084   25263474.5894
        34.200          12.9004
 126229908.648 6  98360928.8794   24020735.585    24020735.8534   24020743.8874
        38.000           2.0004
 146106318.489 4                  27803106.678
        28.300
 120306200.286 7  93745116.31645  22893506.749    22893506.6874   22893515.3484
        42.400          35.8004
 121185583.304 5  94430335.52443  23060850.949    23060851.0604   23060854.2704
        34.900          18.2004


 123761804.991 7                  23551076.296
        46.300




 106037474.736 7  82473638.046 7  19864386.006    19864384.063    19864390.245
        46.300          45.500
 129328279.234 6                  24610345.600
        39.600
 125412473.094 5                  23444538.241    23444542.518
        31.800
 198904554.167 6                  37850284.264
        40.200
 202060689.616 7                  38450872.956
        44.600
 110320736.096 7  85964244.92646  20993327.927    20993327.4224   20993327.7784
        44.300          36.6004
 108781109.148 8  84607548.865 8  20364039.517    20364040.330    20364050.825
        48.500          48.500
 104055173.589 8  80931793.436 8  19472481.057    19472481.364    19472486.548
        51.500          48.600
 125295403.357 7                  23842911.611
        46.800
 124385104.880 5                  23334329.920
        32.900
 126672624.203 7                  24104986.743
        45.800
 106794695.590 8  83062530.979 7  19957134.486    19957134.751    19957142.520
        52.600          47.900
 25  1  1  0  4 30.0000000  0 24G06G14G19G12G11E27G24G03E25E34S35E15
                                R22E36R23S31S33G17R12R11E02R10E30R21
 110292437.374 8  85942198.99348  20987944.983    20987944.7244   20987951.7344
        48.800          51.2004
 110412654.694 7  86035891.62444  21010813.598    21010813.4334   21010815.7564
        44.100          26.6004
 106759635.420 8  83189361.69146  20315667.339    20315665.9404   20315667.1514
        49.900          40.5004
 132707938.767 5 103408880.74441  25253484.806    25253485.3564   25253492.1574
        32.500          11.4004
 126176224.350 4  98319097.1704   24010518.856    24010519.1104   24010528.5234
        27.900           5.1004
 146067980.462 5                  27795811.275
        35.400
 120295053.099 7  93736430.28945  22891385.685    22891385.6184   22891394.0784
        43.000          35.5004
 121180259.962 4  94426187.45242  23059842.013    23059842.5984   23059845.4184
        27.800          17.5004


 123744064.841 8                  23547700.393
        48.900




 106012307.509 7  82454063.600 7  19859671.731    19859669.662    19859676.176
        47.200          46.700
 129353107.697 6                  24615070.637
        38.800
 125357385.994 5                  23434253.860    23434245.274
        35.200
 198904559.968 6                  37850274.140
        37.300
 202060686.361 7                  38450873.502
        45.400
 110339282.205 7  85978696.49646  20996857.310    20996856.8144   20996858.1774
        45.000          38.0004
 108739281.481 7  84575016.329 7  20356210.203    20356208.985    20356220.544
        47.700          47.700
 104081043.945 8  80951914.855 8  19477322.815    19477323.447    19477327.151
        53.600          48.000
 125312548.477 7                  23846172.978
        44.800
 124446816.985 5                  23345900.471    23345900.539
        31.400
 126653018.703 7                  24101256.528
        45.700
 106828742.005 8  83089011.532 8  19963497.195    19963497.607    19963504.731
        52.300          48.300
 25  1  1  0  4 45.0000000  0 23G06G14G19G12G11E27G24G03E25E34S35E15
                                R22E36R23S31S33G17R12R11E02E30R21
 110259281.621 8  85916363.41948  20981635.961    20981635.7164   20981642.0334
        50.500          51.6004
 110442757.848 6  86059348.60343  21016539.293    21016539.1244   21016543.7264
        37.900          20.9004
 106750654.378 7  83182363.48646  20313957.773    20313956.3694   20313957.8244
        47.500          39.1004
 132655483.019 6 103368006.77342  25243509.812    25243510.3084   25243509.0944
        36.100          14.0004
 126122584.739 6  98277300.4284   24000314.694    24000314.9044   24000320.9224
        36.100           3.6004
 146029641.672 5                  27788515.131
        34.900
 120284058.077 7  93727862.80146  22889293.630    22889293.4614   22889302.1454
        42.500          36.1004
 121175087.169 6  94422156.70143  23058855.504    23058855.9554   23058863.5044
        37.600          19.0004


 123726426.077 8                  23544343.517
        49.400




 105987286.550 7  82434602.907 7  19854982.871    19854982.387    19854988.158
        46.900          46.300
 129378018.367 6                  24619811.454
        41.200
 125302364.826 5                  23423964.123    23423963.619
        35.300
 198904570.580 7                  37850288.306
        42.200
 202060687.576 7                  38450871.570
        44.600
 110357873.024 7  85993182.85546  21000394.459    21000393.9684   21000397.1804
        46.200          40.2004
 108697576.379 8  84542579.025 7  20348405.743    20348404.394    20348412.649
        48.500          45.900
 104107089.316 8  80972172.344 8  19482195.925    19482196.559    19482201.645
        52.300          49.100
 125329761.648 7                  23849447.531
        42.400
 126633465.095 7                  24097535.672
        43.800
 106862894.795 8  83115574.833 7  19969879.773    19969880.445    19969887.114
        53.300          47.900
 25  1  1  0  5  0.0000000  0 23G06G14G19G12G11E27G24G03E25E34S35E15
                                R22E36R23S31S33G17R12R11E02E30R21
 110226241.589 8  85890618.02748  20975347.977    20975347.7414   20975354.2394
        49.800          50.4004
 110472954.095 6  86082878.18042  21022285.817    21022285.5764   21022288.8534
        37.600          16.0004
 106741739.686 7  83175416.97846  20312261.891    20312260.5234   20312261.3354
        47.600          38.5004
 132603017.130 6 103327124.74842  25233514.280    25233514.7894   25233524.8334
        37.500          15.3004
 126068982.344 6  98235532.75041  23990115.291    23990115.3174   23990120.4404
        38.600           6.8004
 145991294.294 6                  27781218.638
        36.300
 120273207.446 6  93719407.83646  22887227.836    22887227.6534   22887237.6114
        40.800          36.4004
 121170057.605 5  94418237.44142  23057896.821    23057896.9284   23057907.6944
        32.500          17.0004


 123708880.930 8                  23541005.187
        50.300




 105962403.987 7  82415249.853 7  19850321.580    19850321.959    19850326.858
        47.500          46.300
 129403003.293 6                  24624565.682
        40.400
 125247402.354 5                  23413688.845    23413691.363
        35.600
 198904578.272 7                  37850286.848
        42.000
 202060686.364 7                  38450872.321
        44.200
 110376500.768 7  86007697.99046  21003938.762    21003938.2804   21003942.1754
        44.600          39.7004
 108655986.037 8  84510231.026 7  20340619.991    20340619.823    20340625.595
        51.000          45.200
 104133301.647 8  80992559.744 8  19487101.549    19487101.138    19487107.019
        51.300          49.200
 125347034.990 7                  23852735.406
        43.100
 126613955.725 7                  24093823.356
        44.600
 106897145.804 9  83142214.513 8  19976280.284    19976281.479    19976287.768
        54.300          48.000
 25  1  1  0  5 15.0000000  0 22G06G14G19G12G11E27G24G03E25E34S35E15
                                R22E36S31S33G17R12R11E02E30R21
 110193318.394 8  85864963.66448  20969083.351    20969083.1284   20969088.4094
        49.100          49.8004
 110503244.254 6  86106480.88642  21028052.911    21028052.5674   21028051.9474
        40.300          15.9004
 106732892.170 8  83168522.84446  20310578.476    20310577.1224   20310578.1984
        48.100          39.7004
 132550542.066 6 103286235.43742  25223529.019    25223529.5734   25223540.4604
        36.800          17.2004
 126015418.301 6  98193794.72741  23979920.038    23979920.0254   23979927.4974
        41.900          10.9004
 145952939.388 5                  27773919.120
        35.900
 120262502.159 6  93711066.11746  22885190.984    22885190.8284   22885201.7444
        39.300          37.4004
 121165172.131 5  94414430.58142  23056965.419    23056965.4994   23056978.8584
        33.700          15.6004


 123691430.338 8                  23537684.445
        50.200


 140433211.027 5                  26723554.092
        35.300
 105937660.790 7  82396005.189 7  19845684.068    19845685.392    19845692.111
        47.300          47.100
 129428063.148 6                  24629333.933
        40.400
 198904584.649 7                  37850292.102
        42.900
 202060682.327 7                  38450868.310
        45.200
 110395166.240 7  86022242.54246  21007492.056    21007491.5874   21007494.0484
        43.600          38.9004
 108614512.081 8  84477973.616 7  20332853.730    20332854.439    20332862.134
        50.700          44.800
 104159681.647 8  81013077.539 8  19492037.722    19492037.992    19492043.377
        51.600          49.300
 125364369.479 6                  23856032.806
        38.400
 126594491.700 7                  24090118.736
        44.100
 106931495.503 9  83168930.953 7  19982699.773    19982700.489    19982705.861
        54.400          47.400
 25  1  1  0  5 30.0000000  0 23G06G14G19G12G11E27G24G03E25E34S35E15
                                R22E36R23S31S33G17R12R11E02E30R21
 110160515.467 8  85839402.99148  20962841.593    20962841.3434   20962846.0334
        48.900          49.3004
 110533631.596 7  86130159.36942  21033835.065    21033834.6944   21033834.0464
        42.700          17.3004
 106724115.056 8  83161683.55146  20308907.580    20308906.2394   20308908.1594
        49.000          39.9004
 132498061.590 6 103245341.87242  25213542.847    25213543.4104   25213555.8724
        36.600          16.2004
 125961896.092 7  98152089.40442  23969735.552    23969735.5564   23969742.5814
        42.300          13.5004
 145914580.319 6                  27766619.705
        37.900
 120251945.572 7  93702840.30146  22883182.772    22883182.6434   22883193.6274
        44.800          39.3004
 121160434.138 5  94410738.62441  23056064.678    23056064.7764   23056078.0094
        35.700           9.0004


 123674077.631 8                  23534382.373
        51.100


 140388640.161 5                  26715073.168
        35.300
 105913060.306 7  82376871.528 7  19841075.564    19841075.498    19841082.955
        46.600          47.600
 129453200.974 6                  24634118.506
        40.500
 125137704.743 5                  23393175.845    23393176.421
        31.600
 198904592.529 7                  37850296.140
        42.800
 202060681.138 7                  38450869.924
        44.800
 110413872.434 7  86036818.83546  21011050.876    21011050.3674   21011053.8984
        43.100          38.8004
 108573158.219 8  84445809.575 7  20325112.341    20325112.535    20325121.791
        50.300          46.000
 104186232.486 8  81033728.181 8  19497005.882    19497006.564    19497012.526
        52.100          50.300
 125381768.524 6                  23859343.901
        39.400
 126575076.394 7                  24086423.912
        42.200
 106965946.793 9  83195726.407 7  19989137.687    19989138.418    19989143.857
        54.400          46.800
 25  1  1  0  5 45.0000000  0 23G06G14G19G12G11E27G24G03E25E34S35E15
                                R22E36R23S31S33G17R12R11E02E30R21
 110127832.466 8  85813935.74148  20956622.489    20956622.2304   20956626.1624
        49.100          49.4004
 110564115.510 6  86153913.14443  21039634.551    21039634.2384   21039636.4644
        39.000          18.6004
 106715407.725 8  83154898.65746  20307250.757    20307249.4294   20307251.0034
        50.800          41.2004
 132445574.863 5 103204443.45942  25203553.497    25203554.0024   25203569.2234
        35.100          13.1004
 125908415.641 7  98110416.58142  23959558.030    23959558.0704   23959565.9774
        42.300          15.6004
 145876216.663 5                  27759318.412
        34.900
 120241537.227 7  93694729.96346  22881201.649    22881201.5514   22881212.1934
        42.100          39.8004
 121155843.290 6  94407161.78741  23055189.932    23055190.1194   23055205.2924
        37.800           7.6004


 123656822.319 8                  23531098.813
        51.500


 140344105.190 6                  26706598.151
        36.100
 105888601.997 8  82357848.461 7  19836495.218    19836494.808    19836500.597
        48.200          47.100
 129478416.157 6                  24638916.911
        40.900
 125082927.970 5                  23382943.979    23382942.434
        32.700
 198904600.551 7                  37850300.321
        42.300
 202060680.219 7                  38450871.838
        45.000
 110432618.699 7  86051426.33046  21014618.088    21014617.5794   21014621.6624
        44.200          39.6004
 108531924.309 8  84413738.793 7  20317393.654    20317392.722    20317401.025
        49.500          44.100
 104212953.688 8  81054511.358 8  19502006.808    19502007.202    19502013.459
        51.900          51.100
 125399231.504 6                  23862668.433
        39.500
 126555709.441 7                  24082737.938
        42.700
 107000498.798 8  83222600.186 7  19995594.737    19995595.258    19995600.715
        53.500          45.500
 25  1  1  0  6  0.0000000  0 22G06G14G19G12G11E27G24G03E25E34S35E15
                                R22E36S31S33G17R12R11E02E30R21
 110095266.133 8  85788559.41048  20950425.089    20950424.8354   20950428.4934
        49.400          49.6004
 110594692.504 5  86177739.35042  21045454.235    21045453.9764   21045455.3554
        35.600          16.3004
 106706766.937 8  83148165.61646  20305606.649    20305605.3214   20305606.4744
        51.600          41.5004
 132393078.621 5 103163537.74841  25193566.660    25193567.1744   25193580.3704
        34.000           8.1004
 125854973.648 6  98068773.74341  23949389.119    23949389.2084   23949396.2114
        36.800          10.5004
 145837845.197 5                  27752016.194
        34.100
 120231273.732 7  93686732.48746  22879249.009    22879248.9294   22879258.3134
        43.700          39.8004
 121151396.208 5  94403696.48742  23054343.734    23054344.0244   23054358.2554
        32.800          16.2004


 123639661.032 8                  23527833.064
        49.700


 140299603.090 5                  26698131.391
        30.300
 105864282.501 8  82338933.290 8  19831939.226    19831938.327    19831946.240
        49.400          48.100
 129503705.042 6                  24643729.186
        39.200
 198904607.172 7                  37850301.153
        42.800
 202060677.322 7                  38450866.436
        44.800
 110451401.654 6  86066062.40946  21018190.646    21018190.1504   21018196.1974
        40.700          38.1004
 108490807.413 8  84381759.021 7  20309697.445    20309696.675    20309704.621
        49.600          45.500
 104239841.603 8  81075424.165 8  19507038.275    19507038.234    19507044.737
        51.600          51.600
 125416755.179 6                  23866002.025
        41.400
 126536387.578 7                  24079061.408
        44.400
 107035147.716 8  83249549.309 7  20002069.702    20002069.854    20002075.888
        52.100          46.700
 25  1  1  0  6 15.0000000  0 22G06G14G19G11E27G24G03E25E34S35E15R22
                                E36R23S31S33G17R12R11E02E30R21
 110062818.980 8  85763275.96748  20944250.099    20944249.8404   20944253.7954
        48.300          49.3004
 110625364.960 6  86201639.97642  21051292.294    21051291.9594   21051291.9224
        39.700          13.0004
 106698194.928 8  83141486.16046  20303975.040    20303973.7034   20303974.8284
        48.700          40.1004
 125801572.694 6  98027162.70441  23939225.610    23939225.6864   23939234.4804
        37.300           6.8004
 145799468.110 5                  27744713.629
        32.400
 120221157.408 7  93678849.68146  22877324.184    22877324.1044   22877333.5264
        43.900          39.3004




 123622596.106 8                  23524585.681
        51.000


 140255135.920 5                  26689674.158
        34.300
 105840104.081 8  82320127.921 8  19827409.331    19827409.473    19827416.527
        50.000          48.000
 129529069.664 6                  24648554.975
        38.600
 124973615.839 5                  23362496.248
        30.500
 198904613.715 6                  37850295.733
        40.700
 202060675.113 7                  38450868.122
        43.300
 110470223.545 6  86080728.85546  21021774.468    21021774.0264   21021777.8194
        38.700          37.4004
 108449810.441 8  84349872.621 7  20302021.737    20302022.078    20302030.172
        48.700          44.500
 104266898.323 8  81096468.337 8  19512101.627    19512101.801    19512108.111
        52.800          51.000
 125434341.776 7                  23869349.389
        44.300
 126517113.278 7                  24075393.690
        45.900
 107069895.259 8  83276575.220 7  20008563.083    20008562.767    20008568.952
        50.900          46.500
 25  1  1  0  6 30.0000000  0 22G06G14G19G11E27G24G03E25E34S35E15R22
                                E36R23S31S33G17R12R11E02E30R21
 110030490.324 8  85738084.85448  20938098.384    20938098.1214   20938101.8894
        48.900          49.0004
 110656131.678 7  86225614.01143  21057148.382    21057147.9494   21057145.8404
        42.300          18.7004
 106689690.731 8  83134859.53846  20302356.704    20302355.3674   20302356.6964
        48.900          39.8004
 125748212.152 6  97985583.3844   23929071.614    23929071.5834   23929080.9014
        36.200           5.1004
 145761084.980 5                  27737410.511
        32.100
 120211187.544 7  93671080.99646  22875426.679    22875426.5994   22875437.0844
        43.200          38.2004
 121142940.268 6  94397155.63943  23052736.657    23052736.8624   23052747.1114
        38.200          22.1004


 123605626.742 8                  23521356.315
        49.000


 140210703.530 4                  26681211.661
        27.200
 105816065.926 8  82301431.604 7  19822905.852    19822905.002    19822911.886
        49.600          46.400
 129554509.114 5                  24653396.093
        35.500
 124919022.487 5                  23352294.379
        34.500
 198904618.427 6                  37850298.890
        39.300
 202060670.166 7                  38450864.075
        42.500
 110489083.536 6  86095424.94746  21025362.071    21025361.5714   21025366.5604
        40.200          36.9004
 108408932.870 8  84318078.985 7  20294369.344    20294369.773    20294378.134
        48.900          44.700
 104294122.969 8  81117643.048 8  19517197.768    19517197.550    19517202.586
        52.800          50.400
 125451990.549 6                  23872707.095
        41.000
 126497885.801 7                  24071735.019
        46.100
 107104740.311 8  83303676.887 7  20015073.901    20015074.370    20015080.601
        51.200          46.500
 25  1  1  0  6 45.0000000  0 23G06G14G19G12G11E27G24G03E25E34S35E15
                                R22E36R23S31S33G17R12R11E02E30R21
 109998280.591 8  85712986.42848  20931968.801    20931968.5294   20931972.0914
        48.700          48.6004
 110686993.058 7  86249661.84943  21063021.125    21063020.7104   21063016.8974
        46.800          22.2004
 106681254.533 8  83128285.88846  20300750.903    20300749.5804   20300751.3614
        48.600          38.8004
 132235514.416 5 103040713.19641  25163583.782    25163584.2114   25163597.2824
        34.300           9.2004
 125694892.686 5  97944035.7574   23918927.045    23918927.0764   23918934.9554
        35.000           2.6004
 145722695.880 5                  27730103.608
        30.000
 120201364.347 7  93663426.66246  22873557.342    22873557.2804   22873567.2444
        44.100          37.1004
 121138931.036 5  94394031.60743  23051973.439    23051973.8284   23051977.1074
        30.500          19.3004


 123588753.247 8                  23518145.641
        48.100


 140166305.766 5                  26672765.147
        30.100
 105792168.337 8  82282844.621 7  19818429.894    19818429.301    19818435.322
        50.900          46.800
 129580023.205 5                  24658253.812
        32.400
 124864491.107 6                  23342096.865    23342096.066
        36.600
 198904623.187 7                  37850300.362
        42.000
 202060665.167 7                  38450864.612
        43.500
 110507981.923 6  86110150.99546  21028959.675    21028959.1574   21028962.2364
        39.100          37.0004
 108368175.677 8  84286379.008 7  20286738.812    20286739.387    20286746.573
        49.400          43.700
 104321515.560 8  81138948.380 8  19522322.438    19522322.620    19522327.822
        52.000          48.800
 125469701.794 6                  23876079.722
        40.500
 126478705.638 7                  24068085.801
        46.200
 107139682.795 8  83330854.375 7  20021603.661    20021604.661    20021610.520
        51.500          46.500
 25  1  1  0  7  0.0000000  0 22G06G14G19G11E27G24G03E25E34S35E15R22
                                E36R23S31S33G17R12R11E02E30R21
 109966194.351 8  85687984.22048  20925863.015    20925862.7564   20925866.0594
        49.000          49.4004
 110717953.407 7  86273786.81243  21068910.573    21068910.1714   21068907.1194
        44.700          21.5004
 106672890.810 7  83121768.72946  20299159.355    20299158.0324   20299160.0764
        47.100          38.5004
 125641618.828 6                  23908788.794
        36.200


 120191692.316 7  93655890.07946  22871717.598    22871717.5544   22871725.9594
        44.300          36.9004
 121135072.169 5  94391024.68642  23051240.564    23051240.6534   23051242.8004
        33.600          16.2004


 123571980.004 7                  23514953.392
        47.800


 140121947.573 5                  26664321.678
        34.500
 105768415.825 8  82264370.463 7  19813981.390    19813981.038    19813986.840
        52.100          47.300
 129605616.555 3                  24663118.568
        23.900
 124810026.718 6                  23331905.237    23331908.387
        38.300
 198904631.658 6                  37850293.547
        41.500
 202060664.062 7                  38450868.865
        44.100
 110526922.578 6  86124909.93546  21032563.880    21032563.3484   21032566.1364
        41.200          38.4004
 108327543.570 8  84254776.387 7  20279132.094    20279132.160    20279140.133
        49.100          44.400
 104349080.473 8  81160387.777 8  19527481.472    19527481.079    19527486.970
        51.600          49.300
 125487479.867 7                  23879462.425
        43.300
 126459577.258 7                  24064445.428
        46.300
 107174726.642 8  83358110.706 7  20028152.951    20028152.950    20028159.117
        51.500          46.800
 25  1  1  0  7 15.0000000  0 22G06G14G19G11E27G24G03E25E34S35E15R22
                                E36R23S31S33G17R12R11E02E30R21
 109934228.185 8  85663075.57748  20919779.680    20919779.4084   20919783.5744
        49.300          50.8004
 110749009.011 6  86297985.93743  21074820.306    21074819.9314   21074817.9074
        41.100          21.7004
 106664595.939 7  83115305.20646  20297581.440    20297580.1304   20297581.8214
        47.400          39.1004
 125588387.176 6  97861038.91441  23898659.077    23898659.1354   23898665.2824
        39.100           9.4004


 120182167.910 6  93648468.51845  22869903.813    22869903.7514   22869912.9094
        40.400          35.8004
 121131360.417 5  94388132.46042  23050530.000    23050530.0534   23050537.5314
        35.600          16.2004


 123555303.474 7                  23511779.315
        46.300


 140077625.451 5                  26655885.464
        32.400
 105744804.646 8  82246006.234 7  19809557.115    19809557.074    19809563.002
        51.900          46.700


 124755625.466 5                  23321723.946    23321724.293
        32.000
 198904640.002 6                  37850304.712
        41.600
 202060663.461 7                  38450865.220
        43.200
 110545901.817 7  86139698.99846  21036175.498    21036174.9894   21036176.8504
        42.400          39.5004
 108287033.340 8  84223268.488 7  20271548.515    20271548.579    20271557.674
        48.300          46.200
 104376813.847 8  81181958.181 8  19532671.166    19532671.377    19532676.744
        52.000          48.200
 125505321.306 7                  23882857.266
        42.900
 126440497.170 7                  24060814.463
        46.200
 107209867.665 8  83385442.645 8  20034719.647    20034719.304    20034727.515
        50.200          48.100
 25  1  1  0  7 30.0000000  0 22G06G14G19G11E27G24G03E25E34S35E15R22
                                E36R23S31S33G17R12R11E02E30R21
 109902381.610 8  85638260.12648  20913719.485    20913719.2174   20913724.4544
        50.500          52.2004
 110780159.189 7  86322258.82843  21080748.530    21080748.1914   21080747.4984
        42.300          23.4004
 106656369.264 8  83108894.82546  20296015.545    20296014.2264   20296016.0024
        48.200          38.9004
