     2.11           OBSERVATION DATA    M (MIXED)           RINEX VERSION / TYPE
teqc  2019Feb25                         20260317 16:18:01UTCPGM / RUN BY / DATE
Linux 2.4.21-27.ELsmp|Opteron|gcc -static|Linux 64|=+       COMMENT
BIT 2 OF LLI FLAGS DATA COLLECTED UNDER A/S CONDITION       COMMENT
-Unknown-                                                   MARKER NAME
-Unknown-           -Unknown-                               OBSERVER / AGENCY
-Unknown-           -Unknown-           -Unknown-           REC # / TYPE / VERS
-Unknown-           -Unknown-                               ANT # / TYPE
        0.0000        0.0000        0.0000                  APPROX POSITION XYZ
        0.0000        0.0000        0.0000                  ANTENNA: DELTA H/E/N
     1     1                                                WAVELENGTH FACT L1/2
     7    L1    L2    C1    P1    P2    S1    S2            # / TYPES OF OBSERV
 SNR is mapped to RINEX snr flag value [0-9]                COMMENT
  L1 & L2: min(max(int(snr_dBHz/6), 0), 9)                  COMMENT
  2025     1     1    19     0    0.0000000     GPS         TIME OF FIRST OBS
    18                                                      LEAP SECONDS
                                                            END OF HEADER
 25  1  1 19  0  0.0000000  0 25E31G07G30G08G27G04R19E24R10E09G09E04
                                R07R09S35G14S31E05E06S33R08R11R01R20
                                E26
 125083864.428 8                  23802657.623
        48.800
 110433580.712 8  86052093.23947  21014800.452    21014799.9254   21014801.1394
        48.400          47.3004
 120823109.032 5  94147876.10944  22991870.917    22991870.5694   22991878.5634
        34.000          28.3004
 105941041.105 8  82551519.43048  20159893.870    20159893.1914   20159896.4694
        50.900          48.8004
 113388850.837 6  88354966.55145  21577175.952    21577175.3354   21577182.4114
        40.100          34.7004
 117415988.163 6  91493083.62541  22343530.208    22343530.5344   22343533.5644
        39.700           6.5004
                  91978730.789 4                                  22107153.713
                        27.600


 106356355.568 7                  19952181.170    19952180.463
        46.400
 128970168.740 8                  24542210.028
        49.600
 110461696.718 7  86074035.74147  21020176.356    21020175.8024   21020179.8994
        44.700          43.5004
 126466271.139 7                  24065718.858
        46.600
 119461778.787 8  92914609.129 6  22316428.898    22316430.396    22316447.428
        48.500          40.200
 113420004.518 5  88215589.797 7  21239921.432                    21239933.187
        32.600          42.000


 127332345.695 6  99220071.74943  24230519.368    24230519.0114   24230529.2814
        38.100          23.6004
 198901834.895 7                  37849785.114
        44.400


 124458512.152 8                  23683672.617
        49.300
 202046578.199 7                  38448202.239
        43.200
 109397424.104 7  85086898.807 7  20429201.162    20429201.722    20429208.900
        47.700          47.800


 118942821.176 6  92511114.254 6  22250716.789    22250716.254    22250725.240
        39.900          37.700
 117785268.789 4  91610843.226 6  22026436.035    22026437.836    22026455.109
        29.400          38.200


 25  1  1 19  0 15.0000000  0 24E31G07G30G08G27G04E24R10E09G09E04R07
                                R09S35G14S31E05E06S33R08R11R01R20E26
 125071700.913 8                  23800343.484
        50.400
 110410435.232 8  86034057.78347  21010395.698    21010395.1754   21010396.7474
        48.300          46.8004
 120781150.346 6  94115180.96745  22983887.535    22983887.1114   22983892.5624
        37.700          30.2004
 105939465.270 8  82550291.54048  20159593.687    20159593.0034   20159596.8754
        50.800          49.6004
 113421653.199 6  88380526.85945  21583418.285    21583417.6644   21583425.0564
        37.000          35.0004
 117467558.415 6  91533267.91342  22353346.806    22353347.0834   22353347.3894
        38.700          12.7004


 106358257.792 7                  19952538.694    19952537.424
        45.100
 128956699.112 8                  24539646.609
        49.300
 110496279.514 7  86100983.29447  21026755.885    21026755.3444   21026761.5334
        44.400          44.1004
 126493476.373 7                  24070895.790
        44.700
 119525707.170 7  92964330.806 6  22328370.371    22328371.672    22328391.847
        45.700          41.700
 113451549.656 5  88240005.127 6  21245807.737    21245800.672    21245809.177
        35.100          38.800


 127290486.847 6  99187454.78744  24222553.871    24222553.5724   24222564.2164
        38.100          25.2004
 198901826.947 7                  37849787.703
        44.100


 124465125.185 8                  23684930.673
        50.000
 202046588.830 7                  38448207.158
        43.800
 109421640.255 8  85105733.525 7  20433723.399    20433723.977    20433731.324
        48.100          47.500
 117315436.386 7  91245382.761 5  21953991.317    21953991.659    21953994.271
        46.700          34.400
 118907290.866 5  92483479.546 6  22244068.258    22244069.375    22244077.623
        35.000          36.900
 117733922.325 4  91570907.483 6  22016833.373    22016834.987    22016852.885
        29.300          38.500


 25  1  1 19  0 30.0000000  0 24E31G07G30G08G27G04E24R10E09G09E04R07
                                R09S35G14S31E05E06S33R08R11R01R20E26
 125059591.540 8                  23798039.311
        49.300
 110387346.212 8  86016066.34248  21006002.207    21006001.6844   21006003.2664
        50.400          48.2004
 120739211.952 7  94082501.65945  22975906.778    22975906.3494   22975910.2914
        42.300          33.6004
 105938052.188 8  82549190.47048  20159324.531    20159323.8564   20159328.6444
        50.200          50.5004






 106360221.114 7                  19952908.260    19952907.942
        46.900
 128943330.371 8                  24537103.066
        49.400
 110530983.169 7  86128025.01047  21033360.358    21033359.8354   21033365.3684
        46.000          44.6004
 126520769.692 7                  24076089.887
        43.600
 119589685.771 7  93014091.491 6  22340324.331    22340323.939    22340342.352
        46.100          40.800
 113482975.054 6  88264447.113 6  21251689.518    21251687.671    21251693.286
        37.300          39.500


 127248660.680 6  99154863.26943  24214593.553    24214593.3254   24214604.3754
        40.200          23.2004
 198901821.500 7                  37849787.270
        44.600


 124471844.875 8                  23686209.429
        49.000
 202046602.452 7                  38448206.975
        42.700
 109446047.041 8  85124716.539 7  20438281.151    20438281.920    20438288.579
        48.500          46.900
 117281876.997 7  91219281.030 5  21947712.192    21947711.672    21947712.965
        47.000          34.200
 118871927.562 6  92455974.664 6  22237455.609    22237458.220    22237463.360
        40.100          37.200
 117682676.966 5  91531050.377 6  22007254.254    22007256.396    22007268.141
        34.200          38.400


 25  1  1 19  0 45.0000000  0 23E31G07G30G08G27G04E24R10E09G09E04R07
                                R09S35G14S31E05E06S33R08R11R01R20
 125047530.218 8                  23795744.091
        50.100
 110364307.843 8  85998114.35248  21001618.750    21001618.2184   21001618.9524
        49.900          48.3004
 120697287.881 7  94049833.51845  22967928.597    22967928.1504   22967931.5894
        43.400          33.5004
 105936795.724 8  82548211.43448  20159084.794    20159084.1374   20159089.3194
        49.700          49.6004






 106362239.782 7                  19953286.468    19953286.192
        46.500
 128930056.516 8                  24534576.977
        48.800
 110565801.301 7  86155155.93747  21039986.043    21039985.5524   21039991.0964
        47.300          46.0004
 126548144.875 7                  24081300.796
        45.800
 119653708.179 7  93063886.289 6  22352284.836    22352283.951    22352302.413
        46.700          40.000
 113514428.292 5  88288910.796 6  21257579.393    21257577.357    21257583.312
        32.800          38.100


 127206861.224 6  99122292.58143  24206638.829    24206638.5974   24206648.8624
        36.300          21.0004
 198901812.420 7                  37849784.211
        43.800


 124478665.170 8                  23687506.974
        48.700
 202046612.872 7                  38448214.585
        44.300
 109470637.710 8  85143842.512 7  20442874.144    20442875.443    20442881.351
        50.200          46.600
 117248347.299 7  91193202.636 5  21941435.407    21941434.019    21941446.116
        42.400          34.500
 118836725.275 6  92428595.117 6  22230868.174    22230868.265    22230877.679
        38.700          36.100
 117631526.914 5  91491267.440 6  21997687.827    21997685.831    21997701.646
        32.300          37.600
 25  1  1 19  1  0.0000000  0 24E31G07G30G08G27G04E24R10E09G09E04R07
                                R09S35G14S31E05E06S33R08R11R01R20E26
 125035523.511 8                  23793459.468
        50.500
 110341326.969 8  85980207.17347  20997245.046    20997244.5104   20997245.7634
        49.100          47.7004
 120655385.094 6  94017181.96945  22959955.025    22959954.5924   22959955.2074
        41.100          31.9004
 105935702.500 8  82547359.60148  20158876.505    20158875.8264   20158881.2504
        48.300          49.1004
 113521000.551 5  88457878.85344  21602295.648    21602295.3314   21602306.4374
        34.800          26.6004




 106364319.990 7                  19953676.703    19953676.646
        46.800
 128916884.378 8                  24532070.675
        50.200
 110600740.252 7  86182381.03847  21046633.440    21046632.9714   21046640.4754
        43.600          46.2004
 126575608.406 7                  24086526.364
        45.000
 119717780.223 7  93113719.740 6  22364254.474    22364251.117    22364273.604
        42.600          41.400
 113545916.638 5  88313401.731 6  21263476.062    21263474.944    21263478.673
        35.500          36.800


 127165095.280 6  99089747.98243  24198693.385    24198693.1714   24198701.1254
        38.000          22.6004
 198901807.030 7                  37849782.248
        44.100


 124485592.676 8                  23688826.256
        48.300
 202046626.256 7                  38448208.424
        46.400
 109495419.017 8  85163116.833 7  20447500.939    20447501.807    20447505.872
        49.400          45.100
 117214854.138 7  91167152.260 5  21935171.983    21935171.547    21935173.082
        47.500          33.600
 118801691.114 6  92401346.335 5  22224311.517    22224317.145    22224321.919
        37.500          34.100
 117580479.822 5  91451564.574 6  21988142.909    21988142.163    21988155.313
        30.900          39.200


 25  1  1 19  1 15.0000000  0 23E31G07G30G08G27G04E24R10E09G09E04R07
                                R09S35G14S31E05E06S33R08R11R01R20
 125023567.370 8                  23791183.963
        49.600
 110318399.863 8  85962341.89847  20992882.551    20992882.0064   20992882.6364
        48.200          46.7004
 120613499.459 6  93984543.81644  22951983.984    22951983.5554   22951981.8834
        39.800          28.0004
 105934768.494 7  82546631.83947  20158699.653    20158698.9694   20158703.8164
        46.200          47.1004
 113554326.828 5  88483847.29644  21608637.871    21608637.0084   21608642.6424
        35.000          27.4004
 117674758.242 6  91694477.06142  22392718.492    22392718.7024   22392729.2954
        38.600          12.9004


 106366457.888 7                  19954078.138    19954078.497
        47.800
 128903810.070 8                  24529582.767
        49.900
 110635795.700 7  86209696.90147  21053305.221    21053304.7344   21053312.5524
        42.300          46.2004
 126603156.206 7                  24091768.205
        45.500
 119781898.003 7  93163588.718 6  22376228.965    22376228.085    22376252.822
        44.100          41.500
 113577435.724 6  88337916.494 6  21269385.630    21269382.301    21269385.431
        41.800          40.500


 127123358.694 6  99057226.24943  24190751.215    24190750.9204   24190757.8244
        36.900          19.7004
 198901800.523 7                  37849777.835
        43.700


 124492623.434 8                  23690163.920
        48.300
 202046638.857 7                  38448211.894
        46.300
 109520386.203 8  85182535.733 7  20452163.728    20452163.630    20452169.984
        48.000          45.400
 117181393.363 7  91141127.243 6  21928903.682    21928904.461    21928916.191
        43.500          40.400
 118766821.326 5  92374225.370 5  22217785.213    22217788.357    22217795.264
        35.200          30.400
 117529532.120 5  91411938.938 6  21978615.205    21978612.590    21978627.975
        32.400          39.200
 25  1  1 19  1 30.0000000  0 23E31G07G30G08G27G04E24R10E09G09E04R07
                                R09S35G14S31E05E06S33R08R11R01R20
 125011659.888 8                  23788917.905
        49.600
 110295524.748 8  85944517.12847  20988528.905    20988528.3424   20988529.6954
        48.700          46.3004
 120571629.467 6  93951917.88744  22944016.566    22944016.1554   22944012.0174
        39.200          26.0004
 105933991.890 7  82546026.71847  20158551.823    20158551.1264   20158555.7294
        45.900          45.9004
 113587780.229 6  88509914.84844  21615005.676    21615004.9484   21615006.7314
        36.400          26.6004
 117726643.306 6  91734906.69342  22402591.752    22402591.8504   22402603.8054
        38.000          14.2004
 146121786.703 5                  27806049.905
        34.300
 106368651.473 7                  19954489.345    19954489.233
        47.700
 128890831.862 8                  24527113.148
        48.600
 110670965.574 7  86237101.96647  21059998.640    21059998.1354   21060005.8154
        42.800          44.7004
 126630786.310 7                  24097025.129
        45.500
 119846058.654 7  93213490.941 6  22388214.100    22388217.239    22388237.222
        45.700          40.400
 113608983.536 6  88362453.677 6  21275283.230    21275285.796    21275290.517
        37.700          40.400


 127081649.702 6  99024725.99143  24182812.516    24182812.1414   24182820.2704
        36.600          18.8004
 198901791.379 7                  37849779.815
        44.600


 124499755.567 8                  23691520.849
        48.900
 202046648.896 7                  38448208.160
        44.900
 109545537.414 7  85202097.743 7  20456860.122    20456860.018    20456866.400
        46.200          45.400
 117147963.123 7  91115125.940 6  21922649.154    21922648.218    21922659.452
        43.200          40.900
 118732114.854 6                  22211297.502
        38.300
 117478682.531 5  91372389.609 6  21969101.851    21969102.048    21969119.651
        31.200          37.000
 25  1  1 19  1 45.0000000  0 25E31G07G30G08G16G27G04R19E24R10E09G09
                                E04R07R09S35G14S31E05E06S33R08R11R01
                                R20
 124999807.306 8                  23786662.199
        48.600
 110272708.201 8  85926737.99547  20984187.090    20984186.5324   20984187.4634
        49.300          46.6004
 120529781.538 6  93919309.10744  22936053.224    22936052.7954   22936049.3804
        40.400          25.5004
 105933378.800 8  82545548.99847  20158434.644    20158433.9514   20158438.6044
        48.100          45.2004
 127029965.090 4                  24173001.070
        26.000
 113621366.634 6  88536086.03544  21621394.459    21621393.5964   21621396.2374
        39.300          26.2004
 117778594.118 5  91775387.68242  22412479.469    22412479.4524   22412490.3664
        34.500          12.9004
                  92033703.738 5                                  22120370.917
                        35.000
 146088345.344 5                  27799689.152
        35.700
 106370907.047 7                  19954911.941    19954911.507
        46.600
 128877956.155 8                  24524663.436
        48.600
 110706255.883 7  86264600.88147  21066712.878    21066712.3784   21066721.2984
        44.700          44.7004
 126658504.870 7                  24102300.376
        45.900
 119910267.863 7  93263430.915 6  22400210.687    22400210.613    22400230.842
        42.600          37.200
 113640566.518 6  88387018.140 6  21281199.678    21281202.906    21281205.374
        39.700          40.600


 127039974.816 6  98992252.35842  24174881.506    24174881.0684   24174889.0734
        39.900          16.5004
 198901786.271 7                  37849772.097
        43.100


 124506995.355 8                  23692898.849
        48.100
 202046662.865 7                  38448217.362
        46.100
 109570878.555 8  85221807.440 7  20461593.224    20461593.419    20461598.173
        48.900          45.600
 117114569.746 5  91089153.377 7  21916395.024    21916397.565    21916409.528
        35.400          43.300
                                                  22204832.412

 117427937.834 4  91332921.920 6  21959615.733    21959612.500    21959627.872
        29.400          36.300
 25  1  1 19  2  0.0000000  0 24E31G07G30G08G27G04E24R10E09G09E04R07
                                R09S35G14S31E05E06S33R08R11R01R20E26
 124988005.662 8                  23784415.882
        48.600
 110249946.498 8  85909001.63147  20979855.823    20979855.2734   20979855.7894
        49.200          46.8004
 120487952.167 6  93886714.81544  22928091.613    22928091.1664   22928092.6604
        38.400          27.6004
 105932925.476 8  82545195.80547  20158348.837    20158348.1534   20158351.3494
        49.000          45.4004
 113655081.970 6  88562357.68644  21627810.672    21627809.7874   21627812.4124
        39.100          29.4004
 117830606.478 5  91815916.54541  22422376.489    22422376.3694   22422387.8954
        35.100           9.1004
 146054931.135 5                  27793328.236
        33.800
 106373221.015 7                  19955345.872    19955345.634
        46.400
 128865179.262 8                  24522232.043
        49.600
 110741662.442 7  86292190.34447  21073451.631    21073451.1624   21073458.3294
        42.100          44.4004
 126686307.849 7                  24107591.377
        45.900
 119974521.219 7  93313405.335 6  22412220.388    22412221.311    22412235.843
        45.600          39.900
 113672180.891 7  88411607.049 6  21287121.694    21287122.874    21287126.455
        44.000          40.600


 126998330.174 5  98959802.24842  24166955.935    24166955.4844   24166962.7564
        35.000          13.0004
 198901780.303 7                  37849770.814
        43.000


 124514338.973 8                  23694296.182
        49.100
 202046676.370 7                  38448225.680
        45.700
 109596405.292 7  85241661.514 7  20466360.156    20466360.808    20466366.733
        46.000          46.400
 117081209.586 6  91063206.499 7  21910160.514    21910160.045    21910167.300
        38.600          43.300
 118663207.683 6                  22198407.263    22198407.925
        40.400
 117377295.059 4  91293533.595 6  21950140.051                    21950158.894
        27.900          37.000


 25  1  1 19  2 15.0000000  0 24E31G07G30G08G27G04E24R10E09G09E04R07
                                R09S35G14S31E05E06S33R08R11R01R20E26
 124976252.823 8                  23782179.731
        49.100
 110227237.882 8  85891306.63947  20975534.879    20975534.3434   20975534.0424
        50.300          47.4004
 120446139.107 5  93854133.15844  22920135.283    22920134.7924   22920137.5054
        32.300          25.0004
 105932629.681 7  82544965.35847  20158291.605    20158290.9214   20158294.7524
        47.900          43.9004
 113688923.753 6  88588727.87344  21634250.931    21634250.0914   21634254.0884
        40.500          28.1004


 146021541.865 5                  27786974.234
        30.900
 106375590.617 7                  19955789.450    19955789.134
        47.700
 128852499.146 8                  24519818.850
        48.800
 110777182.807 6  86319868.48547  21080212.253    21080211.7974   21080216.9284
        39.400          43.7004
 126714193.032 7                  24112897.520
        44.900
 120038816.096 7  93363411.994 6  22424225.615    22424226.808    22424246.984
        44.800          41.500
 113703824.232 7  88436218.542 7  21293047.833    21293047.326    21293053.667
        43.700          42.700


 126956713.709 5  98927374.12442  24159032.466    24159031.9794   24159043.1994
        35.500          15.3004
 198901772.582 7                  37849770.962
        42.500
 140412091.869 5                  26719532.737
        33.200
 124521784.272 8                  23695712.914
        49.700
 202046687.700 6                  38448228.452
        41.400
 109622115.228 7  85261658.082 7  20471161.643    20471162.409    20471167.226
        47.000          46.400
 117047880.082 7  91037283.539 7  21903923.459    21903922.105    21903929.127
        42.100          43.600
 118629001.661 6                  22192007.176    22192008.152
        40.200
                  91254222.759 5                                  21940703.993
                        35.300


 25  1  1 19  2 30.0000000  0 25E31G07G30G08G27G04R19E24R10E09G09E04
                                R07R09S35G14S31E05E06S33R08R11R01R20
                                E26
 124964551.966 8                  23779952.945
        48.800
 110204585.680 8  85873655.58047  20971224.272    20971223.7314   20971223.3084
        50.000          47.4004
 120404346.096 6  93821567.18044  22912181.460    22912180.9694   22912186.5444
        36.600          29.7004
 105932494.617 8  82544860.11347  20158266.304    20158265.6074   20158269.2734
        48.900          44.8004
 113722894.873 6  88615198.95944  21640714.633    21640713.8554   21640719.3974
        39.900          27.1004
 117934568.581 6  91897137.92142  22442200.855    22442200.6144   22442218.8084
        39.800          12.5004
                  92059600.997 6                                  22126591.298
                        36.000
 145988180.901 5                  27780626.697
        34.600
 106378019.441 7                  19956246.276    19956245.669
        47.200
 128839919.110 8                  24517424.866
        48.500
 110812819.932 7  86347637.60347  21086993.254    21086992.8214   21086997.6604
        46.500          45.0004
 126742163.514 7                  24118220.867
        46.600
 120103155.200 6  93413453.002 6  22436247.961    22436245.461    22436267.658
        41.000          40.100
 113735499.843 7  88460855.149 6  21298981.047    21298978.643    21298983.548
        42.500          39.900


 126915128.515 6  98894970.30842  24151125.624    24151125.2624   24151129.6614
        40.000          16.7004
 198901766.070 7                  37849780.674
        43.000
 140371255.983 6                  26711766.720
        36.600
 124529334.417 8                  23697149.841
        49.300
 202046700.595 7                  38448229.257
        42.000
 109648011.266 7  85281799.444 7  20475995.681    20475996.157    20476002.812
        44.900          46.100
 117014584.820 6  91011387.197 7  21897694.578    21897693.519    21897697.617
        40.000          43.000
 118594963.748 7                  22185641.189    22185640.991
        42.000
                  91214992.877 6                                  21931274.244
                        37.400


 25  1  1 19  2 45.0000000  0 25E31G07G30G08G27G04R19E24R10E09G09E04
                                R07R09S35G14S31E05E06S33R08R11R01R20
                                E26
 124952901.608 8                  23777735.939
        48.800
 110181988.750 8  85856047.61148  20966924.518    20966923.9774   20966923.5704
        50.300          48.9004
 120362571.605 6  93789015.63944  22904234.707    22904234.2294   22904238.9694
        36.700          28.3004
 105932518.851 7  82544879.02647  20158270.494    20158269.8104   20158274.4784
        47.900          45.5004
 113756993.565 5  88641769.39443  21647202.533    21647201.7784   21647208.0304
        35.600          22.7004
 117986762.310 5  91937808.16442  22452135.784    22452135.6684   22452152.1024
        33.000          12.8004
                  92068532.116 6                                  22128734.757
                        36.600
 145954846.751 5                  27774281.538
        35.100
 106380505.983 8                  19956712.812    19956712.050
        49.000
 128827437.978 8                  24515049.286
        48.000
 110848572.180 7  86375496.45947  21093796.213    21093795.7624   21093800.5324
        45.800          44.2004
 126770217.718 7                  24123559.460
        47.400
 120167536.532 6  93463527.033 6  22448273.978    22448270.924    22448295.951
        41.100          41.100
 113767206.184 6  88485515.667 6  21304917.050    21304915.066    21304919.564
        40.400          39.300


 126873573.425 6  98862590.05443  24143216.886    24143216.5384   24143222.5094
        37.200          18.3004
 198901758.592 7                  37849773.618
        44.200
 140330453.483 5                  26704000.755
        31.100
 124536988.066 8                  23698606.538
        50.000
 202046712.322 6                  38448222.514
        41.500
 109674091.552 7  85302084.021 7  20480868.410    20480869.050    20480873.097
        45.700          46.300
 116981321.851 6  90985516.136 7  21891467.270    21891465.815    21891471.182
        39.400          42.000
 118561092.948 6  92214233.688 5  22179304.618    22179303.454    22179316.751
        38.300          32.700
                  91175843.031 6                                  21921862.905
                        37.900


 25  1  1 19  3  0.0000000  0 25E31G07G30G08G27G04R19E24R10E09G09E04
                                R07R09E21S35G14S31E05E06S33R08R11R01
                                E26
 124941303.634 8                  23775529.157
        49.200
 110159449.144 8  85838484.27248  20962635.271    20962634.7264   20962634.6894
        50.100          48.6004
 120320818.003 6  93756480.40444  22896288.184    22896287.6934   22896293.0074
        38.300          27.5004
 105932704.307 8  82545023.54547  20158306.104    20158305.4204   20158309.9384
        50.200          46.5004


 118039018.100 6  91978526.80642  22462081.474    22462081.1934   22462098.3814
        36.400          15.4004
                  92077617.813 5                                  22130920.674
                        34.500
 145921541.472 6                  27767945.340
        38.300
 106383052.075 7                  19957189.257    19957188.537
        47.500
 128815057.754 8                  24512693.285
        48.000
 110884441.177 7  86403446.24447  21100622.480    21100622.0024   21100626.4954
        47.200          45.1004
 126798357.580 7                  24128913.889
        46.300
 120231961.879 6  93513635.154 6  22460308.404    22460306.480    22460330.071
        41.900          40.000
 113798945.606 6  88510201.821 6  21310855.478    21310855.706    21310865.105
        38.800          40.300




 126832050.266 7  98830234.56043  24135313.873    24135313.4674   24135321.8944
        42.000          19.0004
 198901752.673 7                  37849776.824
        42.900
 140289686.501 5                  26696242.316
        33.000
 124544747.173 7                  23700082.476
        47.700
 202046726.070 7                  38448229.029
        43.400
 109700357.859 7  85322513.293 7  20485772.724    20485773.150    20485779.093
        44.800          46.700
 116948093.874 6  90959672.053 7  21885246.065    21885246.928    21885252.362
        40.600          42.300
 118527391.458 6  92188021.442 5  22172997.113    22172999.048    22173009.518
        36.200          31.200
 145163619.663 4                  27623715.863
        25.900
 25  1  1 19  3 15.0000000  0 26E31G07G30G08G27G04R19E24R10E09G09E04
                                R07R09E21S35G14S31E05E06S33R08R11R01
                                R20E26
 124929755.714 8                  23773332.169
        49.500
 110136964.885 8  85820964.06548  20958356.063    20958355.5004   20958356.1834
        50.900          48.8004
 120279082.886 6  93723959.56344  22888345.995    22888345.4684   22888350.2254
        37.200          28.5004
 105933048.659 8  82545291.90047  20158371.569    20158370.8944   20158375.8764
        50.300          47.1004
 113825576.385 5  88695152.53442  21660262.096    21660261.5294   21660258.3714
        34.000          17.4004
 118091333.157 6  92019291.52142  22472038.796    22472038.5954   22472053.6394
        40.700          16.1004
                  92086856.347 5                                  22133140.589
                        30.000
 145888262.747 6                  27761612.258
        38.100
 106385655.606 8                  19957678.355    19957677.858
        48.700
 128802776.323 7                  24510356.495
        46.300
 110920424.317 7  86431485.03347  21107469.555    21107469.0824   21107474.0744
        45.600          44.2004
 126826580.552 7                  24134284.503
        47.700
 120296427.946 8  93563774.989 6  22472354.452    22472356.438    22472372.254
        48.200          39.900
 113830715.505 7  88534911.770 6  21316809.599    21316809.314    21316816.446
        44.400          39.600




 126790557.071 6  98797902.49443  24127417.310    24127416.8684   24127425.1794
        41.200          20.5004
 198901746.175 6                  37849773.484
        40.800
 140248952.966 4                  26688490.670
        29.900
 124552609.413 8                  23701579.087
        49.100
 202046738.757 6                  38448236.443
        40.000
 109726807.491 7  85343085.159 7  20490709.379    20490711.181    20490717.737
        45.600          47.400
 116914897.995 7  90933853.043 7  21879036.642    21879036.251    21879039.655
        44.700          43.700
 118493857.536 5  92161939.498 5  22166725.613    22166725.348    22166734.504
        35.800          31.400
                  91097788.897 5                                  21903104.404
                        33.700


 25  1  1 19  3 30.0000000  0 24E31G07G30G08G27G04R19E24R10E09G09E04
                                R07R09S35G14S31E05E06S33R08R11R01E26
 124918258.333 8                  23771144.071
        50.100
 110114536.741 8  85803487.60148  20954088.061    20954087.5114   20954087.9834
        49.900          48.7004
 120237367.395 6  93691454.04044  22880409.046    22880408.6084   22880411.2484
        38.900          29.0004
 105933552.412 8  82545684.46248  20158467.608    20158466.9384   20158471.5064
        50.900          48.4004


 118143707.535 7  92060102.85741  22482004.465    22482004.2824   22482020.9404
        43.100          11.3004
                  92096241.092 5                                  22135396.817
                        32.300
 145855011.197 6                  27755282.843
        37.300
 106388316.694 8                  19958178.248    19958177.638
        49.900
 128790594.358 7                  24508038.321
        46.800
 110956521.899 7  86459612.92147  21114338.529    21114338.0294   21114343.5464
        46.900          45.8004
 126854887.126 7                  24139670.458
        44.200
 120360935.021 7  93613946.704 6  22484406.086    22484403.785    22484423.616
        44.900          40.900
 113862516.277 7  88559645.589 6  21322764.305    21322763.932    21322770.908
        45.000          37.700


 126749094.235 6  98765594.09343  24119527.508    24119527.0704   24119534.6484
        39.700          21.6004
 198901739.384 6                  37849758.781
        40.300
 140208253.354 5                  26680746.496
        35.600
 124560575.330 8                  23703095.075
        50.000
 202046751.767 7                  38448230.768
        45.400
 109753440.826 7  85363799.867 7  20495684.211    20495684.828    20495691.742
        44.500          47.900
 116881734.920 8  90908059.607 7  21872829.886    21872831.566    21872835.664
        49.900          45.700
 118460491.908 5  92135988.356 5  22160486.542    22160484.090    22160497.283
        35.800          33.800


 25  1  1 19  3 45.0000000  0 25E31G07G30G08G27G04R19E24R10E09G09E04
                                R07R09S35G14S31E05E06S33R08R11R01R20
                                E26
 124906811.108 8                  23768965.133
        48.600
 110092164.523 8  85786054.72048  20949830.645    20949830.1004   20949830.4584
        49.800          48.2004
 120195670.975 7  93658963.34244  22872473.590    22872473.1434   22872474.9414
        42.200          27.1004
 105934215.117 8  82546200.87447  20158593.419    20158592.7444   20158596.1264
        50.200          47.3004
 113894665.546 5  88748988.42943  21673413.930    21673413.2064   21673403.5644
        34.800          19.6004
 118196140.787 6  92100959.82242  22491980.725    22491980.5514   22492000.9444
        41.000          14.7004
                  92105785.515 5                                  22137692.750
                        32.400
 145821786.398 6                  27748961.130
        37.200
 106391035.262 8                  19958687.745    19958687.184
        49.500
 128778511.571 7                  24505738.701
        47.800
 110992733.191 7  86487829.44447  21121229.891    21121229.4044   21121234.7514
        46.300          45.2004
 126883276.790 7                  24145071.574
        43.500
 120425481.853 7  93664149.453 6  22496458.546    22496460.058    22496479.889
        43.400          38.100
 113894347.817 7  88584403.343 5  21328723.130    21328723.657    21328725.763
        42.600          30.200


 126707661.597 6  98733309.22043  24111642.120    24111641.7274   24111650.2514
        39.700          22.0004
 198901732.399 7                  37849763.253
        43.300
 140167587.876 6                  26673009.151
        36.500
 124568644.547 8                  23704629.774
        48.700
 202046763.845 7                  38448237.811
        44.400
 109780256.936 7  85384656.828 8  20500693.136    20500693.604    20500699.919
        46.600          49.000
 116848604.414 8  90882291.417 7  21866629.229    21866629.936    21866635.786
        48.800          46.900
 118427294.740 6  92110168.285 5  22154278.353    22154277.952    22154285.310
        40.800          31.500
                  91020061.500 5                                  21884403.398
                        32.200


 25  1  1 19  4  0.0000000  0 24E31G07G30G08G27G04R19E24R10E09G09E04
                                R07R09S35G14S31E05E06S33R08R11R01E26
 124895413.468 8                  23766796.320
        48.800
 110069847.847 8  85768665.12447  20945584.267    20945583.7264   20945583.3284
        49.900          47.3004
 120153993.547 6  93626487.44044  22864542.717    22864542.2174   22864541.5364
        40.200          27.7004
 105935036.221 8  82546840.71647  20158750.905    20158750.2214   20158751.3274
        48.400          46.1004


 118248631.909 6  92141861.86842  22501970.531    22501970.4514   22501990.7994
        38.700          17.7004
                  92115482.354 5                                  22140025.483
                        31.600
 145788587.899 5                  27742643.313
        34.400
 106393810.581 8                  19959208.575    19959208.311
        49.200
 128766527.610 7                  24503457.761
        47.300
 111029057.471 7  86516134.02747  21128141.927    21128141.4714   21128146.5554
        46.700          43.1004
 126911748.924 6                  24150491.241
        41.600
 120490067.704 7  93714382.439 6  22508526.204    22508530.590    22508546.115
        46.000          39.300




 126666258.454 6  98701047.26243  24103761.883    24103761.5124   24103772.3534
        36.900          18.8004
 198901724.020 7                  37849761.710
        42.700
 140126956.056 5                  26665275.494
        34.600
 124576816.588 7                  23706185.105
        47.600
 202046775.008 7                  38448240.329
        46.600
 109807254.813 7  85405655.123 8  20505736.024    20505735.569    20505741.307
        45.900          48.600
 116815505.637 7  90856547.974 7  21860434.855    21860435.290    21860441.877
        47.300          46.300
 118394265.560 6  92084478.936 4  22148099.793    22148098.720    22148111.408
        41.700          29.700


 25  1  1 19  4 15.0000000  0 25E31G07G30G08G27G04R19E24R10E09G09E04
                                R07R09E21S35G14S31E05E06S33R08R11R01
                                E26
 124884066.970 8                  23764637.268
        49.500
 110047588.726 8  85751320.35447  20941348.184    20941347.6304   20941347.5974
        49.200          46.7004
 120112336.816 6  93594027.64244  22856615.764    22856615.2554   22856614.8024
        37.900          29.4004
 105936017.391 8  82547605.29747  20158937.325    20158936.6324   20158938.2594
        48.300          46.3004
 113964095.062 5  88803211.83243  21686642.622    21686643.1134   21686651.3234
        35.300          19.9004
 118301182.224 5  92182810.03042  22511970.603    22511970.6074   22511991.1584
        32.900          16.0004


 145755417.508 5                  27736331.068
        31.700
 106396644.387 8                  19959739.587    19959739.491
        48.500
 128754644.250 8                  24501196.677
        48.300
 111065496.057 7  86544527.66347  21135075.089    21135074.6074   21135080.2584
        47.500          42.7004
 126940304.982 6                  24155925.964
        41.100
 120554693.559 7  93764646.515 6  22520597.940    22520599.875    22520622.537
        43.800          41.400
 113958103.165 7  88634009.392 5  21340667.358    21340666.355    21340672.713
        43.100          35.000




 126624886.766 5  98668809.89442  24095892.290    24095891.7944   24095899.5154
        34.700          14.2004
 198901716.121 7                  37849750.795
        42.200
 140086359.816 5                  26657550.816
        35.800
 124585093.032 7                  23707759.992
        47.500
 202046786.500 7                  38448244.000
        46.200
 109834436.116 8  85426796.067 7  20510812.328    20510813.110    20510816.706
        48.500          47.800
 116782440.601 7  90830830.742 7  21854246.123    21854245.911    21854253.420
        44.900          44.000
 118361406.795 6  92058922.190 4  22141948.719    22141947.734    22141956.814
        38.300          28.800
 145011791.096 5                  27594825.862
        33.200
 25  1  1 19  4 30.0000000  0 25E31G07G30G08G27G04E24R10E09G09E04R07
                                R09E21S35G14S31E05E06S33R08R11R01R20
                                E26
 124872771.032 8                  23762487.950
        50.200
 110025386.765 7  85734020.13247  20937123.674    20937123.1294   20937123.1174
        47.600          46.6004
 120070700.496 5  93561583.80244  22848691.660    22848691.0524   22848692.4464
        33.300          27.4004
 105937157.994 8  82548494.10847  20159154.081    20159153.3974   20159156.3004
        49.400          47.0004
 113999080.787 5  88830473.40543  21693304.990    21693305.2354   21693309.3634
        30.900          22.3004
 118353790.968 5  92223803.75442  22521983.751    22521983.6494   22522001.9234
        34.700          12.7004
 145722274.422 5                  27730022.887
        33.900
 106399535.829 8                  19960282.172    19960281.577
        48.100
 128742861.030 8                  24498954.552
        49.200
 111102048.056 7  86573009.69347  21142030.844    21142030.3974   21142035.6794
        44.600          42.0004
 126968944.307 7                  24161377.230
        44.100
 120619358.328 7  93814940.954 7  22532681.750    22532681.681    22532704.069
        43.800          42.300
 113990027.687 6  88658839.619 6  21346642.217    21346640.640    21346650.830
        40.100          38.100




 126583545.894 6  98636596.57242  24088035.810    24088035.2564   24088032.3664
        38.100          13.3004
 198901709.025 7                  37849758.566
        43.500
 140045798.839 6                  26649832.361
        37.700
 124593473.367 7                  23709354.560
        46.700
 202046798.480 7                  38448244.527
        44.800
 109861799.676 7  85448078.819 7  20515921.244    20515921.040    20515926.988
        46.200          46.500
 116749408.563 7  90805139.155 7  21848066.362    21848066.419    21848070.271
        44.700          42.600
 118328717.965 6                  22135835.237    22135836.037
        38.100
 116876559.756 5  90904090.677 5  21856501.466                    21856547.014
        34.100          31.300
 144981582.923 5                  27589073.295
        31.200
 25  1  1 19  4 45.0000000  0 24E31G07G30G08G27G04E24R10E09G09E04R07
                                R09S35G14S31E05E06S33R08R11R01R20E26
 124861524.196 8                  23760347.835
        49.300
 110003240.749 7  85716763.51447  20932909.578    20932909.0554   20932908.7874
        47.500          45.4004
 120029083.244 7  93529154.79444  22840774.493    22840773.8504   22840771.2174
        42.000          26.3004
 105938456.544 8  82549505.97447  20159401.046    20159400.3764   20159403.8714
        50.800          47.8004
 114034190.640 6  88857831.69843  21699986.924    21699987.0084   21699991.1664
        37.800          23.0004
 118406456.229 6  92264841.49643  22532006.546    22532006.4264   22532022.7264
        36.200          18.2004
 145689157.371 5                  27723720.456
        35.000
 106402483.644 7                  19960834.940    19960834.171
        47.300
 128731176.673 8                  24496730.912
        50.200
 111138711.849 7  86601578.80546  21149007.904    21149007.4754   21149012.3584
        45.500          39.9004
 126997665.362 7                  24166841.204
        47.700
 120684059.911 7  93865264.063 7  22544765.365    22544765.123    22544790.364
        43.000          42.500
 114021981.969 6  88683692.948 5  21352628.030    21352628.406    21352636.714
        38.500          35.800
 200824991.344 5                  38215718.527
        34.400
 126542234.700 4  98604406.27241  24080155.980    24080155.1534   24080170.6194
        27.900           9.1004
 198901699.483 7                  37849757.368
        43.100
 140005271.833 5                  26642119.206
        34.500
 124601956.188 7                  23710968.453
        47.000
 202046809.248 7                  38448242.891
        43.100
 109889343.790 7  85469502.050 7  20521063.356    20521063.281    20521069.403
        45.400          44.600
 116716408.040 7  90779472.123 6  21841890.669    21841891.216    21841894.106
        45.100          38.800
 118296198.183 6  92008195.684 5  22129752.853    22129755.891    22129758.022
        39.300          32.500
 116827072.231 4                  21847246.318
        26.600


 25  1  1 19  5  0.0000000  0 25E31G07G30G08G16G27G04R19E24R10E09G09
                                E04R07R09S35G14S31E05E06S33R08R11R01
                                E26
 124850328.657 8                  23758217.942
        50.000
 109981153.198 7  85699552.45047  20928705.944    20928705.4304   20928705.7034
        46.100          45.3004
 119987487.526 7  93496742.53145  22832857.470    22832856.8364   22832857.9844
        43.600          32.6004
 105939915.327 8  82550642.70048  20159678.649    20159677.9884   20159682.1854
        50.200          48.0004
 127684291.684 5                  24297515.641
        33.100
 114069426.630 6  88885288.33244  21706690.950    21706690.7674   21706696.0064
        39.500          26.8004
 118459207.109 5  92305935.83543  22542038.530    22542038.4144   22542052.1954
        35.200          22.6004
                  92155808.307 5                                  22149712.659
                        30.100
 145656068.651 6                  27717424.862
        38.500
 106405489.921 7                  19961398.425    19961398.235
        46.600
 128719593.614 8                  24494526.340
        48.600
 111175489.364 7  86630236.54646  21156007.134    21156006.6614   21156010.6174
        44.300          39.7004
 127026470.351 7                  24172321.615
        44.500
 120748800.255 6  93915617.208 6  22556858.913    22556858.071    22556883.514
        39.800          39.200
 114053967.905 5  88708571.065 5  21358612.813    21358613.150    21358626.247
        35.600          34.500




 198901691.077 7                  37849748.791
        43.700
 139964781.379 5                  26634414.964
        35.500
 124610543.684 7                  23712603.746
        46.800
 202046820.330 7                  38448245.301
        46.300
 109917070.420 7  85491067.159 7  20526240.926    20526239.783    20526247.752
        44.300          45.000
 116683441.409 7  90753831.456 6  21835721.666    21835722.027    21835728.253
        43.700          38.700
 118263849.947 6  91983035.924 5  22123699.034    22123699.477    22123703.239
        36.100          30.000


 25  1  1 19  5 15.0000000  0 26E31G07G30G08G16G27G04R19E24R10E09G09
                                E04R07R09S35G14S31E05E06S33R08R11R01
                                R20E26
 124839185.108 8                  23756097.188
        50.900
 109959124.980 7  85682387.60747  20924513.724    20924513.2064   20924513.8524
        47.300          45.3004
 119945914.346 7  93464347.86645  22824946.341    22824945.6984   22824947.7774
        43.900          31.3004
 105941534.973 8  82551904.76047  20159987.242    20159986.5814   20159990.9734
        50.600          46.7004
 127734592.448 4                  24307086.194
        29.800
 114104788.996 6  88912843.36244  21713419.009    21713418.6074   21713424.3054
        39.300          28.5004
 118511989.948 6  92347065.06543  22552083.861    22552083.9194   22552095.6394
        36.300          18.5004
                  92166271.293 4                                  22152229.897
                        29.100
 145623009.082 6                  27711134.826
        40.400
 106408555.675 7                  19961974.436    19961974.368
        46.500
 128708112.685 8                  24492342.241
        48.100
 111212381.001 7  86658983.20946  21163027.563    21163027.0814   21163030.0904
        44.300          39.3004
 127055359.765 7                  24177819.562
        44.800
 120813579.561 7  93966000.754 6  22568960.100    22568961.068    22568984.879
        42.200          39.300
 114085986.966 6  88733474.924 5  21364615.245    21364613.777    21364620.407
        40.600          32.500


 126459580.397 5  98539938.64642  24064457.132    24064457.4714   24064462.6674
        35.500          15.0004
 198901684.925 7                  37849746.462
        43.700
 139924328.453 6                  26626717.008
        36.600
 124619236.633 7                  23714257.795
        46.900
 202046833.618 7                  38448249.960
        45.900
 109944979.915 7  85512774.475 7  20531453.011    20531452.282    20531459.477
        45.700          44.900
 116650509.428 7  90728217.713 6  21829563.222    21829563.015    21829565.498
        46.500          38.700
 118231674.676 6  91958010.694 4  22117687.390    22117684.223    22117684.230
        36.500          29.200
 116728427.735 5                  21828796.807    21828796.779
        31.100


 25  1  1 19  5 30.0000000  0 24E31G07G30G08G16G27G04E24R10E09G09E04
                                R07R09S35G14S31E05E06S33R08R11R20E26
 124828091.570 8                  23753985.945
        51.000
 109937154.392 7  85665267.67147  20920333.333    20920332.8104   20920333.2254
        46.700          45.9004
 119904361.933 7  93431969.39744  22817038.781    22817038.1114   22817038.5194
        43.800          28.9004
 105943313.486 8  82553290.65247  20160325.425    20160324.7554   20160329.0824
        51.900          46.4004
 127784887.632 5  99572579.8164   24316661.363    24316661.4614   24316645.3664
        32.000           1.1004
 114140275.519 6  88940495.13544  21720172.479    21720172.1134   21720176.5084
        37.000          26.6004
 118564829.362 6  92388238.44242  22562139.224    22562138.7194   22562150.0154
        39.400          17.8004
 145589976.656 6                  27704848.238
        40.500
 106411678.866 7                  19962560.376    19962559.435
        45.300
 128696732.016 7                  24490176.871
        47.600
 111249384.593 7  86687817.11946  21170068.655    21170068.1594   21170071.8274
        46.800          40.8004
 127084331.573 7                  24183333.164
        45.100
 120878395.440 7  94016412.695 6  22581071.074    22581070.052    22581092.682
        42.100          39.700
 114118036.883 6  88758402.643 5  21370615.592    21370617.672    21370620.037
        39.500          30.200


 126418364.152 5  98507822.40042  24056617.771    24056617.9544   24056622.0354
        35.000          15.3004
 198901678.263 7                  37849753.563
        43.200
 139883911.276 6                  26619024.980
        36.600
 124628033.036 7                  23715931.636
        47.200
 202046846.646 7                  38448256.744
        46.400
 109973070.000 7  85534622.210 7  20536698.513    20536699.602    20536704.373
        47.200          44.700
 116617610.091 7  90702629.413 6  21823405.471    21823405.676    21823405.753
        46.400          37.600
 116679270.847 4                  21819601.752    21819601.943
        26.500


 25  1  1 19  5 45.0000000  0 24E31G07G30G08G27G04E24R10E09G09E04R07
                                R09S35G14S31E05E06S33R08R11R01R20E26
 124817048.132 8                  23751884.376
        50.400
 109915241.843 7  85648192.96847  20916163.907    20916163.3934   20916163.2584
        47.600          46.7004
 119862830.625 6  93399607.37044  22809137.185    22809136.4884   22809132.8474
        37.800          27.3004
 105945250.966 8  82554800.41247  20160693.585    20160692.9284   20160697.3114
        51.900          44.9004
 114175886.034 5  88968243.59843  21726948.861    21726948.4644   21726953.2484
        34.200          21.9004
 118617725.241 6  92429455.76042  22572204.012    22572203.5744   22572215.1954
        36.500          12.6004
 145556971.561 6                  27698566.576
        40.400
 106414859.497 7                  19963156.638    19963156.150
        46.300
 128685451.910 7                  24488030.176
        46.900
 111286499.943 7  86716738.09646  21177131.328    21177130.8144   21177135.5114
        45.300          41.6004
 127113385.798 7                  24188862.345
        46.300
 120943247.194 7  94066852.492 6  22593187.810    22593186.723    22593207.730
        43.200          40.400
 114150117.649 5  88783354.357 5  21376623.980    21376625.454    21376630.837
        35.300          33.700


 126377179.033 5  98475730.41141  24048782.780    24048782.6824   24048786.1694
        32.900          11.1004
 198901671.147 7                  37849750.182
        42.600
 139843530.244 5                  26611340.607
        35.000
 124636933.027 7                  23717624.881
        46.700
 202046859.002 7                  38448255.554
        43.800
 110001340.553 8  85556610.335 7  20541979.125    20541980.959    20541985.328
        48.600          44.900
 116584743.464 6  90677066.583 6  21817250.547    21817249.790    21817254.491
        41.400          37.700
                  91908359.602 5                                  22105744.524
                        31.100
 116630224.816 4                  21810436.004    21810434.343
        29.000
 144831319.707 5                  27560481.804
        35.500
 25  1  1 19  6  0.0000000  0 24G21E31G07G30G08G27G04E24R10E09G09E04
                                R07R09S35G14S31E05E06S33R08R11R20E26
 124445183.753 5                  23681131.035
        33.700
 124806053.690 8                  23749792.204
        49.900
 109893386.492 8  85631162.82148  20912005.136    20912004.6004   20912004.2204
        50.500          48.9004
 119821319.627 5  93367261.11944  22801239.209    22801238.5794   22801235.3534
        34.800          28.4004
 105947346.325 8  82556433.20147  20161092.537    20161091.8764   20161095.2494
        50.200          42.7004
 114211619.264 6  88996087.73044  21733750.803    21733750.3744   21733753.6564
        36.400          26.1004
 118670676.260 6  92470716.11041  22582280.380    22582279.8844   22582291.5714
        39.400          11.0004
 145523992.743 6                  27692290.310
        41.300
 106418096.547 7                  19963764.194    19963764.099
        46.100
 128674271.506 7                  24485902.853
        47.700
 111323725.737 7  86745745.14746  21184215.081    21184214.5724   21184219.8804
        42.400          41.2004
 127142521.282 7                  24194406.232
        45.900
 121008133.446 7  94117319.191 6  22605306.036    22605305.423    22605329.015
        43.000          39.700
 114182228.265 5  88808329.347 5  21382648.104    21382648.577    21382641.306
        30.300          34.100




 198901662.811 7                  37849745.536
        43.600
 139803184.528 5                  26603664.958
        34.100
 124645935.680 7                  23719338.353
        46.600
 202046870.876 7                  38448262.114
        46.100
 110029789.930 8  85578737.626 7  20547291.869    20547292.661    20547298.394
        48.700          45.500
 116551908.616 7  90651528.405 6  21811109.636    21811109.827    21811108.281
        47.000          36.800
                  90674400.954 6                                  21801302.407
                        37.200
 144801444.440 5                  27554798.569
        34.000
 25  1  1 19  6 15.0000000  0 26G21E31G07G30G08G27G04R19E24R10E09G09
                                E04R07R09S35G14S31E05E06S33R08R11R01
                                R20E26
 124401957.587 5                  23672905.762
        31.000
 124795109.040 8                  23747709.462
        50.100
 109871589.392 8  85614178.07648  20907857.157    20907856.6074   20907857.3674
        51.100          50.7004
 119779829.795 6  93334931.44544  22793342.810    22793342.2114   22793342.8864
        37.300          29.7004
 105949600.383 8  82558189.69146  20161522.163    20161521.5024   20161523.8504
        48.500          41.1004
 114247475.656 5  89024027.75144  21740579.813    21740579.3804   21740578.0314
        30.200          26.8004
 118723682.828 6  92512019.66741  22592366.918    22592366.4674   22592378.0944
        41.000           9.5004


 145491041.202 7                  27686020.243
        42.200
 106421390.845 7                  19964382.162    19964381.697
        46.400
 128663191.704 8                  24483794.229
        48.600
 111361062.489 6  86774838.66146  21191321.349    21191320.8404   21191325.7584
        41.200          41.0004
 127171738.714 7                  24199966.594
        46.900
 121073054.438 7  94167812.768 6  22617435.897    22617438.729    22617458.850
        47.300          40.000




 126294924.448 5  98411654.72541  24033119.914    24033119.8884   24033130.6034
        35.200          11.0004
 198901654.766 7                  37849746.645
        43.100
 139762875.372 5                  26595994.385
        32.900
 124655041.680 7                  23721070.904
        47.800
 202046882.891 7                  38448261.046
        46.100
 110058418.666 8  85601004.391 7  20552638.146    20552638.571    20552644.943
        48.100          45.700
 116519106.261 7  90626015.509 6  21804968.806    21804969.740    21804969.589
        47.700          38.900
 118104679.526 5  91859241.967 4  22093923.819    22093923.363    22093928.641
        35.900          29.800
                  90636426.492 6                                  21792169.677
                        39.000
 144771625.207 4                  27549121.490
        27.200
 25  1  1 19  6 30.0000000  0 25G21E31G07G30G08G27G04R19E24R10E09G09
                                E04R07R09S35G14S31E05E06S33R08R11R01
                                E26
 124358765.137 5                  23664686.546
        32.100
 124784215.648 8                  23745636.649
        50.500
 109849852.241 8  85597240.04848  20903720.625    20903720.0804   20903721.5684
        51.300          50.6004
 119738362.931 5  93302619.64045  22785450.888    22785450.2184   22785453.5484
        35.400          31.0004
 105952014.552 8  82560070.94347  20161981.518    20161980.8794   20161984.1284
        49.600          43.0004


 118776746.113 6  92553367.46841  22602462.936    22602462.5614   22602475.7294
        38.500           6.5004
                  92220879.624 5                                  22165348.350
                        30.500
 145458118.375 6                  27679755.561
        38.400
 106424743.725 8                  19965012.002    19965011.225
        48.100
 128652214.118 7                  24481705.317
        47.500
 111398511.464 7  86804019.64046  21198446.919    21198446.4374   21198452.8444
        44.600          41.6004
 127201039.452 8                  24205542.238
        48.800
 121138011.119 7  94218334.170 6  22629573.192    22629571.215    22629594.722
        44.900          40.400
                  88858351.726 5                                  21394688.680
                        34.100




 198901647.735 7                  37849755.928
        43.800
 139722604.332 5                  26588330.326
        34.200
 124664252.568 8                  23722824.027
        48.700
 202046895.528 6                  38448266.716
        41.300
 110087228.151 8  85623411.675 7  20558018.381    20558018.827    20558023.008
        48.000          43.100
 116486338.129 6  90600529.222 7  21798835.351    21798833.694    21798840.613
        38.600          42.600
 118073363.950 5                  22088066.785    22088074.065
        35.700


 25  1  1 19  6 45.0000000  0 25G21E31G07G30G08G27G04R19E24R10E09G09
                                E04R07R09S35G14S31E05E06S33R08R11R01
                                E26
 124315605.279 5                  23656474.163
        32.200
 124773371.654 8                  23743573.326
        50.500
 109828173.506 8  85580347.52748  20899595.369    20899594.8334   20899596.3084
        50.700          50.3004
 119696917.575 6  93270324.47945  22777561.806    22777561.0914   22777567.2964
        39.700          32.9004
 105954587.011 8  82562075.48447  20162470.335    20162469.7144   20162475.3444
        48.500          44.3004


 118829864.156 5  92594758.2094   22612568.195    22612567.8024   22612584.4624
        35.700           5.1004
 118584285.749 5                  22168080.405    22168080.771
        30.200
 145425222.443 6                  27673495.002
        38.000
 106428153.416 7                  19965651.261    19965650.480
        46.100
 128641337.180 8                  24479635.243
        48.700
 111436070.534 7  86833286.37147  21205592.603    21205592.0984   21205600.3804
        44.500          42.2004
 127230421.599 7                  24211132.989
        46.800
 121203001.114 7  94268881.560 6  22641711.937    22641711.630    22641734.614
        44.400          41.300
 114278683.119 6  88883399.279 6  21400711.192    21400713.557    21400722.772
        40.600          40.500




 198901640.065 7                  37849751.957
        44.900
 139682369.774 4                  26580674.425
        29.500
 124673566.577 8                  23724596.278
        48.500
