     2.11           OBSERVATION DATA    M (MIXED)           RINEX VERSION / TYPE
teqc  2019Feb25                         20260317 16:18:01UTCPGM / RUN BY / DATE
Linux 2.4.21-27.ELsmp|Opteron|gcc -static|Linux 64|=+       COMMENT
BIT 2 OF LLI FLAGS DATA COLLECTED UNDER A/S CONDITION       COMMENT
-Unknown-                                                   MARKER NAME
-Unknown-           -Unknown-                               OBSERVER / AGENCY
-Unknown-           -Unknown-           -Unknown-           REC # / TYPE / VERS
-Unknown-           -Unknown-                               ANT # / TYPE
        0.0000        0.0000        0.0000                  APPROX POSITION XYZ
        0.0000        0.0000        0.0000                  ANTENNA: DELTA H/E/N
     1     1                                                WAVELENGTH FACT L1/2
     7    L1    L2    C1    P1    P2    S1    S2            # / TYPES OF OBSERV
 SNR is mapped to RINEX snr flag value [0-9]                COMMENT
  L1 & L2: min(max(int(snr_dBHz/6), 0), 9)                  COMMENT
  2025     1     1     6     0    0.0000000     GPS         TIME OF FIRST OBS
    18                                                      LEAP SECONDS
                                                            END OF HEADER
 25  1  1  6  0  0.0000000  0 27G18R01G23G15G26G11G20E27E03G05G29R16
                                E15E26S35R23R17R02S31G13S33E07E08E21
                                E13R24R08
 119089414.912 7  92796965.88244  22661963.943    22661963.5594   22661963.9254
        43.600          24.8004
 103085642.092 7  80177762.531 6  19284300.945    19284299.923    19284305.291
        45.500          38.300
 124488901.731 5  97004165.63042  23689408.861    23689408.7504   23689409.2194
        31.800          14.3004
 112018715.264 6  87287296.58546  21316436.960    21316436.7064   21316435.7954
        40.900          38.4004
 130150189.242 6 101415724.63044  24766736.815    24766736.5024   24766738.4464
        39.200          27.5004
 126746194.180 5  98763313.88042  24119001.211    24119001.5324   24119001.4294
        33.800          16.3004
 120653316.246 6                  22959569.969
        36.400


 133460005.579 6                  25396564.534
        38.900
 108999889.388 8  84934970.75947  20741984.427    20741984.0524   20741983.3004
        48.200          44.1004
 107086006.669 8  83443605.23248  20377789.805    20377789.2424   20377789.8314
        49.600          49.6004


 130379129.291 7                  24810319.796
        44.700
 141731716.789 5                  26970653.911
        34.800


 122352440.327 5                  22872483.939    22872487.980
        32.900
 113025068.042 7                  21121411.616    21121411.709
        44.900
 109364803.366 7  85061541.757 7  20494918.039    20494916.972    20494922.336
        46.500          42.400
 198901853.969 6                  37849759.733
        40.800
 111446527.694 8  86841467.62545  21207573.101    21207572.8964   21207572.0504
        48.400          32.5004
 202041696.531 7                  38447270.729
        44.800


 129888870.301 7                  24717029.104
        42.300
 138364982.886 7                  26329984.109
        43.300
 124843199.120 8                  23756854.958
        48.800
 104503361.779 8  81280409.691 6  19542655.587    19542655.455    19542658.682
        51.300          39.400
 122835797.246 5  95538965.789 5  22938726.934    22938720.897    22938725.011
        33.200          31.500
 25  1  1  6  0 15.0000000  0 25G18R01G23G15G26G11E27E03G05G29R16E15
                                E26S35R17R02S31G13S33E07E08E21E13R24
                                R08
 119053177.417 7  92768728.90744  22655067.297    22655066.9534   22655067.8384
        46.100          25.1004
 103096974.178 7  80186576.349 6  19286420.954    19286421.543    19286427.040
        47.800          39.800
 124445826.655 5  96970600.64142  23681215.306    23681215.2844   23681213.3124
        32.600          15.0004
 111974545.544 6  87252878.65546  21308030.373    21308030.1454   21308031.5554
        38.200          36.0004
 130152828.512 6 101417781.14244  24767239.163    24767238.8554   24767242.4254
        40.200          28.2004
 126785082.154 6  98793616.18242  24126401.791    24126402.1084   24126402.3584
        39.900          15.5004


 133471022.048 6                  25398660.280
        36.800
 109026401.470 7  84955629.54747  20747029.752    20747029.3684   20747028.3464
        46.300          42.8004
 107084326.004 8  83442295.64148  20377470.319    20377469.7254   20377469.8734
        51.000          50.2004


 130397669.946 7                  24813847.851
        45.300
 141701620.467 6                  26964925.952
        38.500
 200873747.059 5                  38225002.733
        34.800
 112981036.943 7                  21113186.058    21113187.930
        47.400
 109316992.355 7  85024355.450 6  20485955.186    20485956.181    20485960.627
        47.400          40.700
 198901841.695 7                  37849760.078
        43.200
 111425152.483 7  86824811.63745  21203504.205    21203503.9914   21203504.0234
        45.800          30.9004
 202041670.852 7                  38447263.990
        43.300


 129860133.972 7                  24711560.027
        42.700
 138391796.729 7                  26335086.789
        42.800
 124832693.728 8                  23754856.068
        49.700
 104505183.882 8  81281826.966 6  19542996.217    19542996.309    19542998.436
        52.000          38.700
 122895687.775 5  95585547.276 5  22949907.971    22949904.488    22949919.312
        31.000          33.800
 25  1  1  6  0 30.0000000  0 26G18R01G23G15G26G11E27E03G05G29R16E15
                                E26S35R17R02S31R15G13S33E07E08E21E13
                                R24R08
 119016963.473 7  92740510.24844  22648175.906    22648175.5854   22648175.5424
        44.400          25.7004
 103108500.986 8  80195541.632 6  19288576.624    19288577.365    19288583.525
        48.300          40.000
 124402801.162 5  96937074.32042  23673031.077    23673031.0854   23673026.5854
        34.600          15.4004
 111930480.029 5  87218541.90845  21299643.068    21299642.6844   21299647.3034
        34.600          35.2004
 130155593.284 6 101419935.41444  24767765.720    24767765.4394   24767768.0874
        40.100          27.2004
 126824002.575 6  98823943.72642  24133806.695    24133807.0214   24133809.2254
        38.000          14.4004
 145752820.543 5                  27735836.146
        33.100
 133482145.970 5                  25400778.181
        34.100
 109052994.058 8  84976351.03247  20752090.734    20752090.3414   20752088.5734
        48.000          42.2004
 107082794.096 8  83441101.96548  20377178.601    20377177.9894   20377178.2124
        50.800          50.4004
 128029562.199 5  99578556.638 6  23967402.352    23967404.174    23967400.664
        30.900          38.400
 130416240.652 7                  24817381.561
        44.700
 141671525.013 6                  26959199.684
        41.800
 200873758.352 6                  38225002.487
        40.100
 112937043.476 7  87839838.473 5  21104960.138    21104960.444    21104965.646
        42.900          32.900
 109269319.367 8  84987276.475 6  20477023.156    20477023.395    20477025.494
        49.400          39.300
 198901832.581 7                  37849760.748
        42.900
 127831350.385 5                  23921897.624    23921906.106
        35.300
 111403925.905 7  86808271.45945  21199466.104    21199465.8994   21199464.9454
        45.900          32.0004
 202041647.716 7                  38447261.504
        44.600


 129831483.433 7                  24706108.371
        43.400
 138418685.691 7                  26340203.994
        42.400
 124822215.773 8                  23752861.699
        49.700
 104507123.820 8  81283335.827 6  19543357.925    19543358.117    19543361.263
        50.700          39.400
                  95632175.783 5                                  22961111.541
                        33.700
 25  1  1  6  0 45.0000000  0 28G18R01G23G15G26G11G20E27E03G25G05G29
                                R16E15E26S35R23R17R02S31R15G13S33E07
                                E08E21E13R24
 118980769.216 7  92712306.98944  22641289.750    22641289.4514   22641287.4244
        43.600          25.9004
 103120218.255 7  80204655.076 6  19290767.864    19290768.170    19290774.759
        47.900          39.900
 124359821.386 5  96903583.60841  23664859.082    23664859.1804   23664848.0724
        32.800          10.1004
 111886514.783 6  87184283.23046  21291281.001    21291280.6124   21291281.2424
        38.400          37.3004
 130158479.644 6 101422184.46344  24768315.374    24768315.0664   24768314.6264
        39.100          25.9004
 126862951.533 5  98854293.56541  24141215.583    24141215.9854   24141221.7724
        34.000          11.7004
 120777818.830 4                  22983224.455
        29.500
 145795472.205 5                  27743952.864
        31.600
 133493373.374 4                  25402912.684
        29.800


 109079662.809 8  84997131.86146  20757165.301    20757164.8904   20757163.4044
        48.100          41.0004
 107081406.961 8  83440021.08748  20376914.590    20376913.9824   20376914.1274
        51.200          51.4004
                  99581116.926 6                                  23968013.549
                        36.900
 130434837.513 7                  24820920.210
        44.100
 141641426.532 7                  26953472.099
        42.400
 200873769.069 6                  38225005.939
        39.100
 122486854.248 5                  22897628.664    22897634.310
        31.700
 112893084.236 7  87805648.030 6  21096746.661    21096745.586    21096755.072
        42.300          36.400
 109221780.947 8  84950302.157 6  20468114.913    20468115.305    20468116.738
        49.900          38.800
 198901822.931 7                  37849753.008
        42.900
 127871152.287 5                  23929348.664    23929346.859
        33.700
 111382844.368 7  86791844.30545  21195455.680    21195455.4844   21195453.7744
        43.700          32.1004
 202041623.921 7                  38447249.721
        44.200


 129802915.002 7                  24700671.746
        43.200
 138445645.583 6                  26345333.081
        40.300
 124811761.351 7                  23750871.765
        47.900
 104509177.940 8  81284933.566 7  19543742.996    19543743.052    19543747.352
        51.400          42.200
 25  1  1  6  1  0.0000000  0 27G18R01G15G26G11G20E27E03G25G05G29R16
                                E15E26S35R17R02S31R15G13S33E07E08E21
                                E13R24R08
 118944594.879 7  92684119.24244  22634406.754    22634406.4554   22634403.3074
        43.800          27.1004
 103132125.788 7  80213916.485 6  19292995.413    19292994.975    19293002.548
        46.900          40.100
 111842650.448 6  87150103.22746  21282933.232    21282932.8434   21282933.7964
        39.900          39.3004
 130161487.522 5 101424528.22144  24768886.786    24768886.4334   24768887.1104
        33.200          24.2004
 126901929.026 4  98884665.70041  24148632.462    24148633.0964   24148639.3844
        29.400           8.8004
 120819285.535 5                  22991107.120
        34.700
 145838109.857 5                  27752068.093
        33.200
 133504704.275 5                  25405069.048
        31.100


 109106407.399 8  85017971.84146  20762254.642    20762254.2224   20762252.1504
        48.700          40.0004
 107080165.040 8  83439053.34848  20376678.799    20376678.1914   20376677.9584
        52.200          52.8004
                  99583811.328 6                                  23968663.191
                        36.800
 130453460.678 6                  24824464.861
        40.100
 141611325.171 6                  26947743.881
        40.500
 200873778.734 5                  38225006.462
        34.300
 112849159.658 7  87771484.391 5  21088539.886    21088540.833    21088547.091
        46.300          35.200
 109174377.646 8  84913432.959 6  20459231.203    20459231.283    20459234.589
        48.300          39.900
 198901812.181 7                  37849749.914
        42.600
 127911040.895 4  99486417.412 4  23936810.409    23936803.965    23936813.312
        27.400          29.000
 111361908.327 7  86775530.53545  21191471.324    21191471.1374   21191469.9924
        44.200          31.3004
 202041598.809 7                  38447253.137
        45.700


 129774428.990 6                  24695251.626
        41.400
 138472676.339 5                  26350475.280
        33.300
 124801330.673 7                  23748886.825
        46.100
 104511346.421 8  81286620.209 7  19544148.772    19544149.786    19544153.357
        52.100          44.500
                  95725562.343 5                                  22983537.256
                        31.000
 25  1  1  6  1 15.0000000  0 26G18R01G23G15G26G11G20E27E03G05G29R16
                                E15E26S35R17R02S31R15G13S33E07E08E21
                                E13R24
 118908439.662 7  92655946.36644  22627526.923    22627526.6554   22627524.3204
        46.300          28.8004
 103144222.531 8  80223325.028 6  19295258.668    19295259.025    19295264.635
        48.300          40.000
 124273816.373 6                  23648521.164    23648520.8384
        38.000
 111798886.735 7  87116001.63846  21274605.475    21274605.1494   21274604.8354
        42.900          41.9004
 130164615.984 5 101426965.94343  24769481.818    24769481.4974   24769483.3074
        31.400          22.8004
 126940934.413 4  98915059.60741  24156059.569    24156059.8994   24156062.4434
        29.300           7.5004
 120860766.934 6  94177084.38141  22999003.415    22999003.9154   22999006.0044
        37.500           7.8004
 145880732.587 5                  27760176.269
        30.300
 133516137.629 4                  25407244.099
        28.500
 109133227.398 8  85038870.52146  20767358.061    20767357.6504   20767354.0304
        48.900          37.6004
 107079067.577 8  83438198.18348  20376469.729    20376469.1304   20376469.4554
        51.700          53.4004
 128040007.346 4  99586639.150 5  23969354.535                    23969341.939
        28.600          32.500
 130472109.334 6                  24828012.529
        40.900
 141581219.918 7                  26942016.014
        42.300


 112805268.953 7  87737347.211 6  21080337.232    21080336.931    21080343.819
        44.400          36.800
 109127108.757 7  84876668.337 6  20450372.953    20450372.341    20450377.248
        46.900          40.300
 198901799.423 7                  37849749.355
        42.300
                  99517508.440 4                                  23944293.934
                        28.600
 111341116.723 7  86759329.30544  21187514.835    21187514.6124   21187512.6964
        43.100          29.3004
 202041572.754 7                  38447245.934
        46.300


 129746024.661 7                  24689845.723
        44.100


 124790922.862 7                  23746906.955
        45.000
 104513628.467 8  81288395.132 7  19544574.764    19544575.346    19544580.080
        50.800          44.400
 25  1  1  6  1 30.0000000  0 27G18R01G23G15G26G11G20E27E03G05G29R16
                                E15E26S35R17R02S31R15G13S33E07E08E21
                                E13R24R08
 118872310.113 7  92627793.48444  22620650.594    22620650.3174   22620649.4554
        46.300          29.7004
 103156514.526 8  80232885.427 6  19297559.411    19297559.295    19297563.581
        48.400          39.400
 124230979.087 6  96803355.42842  23640360.829    23640360.4854   23640365.6394
        37.500          17.7004
 111755230.257 7  87081983.64946  21266297.134    21266296.7954   21266296.2834
        42.000          39.8004
 130167871.080 5 101429502.39243  24770101.049    24770100.7594   24770101.7284
        35.100          21.0004
 126979973.698 5  98945479.89341  24163487.549    24163487.7144   24163491.9954
        34.200           7.9004
 120902269.187 5  94209423.8024   23006902.208    23006902.4404   23006901.5304
        33.900           5.1004
 145923346.258 5                  27768286.552
        32.000
 133527679.835 6                  25409444.109
        40.100
 109160128.508 8  85059832.33546  20772477.130    20772476.7104   20772471.3694
        49.700          36.3004
 107078120.864 8  83437460.48549  20376289.860    20376289.2614   20376289.6074
        52.300          54.3004


 130490789.826 6                  24831568.312
        41.900
 141551117.171 6                  26936286.290
        40.600


 112761418.891 7  87703241.688 5  21072143.449    21072142.987    21072150.563
        43.400          35.000
 109079981.353 6  84840013.652 6  20441539.095    20441536.227    20441547.430
        39.100          41.800
 198901792.040 7                  37849752.592
        42.300
 127991082.462 6                  23951791.404
        38.300
 111320476.745 7  86743246.25444  21183587.155    21183586.8924   21183583.6964
        42.200          26.8004
 202041550.571 7                  38447239.723
        44.800


 129717708.560 7                  24684457.768
        44.800


 124780544.420 7                  23744932.354
        46.600
 104516030.869 8  81290263.653 7  19545024.237    19545023.832    19545029.026
        49.600          42.800
                  95819192.738 4                                  23005999.308
                        29.700
 25  1  1  6  1 45.0000000  0 28G18R01G23G15G26G11G20E27E03G05G29R16
                                E15E26S35R23R17R02S31R15G13S33E07E08
                                E21E13R24R08
 118836198.645 7  92599654.67244  22613777.628    22613777.3744   22613777.2514
        44.600          28.2004
 103168994.066 7  80242591.758 6  19299893.343    19299892.896    19299899.167
        47.700          38.500
 124188185.996 6  96770010.16243  23632219.095    23632219.3404   23632221.2674
        39.500          19.3004
 111711673.598 7  87048043.43346  21258009.062    21258008.7144   21258007.2234
        45.200          41.6004
 130171245.386 5 101432131.63443  24770747.763    24770747.5224   24770740.6344
        33.300          19.1004
 127019039.593 5  98975920.8524   24170922.594    24170922.6704   24170926.1614
        32.200           4.0004
 120943784.982 4  94241773.82241  23014803.169    23014803.0264   23014800.3394
        29.600           6.1004
 145965943.239 4                  27776390.219
        26.000
 133539323.102 7                  25411658.569
        43.500
 109187103.017 8  85080851.40045  20777609.965    20777609.5414   20777604.0094
        49.200          35.8004
 107077317.461 8  83436834.45148  20376136.342    20376135.7484   20376136.7674
        51.400          53.9004
 128047695.771 6  99592703.259 5  23970785.288    23970790.324    23970807.670
        36.100          30.300
 130509494.679 7                  24835127.165
        42.000
 141521009.220 6                  26930557.484
        41.800


 122667079.728 6                  22931320.890
        36.200
 112717602.280 6  87669162.091 6  21063952.200    21063951.694    21063960.903
        38.100          38.800
 109032988.091 7  84803463.261 7  20432734.762    20432733.145    20432740.337
        43.700          42.000
 198901781.368 6                  37849758.298
        41.400
                                                  23959301.365

 111299980.774 7  86727275.41744  21179685.865    21179685.5974   21179683.3594
        43.600          27.4004
 202041526.325 7                  38447236.561
        44.100


 129689473.307 7                  24679084.678
        44.200


 124770187.667 7                  23742961.288
        47.200
 104518546.160 8  81292219.993 7  19545494.612    19545495.266    19545498.788
        49.900          42.300


 25  1  1  6  2  0.0000000  0 24G18R01G23G15G26G11E27E03G05G29R16E15
                                E26S35R17R02S31G13S33E08E21E13R24R08
 118800112.418 7  92571535.48844  22606910.910    22606910.6694   22606909.9794
        45.400          27.8004
 103181667.948 7  80252449.272 6  19302264.215    19302263.733    19302270.071
        46.900          40.500
 124145444.074 6  96736704.74242  23624091.268    23624091.6974   23624087.2744
        39.700          16.2004
 111668224.191 7  87014186.77247  21249740.266    21249739.9224   21249739.6764
        44.900          42.4004
 130174745.715 4 101434859.16542  24771408.323    24771408.0694   24771405.1124
        29.900          14.3004


 146008530.220 5                  27784498.100
        31.300
 133551074.378 7                  25413894.334
        42.500
 109214157.574 8  85101932.82845  20782757.543    20782757.1374   20782752.4384
        49.500          34.6004
 107076664.487 8  83436325.62848  20376012.383    20376011.7984   20376012.5504
        49.900          53.5004
 128051855.953 4                  23971572.478    23971570.547
        29.600
 130528230.846 7                  24838693.001
        42.100
 141490903.303 6                  26924828.454
        40.400


                  87635114.211 6                  21055782.075    21055778.661
                        41.100
 108986136.257 7  84767022.932 6  20423953.464    20423952.327    20423959.189
        45.200          40.500
 198901774.888 6                  37849753.589
        41.300
 111279636.115 6  86711422.48144  21175813.781    21175813.4824   21175812.1684
        41.400          25.6004
 202041505.682 6                  38447227.940
        40.900
 129661326.084 7                  24673728.555
        46.100


 124759859.725 8                  23740996.114
        49.400
 104521181.424 8  81294269.595 6  19545987.398    19545988.182    19545991.194
        49.400          39.300
 123316586.804 5  95912906.446 5  23028501.988                    23028503.459
        34.300          32.700
 25  1  1  6  2 15.0000000  0 27G18R01G23G15G26G11G20E27E03G25G05G29
                                R16E15E26S35R17R02S31G13S33E07E08E21
                                E13R24R08
 118764044.986 6  92543431.01144  22600048.641    22600048.4054   22600048.1404
        40.400          26.9004
 103194529.324 7  80262452.554 6  19304670.277    19304669.841    19304677.029
        47.800          41.500
 124102746.794 6  96703434.11742  23615967.742    23615967.6494   23615961.9784
        38.000          15.2004
 111624875.735 7  86980408.70346  21241490.716    21241490.4034   21241491.5804
        46.500          41.2004
 130178365.268 6 101437679.42942  24772102.048    24772101.7714   24772092.5044
        38.000          14.9004
 127097265.162 5                  24185807.260
        34.000
 121026760.621 4  94306499.84541  23030614.192    23030613.8664   23030610.5384
        26.600           7.3004
 146051100.424 5                  27792605.935
        31.500
 133562927.047 7                  25416150.412
        43.500
 129490901.462 6 100902015.24542  24641297.545    24641296.8124   24641302.6924
        36.000          14.6004
 109241285.656 8  85123071.56545  20787919.555    20787919.1624   20787914.5374
        48.000          32.9004
 107076155.370 8  83435928.90048  20375915.508    20375914.9184   20375915.7934
        48.900          51.9004


 130546991.878 7                  24842263.720
        43.100
 141460792.743 6                  26919097.340
        41.900


 112630084.104 6  87601093.147 6  21047601.440    21047600.191    21047604.924
        41.500          39.600
 108939419.629 7  84730687.784 6  20415198.247    20415195.468    20415205.903
        43.200          40.000
 198901765.918 7                  37849739.951
        43.100
 111259436.282 6  86695682.40443  21171969.207    21171968.9174   21171969.5194
        38.800          23.7004
 202041482.912 7                  38447228.418
        45.000


 129633260.533 7                  24668387.516
        46.900
 138608952.044 5                  26376399.456
        33.100
 124749554.148 7                  23739034.847
        47.900
 104523930.364 7  81296407.642 6  19546500.477    19546501.690    19546505.740
        46.800          38.800
 123376924.365 5  95959835.682 5  23039762.336    23039761.587    23039766.077
        32.500          33.100
 25  1  1  6  2 30.0000000  0 29G18R01G23G15G26G11G20E27E03G25G05G29
                                R16E15E26S35R23R17R02S31R15G13S33E07
                                E08E21E13R24R08
 118727996.457 7  92515341.26244  22593189.158    22593188.7874   22593190.3974
        42.400          27.4004
 103207577.770 7  80272601.348 6  19307110.454    19307110.404    19307116.787
        47.500          40.900
 124060094.477 6  96670198.58441  23607851.215    23607851.1354   23607845.7784
        36.200          11.9004
 111581628.769 7  86946709.69547  21233261.212    21233260.9084   21233262.1494
        46.500          42.9004
 130182104.141 5 101440592.69842  24772810.177    24772809.8564   24772803.7514
        34.400          14.2004
 127136418.345 4                  24193258.541
        29.600
 121068322.929 5  94338886.05541  23038521.984    23038521.6004   23038520.4234
        30.400           6.3004
 146093653.678 4                  27800694.684
        29.600
 133574881.079 7                  25418424.757
        42.200
 129536929.108 6 100937880.92042  24650059.765    24650059.4304   24650060.6644
        36.400          15.3004
 109268487.055 7  85144267.49845  20793095.013    20793094.6244   20793091.3394
        46.400          32.4004
 107075790.102 8  83435644.26748  20375846.177    20375845.5654   20375846.1254
        49.000          51.0004
 128060686.028 5                  23973244.033    23973247.526
        35.200
 130565777.892 7                  24845838.234
        42.800
 141430677.624 7                  26913366.791
        42.400
 200873870.647 5                  38225032.201
        31.700
 122802925.975 5                  22956713.306    22956715.570
        35.100
 112586377.212 7  87567098.795 6  21039432.849    21039431.905    21039437.036
        44.000          39.600
 108892838.686 7  84694458.189 7  20406471.783    20406469.508    20406475.091
        45.400          42.000
 198901754.743 6                  37849734.840
        41.600
 128152191.628 6  99673944.309 6  23981934.739    23981936.566    23981946.508
        36.700          38.300
 111239381.886 6  86680055.61043  21168154.296    21168153.9754   21168153.5494
        36.800          22.1004
 202041457.488 7                  38447225.127
        45.700


 129605276.827 7                  24663062.544
        46.300


 124739270.978 8                  23737078.482
        48.800
 104526793.311 7  81298634.404 6  19547036.038    19547036.026    19547040.438
        45.600          39.000
 123437312.845 5  96006804.448 5  23051041.352    23051041.228    23051042.167
        30.800          31.200
 25  1  1  6  2 45.0000000  0 26G18R01G23G15G26G11G20E27E03G05G29R16
                                E15E26S35R17R02S31R15G13S33E07E08E21
                                E13R24
 118691968.487 7  92487267.51044  22586332.825    22586332.4724   22586333.7274
        44.200          28.4004
 103220814.726 8  80282896.824 6  19309588.049    19309588.510    19309593.055
        50.000          41.700


 111538485.269 6  86913091.33446  21225051.260    21225050.9704   21225051.8664
        41.800          41.3004
 130185963.572 5 101443599.90442  24773543.920    24773543.6844   24773540.1384
        34.500          16.7004
 127175599.916 5                  24200715.563
        34.500
 121109899.861 5  94371283.55741  23046439.939    23046439.3184   23046431.0004
        32.400           6.9004


 133586937.804 6                  25420719.732
        41.400
 109295763.057 7  85165521.48445  20798286.673    20798286.2984   20798282.9514
        47.400          35.4004
 107075570.434 8  83435473.10048  20375803.663    20375803.0464   20375803.9934
        49.500          51.6004
 128065357.648 6                  23974095.600    23974100.533
        39.100
 130584590.414 7                  24849417.654
        43.100
 141400559.486 7                  26907634.872
        42.100
 200873878.183 6                  38225016.488
        37.800
 112542706.907 7  87533132.999 6  21031275.063    21031273.157    21031276.181
        44.000          40.600
 108846395.140 7  84658335.488 7  20397764.922    20397762.928    20397772.097
        45.500          43.500
 198901742.743 7                  37849734.433
        42.100
 128192676.849 5  99705432.909 6  23989512.632    23989510.269    23989520.792
        35.200          38.300
 111219474.349 7  86664543.24043  21164366.420    21164366.0094   21164366.1694
        42.300          23.1004
 202041431.086 7                  38447214.087
        42.100
 143400665.048 5                  27288238.306
        33.200
 129577376.740 7                  24657753.167
        45.900
 138663885.556 5                  26386859.165
        32.600
 124729011.819 8                  23735125.425
        49.300
 104529771.628 7  81300950.972 6  19547593.188    19547590.749    19547596.887
        42.700          39.200
 25  1  1  6  3  0.0000000  0 29G18R01G23G15G26G11G20E27E03G25G05G29
                                R16E15E26S35R23R17R02S31R15G13S33E07
                                E08E21E13R24R08
 118655964.087 7  92459212.10044  22579480.957    22579480.6134   22579481.5064
        45.000          29.0004
 103234242.936 8  80293340.967 7  19312099.425    19312100.006    19312105.526
        49.000          42.300
 123974863.035 6  96603799.27241  23591636.536    23591636.5714   23591635.9274
        37.100          11.5004
 111495448.298 7  86879555.96846  21216863.108    21216862.7644   21216861.7724
        42.700          40.5004
 130189946.444 4 101446703.31042  24774310.976    24774310.6464   24774300.4704
        27.500          14.0004
 127214812.784 5  99128490.59841  24208179.251    24208179.0954   24208189.9544
        35.800           9.5004
 121151494.014 4  94403694.54641  23054352.136    23054351.2964   23054345.2004
        29.200           7.9004
 146178696.869 5                  27816883.150
        33.100
 133599100.199 6                  25423032.851
        39.600


 109323116.141 7  85186835.56446  20803492.090    20803491.7064   20803490.1074
        46.200          37.3004
 107075499.561 8  83435417.87048  20375790.154    20375789.5424   20375790.1054
        49.900          51.3004
 128070203.605 6                  23975014.363    23975012.931
        41.600
 130603432.460 6                  24853002.345
        40.200
 141370441.266 6                  26901903.988
        41.200
 200873888.176 5                  38225020.476
        34.400
 122893787.503 5                  22973700.221    22973700.778
        32.700
 112499076.320 7  87499198.210 6  21023118.245    21023118.912    21023124.717
        44.800          41.100
 108800092.576 7  84622322.447 7  20389088.721    20389086.965    20389096.751
        45.000          45.700
 198901732.134 7                  37849742.245
        42.400
 128233247.473 5  99736987.881 5  23997102.128    23997101.712    23997114.108
        33.700          35.500
 111199716.988 6  86649147.92043  21160606.200    21160605.7804   21160606.7024
        38.700          23.4004
 202041406.526 7                  38447217.423
        46.000
 143353632.618 5                  27279287.311
        32.400
 129549563.333 7                  24652460.381
        45.100
 138691481.741 4                  26392116.849
        28.900
 124718779.663 7                  23733178.156
        46.500
 104532868.876 7  81303359.894 6  19548171.904    19548171.783    19548177.201
        46.000          41.500


 25  1  1  6  3 15.0000000  0 29G18R01G23G15G26G11G20E27E03G25G05G29
                                R16E15E26S35R23R17R02S31R15G13S33E07
                                E08E21E13R24R08
 118619982.755 7  92431174.65944  22572634.080    22572633.7364   22572634.9874
        43.000          29.1004
 103247861.586 7  80303933.301 7  19314647.761    19314647.198    19314653.072
        47.900          42.200
 123932355.416 6  96570676.43441  23583548.583    23583548.4314   23583548.1884
        40.100           7.9004
 111452517.854 7  86846103.66347  21208693.500    21208693.1474   21208693.0524
        45.100          43.1004


 127254056.351 5  99159069.92441  24215643.573    24215643.5564   24215656.4104
        32.000           7.4004
 121193049.405 5                  23062268.374
        32.700
 146221207.731 5                  27824972.771
        33.800
 133611367.550 6                  25425369.575
        40.700
 129674976.326 5 101045437.73342  24676322.847    24676321.9584   24676327.4264
        33.300          12.7004
 109350545.242 7  85208208.90546  20808711.867    20808711.4874   20808711.0704
        46.900          40.2004
 107075576.906 8  83435478.12748  20375805.291    20375804.6884   20375804.5354
        50.300          51.5004
 128075223.037 5                  23975941.930
        35.700
 130622303.460 5                  24856594.495
        34.200
 141340322.365 7                  26896173.329
        43.200
 200873899.845 6                  38225013.957
        39.600
 122939337.927 6                  22982220.588    22982220.430
        36.400
 112455485.104 6  87465294.011 6  21014968.879    21014966.343    21014978.222
        37.100          38.200
 108753930.960 7  84586418.987 7  20380440.382    20380439.049    20380444.104
        47.900          42.300
 198901724.120 7                  37849736.025
        43.900
 128273902.416 5                  24004709.161    24004707.629
        30.200
 111180093.539 6  86633847.36343  21156874.874    21156874.4904   21156870.6614
        39.800          19.2004
 202041383.443 7                  38447211.247
        46.800
 143306603.505 5                  27270339.743
        34.700
 129521836.252 7                  24647183.636
        47.100
 138719147.010 5                  26397376.340
        34.400
 124708573.951 7                  23731236.236
        44.900
 104536084.506 7  81305860.905 7  19548774.619    19548775.412    19548778.630
        47.800          43.400
                  96147991.130 4                                  23084947.508
                        26.800
 25  1  1  6  3 30.0000000  0 26G18R01G23G15G11G20E27E03G25G05G29E15
                                E26S35R23R17R02S31R15G13S33E07E08E21
                                E13R24
 118584024.679 7  92403155.44645  22565791.577    22565791.2294   22565793.0964
        46.100          30.7004
 103261670.235 7  80314673.379 7  19317230.085    19317228.890    19317236.901
        46.500          42.800
 123889896.774 6  96537591.89441  23575467.814    23575467.6044   23575467.3714
        37.300           6.9004
 111409694.453 7  86812734.86747  21200543.853    21200543.5274   21200544.8704
        47.900          45.1004
 127293330.723 5  99189673.22241  24223117.885    24223117.6044   24223127.7404
        32.900           7.3004
 121234677.039 5  94468539.72641  23070190.055    23070189.3004   23070183.6064
        34.000           8.5004


 133623739.755 7                  25427723.627
        42.000


 109378050.518 7  85229641.57846  20813945.985    20813945.6014   20813944.7164
        44.500          38.5004
 107075802.394 8  83435653.83448  20375848.144    20375847.5454   20375847.3954
        50.600          50.9004
 130641203.434 6                  24860190.995
        37.800
 141310202.902 6                  26890441.490
        41.400


 122984955.475 5                  22990740.863    22990741.590
        30.100
 112411933.990 7  87431420.869 6  21006834.621    21006835.771    21006835.415
        45.400          39.400
 108707910.111 7  84550624.974 7  20371812.650    20371813.052    20371819.963
        45.400          43.000
 198901716.864 7                  37849738.086
        45.600
                  99800300.529 5                                  24012342.890
                        32.400
 111160636.119 6  86618685.78043  21153173.165    21153173.0764   21153169.0614
        41.500          21.1004
 202041362.981 7                  38447206.767
        43.800
 143259577.915 5                  27261391.809
        34.100
 129494195.631 7                  24641922.658
        45.300
 138746884.965 5                  26402659.264
        30.500
 124698394.659 7                  23729299.448
        44.700
 104539418.455 8  81308453.916 7  19549396.762    19549397.745    19549402.537
        48.000          44.900
 25  1  1  6  3 45.0000000  0 26G18R01G23G15G26G11E27E03G25G05G29E15
                                E26S35R23R17R02S31R15G13S33E07E08E21
                                E13R24
 118548083.616 7  92375149.45244  22558952.313    22558951.9514   22558953.1284
        42.400          29.5004
 103275662.354 7  80325556.168 6  19319848.127    19319847.512    19319854.088
        47.100          39.300
 123847479.939 5  96504544.78641  23567400.437    23567400.1474   23567395.9724
        34.400          11.3004
 111366971.951 7  86779444.67047  21192414.039    21192413.7264   21192414.1284
        46.300          42.5004






 133636210.485 7                  25430095.810
        42.100


 109405625.349 7  85251128.48547  20819193.505    20819193.1574   20819192.5944
        47.100          42.5004
 107076169.866 8  83435940.17048  20375918.190    20375917.5824   20375917.1974
        48.900          50.7004
 130660126.180 6                  24863791.504
        40.200
 141280076.359 6                  26884707.714
        38.000
 200873829.889 6                  38225026.893
        36.800
 123030634.148 5                  22999280.617    22999280.976
        35.800
 112368416.563 7  87397574.076 6  20998701.093    20998698.831    20998705.218
        45.200          41.700
 108662024.182 7  84514936.021 7  20363215.750    20363215.029    20363220.876
        43.400          42.800
 198901704.468 6                  37849733.445
        41.900
 128355582.341 6  99832054.068 5  24019979.356    24019983.841    24019983.171
        38.000          33.700
 111141322.631 7  86603636.35744  21149497.102    21149496.8214   21149495.4764
        45.300          27.2004
 202041335.799 7                  38447188.773
        44.600


 129466635.337 7                  24636679.557
        46.600
 138774687.574 5                  26407950.008
        33.800
 124688235.637 8                  23727366.181
        49.500
 104542864.652 7  81311134.334 7  19550042.797    19550042.504    19550046.321
        47.200          42.700
 25  1  1  6  4  0.0000000  0 26G18R01G23G15G26G11G20E27E03G05G29R16
                                E15E26S35R23R17R02S31G13S33E07E08E21
                                E13R24
 118512165.933 7  92347161.63745  22552116.481    22552116.1244   22552118.2394
        46.400          30.2004
 103289843.987 8  80336586.362 6  19322501.730    19322501.684    19322507.061
        49.500          41.200
 123805113.344 6  96471531.1334   23559336.113    23559335.8504   23559335.3094
        39.700           3.6004
 111324356.911 8  86746238.23847  21184304.557    21184304.2364   21184303.9734
        49.400          42.5004
 130207050.947 4 101459980.18642  24777564.851    24777564.7534   24777565.5064
        28.400          14.9004


 121317988.136 5                  23086038.319
        33.400


 133648785.817 6                  25432488.995
        38.300
 109433275.717 7  85272674.24147  20824453.995    20824453.6514   20824454.9024
        47.900          42.8004
 107076685.591 8  83436342.03748  20376016.253    20376015.6504   20376015.1934
        49.800          49.9004


 130679077.954 6                  24867397.523
        41.500
 141249949.169 6                  26878975.514
        37.900


 123076379.224 4                  23007838.769    23007836.948
        26.700
 112324939.633 7  87363758.875 5  20990576.163    20990577.533    20990576.913
        45.100          31.900
 108616280.049 8  84479357.260 6  20354643.385    20354643.412    20354647.631
        48.600          41.800
 198901693.861 6                  37849728.088
        40.800
 111122159.622 7  86588704.16644  21145850.543    21145850.2844   21145850.8934
        47.000          28.2004
 202041310.655 6                  38447200.341
        36.700
 143165499.710 4                  27243493.902
        28.700
 129439161.842 8                  24631451.691
        50.500


 124678103.184 8                  23725438.458
        48.900
 104546429.683 8  81313907.094 7  19550709.347    19550709.487    19550714.315
        49.700          45.100
 25  1  1  6  4 15.0000000  0 27G18R01G23G15G26G11G20E27E03G25G05G29
                                R16E15E26S35R02S31R15G13S33E07E08E21
                                E13R24R08
 118476270.384 7  92319191.18244  22545287.032    22545286.7024   22545286.2984
        45.600          27.0004
 103304213.466 6  80347762.599 6  19325187.426    19325187.014    19325194.641
        40.800          41.100
 123762794.515 6  96438555.37442  23551284.143    23551283.9654   23551286.4464
        37.600          15.1004
 111281848.327 7  86713114.76447  21176215.536    21176215.2194   21176214.3704
        46.600          42.8004
 130211590.905 4 101463529.30942  24778438.124    24778438.3694   24778431.0744
        28.700          16.5004


 121359656.821 5  94565900.60841  23093967.955    23093967.9154   23093958.7274
        34.200           7.8004


 133661464.254 6                  25434901.900
        41.000


 109461000.181 7  85294277.70647  20829729.884    20829729.5364   20829731.1044
        45.100          42.8004
 107077348.274 8  83436858.43648  20376142.421    20376141.8314   20376141.5434
        50.500          51.6004
                                                  23980021.963

 130698057.471 6                  24871009.933
        40.500
 141219819.757 5                  26873239.397
        32.500


 108570676.564 7  84443887.993 7  20346097.201    20346097.202    20346100.433
        45.800          42.000
 198901683.551 7                  37849728.924
        42.700
                  99895735.541 5                                  24035303.308
                        31.800
 111103146.078 7  86573888.45344  21142232.686    21142232.4364   21142234.0084
        47.300          27.9004
 202041285.720 6                  38447189.171
        38.300


 129411773.934 8                  24626240.337
        49.300
 138830501.877 5                  26418573.174
        33.900
 124667995.969 7                  23723514.343
        47.400
 104550112.313 7  81316771.404 7  19551397.846    19551397.258    19551402.685
        46.400          46.500
                  96336709.541 5                                  23130253.938
                        33.000
 25  1  1  6  4 30.0000000  0 26G18R01G23G15G26G11G20E27E03G25G05G29
                                R16E15E26S35R02S31R15G13S33E07E08E21
                                E13R24
 118440397.746 7  92291238.45344  22538458.812    22538458.4914   22538459.9374
        45.800          25.4004
 103318771.253 6  80359085.349 6  19327910.478    19327910.617    19327916.535
        41.500          40.500


 111239446.920 8  86680074.74447  21168146.871    21168146.5634   21168145.3714
        48.400          43.0004




 121401340.687 5  94598381.5634   23101899.493    23101899.8994   23101892.7324
        34.400           2.4004


 133674246.508 6                  25437334.437
        39.900


 109488799.101 7  85315939.23947  20835020.151    20835019.8034   20835020.9804
        45.500          43.0004
 107078158.868 8  83437490.05248  20376296.210    20376295.6254   20376295.8234
        49.100          50.0004


 130717065.380 6                  24874627.934
        40.400


 200873833.126 6                  38225025.798
        40.500
 108525214.956 7  84408529.006 6  20337575.992    20337575.761    20337580.485
        42.200          41.100
 198901673.429 7                  37849728.535
        42.400
 128478478.838 5  99927671.082 5  24042991.884                    24042987.957
        32.900          33.100
 111084282.738 7  86559189.74344  21138642.787    21138642.5374   21138644.4934
        47.400          26.0004
 202041261.544 7                  38447180.970
        42.100


 129384472.518 8                  24621044.222
        48.800
 138858512.536 6                  26423897.564
        36.400
 124657914.691 7                  23721596.190
        46.400
 104553913.355 7  81319727.770 7  19552108.085    19552106.757    19552113.293
        43.600          45.300
 25  1  1  6  4 45.0000000  0 27G18R01G23G15G26G11G20E27E03G25G05G29
                                R16E15E26S35R23R17R02S31G13S33E07E08
                                E21E13R24
 118404546.282 7  92263302.26844  22531637.241    22531636.9464   22531637.5114
        42.200          27.3004
 103333515.420 7  80370553.018 6  19330670.838    19330670.659    19330676.179
        45.700          40.500
 123678315.079 6  96372734.32041  23535203.986    23535204.4154   23535205.5444
        41.000           9.7004
 111197151.521 7  86647117.38147  21160097.717    21160097.4004   21160096.7414
        46.900          42.7004




 121442998.118 4                  23109831.798
        28.700


 133687130.679 6                  25439785.062
        40.500
 129950650.180 5 101260229.66242  24728786.255    24728785.7414   24728785.3684
        33.400          13.8004
 109516670.403 7  85337657.11847  20840324.505    20840324.1754   20840324.5704
        46.500          44.5004
 107079115.558 8  83438235.49348  20376479.231    20376478.6504   20376477.7734
        48.400          50.5004
 128108922.842 6                  23982259.835    23982260.193
        36.700
 130736100.009 7                  24878250.531
        44.600
 141159560.000 5                  26861772.421
        34.800
 200873842.248 5                  38225024.013
        30.300
 123213999.384 6                  23033561.455
        37.200
 112194609.522 6  87262497.383 7  20966245.759    20966250.439    20966252.972
        37.600          46.200
 108479893.775 8  84373279.190 7  20329085.976    20329085.920    20329088.936
        48.700          42.500
 198901662.251 6                  37849730.409
        40.000
 111065567.847 7  86544606.70644  21135081.035    21135080.7854   21135081.2544
        45.400          24.7004
 202041236.535 7                  38447180.286
        42.900


 129357255.978 8                  24615865.184
        50.500
 138886590.365 6                  26429246.631
        37.400
 124647857.696 7                  23719681.697
        46.300
 104557831.308 7  81322775.030 7  19552838.577    19552839.442    19552846.067
        43.800          45.300
 25  1  1  6  5  0.0000000  0 28G18R01G23G15G26G11E27E03G25G05G29R16
                                E15E26S35R23R17R02S31R15G13S33E07E08
                                E21E13R24R08
 118368723.185 7  92235388.14444  22524819.915    22524819.6254   22524820.6564
        42.100          24.9004
 103348452.527 8  80382170.779 6  19333465.210    19333465.633    19333469.472
        50.200          38.400
 123636145.734 6  96339874.95042  23527179.455    23527179.5314   23527180.4394
        37.400          16.0004
 111154969.300 8  86614248.17547  21152071.136    21152070.8234   21152070.1754
        48.600          45.4004
 130226058.785 5                  24781196.384
        32.600




 133700123.547 7                  25442258.276
        42.800
 129996562.207 5 101296012.35241  24737521.776    24737521.2624   24737520.3514
        33.900          10.6004
 109544620.638 7  85359436.54647  20845643.051    20845642.7214   20845643.1724
        44.900          43.5004
 107080225.310 8  83439100.24648  20376690.164    20376689.5884   20376688.9824
        51.100          51.7004


 130755168.429 7                  24881878.439
        43.900
 141129429.971 6                  26856039.750
        37.500
 200873857.201 5                  38225030.305
        30.400
 123260010.456 5                  23042160.930    23042160.031
        35.300
 112151297.226 5  87228810.170 7  20958149.450    20958148.235    20958158.749
        33.300          46.200
 108434720.187 7  84338144.215 7  20320618.391    20320617.978    20320623.211
        44.700          44.000
 198901657.659 7                  37849730.807
        42.300
 128560842.309 4                  24058399.380
        29.900
 111047009.021 7  86530145.28043  21131549.620    21131549.3344   21131549.1154
        47.100          22.5004
 202041216.993 7                  38447177.236
        43.300
 142977463.936 6                  27207708.078
        36.400
 129330131.423 8                  24610702.914
        48.100


 124637831.977 7                  23717773.962
        45.900
 104561873.484 7  81325919.005 7  19553595.905    19553598.213    19553602.916
        43.300          45.700
 124044018.108 4  96478679.812 5  23164340.973                    23164342.790
        28.000          34.400
 25  1  1  6  5 15.0000000  0 27G18R01G23G15G26G11G20E27E03G25G05G29
                                R16E15E26S35R23R17R02S31R15G13S33E08
                                E21E13R24
 118332917.730 7  92207487.85244  22518006.516    22518006.2394   22518006.8964
        43.700          28.5004
 103363571.424 7  80393929.905 6  19336292.609    19336292.410    19336297.957
        47.500          38.600
 123594019.555 7  96307049.33743  23519164.134    23519164.2014   23519163.3834
        44.500          18.7004
 111112889.905 8  86581459.09447  21144063.677    21144063.3824   21144063.0554
        48.200          45.2004
 130231128.515 6                  24782162.156
        37.700


 121526454.199 5                  23125714.087
        31.400


 133713214.279 7                  25444749.770
        43.600
 130042455.285 4 101331773.14342  24746253.858    24746253.2594   24746256.1094
        28.700          13.2004
 109572638.818 7  85381268.92347  20850975.147    20850974.8034   20850974.8264
        45.200          44.2004
 107081477.370 8  83440075.86048  20376928.141    20376927.5694   20376927.5614
        51.500          52.4004
 128121535.602 6                  23984622.278    23984626.214
        37.000
 130774259.731 7                  24885511.338
        44.900
 141099292.845 6                  26850302.752
        36.600


 123306081.681 5                  23050782.616    23050779.992
        32.100
 112108020.086 5  87195150.594 7  20950066.747    20950078.512    20950070.174
        32.100          44.500
 108389683.733 6  84303115.894 7  20312177.150    20312177.066    20312183.963
        40.500          44.700
 198901647.859 7                  37849722.869
        43.400
 128602139.722 5                  24066139.764    24066137.684
        33.700
 111028595.404 7  86515797.03643  21128045.691    21128045.3924   21128044.8434
        46.300          22.1004
 202041191.985 5                  38447186.738
        34.900
 129303088.229 8                  24605556.850
        49.000
 138942957.056 6                  26439975.951
        36.400
 124627826.704 7                  23715870.247
        47.300
 104566028.937 8  81329150.970 7  19554375.603    19554376.906    19554379.006
        48.200          45.600
 25  1  1  6  5 30.0000000  0 28G18R01G23G15G26G11G20E27E03G25G05G29
                                R16E15E26S35R17R02S31R15G13S33E07E08
                                E21E13R24R08
 118297131.999 7  92179602.83644  22511197.378    22511197.1194   22511198.1264
        43.100          29.7004
 103378873.820 7  80405831.756 6  19339155.519    19339155.536    19339161.034
        46.800          36.900
 123551938.882 6  96274259.14243  23511156.624    23511156.6734   23511155.8434
        40.500          18.1004
 111070915.781 8  86548752.02147  21136076.566    21136076.2714   21136075.8694
        48.800          44.3004
 130236315.456 6                  24783149.290
        37.100


 121568192.300 4                  23133658.252
        29.400


 133726404.932 7                  25447259.248
        42.200


 109600727.039 7  85403155.83847  20856321.002    20856320.6584   20856320.1414
        45.100          45.7004
 107082873.935 8  83441164.09948  20377193.705    20377193.1384   20377193.3494
        51.900          51.0004
 128128149.701 6  99655198.372 5  23985856.136    23985854.341    23985850.558
        39.500          32.500
 130793376.188 6                  24889148.745
        41.700
 141069150.863 6                  26844568.788
        37.100


 112064781.265 7  87161520.606 6  20941985.953    20941986.888    20941988.602
        43.400          41.600
 108344787.027 7  84268196.212 7  20303764.674    20303764.790    20303769.603
        46.200          43.900
 198901635.173 7                  37849723.012
        43.000
 128643511.697 6 100056024.203 5  24073857.480    24073866.253    24073870.547
        36.500          33.800
 111010329.372 7  86501563.77743  21124570.228    21124569.8934   21124569.0824
        44.700          22.2004
 202041165.564 6                  38447166.339
        40.100


 129276128.684 8                  24600426.748
        49.300
 138971237.399 5                  26445349.738
        30.100
 124617844.136 8                  23713971.139
        48.200
 104570299.916 7  81332472.856 7  19555172.868    19555174.867    19555177.003
        46.600          43.500
 124165915.850 5                  23187114.054
        34.400
 25  1  1  6  5 45.0000000  0 28G18R01G23G15G26G11G20E03G25G05G29R16
                                E15E26S35R23R17R02S31R15G13S33E07E08
                                E21E13R24R08
 118261367.390 7  92151734.25544  22504390.192    22504389.9474   22504392.8764
        44.200          26.0004
 103394360.903 7  80417877.316 6  19342052.014    19342051.833    19342057.183
        43.800          36.100
 123509904.814 7  96241505.22742  23503156.170    23503156.1874   23503157.0494
        42.800          17.6004
 111029048.448 8  86516128.07147  21128109.191    21128108.8964   21128108.7934
        48.900          45.1004
 130241620.668 6 101486925.63941  24784158.862    24784159.2824   24784147.5074
        36.800           9.8004


 121609942.566 5  94760977.40041  23141606.212    23141606.7084   23141598.0624
        34.500           6.9004
 133739696.334 6                  25449789.240
        41.200


 109628886.252 7  85425098.05547  20861678.529    20861678.1904   20861678.7504
        46.900          45.1004
 107084416.256 8  83442365.90448  20377487.007    20377486.4404   20377487.1574
        49.300          51.8004
 128134876.631 5                  23987102.322    23987102.312
        35.100
 130812518.850 7                  24892791.425
        42.200
 141039005.143 5                  26838833.084
        33.800


 123398539.491 6                  23068045.432    23068039.431
        38.500
 112021582.066 7  87127921.217 6  20933913.547    20933911.978    20933915.360
        43.900          39.000
 108300031.232 7  84233386.284 7  20295381.378    20295381.620    20295381.582
        47.200          44.900
 198901620.775 7                  37849717.240
        42.900
 128684961.010 5 100088261.770 5  24081616.160    24081617.538    24081625.535
        33.200          34.600
 110992212.464 7  86487446.68243  21121123.022    21121122.6874   21121121.2604
        47.900          22.0004
 202041136.193 7                  38447163.960
        43.000
 142836497.078 5                  27180879.365
        33.100
 129249254.076 7                  24595311.782
        46.800
 138999582.453 6                  26450747.094
        40.100
 124607885.384 8                  23712076.049
        48.100
 104574687.986 8  81335885.807 7  19555993.614    19555993.689    19555998.740
        48.400          45.600


 25  1  1  6  6  0.0000000  0 29G18R01G23G15G26G11G20E27E03G25G05G29
                                R16E15E26S35R23R17R02S31R15G13S33E07
                                E08E21E13R24R08
 118225629.279 7  92123886.42444  22497590.511    22497590.2974   22497590.9434
        44.600          26.7004
 103410037.431 7  80430070.184 5  19344983.187    19344983.912    19344990.219
        44.700          35.600
 123467922.727 7  96208791.88242  23495168.977    23495168.9694   23495167.1274
        42.900          14.9004
 110987293.583 7  86483591.76347  21120163.632    21120163.3424   21120163.4044
        45.700          43.8004
 130247049.467 5 101491155.84243  24785191.982    24785192.2994   24785190.3564
        35.200          18.6004


 121651710.128 6  94793523.43241  23149552.718    23149553.0224   23149545.0204
        37.100           7.0004


 133753093.993 6                  25452337.495
        41.900


 109657121.539 7  85447099.61847  20867051.329    20867050.9674   20867051.5034
        45.900          45.1004
 107086109.718 8  83443685.47448  20377809.568    20377808.9924   20377809.7454
        48.700          51.0004
 128141777.878 5                  23988395.264    23988392.438
        30.300
 130831693.255 6                  24896439.923
        39.600
 141008861.093 6                  26833096.358
        38.800
 200873942.837 5                  38225049.833
        35.200
 123444804.009 6                  23076683.896    23076683.900
        37.200
 111978428.396 7  87094357.271 6  20925849.880    20925849.674    20925849.827
        46.700          38.900
 108255422.510 7  84198690.665 6  20287015.268    20287017.727    20287021.423
        44.300          41.700
 198901610.520 6                  37849717.486
        40.400
 128726490.284 5 100120562.244 5  24089390.751    24089388.141    24089396.638
        35.400          33.600
 110974250.146 7  86473450.10743  21117704.635    21117704.2604   21117704.3954
        46.600          23.2004
 202041110.715 7                  38447156.957
        44.400
 142789500.937 5                  27171938.390
        35.000
 129222469.968 7                  24590215.098
        45.700
 139027998.399 6                  26456150.443
        39.600
 124597955.899 8                  23710186.864
        48.000
 104579198.520 8  81339394.033 7  19556836.837    19556837.712    19556842.383
        48.600          46.400


 25  1  1  6  6 15.0000000  0 28G18R01G23G15G26G11G20E27E03G25G05G29
                                R16E15E26S35R23R17R02S31R15G13S33E07
                                E08E21E13R24
 118189915.551 7  92096057.56844  22490794.058    22490793.8664   22490793.4374
        43.800          25.7004
 103425901.189 7  80442408.594 6  19347953.158    19347953.110    19347958.241
        47.000          36.300
 123425990.580 6  96176117.59242  23487186.614    23487186.5924   23487187.0524
        39.600          14.8004
 110945649.374 7  86451141.74446  21112239.023    21112238.7104   21112237.8514
        42.000          41.4004
 130252599.474 6 101495480.46343  24786248.530    24786248.6504   24786253.1274
        36.600          22.0004
 127727254.052 5                  24305689.602
        35.100
 121693492.980 6  94826081.49741  23157507.833    23157508.1994   23157498.4944
        36.700          11.5004


 133766595.512 6                  25454906.415
        39.800


 109685430.113 7  85469158.26847  20872438.422    20872438.0694   20872438.1984
        45.000          44.1004
 107087952.072 8  83445121.07148  20378160.671    20378160.1084   20378160.2354
        49.700          52.0004
 128148851.133 5                  23989723.752    23989720.027
        32.100
 130850897.168 6                  24900094.515
        38.700
 140978716.664 6                  26827359.225
        37.600
 200873959.580 6                  38225042.504
