     2.11           OBSERVATION DATA    M (MIXED)           RINEX VERSION / TYPE
teqc  2019Feb25                         20260317 16:18:01UTCPGM / RUN BY / DATE
Linux 2.4.21-27.ELsmp|Opteron|gcc -static|Linux 64|=+       COMMENT
BIT 2 OF LLI FLAGS DATA COLLECTED UNDER A/S CONDITION       COMMENT
-Unknown-                                                   MARKER NAME
-Unknown-           -Unknown-                               OBSERVER / AGENCY
-Unknown-           -Unknown-           -Unknown-           REC # / TYPE / VERS
-Unknown-           -Unknown-                               ANT # / TYPE
        0.0000        0.0000        0.0000                  APPROX POSITION XYZ
        0.0000        0.0000        0.0000                  ANTENNA: DELTA H/E/N
     1     1                                                WAVELENGTH FACT L1/2
     7    L1    L2    C1    P1    P2    S1    S2            # / TYPES OF OBSERV
 SNR is mapped to RINEX snr flag value [0-9]                COMMENT
  L1 & L2: min(max(int(snr_dBHz/6), 0), 9)                  COMMENT
  2025     1     1     9     0    0.0000000     GPS         TIME OF FIRST OBS
    18                                                      LEAP SECONDS
                                                            END OF HEADER
 25  1  1  9  0  0.0000000  0 23G18G08G23E29G32G24E33G10G27R19R04R12
                                R03E26R18S35R17R02S31S33E07E08E13
 108545763.773 8  84581134.81746  20655572.371    20655572.1084   20655572.9224
        48.200          40.4004
 129980530.379 4 101283527.32242  24734479.101    24734478.1764   24734477.4954
        26.800          12.1004
 107404524.748 7  83691869.92145  20438401.211    20438400.9254   20438399.9654
        46.200          35.6004
 135059356.981 6                  25700934.008
        39.500
 124085998.503 5  96690380.36341  23612812.153    23612811.5544   23612777.7624
        32.200           6.9004
 113123751.125 7  88148403.87244  21526733.789    21526733.5034   21526737.1124
        42.500          28.5004
 139080493.829 7                  26466137.965
        42.700
 117722706.645 7  91732017.60746  22401888.852    22401888.4194   22401892.5614
        46.500          39.8004
 121315645.420 6  94531691.33146  23085605.458    23085604.7564   23085609.4694
        40.500          36.6004
 114045733.573 6  88702241.256 6  21319647.714    21319646.608    21319652.443
        36.200          40.600
 116137312.384 7  90329053.161 6  21687823.657    21687823.047    21687828.955
        43.700          40.300
 126343476.399 5                  23651771.935    23651763.103
        31.300
 104461104.407 8  81247544.233 7  19514196.171    19514196.099    19514198.826
        53.800          45.200
 123116722.933 8                  23428336.301
        50.400
 102542407.663 8  79755197.735 8  19209644.034    19209643.961    19209650.443
        50.300          48.800


 110263369.540 8  85760442.628 7  20605356.123    20605355.348    20605360.442
        48.500          43.000
 114208696.428 7  88829015.535 6  21402658.495    21402657.639    21402664.765
        44.700          40.800
 198898677.103 7                  37849161.198
        42.900
 202021310.397 7                  38443385.475
        44.500
 122075534.062 7                  23230183.840
        47.600


 128533599.477 7                  24459117.721
        47.500
 25  1  1  9  0 15.0000000  0 23G18G08G23E29G32G24E33G10G27R19R04R12
                                R03E26R18S35R17R02S31S33E07E08E13
 108567853.680 8  84598347.72846  20659775.321    20659775.0804   20659776.9904
        49.000          40.6004
 129955365.295 4 101263918.19342  24729690.445    24729689.2924   24729688.6834
        24.500          12.1004
 107400440.241 7  83688687.19845  20437624.087    20437623.7924   20437623.6644
        46.400          35.6004
 135022528.865 6                  25693925.386
        38.500
 124040497.992 4  96654925.57341  23604117.982    23604116.9324   23604119.6634
        28.200           6.0004
 113105248.647 7  88133986.53144  21523213.622    21523213.3414   21523216.0894
        44.900          28.6004
 139041593.477 7                  26458735.214
        42.800
 117693211.469 7  91709034.35746  22396274.863    22396274.4394   22396279.2404
        45.400          39.0004
 121314711.312 7  94530963.52745  23085427.373    23085426.6454   23085433.2474
        43.300          35.7004
 113995533.832 6  88663197.019 6  21310261.336    21310261.603    21310267.187
        36.500          40.600
 116098395.261 7  90298784.405 6  21680557.414    21680557.510    21680561.330
        43.300          38.500
 126310892.804 5                  23645660.660    23645661.310
        34.100
 104463222.742 9  81249191.835 7  19514591.890    19514592.249    19514595.155
        54.900          46.300
 123104889.497 8                  23426084.781
        50.800
 102539269.553 8  79752756.996 8  19209057.211    19209057.043    19209062.948
        51.100          49.000


 110315022.243 8  85800616.963 7  20615008.043    20615008.078    20615014.291
        49.000          45.100
 114253183.285 7  88863616.455 6  21410995.000    21410993.705    21411002.342
        42.800          41.900
 198898676.978 7                  37849163.313
        42.700
 202021288.326 7                  38443383.055
        45.600
 122073308.109 8                  23229760.458
        48.200


 128560969.601 7                  24464325.756
        47.400
 25  1  1  9  0 30.0000000  0 23G18G08G23E29G32G24E33G10G27R19R04R12
                                R03E26R18S35R17R02S31S33E07E08E13
 108590066.745 8  84615656.59846  20664001.714    20664001.4734   20664004.0374
        48.300          40.0004


 107396409.400 7  83685546.30145  20436856.283    20436855.9704   20436856.8304
        47.200          35.7004
 134985747.981 6                  25686927.127
        40.000


 113086893.394 7  88119683.90445  21519720.334    21519720.0534   21519723.9134
        46.300          33.8004
 139002706.863 6                  26451335.772
        41.700
 117663736.949 7  91686067.16946  22390667.146    22390666.7354   22390669.2764
        45.900          36.3004
 121313918.657 6  94530345.88745  23085275.111    23085274.3834   23085283.0684
        40.900          31.4004
 113945442.124 6  88624236.807 6  21300896.494    21300897.377    21300901.776
        36.500          38.300
 116059559.827 6  90268579.150 6  21673302.195    21673302.933    21673311.627
        41.900          41.700
 126278426.340 5                  23639586.659    23639583.641
        34.000
 104465446.360 8  81250921.334 7  19515006.537    19515007.323    19515010.416
        53.900          46.900
 123093128.164 8                  23423846.325
        50.500
 102536326.827 8  79750468.219 8  19208505.198    19208505.294    19208511.284
        51.200          48.500


 110366799.961 8  85840888.520 7  20624683.700    20624683.905    20624690.569
        49.100          46.400
 114297695.379 7  88898236.993 6  21419335.166    21419335.298    21419342.978
        43.900          41.500
 198898673.289 6                  37849165.669
        40.700
 202021263.204 7                  38443377.269
        44.100
 122071165.258 8                  23229352.491
        48.100


 128588406.781 7                  24469546.738
        45.700
 25  1  1  9  0 45.0000000  0 23G18G08G23E29G32G24E33G10G27R19R04R12
                                R03E26R18S35R17R02S31S33E07E08E13
 108612409.298 8  84633066.37146  20668252.978    20668252.7244   20668255.4324
        48.000          38.1004


 107392438.668 7  83682452.22546  20436100.706    20436100.3894   20436101.1844
        47.000          36.4004
 134949021.009 6                  25679937.215
        38.200


 113068692.046 7  88105501.09746  21516256.519    21516256.2244   21516262.6224
        47.800          36.0004
 138963840.576 6                  26443939.100
        41.000
 117634289.577 7  91663121.11645  22385064.849    22385064.4874   22385062.8854
        46.100          34.1004
 121313273.881 6  94529843.52944  23085153.342    23085152.6324   23085161.2254
        41.000          29.0004
 113895465.530 5  88585366.067 6  21291554.556    21291554.230    21291559.394
        35.500          37.800
 116020812.438 6  90238442.283 7  21666065.792    21666067.808    21666075.057
        41.500          43.600


 104467781.018 8  81252737.204 7  19515442.923    19515442.581    19515447.008
        52.700          47.500
 123081445.515 8                  23421623.172
        50.600
 102533586.190 8  79748336.606 8  19207992.364    19207992.363    19207997.960
        51.300          48.300


 110418708.801 8  85881262.014 7  20634384.992    20634385.582    20634391.522
        51.300          47.400
 114342239.357 7  88932882.288 6  21427684.482    21427686.281    21427688.649
        45.900          38.700
 198898673.730 7                  37849167.400
        42.100
 202021241.248 7                  38443375.449
        45.900
 122069111.878 8                  23228961.508
        48.800
 134050884.093 5                  25509036.297
        34.800
 128615917.390 7                  24474782.170
        44.000
 25  1  1  9  1  0.0000000  0 23G18G08G23G15E29G32G24E33G10G27R19R04
                                R03E26R18S35R17R02S31S33E07E08E13
 108634876.979 8  84650573.62846  20672528.703    20672528.4444   20672530.5494
        48.100          36.9004


 107388523.766 8  83679401.65846  20435355.579    20435355.2714   20435356.0194
        48.800          38.1004
 115553909.816 5  90042090.79742  21989177.593    21989178.4064   21989193.9804
        30.600          15.0004
 134912343.578 6                  25672958.785
        40.000


 113050640.522 7  88091435.00546  21512821.077    21512820.7604   21512828.3364
        46.700          36.1004
 138924990.471 6                  26436546.475
        40.400
 117604865.105 7  91640192.96145  22379465.241    22379464.9024   22379460.8954
        46.200          31.5004
 121312772.587 6  94529452.80944  23085057.637    23085056.9094   23085064.8524
        40.000          27.4004
 113845600.129 5  88546581.875 6  21282230.771    21282229.242    21282241.530
        31.600          37.800
 115982149.053 7  90208370.687 7  21658854.683    21658851.946    21658854.062
        42.700          42.800
 104470222.275 8  81254635.947 7  19515899.246    19515898.571    19515902.952
        52.200          47.800
 123069837.304 8                  23419414.540
        50.800
 102531043.490 8  79746358.915 7  19207516.918    19207516.820    19207521.160
        52.200          47.600


 110470743.909 8  85921733.732 8  20644109.555    20644110.556    20644116.577
        52.100          48.000
 114386810.405 8  88967548.652 6  21436039.869    21436042.299    21436042.959
        48.500          39.600
 198898673.116 7                  37849166.398
        42.600
 202021218.528 7                  38443372.350
        45.800
 122067143.529 8                  23228587.118
        49.300
 134084771.676 5                  25515483.517
        35.800
 128643497.097 7                  24480031.818
        45.500
 25  1  1  9  1 15.0000000  0 24G18G08G23G15E29G32G24E33G10G27R19R04
                                R12R03E26R18S35R17R02S31S33E07E08E13
 108657469.820 8  84668178.43346  20676828.644    20676828.4034   20676829.3264
        48.900          37.1004


 107384664.872 8  83676394.73746  20434621.079    20434620.7664   20434622.0164
        48.600          39.1004
 115600197.148 5  90078158.86142  21997982.508    21997983.2144   21997998.7394
        33.300          16.0004
 134875715.957 6                  25665986.872
        37.600
 123859068.222 5  96513539.78243  23569596.412    23569596.5464   23569593.1524
        33.700          21.2004
 113032739.118 7  88077485.92045  21509415.008    21509414.6784   21509419.4354
        46.100          35.9004
 138886156.895 6                  26429156.421
        39.000
 117575463.693 7  91617282.80245  22373870.285    22373869.9414   22373864.8514
        46.000          30.7004
 121312414.802 6  94529174.01144  23084990.000    23084989.2634   23084992.9184
        37.700          26.4004
 113795846.873 5  88507884.875 6  21272931.745    21272930.293    21272939.965
        33.000          38.600
 115943569.605 6  90178364.503 7  21651651.895    21651650.836    21651648.739
        40.200          42.500
 126181760.594 6  98141404.943 5  23621493.988    23621495.924    23621498.513
        38.500          32.700
 104472770.101 8  81256617.595 7  19516376.331    19516375.635    19516378.581
        52.200          47.200
 123058303.876 8                  23417219.808
        51.100
 102528698.970 8  79744535.374 7  19207076.995    19207077.756    19207081.809
        52.200          47.000


 110522905.020 8  85962303.437 7  20653857.447    20653857.629    20653862.362
        52.100          47.500
 114431408.393 7  89002235.969 6  21444396.204    21444397.253    21444400.788
        46.900          38.100
 198898671.467 6                  37849164.699
        40.200
 202021195.207 7                  38443364.212
        44.700
 122065260.284 8                  23228228.610
        49.000
 134118697.343 6                  25521938.546
        36.200
 128671145.959 7                  24485292.191
        44.200
 25  1  1  9  1 30.0000000  0 24G18G08G23G15E29G32G24E33G10G27R19R04
                                R12R03E26R18S35R17R02S31S33E07E08E13
 108680188.420 8  84685881.23246  20681151.607    20681151.3664   20681151.7304
        49.400          36.9004


 107380862.701 8  83673432.02446  20433897.903    20433897.6084   20433898.8524
        49.200          39.9004
 115646537.585 5  90114268.44142  22006804.122    22006804.6004   22006816.3854
        34.600          15.5004
 134839139.016 5                  25659028.396
        34.400


 113014988.797 7  88063654.58845  21506037.093    21506036.7634   21506039.9884
        45.800          35.5004
 138847340.735 6                  26421770.102
        40.300
 117546085.925 7  91594390.94245  22368279.528    22368279.2154   22368274.7334
        45.500          30.2004
 121312201.150 6  94529007.58243  23084950.281    23084949.5174   23084949.8164
        37.800          22.4004
 113746206.636 5  88469275.840 6  21263650.946    21263650.760    21263660.731
        33.200          37.600
 115905074.976 5  90148424.242 7  21644445.734    21644450.276    21644460.521
        31.200          44.200
 126149781.109 5                  23615502.872    23615501.669
        35.700
 104475424.719 8  81258682.347 7  19516871.550    19516871.395    19516874.631
        50.900          47.900
 123046846.040 8                  23415039.140
        50.200
 102526553.393 8  79742866.591 7  19206674.774    19206675.520    19206679.677
        52.100          46.900


 110575192.354 8  86002971.327 7  20663627.806    20663627.700    20663632.200
        50.900          45.200
 114476033.698 7  89036944.466 5  21452757.385    21452757.985    21452759.422
        45.900          35.800
 198898670.699 6                  37849168.165
        41.400
 202021172.326 7                  38443361.296
        44.800
 122063462.707 8                  23227886.435
        49.100
 134152661.602 6                  25528399.982
        39.000
 128698864.600 7                  24490567.108
        44.400
 25  1  1  9  1 45.0000000  0 23G18G08G23G15E29G32G24E33G10G27R19R04
                                R03E26R18S35R17R02S31S33E07E08E13
 108703031.276 8  84703680.84046  20685499.001    20685498.7734   20685497.9424
        48.100          36.8004


 107377115.812 8  83670512.39446  20433184.809    20433184.5284   20433185.7584
        48.800          38.4004
 115692929.619 5  90150418.13843  22015631.670    22015631.7054   22015645.0944
        35.500          18.0004
 134802611.249 5                  25652077.398
        33.300


 112997388.328 7  88049939.96445  21502686.891    21502686.5384   21502689.7014
        45.700          34.3004
 138808540.588 6                  26414386.347
        37.400
 117516730.426 7  91571516.51145  22362692.796    22362692.4834   22362689.6724
        46.700          31.2004
 121312130.046 5  94528952.16043  23084932.055    23084931.1794   23084930.9454
        34.300          19.9004
 113696678.394 5  88430753.927 5  21254391.339    21254392.636    21254397.778
        32.500          30.200
                  90118548.726 7                  21637280.262    21637287.855
                        44.900
 104478184.637 8  81260829.016 7  19517386.431    19517385.859    19517389.879
        50.000          47.200
 123035462.486 8                  23412872.818
        49.400
 102524605.419 8  79741351.516 7  19206310.329    19206309.969    19206315.843
        51.100          47.400
 200878340.273 5                  38225868.220
        32.600
 110627604.130 8  86043735.993 7  20673422.472    20673421.895    20673426.354
        48.400          43.800
 114520684.495 7  89071672.782 5  21461124.065    21461124.498    21461125.891
        45.400          35.500
 198898667.731 6                  37849166.524
        41.200
 202021147.605 7                  38443353.440
        44.500
 122061749.299 8                  23227560.500
        48.800
 134186662.864 6                  25534870.904
        36.900
 128726651.568 7                  24495854.970
        44.100
 25  1  1  9  2  0.0000000  0 24G18G08G23G15E29G32G24E33G10G27R19R04
                                R12R03E26R18S35R17R02S31S33E07E08E13
 108725998.006 7  84721577.00246  20689868.884    20689868.6564   20689868.6494
        47.900          37.7004


 107373423.958 7  83667635.65445  20432481.917    20432481.6404   20432482.3184
        47.000          35.9004
 115739372.421 5  90186607.46943  22024468.185    22024468.2294   22024483.0064
        33.900          20.8004
 134766132.549 6                  25645137.213
        37.600
 123723633.789 5  96407982.65941  23543820.569    23543820.6984   23543811.1894
        33.400          10.0004
 112979937.597 7  88036341.99045  21499366.921    21499366.5644   21499368.9354
        45.200          35.5004
 138769756.328 6                  26407007.303
        37.100
 117487397.030 7  91548659.32045  22357110.699    22357110.4004   22357107.1874
        45.200          33.0004
 121312201.311 3  94529007.67843  23084940.932    23084939.7704   23084942.8534
        22.700          19.0004
 113647262.827 5  88392319.685 5  21245154.925    21245155.440    21245158.677
        32.000          31.000
 115828335.102 6  90088737.768 7  21630131.645    21630126.663    21630129.454
        37.800          44.200
 126086184.881 5                  23603602.449    23603597.481
        30.300
 104481049.325 8  81263057.116 7  19517920.391    19517920.102    19517925.145
        50.300          47.200
 123024153.015 8                  23410721.146
        49.900
 102522854.794 8  79739989.944 7  19205982.049    19205982.477    19205987.380
        51.400          47.200
 200878340.304 6                  38225875.607
        36.000
 110680139.384 7  86084596.700 7  20683238.831    20683238.917    20683245.264
        47.400          45.800
 114565360.367 7  89106420.594 6  21469497.337    21469496.820    21469499.871
        45.100          37.100
 198898663.072 6                  37849166.228
        41.800
 202021120.930 7                  38443348.924
        43.700
 122060119.622 8                  23227250.435
        49.500
 134220700.505 6                  25541345.317
        36.400
 128754506.394 7                  24501156.141
        45.600
 25  1  1  9  2 15.0000000  0 24G18G08G23G15E29G32G24E33G10G27R19R04
                                R12R03E26R18S35R17R02S31S33E07E08E13
 108749093.569 8  84739573.56946  20694263.554    20694263.3314   20694264.5044
        48.000          38.8004


 107369792.167 7  83664805.71145  20431791.433    20431791.1654   20431789.9144
        44.800          33.1004
 115785870.596 5  90222839.87043  22033319.268    22033319.1884   22033330.9834
        31.900          19.3004
 134729707.932 6                  25638205.187
        38.200
 123678575.313 4  96372872.27842  23535226.673    23535226.9144   23535227.4134
        27.700          13.1004
 112962641.863 7  88022864.78645  21496075.560    21496075.2254   21496077.4954
        42.800          34.4004
 138730993.169 6                  26399631.029
        38.700
 117458090.718 7  91525823.25745  22351536.005    22351535.6924   22351531.8384
        43.700          35.3004
 121312420.710 6  94529169.77844  23084987.825    23084987.6154   23084989.3274
        37.000          25.4004
 113597964.989 4  88353976.961 5  21235942.404    21235938.872    21235946.746
        29.700          34.200
 115790094.919 6  90058995.437 7  21622982.793    21622983.304    21622987.924
        38.700          44.000
 126054573.851 5                  23597675.865    23597678.452
        31.700
 104484023.965 8  81265370.745 7  19518476.621    19518476.989    19518481.442
        51.400          47.100
 123012922.805 8                  23408583.943
        50.100
 102521306.816 8  79738785.995 7  19205692.201    19205692.470    19205696.362
        51.500          46.800
 200878342.781 5                  38225877.101
        34.400
 110732802.984 7  86125557.288 7  20693079.454    20693079.210    20693087.940
        45.700          46.500
 114610066.023 7  89141191.678 6  21477873.588    21477874.391    21477878.480
        44.700          37.800
 198898661.655 7                  37849163.662
        43.800
 202021098.227 7                  38443341.049
        43.700
 122058578.615 8                  23226957.153
        49.900
 134254779.362 5                  25547824.937
        32.300
 128782434.117 7                  24506470.142
        46.200
 25  1  1  9  2 30.0000000  0 23G18G08G23G15E29G32G24E33G10G27R19R04
                                R03E26R18S35R17R02S31S33E07E08E13
 108772317.779 7  84757670.37046  20698682.743    20698682.5204   20698684.9674
        46.900          40.0004


 107366220.434 7  83662022.55845  20431113.474    20431113.1974   20431109.7314
        42.100          31.9004
 115832423.969 4  90259115.25842  22042177.337    22042176.9044   22042188.9414
        26.600          15.1004
 134693337.489 6                  25631285.213
        38.300
 123633575.813 5  96337807.80042  23526667.798    23526667.4684   23526661.6724
        32.900          14.5004
 112945501.236 7  88009508.43545  21492813.718    21492813.3924   21492814.8254
        42.700          34.9004
 138692251.242 6                  26392258.183
        38.200
 117428811.373 7  91503008.16846  22345964.740    22345964.3294   22345963.1214
        44.200          38.7004
 121312786.054 6  94529454.50244  23085057.849    23085057.8364   23085058.8344
        40.800          29.7004
 113548785.385 4  88315726.174 5  21226744.227                    21226753.796
        26.200          34.300
 115751942.797 5  90029321.612 7  21615855.628    21615855.328    21615865.564
        34.400          44.600
 104487107.783 8  81267769.294 7  19519052.506    19519052.625    19519057.320
        51.400          47.100
 123001771.913 8                  23406461.924
        50.500
 102519961.436 8  79737739.599 7  19205439.372    19205439.541    19205444.995
        51.000          47.200
 200878348.863 5                  38225885.619
        35.500
 110785594.281 8  86166617.155 7  20702945.977    20702946.731    20702952.751
        48.600          45.600
 114654801.164 7  89175985.624 6  21486258.062    21486258.491    21486264.078
        46.300          41.500
 198898663.121 7                  37849164.476
        43.700
 202021077.929 7                  38443339.323
        44.300
 122057126.087 8                  23226680.487
        49.600
 134288899.221 5                  25554319.857
        32.100
 128810434.571 7                  24511798.048
        45.700
 25  1  1  9  2 45.0000000  0 23G18G08G23G15E29G32G24E33G10G27R19R04
                                R03E26R18S35R17R02S31S33E07E08E13
 108795662.933 7  84775861.41646  20703126.733    20703126.5284   20703127.8734
        46.700          40.6004


 107362701.134 7  83659280.26545  20430442.667    20430442.3864   20430440.7274
        42.200          32.0004
 115879024.515 5  90295427.35442  22051043.358    22051042.5894   22051055.5294
        30.600          16.2004
 134657013.610 6                  25624371.881
        38.700
 123588628.026 5  96302783.60642  23518110.963    23518110.7224   23518110.2174
        35.300          17.5004
 112928508.321 6  87996267.19545  21489579.135    21489578.8274   21489581.5964
        37.700          34.8004
 138653522.987 6                  26384888.129
        37.000
 117399551.345 7  91480208.11547  22340396.627    22340396.1584   22340397.5294
        46.300          42.2004
 121313290.706 6  94529847.74344  23085154.126    23085153.9974   23085153.5344
        40.900          29.1004
 113499717.119 4  88277561.984 5  21217571.838                    21217582.883
        28.200          31.800
 115713987.487 6  89999710.328 7  21608771.786                    21608755.085
        36.400          44.100
 104490293.103 8  81270246.811 7  19519647.567    19519647.772    19519652.864
        51.200          47.900
 122990692.872 8                  23404353.273
        50.800
 102518811.046 8  79736844.878 8  19205223.955    19205223.969    19205229.856
        50.600          48.000
 200878350.215 5                  38225884.850
        32.800
 110838505.262 8  86207770.150 7  20712834.502    20712835.000    20712839.969
        49.700          44.400
 114699557.635 7  89210796.261 6  21494644.475    21494643.629    21494650.432
        43.600          41.600
 198898660.208 7                  37849162.365
        43.900
 202021053.676 7                  38443335.750
        44.600
 122055754.309 8                  23226419.725
        49.400
 134323052.202 5                  25560820.539
        34.200
 128838500.052 7                  24517138.054
        44.200
 25  1  1  9  3  0.0000000  0 23G18G08G23G15E29G32G24E33G10G27R19R04
                                R03E26R18S35R17R02S31S33E07E08E13
 108819134.042 8  84794150.60446  20707592.634    20707592.4334   20707594.0764
        48.200          40.7004


 107359239.404 7  83656582.83045  20429783.316    20429783.0574   20429783.1754
        42.600          32.4004
 115925677.130 6  90331779.96042  22059923.365    22059922.7354   22059928.2524
        36.600          17.2004
 134620741.489 6                  25617469.180
        39.500
 123543737.205 6  96267803.76743  23509570.132    23509569.7264   23509569.7134
        36.400          19.6004
 112911668.410 6  87983145.19945  21486374.814    21486374.4794   21486377.8214
        38.900          32.7004
 138614813.756 6                  26377521.492
        36.200
 117370315.770 7  91457427.07847  22334832.367    22334831.8944   22334835.9934
        46.800          44.0004
 121313939.681 6  94530353.49944  23085277.152    23085277.1744   23085276.5844
        37.800          27.6004
 113450765.759 5  88239488.535 5  21208424.889    21208421.919    21208436.948
        33.700          30.400
 115676001.030 6  89970165.528 7  21601656.661    21601653.647    21601660.538
        39.300          42.100
 104493584.526 8  81272806.799 7  19520262.922    19520263.085    19520267.220
        52.300          47.800
 122979690.892 8                  23402259.752
        50.400
 102517860.927 8  79736105.876 8  19205046.729    19205047.599    19205052.565
        52.600          48.700
 200878352.656 5                  38225875.419
        32.700
 110891540.460 8  86249019.660 7  20722745.890    20722747.026    20722750.838
        50.600          43.800
 114744340.333 7  89245627.259 6  21503036.889    21503036.243    21503040.251
        43.000          40.400
 198898658.263 7                  37849162.146
        43.600
 202021029.819 7                  38443334.239
        44.600
 122054468.320 8                  23226175.258
        49.400
 134357243.278 5                  25567327.555
        35.400
 128866635.646 7                  24522492.424
        43.200
 25  1  1  9  3 15.0000000  0 24G18G08G23G15E29G32G24E33G10G27R19R04
                                R12R03E26R18S35R17R02S31S33E07E08E13
 108842732.356 7  84812538.88646  20712082.843    20712082.6334   20712084.2244
        47.200          40.2004


 107355836.586 7  83653931.29445  20429134.802    20429134.5394   20429136.9144
        43.000          32.6004
 115972382.726 6  90368173.89342  22068810.827    22068810.1664   22068810.8264
        39.000          17.7004
 134584522.516 6                  25610576.304
        41.100
 123498904.822 6  96232869.41743  23501038.448    23501038.1044   23501038.1524
        40.200          22.6004
 112894983.031 6  87970143.63545  21483198.245    21483197.8924   21483202.7414
        37.900          32.3004
 138576124.973 6                  26370157.868
        37.300
 117341106.052 7  91434666.20047  22329273.101    22329272.6414   22329278.4864
        46.800          43.8004
 121314734.205 5  94530972.64944  23085426.686    23085426.6994   23085429.3664
        34.400          24.1004
 113401932.809 6                  21199293.228    21199294.940
        37.100
 115638101.861 7  89940688.326 6  21594584.035    21594584.879    21594582.577
        44.500          40.100


 104496983.429 8  81275450.391 8  19520898.749    19520899.687    19520901.914
        53.500          48.100
 122968767.425 8                  23400181.198
        50.300
 102517112.440 8  79735523.687 8  19204906.302    19204906.846    19204911.857
        52.000          48.600
 200878356.115 5                  38225882.010
        34.400
 110944700.907 8  86290366.613 7  20732680.536    20732681.586    20732684.910
        50.100          43.500
 114789150.526 7  89280479.674 6  21511433.896    21511433.927    21511436.988
        43.200          40.200
 198898657.699 7                  37849161.301
        43.300
 202021007.905 7                  38443329.387
        44.400
 122053269.356 8                  23225947.174
        50.100
 134391473.475 6                  25573841.343
        38.700
 128894842.623 7                  24527860.251
        43.700
 25  1  1  9  3 30.0000000  0 23G18G08G23G15E29G32G24E33G10G27R04R12
                                R03E26R18S35R17R02S31S33E07E08E13
 108866456.343 7  84831025.09146  20716597.445    20716597.2264   20716598.7744
        47.600          40.5004


 107352491.309 7  83651324.59445  20428498.885    20428498.6354   20428500.8934
        42.900          32.4004
 116019139.535 5  90404607.70142  22077706.930    22077706.2154   22077705.0054
        35.500          15.0004
 134548355.410 7                  25603694.140
        42.500
 123454129.468 6  96197979.54544  23492517.086    23492516.7204   23492517.8644
        41.900          25.5004
 112878450.985 6  87957261.57245  21480052.703    21480052.4134   21480057.3084
        38.500          32.2004
 138537455.444 6                  26362800.488
        38.300
 117311920.724 7  91411924.30647  22323719.472    22323718.9764   22323724.9014
        47.300          42.3004
 121315672.784 5  94531704.08643  23085605.196    23085604.9684   23085609.1484
        32.900          23.5004
 115600288.417 7  89911277.951 6  21587525.587    21587526.021    21587519.327
        47.300          36.700


 104500488.088 8  81278176.242 8  19521553.843    19521554.570    19521556.926
        53.500          48.600
 122957921.226 8                  23398117.658
        50.500
 102516564.297 8  79735097.355 8  19204803.473    19204803.221    19204809.211
        51.000          48.100
 200878360.254 5                  38225889.241
        35.300
 110997984.842 8  86331809.623 7  20742637.943    20742638.556    20742642.010
        49.700          43.700
 114833986.368 7  89315351.984 6  21519837.916    21519837.868    21519839.820
        44.400          41.100
 198898657.703 7                  37849162.360
        42.700
 202020986.657 7                  38443325.707
        44.200
 122052155.872 8                  23225735.104
        50.600
 134425741.206 6                  25580361.643
        39.300
 128923119.481 7                  24533241.615
        44.800
 25  1  1  9  3 45.0000000  0 24G18G08G23G15E29G32G24E33G10G27R19R04
                                R12R03E26R18S35R17R02S31S33E07E08E13
 108890301.256 7  84849605.51946  20721134.970    20721134.7474   20721136.6174
        47.400          39.8004


 107349198.923 7  83648759.10745  20427872.977    20427872.7004   20427873.8464
        44.800          32.0004
 116065942.588 5  90441077.63242  22086614.341    22086613.8594   22086609.7134
        30.800          13.3004
 134512235.516 7                  25596820.649
        42.300
 123409406.736 6  96163130.72744  23484007.077    23484006.6714   23484007.3654
        40.600          25.8004
 112862067.749 6  87944495.46945  21476932.995    21476932.7234   21476940.3864
        36.200          31.5004
 138498800.630 6                  26355444.628
        39.300
 117282755.287 7  91389197.93946  22318169.325    22318168.7894   22318173.8024
        46.900          39.6004
 121316750.630 5  94532543.94343  23085810.513    23085810.1024   23085814.4804
        34.700          22.8004
 113304615.879 5                  21181100.010    21181100.905
        35.800
 115562555.740 7  89881930.421 6  21580475.617    21580477.035    21580475.162
        45.000          37.500


 104504093.638 8  81280980.587 8  19522226.477    19522226.901    19522230.772
        52.500          49.100
 122947147.745 8                  23396067.665
        50.300
 102516212.052 8  79734823.409 7  19204736.989    19204737.412    19204742.293
        50.700          47.200
 200878360.672 5                  38225882.332
        35.000
 111051387.027 8  86373344.647 7  20752617.515    20752617.604    20752621.983
        49.300          45.500
 114878842.730 7  89350240.284 7  21528243.523    21528243.423    21528247.288
        42.900          43.200
 198898653.764 7                  37849157.424
        42.800
 202020960.619 7                  38443315.664
        44.000
 122051123.120 8                  23225538.384
        50.300
 134460041.639 6                  25586888.560
        39.900
 128951461.517 7                  24538634.696
        45.600
 25  1  1  9  4  0.0000000  0 24G18G08G23G15E29G32G24E33G10G27R19R04
                                R12R03E26R18S35R17R02S31S33E07E08E13
 108914274.892 7  84868286.25546  20725696.713    20725696.4814   20725698.7814
        46.800          38.4004


 107345967.318 7  83646240.98345  20427257.955    20427257.6784   20427258.0454
        47.200          32.2004
 116112799.630 6  90477589.66542  22095542.553    22095542.2144   22095525.1364
        36.600          13.9004
 134476170.824 7                  25589957.848
        42.900
 123364744.544 6  96128329.05744  23475508.600    23475508.2164   23475509.6774
        38.100          26.5004
 112845841.470 6  87931851.65845  21473847.215    21473847.0684   21473853.1914
        39.700          34.9004
 138460168.588 6                  26348092.977
        39.200
 117253617.547 7  91366493.18546  22312625.303    22312624.7764   22312627.1834
        46.100          36.7004
 121317975.594 6  94533498.45144  23086045.180    23086044.7204   23086048.1544
        36.700          26.8004
 113256136.066 5                  21172038.453    21172037.364
        34.300
 115524911.924 7  89852651.945 6  21573441.143    21573441.800    21573446.992
        42.500          40.000


 104507807.379 8  81283869.083 8  19522919.893    19522920.114    19522925.220
        51.400          49.500
 122936454.960 8                  23394032.830
        49.900
 102516063.481 8  79734707.853 7  19204708.963    19204709.214    19204714.104
        50.100          46.200
 200878364.052 5                  38225886.500
        34.900
 111104914.758 7  86414977.317 7  20762620.785    20762620.194    20762626.013
        47.700          46.300
 114923727.574 7  89385150.769 7  21536654.997    21536654.961    21536659.779
        44.000          44.400
 198898652.960 7                  37849159.821
        43.100
 202020938.743 7                  38443311.259
        44.300
 122050178.858 8                  23225358.581
        49.600
 134494382.416 6                  25593422.884
        38.600
 128979876.512 7                  24544042.406
        46.000
 25  1  1  9  4 15.0000000  0 23G18G08G23G15E29G32G24E33G10G27R04R12
                                R03E26R18S35R17R02S31S33E07E08E13
 108938372.350 7  84887063.48246  20730282.702    20730282.4744   20730283.9384
        46.600          36.7004


 107342791.746 8  83643766.52745  20426653.361    20426653.0894   20426652.4714
        48.500          32.4004
 116159705.538 6  90514139.67942  22104453.804    22104453.2324   22104450.9554
        39.600          15.5004
 134440156.590 7                  25583104.864
        43.600
 123320138.251 6  96093570.93944  23467020.672    23467020.2254   23467023.3964
        38.600          26.9004
 112829767.565 7  87919326.54846  21470790.476    21470790.4364   21470794.1414
        43.000          36.5004
 138421554.627 6                  26340744.737
        38.600
 117224502.737 7  91343806.27845  22307085.447    22307084.9204   22307083.2394
        45.400          32.6004
 121319342.689 6  94534563.73745  23086306.580    23086306.1384   23086309.8064
        41.900          30.6004
 115487351.978 7  89823438.612 6  21566429.114    21566431.096    21566433.096
        43.500          40.800


 104511624.832 8  81286838.221 8  19523633.279    19523633.830    19523637.916
        52.100          48.800
 122925838.234 8                  23392012.549
        48.800
 102516114.000 8  79734747.093 7  19204719.275    19204719.700    19204723.490
        50.800          46.400
 200878366.490 5                  38225892.358
        35.200
 111158562.895 7  86456703.614 7  20772646.194    20772644.047    20772652.210
        44.400          46.200
 114968635.675 7  89420079.275 7  21545072.998    21545073.197    21545075.337
        47.000          44.100
 198898651.024 7                  37849162.065
        43.700
 202020915.608 7                  38443307.060
        44.100
 122049318.202 8                  23225194.765
        49.000
 134528758.566 6                  25599964.035
        36.300
 129008359.632 7                  24549463.284
        46.300
 25  1  1  9  4 30.0000000  0 23G18G08G23G15E29G32G24E33G10G27R19R04
                                R03E26R18S35R17R02S31S33E07E08E13
 108962592.407 7  84905936.26646  20734891.393    20734891.1484   20734892.0664
        46.100          36.3004


 107339671.079 8  83641334.87045  20426059.606    20426059.3344   20426057.5444
        48.100          32.2004
 116206658.653 6  90550726.53142  22113390.639    22113390.0494   22113386.6304
        41.300          16.2004
 134404191.742 7                  25576261.457
        42.700
 123275586.887 6  96058855.61044  23458542.942    23458542.3434   23458545.9374
        37.300          26.4004
 112813845.058 6  87906919.39646  21467759.460    21467759.3714   21467763.7404
        40.200          36.7004
 138382957.786 6                  26333399.524
        37.400
 117195409.589 7  91321136.20344  22301549.098    22301548.5894   22301543.1134
        43.600          29.4004
 121320850.725 7  94535738.85245  23086592.006    23086591.5554   23086597.5964
        42.900          31.7004
 113159528.872 5  88012984.687 5  21153979.092    21153980.425    21153985.540
        33.000          35.400
 115449875.085 6  89794289.912 6  21559433.253    21559434.751    21559433.991
        41.000          40.000
 104515544.061 8  81289886.570 8  19524364.208    19524365.115    19524369.536
        50.400          48.300
 122915296.526 7                  23390006.536
        47.700
 102516362.382 8  79734940.259 7  19204765.619    19204765.825    19204770.903
        51.000          47.700
 200878366.441 5                  38225883.906
        34.200
 111212329.669 7  86498522.221 7  20782692.525    20782689.731    20782698.868
        42.200          44.500
 115013565.498 7  89455024.713 7  21553489.688    21553490.754    21553495.196
        44.200          43.300
 198898646.937 7                  37849160.219
        43.700
 202020889.860 7                  38443302.924
        44.200
 122048539.894 7                  23225046.400
        47.600
 134563168.700 6                  25606512.415
        36.500
 129036909.631 7                  24554895.730
        46.100
 25  1  1  9  4 45.0000000  0 24G18G08G23G15E29G32G24E33G10G27R19R04
                                R12R03E26R18S35R17R02S31S33E07E08E13
 108986939.334 7  84924907.90446  20739525.274    20739525.0294   20739525.2264
        45.900          36.6004
 129522600.301 5 100926700.42142  24647333.045    24647332.3884   24647332.6784
        33.800          13.4004
 107336609.762 7  83638949.45145  20425476.916    20425476.6214   20425475.0714
        47.900          32.9004
 116253663.205 7  90587353.49642  22122335.714    22122335.1154   22122332.6434
        43.400          17.6004
 134368280.781 6                  25569427.937
        41.900
 123231094.978 4  96024186.62544  23450071.645    23450070.8674   23450078.5494
        29.300          25.9004
 112798078.581 6  87894633.84246  21464760.182    21464760.0804   21464763.0894
        40.800          37.1004
 138344382.678 5                  26326059.880
        34.500
 117166342.679 6  91298486.60144  22296016.913    22296016.3864   22296011.8864
        40.400          28.4004
 121322504.004 7  94537027.18645  23086907.921    23086907.4794   23086911.4054
        42.800          30.7004
 113111405.805 5  87975555.576 5  21144982.640    21144980.238    21144989.136
        30.700          35.400
 115412485.428 6  89765209.141 6  21552445.757    21552448.695    21552450.283
        37.700          38.700
 125745343.267 6                  23539795.230    23539799.099
        36.000
 104519569.827 8  81293017.749 7  19525116.710    19525116.365    19525121.404
        49.800          47.500
 122904834.409 7                  23388015.344
        47.600
 102516813.201 8  79735290.901 8  19204850.377    19204850.598    19204855.488
        51.400          48.200
 200878368.654 5                  38225894.366
        32.200
 111266219.467 7  86540436.402 7  20792761.904    20792761.953    20792767.987
        46.000          42.600
 115058521.211 7  89489990.277 7  21561914.982    21561913.641    21561918.387
        42.700          42.100
 198898644.759 7                  37849158.072
        43.500
 202020867.127 7                  38443301.989
        45.200
 122047848.236 7                  23224915.188
        47.000
 134597617.003 6                  25613068.068
        37.900
 129065530.862 7                  24560341.979
        45.400
 25  1  1  9  5  0.0000000  0 24G18G08G23G15E29G32G24E33G10G27R19R04
                                R12R03E26R18S35R17R02S31S33E07E08E13
 109011415.163 7  84943979.97746  20744182.942    20744182.6924   20744183.3024
        44.400          36.7004
 129499696.248 5 100908853.16441  24642974.088    24642973.5524   24642975.3324
        30.900           9.1004
 107333609.916 8  83636611.93545  20424905.601    20424905.3024   20424905.4134
        48.400          34.0004
 116300721.056 7  90624022.04543  22131291.144    22131290.5104   22131290.8724
        44.700          18.7004
 134332425.884 6                  25562605.250
        40.500
 123186664.669 6  95989565.65744  23441622.471    23441621.5824   23441621.9824
        36.900          24.7004
 112782470.344 6  87882471.58846  21461790.427    21461790.3204   21461792.4344
        41.300          36.4004
 138305831.486 5                  26318722.599
        33.000
 117137304.107 6  91275859.11844  22290489.397    22290488.8304   22290488.5564
        36.900          29.8004
 121324304.451 7  94538430.17445  23087250.103    23087249.6564   23087252.4924
        43.000          30.1004
                  87938223.458 6                  21136008.992    21136016.553
                        36.100
 115375185.205 6  89736197.837 6  21545491.839    21545494.356    21545484.890
        41.700          38.200
 125715122.364 5                  23534138.393    23534141.092
        35.400
 104523703.761 8  81296233.061 7  19525888.798    19525889.580    19525893.541
        50.800          47.500
 122894454.135 7                  23386039.622
        47.900
 102517468.775 8  79735800.816 7  19204973.561    19204973.380    19204978.578
        52.100          47.900
 200878375.310 5                  38225893.775
        34.500
 111320233.756 7  86582447.489 7  20802856.847    20802857.612    20802862.201
        47.800          42.000
 115103504.677 7  89524977.374 7  21570345.597    21570345.896    21570349.229
        44.700          42.900
 198898646.754 7                  37849153.328
        43.300
 202020847.901 7                  38443293.753
        44.700
 122047245.210 7                  23224800.254
        47.800
 134632105.420 6                  25619631.573
        37.300
 129094225.354 7                  24565801.941
        44.300
 25  1  1  9  5 15.0000000  0 24G18G08G23G15E29G32G24E33G10G27R19R04
                                R12R03E26R18S35R17R02S31S33E07E08E13
 109036010.565 7  84963145.20246  20748863.206    20748862.9834   20748863.5174
        46.100          37.0004
 129476907.655 5 100891095.9284   24638637.753    24638637.4054   24638636.9154
        32.300           5.4004
 107330662.330 7  83634315.12645  20424345.130    20424344.8174   20424345.5444
        47.700          34.5004
 116347822.662 7  90660724.68543  22140254.694    22140254.0064   22140260.3394
        44.500          19.6004
 134296617.880 6                  25555790.152
        39.000
 123142287.028 6  95954985.67045  23433173.668    23433172.7744   23433176.2004
        41.300          30.0004
 112767011.360 7  87870425.64746  21458847.968    21458847.8434   21458850.1204
        43.300          37.8004
 138267295.222 4                  26311387.942
        28.900
 117108284.575 6  91253246.47545  22284968.942    22284968.3664   22284968.9734
        40.200          33.6004
 121326242.811 7  94539940.61245  23087619.187    23087618.7404   23087622.3584
        45.400          33.9004
 113015524.403 4  87900981.139 6  21127061.530    21127059.012    21127066.010
        26.600          37.900
 115337965.357 6  89707248.999 6  21538533.862    21538533.109    21538536.056
        41.400          38.200
 125685024.927 5                  23528497.506    23528499.165
        32.000
 104527936.019 8  81299524.825 8  19526681.059    19526681.630    19526684.276
        52.400          48.000
 122884146.551 8                  23384078.200
        48.400
 102518319.738 8  79736462.680 7  19205133.398    19205134.103    19205137.773
        53.300          47.400
 200878376.060 5                  38225889.062
        33.200
 111374362.565 8  86624547.616 6  20812972.666    20812973.415    20812978.236
        48.000          41.800
 115148506.450 7  89559978.730 7  21578778.593    21578779.054    21578783.246
        43.100          42.900
 198898643.497 7                  37849156.829
        43.300
 202020823.315 7                  38443292.223
        44.500
 122046721.510 7                  23224700.377
        47.700
 134666624.474 6                  25626201.026
        36.100
 129122983.768 6                  24571272.960
        41.200
 25  1  1  9  5 30.0000000  0 24G18G08G23G15E29G32G24E33G10G27R19R04
                                R12R03E26R18S35R17R02S31S33E07E08E13
 109060731.263 7  84982408.06646  20753566.293    20753566.0794   20753567.5614
        46.500          37.6004
 129454240.480 5                  24634325.125
        34.200
 107327772.883 8  83632063.61245  20423795.987    20423795.6574   20423795.9054
        48.200          34.6004
 116394973.596 7  90697465.77543  22149227.282    22149226.6034   22149241.2894
        44.000          20.9004
 134260862.639 6                  25548984.906
        37.800
 123097967.848 6  95920451.25645  23424740.684    23424739.9064   23424742.3984
        41.300          32.6004
 112751707.636 7  87858500.68146  21455936.271    21455936.1694   21455937.4844
        45.500          39.1004
 138228779.832 5                  26304062.651
        33.200
 117079289.895 7  91230653.20346  22279452.301    22279451.7024   22279454.2644
        44.900          38.3004
 121328324.794 7  94541562.95246  23088015.123    23088014.6904   23088020.7214
        44.700          36.2004
 112967763.548 4  87863833.782 6  21118134.867    21118130.635    21118137.526
        29.000          37.700
 115300831.363 7  89678367.041 6  21531593.155    21531594.872    21531605.993
        42.000          38.200


 104532272.657 8  81302897.800 8  19527490.055    19527491.159    19527494.615
        52.400          48.100
 122873917.606 8                  23382131.684
        48.900
 102519371.952 8  79737281.041 7  19205329.769    19205330.654    19205334.314
        52.400          46.400
 200878378.134 5                  38225892.174
        33.400
 111428611.621 8  86666741.298 7  20823110.568    20823110.918    20823117.462
        48.400          42.500
 115193531.910 7  89594998.531 7  21587215.783    21587214.663    21587220.518
        42.900          42.400
 198898640.851 7                  37849155.286
        42.900
 202020799.727 7                  38443288.749
        44.300
 122046282.849 8                  23224617.075
        48.400
 134701179.807 5                  25632777.459
        35.300
 129151811.927 6                  24576758.278
        37.900
 25  1  1  9  5 45.0000000  0 23G18G08G23G15E29G32G24E33G10G27R19R04
                                R03E26R18S35R17R02S31S33E07E08E13
 109085577.429 7  85001768.70446  20758295.082    20758294.9084   20758295.9004
        46.100          38.1004
 129431695.170 5 100855867.26742  24630035.312    24630035.0134   24630038.0164
        34.000          13.5004
 107324941.839 8  83629857.59445  20423257.126    20423256.8224   20423256.0194
        49.600          34.0004
 116442173.659 7  90734245.13643  22158209.298    22158208.6724   22158230.2924
        43.000          21.0004
 134225160.542 6                  25542191.012
        38.000
 123053707.578 6  95885962.75345  23416318.561    23416317.9314   23416321.2194
        40.800          31.3004
 112736559.612 7  87846697.04746  21453053.697    21453053.5994   21453054.6204
        46.400          40.6004
 138190285.764 6                  26296735.393
        37.100
 117050320.495 7  91208079.67146  22273939.340    22273938.7414   22273943.3654
        47.800          40.8004
 121330550.560 6  94543297.33045  23088438.883    23088438.4814   23088445.2264
        41.600          34.0004
 112920125.409 4  87826781.902 6  21109229.481    21109228.748    21109230.416
        28.300          36.400
 115263783.847 7  89649552.390 6  21524675.905    21524677.017    21524680.304
        44.200          37.000
 104536713.553 8  81306351.854 8  19528319.564    19528319.867    19528324.025
        51.400          48.000
 122863767.651 8                  23380200.305
        48.900
 102520625.800 8  79738256.249 7  19205563.926    19205563.952    19205568.945
        50.200          45.500
 200878380.435 5                  38225881.398
        33.600
 111482980.626 7  86709028.258 7  20833271.863    20833270.762    20833276.850
        47.300          42.400
 115238581.188 7  89630036.872 6  21595658.115    21595657.006    21595661.081
        42.300          41.700
 198898639.258 7                  37849154.428
        43.000
 202020777.578 7                  38443283.405
        44.300
 122045929.361 8                  23224549.990
        49.200
 134735771.438 6                  25639360.120
        36.800
 129180709.969 6                  24582260.000
        36.800
 25  1  1  9  6  0.0000000  0 23G18G08G23G15E29G32G24E33G10G27R19R04
                                R03E26R18S35R17R02S31S33E07E08E13
 109110549.847 8  85021227.72446  20763047.491    20763047.3224   20763048.4384
        48.200          38.9004
 129409272.727 5 100838395.24443  24625769.175    24625768.9884   24625775.3264
        35.600          19.9004
 107322170.155 8  83627697.81845  20422729.588    20422729.2934   20422726.9414
        50.000          33.0004
 116489423.417 7  90771063.25442  22167200.027    22167199.4464   22167223.6694
        44.000          16.9004
 134189512.512 6                  25535406.988
        37.800
 123009507.298 6  95851520.97544  23407905.978    23407905.3124   23407911.5014
        37.100          28.2004
 112721568.391 7  87835015.59846  21450201.129    21450201.0494   21450202.3694
        45.100          40.7004
 138151814.114 6                  26289415.350
        40.500
 117021377.236 8  91185526.51646  22268430.941    22268430.3654   22268436.2984
        48.200          41.2004
 121332920.860 7  94545144.34545  23088889.665    23088889.2814   23088893.6444
        42.200          30.5004
                  87789826.918 5                                  21100346.424
                        33.400
 115226823.794 7  89620805.744 6  21517776.278    21517775.604    21517781.181
        46.100          37.200
 104541259.424 8  81309887.514 8  19529169.500    19529169.909    19529173.700
        51.700          48.000
 122853697.776 8                  23378283.552
        48.400
 102522082.398 8  79739389.153 7  19205836.490    19205836.582    19205841.360
        50.000          44.900
 200878384.790 5                  38225891.249
        32.200
 111537469.898 7  86751408.806 6  20843452.425    20843450.366    20843459.401
        42.400          41.900
 115283654.969 7  89665094.194 7  21604106.799    21604106.950    21604109.193
        47.500          42.700
 198898639.387 7                  37849155.049
        42.800
 202020756.921 7                  38443281.885
        44.100
 122045661.873 8                  23224499.242
        49.300
 134770400.128 6                  25645949.905
        39.100
 129209678.819 6                  24587774.911
        40.300
 25  1  1  9  6 15.0000000  0 23G18G08G23G15E29G32G24E33G10G27R19R04
                                R03E26R18S35R17R02S31S33E07E08E13
 109135641.715 7  85040779.81646  20767822.356    20767822.1464   20767823.3534
        47.600          39.6004
 129386966.679 5 100821013.90643  24621523.631    24621523.4534   24621532.1674
        35.700          21.9004
 107319451.129 8  83625579.08445  20422212.075    20422211.7804   20422208.8734
        49.800          32.9004
 116536715.964 7  90807914.74542  22176198.212    22176197.6804   22176224.0614
        42.400          17.9004
 134153911.993 6                  25528633.114
        40.000
 122965360.304 4  95817120.72844  23399502.978    23399502.3304   23399511.9434
        27.800          24.7004
 112706727.446 7  87823451.26346  21447376.967    21447376.8654   21447378.8034
        44.500          40.4004
 138113358.302 7                  26282098.205
        42.600
 116992453.432 7  91162988.54746  22262927.542    22262927.0064   22262931.8154
        45.900          39.6004
 121335428.895 6  94547098.66244  23089365.128    23089364.6994   23089367.3414
        41.300          28.0004
                  87752963.556 5                                  21091485.367
                        31.300
 115189943.955 7  89592121.499 6  21510891.040    21510887.383    21510895.114
        43.400          38.800
 104545903.186 8  81313499.329 7  19530035.872    19530036.179    19530040.556
        50.600          47.500
 122843701.378 7                  23376381.316
        47.200
 102523734.998 8  79740674.509 7  19206147.762    19206147.789    19206151.494
        51.100          45.500
 200878384.621 5                  38225894.182
        32.000
 111592072.587 7  86793877.493 6  20853655.633    20853657.283    20853662.262
        45.500          41.000
 115328745.820 7  89700164.875 7  21612556.023    21612555.603    21612560.501
        46.000          44.500
 198898634.681 7                  37849154.177
        43.100
 202020730.867 7                  38443273.009
        43.800
 122045473.536 8                  23224463.075
        48.500
 134805058.943 6                  25652545.004
        40.700
 129238711.653 7                  24593299.446
        42.500
 25  1  1  9  6 30.0000000  0 24G18G08G23G15E29G32G24E33G10G27R19R04
                                R12R03E26R18S35R17R02S31S33E07E08E13
 109160858.357 8  85060429.14446  20772621.518    20772621.2954   20772621.7354
        48.400          40.1004
 129364782.443 5 100803727.48443  24617301.768    24617301.4474   24617311.5774
        34.000          19.5004
 107316790.229 8  83623505.66945  20421705.810    20421705.5204   20421703.1104
        50.000          33.9004
 116584056.555 6  90844803.62643  22185205.962    22185205.4754   22185227.4814
        39.500          19.8004
 134118364.397 7                  25521869.188
        42.200
 122921272.266 6  95782766.42744  23391119.164    23391118.4184   23391123.1124
        36.000          25.0004
 112692042.411 7  87812008.44746  21444582.470    21444582.3184   21444584.4234
        43.600          39.3004
 138074923.872 6                  26274783.649
        41.900
 116963554.539 7  91140469.98546  22257428.951    22257428.4514   22257430.8304
        44.300          37.1004
 121338080.040 5  94549164.46944  23089870.341    23089869.8414   23089872.3264
        35.900          27.8004
                  87716196.826 5                                  21082649.964
                        33.400
 115153150.229 7  89563504.136 6  21504017.994    21504015.818    21504025.719
        44.600          38.800
 125536524.427 5                  23500694.652    23500694.098
        30.300
 104550649.970 8  81317191.266 7  19530922.778    19530923.004    19530927.480
        50.900          46.800
 122833784.059 7                  23374494.649
        46.800
 102525589.042 8  79742116.572 7  19206493.962    19206494.555    19206498.653
        50.700          45.400
 200878384.488 5                  38225892.496
        31.400
 111646793.406 7  86836438.135 6  20863880.981    20863884.045    20863888.938
        46.200          41.400
 115373859.372 7  89735253.251 7  21621007.210    21621008.270    21621015.087
        44.500          44.900
 198898630.349 7                  37849154.441
        43.200
 202020706.241 7                  38443269.606
        43.900
 122045369.714 8                  23224443.198
        48.500
 134839753.133 6                  25659146.646
        40.600
 129267813.860 7                  24598836.039
        43.800
 25  1  1  9  6 45.0000000  0 24G18G08G23G15E29G32G24E33G10G27R19R04
                                R12R03E26R18S35R17R02S31S33E07E08E13
 109186200.151 8  85080175.98246  20777443.898    20777443.6754   20777444.0634
        48.800          40.3004
 129342720.726 4 100786536.61642  24613103.324    24613103.1644   24613113.4394
        25.900          12.1004
 107314188.012 8  83621477.98945  20421210.256    20421209.9704   20421209.0224
        49.800          34.6004
 116631445.224 6  90881729.93843  22194224.721    22194224.2304   22194236.6604
        39.400          21.7004
 134082870.352 7                  25515115.201
        42.600
 122877243.821 6  95748458.56344  23382740.734    23382739.8454   23382744.6154
        36.700          26.1004
 112677513.977 6  87800687.64446  21441817.293    21441817.1284   21441819.5394
        40.900          37.0004
