     2.11           OBSERVATION DATA    M (MIXED)           RINEX VERSION / TYPE
teqc  2019Feb25                         20260317 16:18:01UTCPGM / RUN BY / DATE
Linux 2.4.21-27.ELsmp|Opteron|gcc -static|Linux 64|=+       COMMENT
BIT 2 OF LLI FLAGS DATA COLLECTED UNDER A/S CONDITION       COMMENT
-Unknown-                                                   MARKER NAME
-Unknown-           -Unknown-                               OBSERVER / AGENCY
-Unknown-           -Unknown-           -Unknown-           REC # / TYPE / VERS
-Unknown-           -Unknown-                               ANT # / TYPE
        0.0000        0.0000        0.0000                  APPROX POSITION XYZ
        0.0000        0.0000        0.0000                  ANTENNA: DELTA H/E/N
     1     1                                                WAVELENGTH FACT L1/2
     7    L1    L2    C1    P1    P2    S1    S2            # / TYPES OF OBSERV
 SNR is mapped to RINEX snr flag value [0-9]                COMMENT
  L1 & L2: min(max(int(snr_dBHz/6), 0), 9)                  COMMENT
  2025     1     1    11     0    0.0000000     GPS         TIME OF FIRST OBS
    18                                                      LEAP SECONDS
                                                            END OF HEADER
 25  1  1 11  0  0.0000000  0 27G18G08G23G02E29G32G24E33G10G28G27R19
                                R04R03E26S35R05G25S31G21S33E07E19R14
                                E13R20E12




 112994496.358 7  88047663.78144  21502142.457    21502142.2164   21502145.1274
        43.800          29.1004
 132732698.895 5 103428059.07141  25258188.680    25258188.3094   25258190.9554
        31.000           7.3004
 124047764.343 8                  23605498.385
        50.800
 110241426.141 8  85902375.12648  20978216.363    20978216.0244   20978216.2324
        52.300          52.2004


 125910021.799 8                  23959875.957
        51.200
 107662608.907 8  83892984.47448  20487513.002    20487512.4614   20487513.0734
        50.900          48.0004
 120356159.062 6  93783987.93843  22903015.698    22903015.4124   22903015.6684
        36.700          18.4004


 109737885.186 6  85351712.428 6  20514336.671    20514335.858    20514339.426
        36.300          40.300
 106696787.952 8  82986497.521 7  19924843.345    19924846.108    19924850.996
        48.200          46.100
 113934688.529 6  88615815.049 5  21283926.759    21283929.279    21283930.222
        41.000          34.600
 127747270.963 6                  24309497.348
        37.700


 118714484.960 7  92333464.561 6  22207989.709    22207990.205    22207992.336
        45.700          36.300


 198899342.763 7                  37849285.697
        42.800
 123979806.346 6  96607578.66843  23592570.250    23592569.3614   23592572.0124
        41.100          20.3004
 202014975.914 7                  38442179.102
        44.700
 128719031.567 5                  24494394.560
        30.200
 137309921.334 5                  26129208.656
        35.000
 116162551.761 7  90348659.434 7  21791796.577    21791796.371    21791801.621
        45.400          45.200
 147925276.650 4                  28149250.132
        26.900
 116488574.015 5  90602275.440 7  21783965.383    21783963.026    21783963.302
        32.800          42.400
 147665672.977 5                  28099842.279
        34.500
 25  1  1 11  0 15.0000000  0 27G18G08G23G02E29G32G24E33G10G28G27R19
                                R04R03E26R18S35R05G25S31G21S33E07E19
                                R14R20E12


 131983720.889 5 102844463.78142  25115663.887    25115663.1684   25115667.5934
        34.200          16.6004
 113024031.152 7  88070677.89944  21507762.970    21507762.7344   21507764.9414
        45.100          28.2004
 132690236.483 5 103394971.34541  25250109.095    25250108.8414   25250110.3844
        34.200           6.5004
 124038829.075 8                  23603798.058
        50.300
 110230422.814 8  85893801.10448  20976122.120    20976121.7854   20976122.4444
        52.300          52.4004


 125901572.510 8                  23958267.862
        50.900
 107654924.123 8  83886996.34848  20486050.544    20486050.0034   20486050.2264
        51.200          48.8004
 120304252.976 6  93743541.68942  22893137.780    22893137.5974   22893136.8254
        37.800          16.8004


 109775662.291 6  85381094.547 6  20521398.866    20521399.761    20521402.130
        38.300          40.900
 106693708.339 7  82984102.272 7  19924270.018    19924270.226    19924275.055
        46.500          44.100
 113965321.796 6  88639640.797 5  21289647.539    21289647.840    21289650.460
        38.200          33.100
 127779065.743 6                  24315548.694
        36.400
                  94170781.735 6                                  22681760.225
                        37.000


 118680070.117 7  92306697.457 5  22201550.581    22201550.170    22201555.493
        43.900          35.400


 198899350.030 7                  37849286.895
        43.000
 123951794.880 6  96585751.55543  23587239.659    23587238.8104   23587240.2374
        40.200          19.8004
 202014973.820 7                  38442178.758
        45.000


 137279198.455 6                  26123362.410
        36.000
 116113196.204 7  90310271.801 7  21782536.847    21782535.587    21782543.229
        42.600          44.000
 116453937.153 4  90575335.715 7  21777482.438    21777482.129    21777484.359
        28.400          42.900
 147624830.102 5                  28092070.604
        32.100
 25  1  1 11  0 30.0000000  0 27G18G08G23G02E29G32G24E33G10G28G27R19
                                R04R03E26R18S35R05G25S31G21S33E07E19
                                R14R20E12


 132012629.372 5 102866989.96643  25121165.200    25121164.4004   25121167.7604
        34.700          18.9004
 113053644.413 7  88093753.16844  21513397.669    21513397.4014   21513398.8154
        44.100          26.1004
 132647831.893 5 103361928.89441  25242040.948    25242040.7654   25242040.6524
        30.200           6.0004
 124029945.056 8                  23602107.436
        50.000
 110219488.662 8  85885280.99248  20974041.617    20974041.2784   20974041.9234
        52.900          52.5004


 125893227.820 8                  23956680.189
        51.200
 107647319.314 8  83881070.52048  20484602.712    20484602.1714   20484603.3704
        51.200          50.0004
 120252404.231 6  93703140.11242  22883270.254    22883270.1024   22883269.8554
        36.000          16.6004


 109813606.471 6  85410606.632 7  20528491.890    20528492.157    20528496.990
        39.000          42.700
 106690684.036 8  82981749.996 7  19923707.109    19923706.734    19923709.520
        48.000          43.500
 113995981.519 6  88663487.089 6  21295385.472    21295387.633    21295378.631
        37.000          37.000
 127810940.429 6                  24321614.536
        37.900
 121142654.275 5  94221907.939 5  22694101.843                    22694071.434
        31.600          35.500


 118645686.757 7  92279954.788 5  22195120.153    22195119.525    22195119.317
        42.900          30.200


 198899355.498 7                  37849292.292
        43.300
 123923879.176 6  96563999.07142  23581927.793    23581926.9754   23581926.6894
        38.200          16.5004
 202014973.324 7                  38442176.410
        44.000


 137248509.356 5                  26117520.950
        35.600
 116063940.341 6  90271961.699 6  21773294.537    21773293.012    21773300.958
        40.500          40.600
                  90548528.736 7                                  21771038.046
                        42.600
 147584025.055 5                  28084304.318
        31.500
 25  1  1 11  0 45.0000000  0 28G18G08G23G02E29G32G24E33G10G28G27R19
                                R04R03R13E26R18S35R05G25S31G21S33E07
                                E19R14R20E12


 132041602.594 5 102889566.54743  25126679.504    25126678.5074   25126681.2304
        33.900          20.2004
 113083339.324 7  88116892.06044  21519049.433    21519049.1834   21519049.4034
        44.000          26.7004
 132605488.707 5 103328934.11141  25233983.174    25233982.9784   25233982.8604
        32.000           6.8004
 124021115.470 8                  23600427.388
        50.200
 110208626.816 8  85876817.19348  20971974.458    20971974.1144   20971975.3324
        52.900          52.7004


 125884991.057 8                  23955112.366
        50.700
 107639797.894 8  83875209.66248  20483171.632    20483171.1004   20483172.9704
        50.700          51.2004
 120200616.499 6  93662786.12442  22873415.786    22873415.6524   22873414.7434
        38.500          16.4004
 133703847.028 5 104184883.74342  25442997.411    25442997.0854   25443008.4914
        34.600          12.2004
 109851720.284 6  85440250.680 7  20535617.909    20535617.495    20535621.787
        39.500          43.300
 106687717.927 7  82979443.048 7  19923151.530    19923151.958    19923155.160
        45.700          43.500
                  88687356.568 6                                  21301111.220
                        36.300
 116144181.254 4                  21750074.832    21750071.859
        28.800
 127842898.184 6                  24327696.293
        40.100
                  94273060.560 5                                  22706391.622
                        32.400


 118611338.181 6                  22188695.104    22188692.650
        40.600


 198899363.743 7                  37849291.179
        42.600
 123896062.422 6  96542323.72442  23576634.463    23576633.6004   23576632.0824
        39.100          16.5004
 202014973.820 7                  38442180.882
        45.500


 137217857.160 6                  26111688.298
        36.200
 116014787.985 7  90233732.145 6  21764077.590    21764075.419    21764077.843
        44.200          36.600
                  90521857.282 7                                  21764624.831
                        42.600
 147543261.323 5                  28076547.371
        30.200
 25  1  1 11  1  0.0000000  0 28G18G08G23G02E29G32G24E33G10G28G27R19
                                R04R03R13E26R18S35R05G25S31G21S33E07
                                E19R14R20E12


 132070631.900 5 102912186.77242  25132201.069    25132200.3814   25132204.2254
        32.300          16.2004
 113113107.774 7  88140088.26244  21524714.597    21524714.3114   21524714.0054
        45.200          24.9004
 132563199.155 4 103295981.30541  25225932.710    25225932.5184   25225935.0494
        26.100           8.2004
 124012332.077 8                  23598755.845
        50.600
 110197829.143 8  85868403.41748  20969919.459    20969919.1114   20969920.9394
        53.100          52.5004


 125876854.183 8                  23953563.879
        49.600
 107632351.860 8  83869407.54048  20481754.694    20481754.1584   20481756.9014
        51.300          52.6004
 120148881.868 6  93622473.44242  22863571.041    22863570.8724   22863569.3704
        37.300          15.8004
 133743872.015 6 104216072.00042  25450614.024    25450613.6444   25450615.4684
        36.400          12.0004
 109889995.666 6  85470020.400 7  20542772.692    20542772.928    20542777.779
        39.900          43.600
 106684801.951 7  82977175.037 7  19922608.435    19922608.821    19922612.256
        46.500          45.400
 114057290.473 5  88711242.768 5  21306851.236                    21306845.906
        33.900          33.500
 116151768.322 5                  21751497.709    21751496.147
        33.100
 127874930.703 6                  24333792.097
        40.900
                  94324232.804 5                  22718707.885    22718715.328
                        30.800






 198899366.870 7                  37849290.906
        42.500
 123868336.604 6  96520719.27443  23571357.360    23571356.4974   23571355.7284
        38.000          18.4004
 202014968.613 7                  38442178.928
        45.400
 128818021.693 6                  24513253.027
        38.100
 137187233.848 5                  26105860.007
        34.300
 115965731.624 7  90195577.248 5  21754874.058    21754874.362    21754873.942
        46.000          35.300
                  90495315.656 7                                  21758244.774
                        44.600
 147502530.990 4                  28068795.581
        29.500
 25  1  1 11  1 15.0000000  0 25G18G08G23G02E29G32G24E33G10G28G27R19
                                R04R03E26S35G25S31G21S33E07E19R14R20
                                E12


 132099722.713 5 102934854.86742  25137741.704    25137741.0074   25137739.4014
        33.100          17.0004
 113142955.330 7  88163346.07643  21530393.300    21530392.9874   21530390.8694
        45.100          21.1004
 132520968.673 5 103263074.56441  25217899.369    25217899.0974   25217898.6174
        31.300           7.0004
 124003600.399 8                  23597094.295
        50.900
 110187101.077 8  85860043.87348  20967877.979    20967877.6314   20967879.2274
        52.700          51.6004


 125868822.899 8                  23952035.336
        48.500
 107624986.978 8  83863668.63649  20480353.148    20480352.5984   20480356.4294
        50.900          54.0004
 120097206.224 5  93582206.74742  22853739.139    22853738.9034   22853735.5394
        35.500          14.3004
 133783897.519 5 104247260.68441  25458237.264    25458236.5094   25458226.3224
        35.800          10.4004
 109928437.367 6  85499919.437 7  20549959.195    20549958.213    20549962.804
        38.500          42.000
 106681941.603 7  82974950.315 7  19922074.427    19922075.571    19922079.019
        47.800          46.600
 114088028.239 6  88735149.899 5  21312582.173    21312582.524    21312592.683
        38.300          32.200
 127907043.389 6                  24339902.949
        41.200




 198899369.324 7                  37849293.933
        42.600
 123840707.552 6  96499190.18043  23566100.456    23566099.6074   23566097.7844
        39.300          19.2004
 202014964.711 7                  38442175.851
        44.600
 128842848.974 6                  24517976.236
        36.800
 137156645.007 5                  26100041.416
        33.600
 115916777.150 7  90157501.648 6  21745689.175    21745687.906    21745691.908
        45.700          36.600
                  90468908.224 7                                  21751894.623
                        44.400
 147461839.750 5                  28061053.691
        31.500
 25  1  1 11  1 30.0000000  0 25G08G23G02E29G32G24E33G10G28G27R19R04
                                R03E26R18S35R05G25S31G21S33E07E19R14
                                E12
 132128880.236 5 102957574.97442  25143293.893    25143293.3434   25143287.6114
        32.100          17.2004
 113172887.620 7  88186669.91743  21536089.467    21536089.2044   21536085.0154
        44.300          20.5004
 132478803.500 6 103230218.69841  25209875.476    25209874.9674   25209874.6044
        36.100           9.4004
 123994926.036 8                  23595443.716
        50.700
 110176448.262 8  85851742.99448  20965850.893    20965850.5454   20965851.3694
        52.900          51.1004


 125860902.953 7                  23950528.067
        47.800
 107617709.141 8  83857997.58849  20478968.732    20478968.1874   20478972.1264
        51.600          54.4004
 120045595.562 6  93541990.68542  22843917.186    22843916.8024   22843913.6244
        39.600          14.4004
 133823928.871 5 104278453.92041  25465845.909    25465845.2924   25465843.6644
        34.200          10.4004
 109967050.890 6  85529952.094 6  20557176.092    20557176.203    20557179.686
        38.200          40.600
 106679142.606 8  82972773.300 7  19921551.157    19921551.931    19921556.443
        48.600          47.100
 114118799.005 6  88759082.745 5  21318335.185    21318334.998    21318340.162
        41.800          32.000
 127939241.754 7                  24346029.840
        42.000
                                                  22743384.042



 118508474.018 7  92173363.747 5  22169453.345    22169454.334    22169486.832
        45.200          33.100


 198899377.824 7                  37849295.879
        42.800
 123813181.069 6  96477741.00243  23560862.115    23560861.2614   23560858.7964
        39.400          18.7004
 202014964.754 7                  38442179.295
        45.200
 128867705.541 5                  24522704.595
        34.500
 137126096.164 5                  26094227.435
        32.800
 115867931.460 7  90119510.578 6  21736526.406    21736525.404    21736530.725
        46.800          38.900
 147421193.557 5                  28053318.971
        33.500
 25  1  1 11  1 45.0000000  0 29G08G23G02E29G32G24E33G10G28G27R19R04
                                R12R03E26R18S35R05G25S31G21S33E07E19
                                R14E13R20E12E30


 113202895.019 7  88210052.25243  21541799.676    21541799.4264   21541796.5924
        44.500          20.0004
 132436694.311 6 103197406.31142  25201860.964    25201860.3214   25201861.1384
        37.400          14.0004
 123986299.307 8                  23593802.270
        51.200
 110165861.008 8  85843493.19748  20963836.420    20963836.0764   20963836.0984
        52.400          51.3004


 125853084.803 7                  23949040.243
        47.600
 107610508.884 8  83852387.00448  20477598.492    20477597.9424   20477601.7224
        51.600          53.7004
 119994040.576 6  93501818.03842  22834106.407    22834105.9254   22834102.6344
        39.200          14.8004
 133863956.021 5 104309643.91742  25473462.899    25473462.2654   25473461.5964
        32.200          12.4004
 110005825.502 6  85560110.079 6  20564426.274    20564426.331    20564430.225
        39.300          41.700
 106676395.322 7  82970636.537 7  19921037.440    19921037.699    19921043.508
        47.100          47.700
 129548301.627 5                  24251714.543    24251714.825
        34.200
 114149593.004 6                  21324088.115    21324086.194
        39.900
 127971516.060 7                  24352171.875
        42.000
 121471390.685 7  94477894.789 6  22755725.414    22755727.768    22755734.487
        43.000          36.100


 118474249.940 7                  22163047.280    22163048.570
        44.200


 198899382.189 7                  37849298.074
        42.400
 123785747.612 6  96456364.30143  23555641.811    23555640.9574   23555638.1184
        38.600          20.0004
 202014962.296 7                  38442176.585
        45.000
 128892581.661 5                  24527441.181
        35.600
 137095577.928 5                  26088421.427
        35.200
 115819184.762 7  90081596.461 6  21727380.493    21727380.028    21727387.308
        46.500          38.900


 116249738.795 5  90416503.068 7  21739287.372    21739288.191    21739293.059
        33.000          44.400
 147380582.995 5                  28045590.847
        34.900
 147231454.925 5                  28017213.479
        34.100
 25  1  1 11  2  0.0000000  0 30G08G23G02E29G32G24E33G10G28G27R19R04
                                R12R03R13E26R18S35R05G25S31G21S33E07
                                E19R14E13R20E12E30


 113232984.506 7  88233498.50943  21547525.259    21547525.0054   21547522.1964
        44.800          20.2004
 132394648.366 6 103164643.27643  25193861.310    25193860.6534   25193859.6134
        39.800          18.4004
 123977727.141 8                  23592171.019
        51.200
 110155346.269 8  85835299.91248  20961835.734    20961835.3864   20961835.2484
        53.200          52.6004


 125845375.582 7                  23947573.390
        47.600
 107603393.363 8  83846842.44848  20476244.491    20476243.9414   20476246.6194
        50.800          52.5004
 119942548.624 6  93461694.47843  22824307.694    22824307.2794   22824303.4094
        41.500          18.9004
 133903985.654 5 104340835.89841  25481081.323    25481080.7604   25481080.2174
        30.400          11.3004
 110044768.268 6  85590398.867 7  20571706.332    20571705.846    20571709.790
        38.800          42.000
 106673706.505 8  82968545.213 8  19920537.764    19920537.185    19920541.903
        49.500          48.600
 129594048.516 5                  24260280.279    24260280.773
        31.100
 114180416.814 6                  21329841.022    21329843.663
        38.600
 116184151.125 6                  21757559.743
        36.000
 128003873.120 6                  24358330.876
        40.700
 121537306.543 7  94529162.636 6  22768074.677    22768075.770    22768084.836
        44.100          37.700






 198899389.570 7                  37849299.505
        42.700
 123758414.665 6  96435065.92243  23550441.527    23550440.6564   23550436.7984
        38.200          20.2004
 202014962.491 7                  38442174.899
        44.700
 128917484.198 5                  24532180.647
        34.900
 137065097.113 6                  26082619.787
        36.000
 115770545.002 7  90043765.581 6  21718257.089    21718255.995    21718260.762
        47.000          38.000


 116216311.159 5  90390503.795 7  21733034.687    21733037.497    21733041.484
        33.600          44.400
 147340015.341 6                  28037871.759
        36.600
 147204851.794 4                  28012146.652
        24.300
 25  1  1 11  2 15.0000000  0 29G08G23G02E29G32G24E33G10G28G27R19R04
                                R12R03R13E26R18S35R05G25S31G21S33E07
                                E19R14E13R20E12


 113263151.399 6  88257005.12043  21553265.474    21553265.2644   21553262.2434
        41.900          19.7004
 132352661.146 6 103131925.96543  25185871.567    25185870.9504   25185868.9664
        41.600          20.6004
 123969204.778 8                  23590549.284
        51.400
 110144899.248 8  85827159.37348  20959847.729    20959847.3724   20959847.9114
        53.700          53.5004


 125837770.682 8                  23946126.127
        48.100
 107596358.051 8  83841360.39448  20474906.379    20474905.8344   20474906.2954
        50.600          50.9004
 119891115.240 6  93421616.56443  22814520.912    22814520.4654   22814517.8804
        41.100          20.5004


 110083873.987 6  85620814.396 6  20579016.133    20579015.304    20579019.962
        37.000          41.900
 106671071.480 8  82966495.693 8  19920044.174    19920046.148    19920049.372
        49.400          48.700
 129639912.618 4                  24268877.388    24268875.330
        27.700
 114211265.560 6  88830983.627 5  21335607.818    21335607.642    21335623.118
        39.100          32.100
 116192721.476 6                  21759155.018    21759154.713
        36.100
 128036308.106 7                  24364503.354
        42.000
 121603248.858 7  94580451.091 6  22780427.838    22780429.602    22780434.425
        44.500          37.000


 118405902.628 6  92093507.393 5  22150266.573    22150264.313    22150280.260
        38.600          33.200


 198899395.840 7                  37849298.338
        42.700
 123731177.854 6  96413842.44643  23545258.091    23545257.2644   23545255.3644
        40.100          21.8004
 202014960.354 7                  38442177.358
        44.400
 128942408.332 6                  24536923.445
        37.700
 137034649.036 6                  26076826.260
        36.600
 115722007.924 7  90006014.551 6  21709150.437    21709150.443    21709152.581
        45.600          36.800


 116183056.328 5  90364638.940 7  21726816.160    21726816.639    21726823.139
        31.500          45.100
 147299486.029 6                  28030159.383
        37.100
 25  1  1 11  2 30.0000000  0 29G08G23G02E29G32G24E33G10G28G27R19R04
                                R12R03R13E26R18S35R05G25S31G21S33E07
                                E19R14E13R20E12


 113293397.942 6  88280573.80443  21559021.624    21559021.4464   21559017.9464
        38.800          18.0004
 132310735.212 7 103099256.37343  25177893.609    25177893.0014   25177890.1164
        42.700          22.5004
 123960734.485 8                  23588937.489
        50.800
 110134522.244 8  85819073.38549  20957873.287    20957872.9304   20957873.9404
        53.800          54.7004
 122499387.238 6  95454060.68943  23310856.892    23310857.1284   23310857.1484
        38.200          22.2004
 125830272.533 8                  23944699.637
        48.000
 107589405.439 8  83835942.79348  20473583.314    20473582.7824   20473582.3414
        52.000          50.6004
 119839743.137 6  93381586.34543  22804746.473    22804746.0264   22804744.9164
        41.200          23.0004


 110123144.182 5  85651357.894 7  20586357.664    20586355.915    20586361.522
        35.200          42.400
 106668492.582 7  82964489.896 8  19919561.386    19919562.153    19919567.081
        46.500          48.500
 129685896.419 4                  24277466.977    24277468.608
        24.900
 114242142.154 6  88854998.679 4  21341374.050    21341373.755    21341391.900
        40.300          29.100
 116201488.191 6                  21760796.019    21760796.116
        39.600
 128068823.134 7                  24370689.839
        43.200
 121669219.603 7  94631761.691 6  22792786.688    22792787.025    22792791.772
        44.200          36.600


 118371776.734 7                  22143881.366    22143881.608
        42.700


 198899401.898 6                  37849297.994
        41.900
 123704039.560 6  96392695.76843  23540093.390    23540092.5774   23540092.9164
        39.400          22.9004
 202014959.640 7                  38442174.644
        43.700
 128967356.300 7                  24541671.077
        42.200
 137004236.191 5                  26071037.502
        34.200
 115673576.416 7  89968345.664 6  21700066.118    21700066.418    21700068.301
        46.300          36.600


 116149976.542 5  90338910.192 7  21720630.342    21720630.542    21720637.253
        31.200          44.800
 147258997.768 6                  28022454.606
        36.300
 25  1  1 11  2 45.0000000  0 28G08G23G02E29G32G24E33G10G28G27R19R04
                                R03R13E26R18S35R05G25S31G21S33E07E19
                                R14E13R20E12


 113323723.511 5  88304204.11842  21564791.703    21564791.4444   21564788.9464
        35.600          16.4004
 132268870.520 7 103066634.52343  25169927.210    25169926.6204   25169923.6974
        43.300          22.5004
 123952315.648 8                  23587334.951
        51.000
 110124214.643 9  85811041.49449  20955911.846    20955911.4894   20955912.7454
        54.300          54.5004
 122549499.428 6  95493109.06444  23320388.379    23320388.3444   23320394.8954
        38.600          24.8004
 125822880.664 8                  23943293.043
        48.000
 107582535.202 8  83830589.37448  20472274.953    20472274.4214   20472274.9954
        52.200          50.7004
 119788431.948 6  93341603.54743  22794982.955    22794982.4994   22794982.4974
        40.600          22.6004


 110162578.255 5  85682028.799 7  20593728.699    20593726.674    20593734.047
        35.200          42.500
 106665969.208 7  82962527.275 8  19919090.463    19919089.404    19919096.331
        44.800          48.600
 114273045.624 6                  21347145.712    21347146.262
        41.100
 116210451.026 6                  21762473.456    21762474.150
        39.200
 128101417.572 7                  24376891.670
        42.000
 121735217.606 6  94683093.498 6  22805149.367    22805149.098    22805154.511
        41.400          37.400






 198899408.689 7                  37849300.900
        42.000
 123676999.143 6  96371625.32043  23534947.736    23534946.9144   23534948.2344
        39.800          23.1004
 202014959.409 7                  38442174.689
        44.300
 128992327.498 7                  24546422.907
        43.900
 136973857.880 5                  26065260.465
        31.900
 115625250.583 7  89930758.882 6  21690999.688    21690999.542    21691003.674
        46.300          38.400


 116117071.932 5  90313317.727 7  21714476.873    21714477.022    21714483.102
        31.300          44.400
 147218550.219 5                  28014757.831
        35.800
 25  1  1 11  3  0.0000000  0 28G08G23G02E29G32G24E33G10G28G27R19R04
                                R03R13E26R18S35R05G25S31G21S33E07E19
                                R14E13R20E12


 113354125.726 5  88327894.15242  21570578.227    21570577.8704   21570574.8594
        30.800          14.0004
 132227064.729 7 103034058.63243  25161972.276    25161971.7134   25161968.5824
        42.200          22.2004
 123943945.700 8                  23585742.204
        50.600
 110113973.850 8  85803061.64249  20953962.723    20953962.3664   20953963.9134
        53.900          54.3004
 122599684.842 6  95532214.50144  23329939.440    23329939.2354   23329947.2694
        38.500          26.5004
 125815592.751 7                  23941906.382
        47.800
 107575745.061 8  83825298.38248  20470983.277    20470982.7634   20470983.8144
        52.500          51.7004
 119737179.662 6  93301666.66443  22785228.723    22785228.2724   22785231.5164
        41.500          23.4004


 110202172.965 6  85712824.629 7  20601130.948    20601130.102    20601134.707
        38.100          42.100
 106663498.731 7  82960605.812 8  19918630.427    19918628.630    19918634.810
        46.400          48.800
 114303973.377 5                  21352921.157    21352919.663
        33.300
 116219607.329 5                  21764188.502    21764188.356
        35.300
 128134088.764 6                  24383107.987
        41.400
 121801239.860 6  94734444.152 5  22817517.956    22817514.941    22817520.752
        37.500          35.500


 118303618.547 6                  22131125.179    22131127.575
        41.900


 198899412.996 7                  37849305.412
        42.200
 123650054.721 6  96350629.69444  23529821.254    23529820.4234   23529821.4694
        41.300          24.2004
 202014956.103 7                  38442171.934
        43.600
 129017319.335 7                  24551178.611
        43.800
 136943511.696 4                  26059485.540
        27.400
 115577028.474 7  89893252.866 6  21681952.447    21681951.008    21681958.807
        44.000          40.300


 116084339.905 5  90287859.439 7  21708361.468    21708359.104    21708361.008
        33.200          43.400
 147178141.051 5                  28007067.661
        34.200
 25  1  1 11  3 15.0000000  0 28G08G23G02E29G32G24E33G10G28G27R19R04
                                R03R13E26R18S35R05G25S31G21S33E07E19
                                R14E13R20E12


 113384604.647 5  88351643.97542  21576374.406    21576373.8654   21576375.2834
        33.700          14.6004
 132185318.408 6 103001529.04543  25154028.829    25154028.2084   25154025.4874
        38.900          20.3004
 123935624.728 8                  23584158.836
        50.400
 110103799.974 8  85795133.93348  20952026.486    20952026.1294   20952027.4644
        52.700          53.3004
 122649943.291 6  95571376.83344  23339501.911    23339501.7774   23339512.3384
        36.700          24.6004
 125808408.965 8                  23940539.762
        48.800
 107569035.237 8  83820069.95048  20469706.193    20469705.6844   20469708.1324
        52.200          52.5004
 119685986.771 7  93261776.13743  22775486.220    22775485.8314   22775491.2264
        43.000          23.6004


 110241928.054 6  85743745.193 6  20608562.821    20608563.513    20608566.696
        39.000          41.500
 106661081.260 8  82958725.523 8  19918179.838    19918178.655    19918184.428
        49.100          49.300
                                                  21358705.576

 116228957.267 6                  21765946.518    21765945.999
        37.700
 128166836.655 6                  24389339.175
        41.600
 121867285.830 5  94785813.245 5  22829887.791    22829884.880    22829892.748
        35.700          35.600


 118269584.055 6                  22124759.859    22124758.804
        36.200


 198899415.012 7                  37849301.580
        42.500
 123623206.559 6  96329709.08244  23524711.005    23524710.1834   23524712.1264
        40.000          24.6004
 202014951.151 7                  38442172.636
        44.000
 129042331.820 7                  24555938.820
        42.900


 115528910.543 7  89855827.837 7  21672928.145    21672927.426    21672933.445
        46.200          42.400


 116051781.287 5  90262536.118 7  21702268.975    21702266.796    21702273.488
        31.300          44.000
 147137770.607 5                  27999384.664
        33.000
 25  1  1 11  3 30.0000000  0 28G18G08G23G02E29G32G24E33G10G28G27R19
                                R04R13E26R18S35R05G25S31G21S33E07E19
                                R14E13R20E12




 113415167.669 6  88375459.33643  21582192.090    21582191.6664   21582192.7204
        39.300          21.3004
 132143639.029 5 102969051.65443  25146096.571    25146095.9284   25146095.3374
        35.600          19.8004
 123927360.044 8                  23582586.177
        50.400
 110093700.344 8  85787264.07948  20950104.439    20950104.0864   20950105.0914
        52.400          52.4004
 122700281.985 5  95610601.75543  23349081.896    23349081.7764   23349091.6324
        35.400          21.5004
 125801336.788 8                  23939193.131
        49.300
 107562413.357 8  83814910.02748  20468446.298    20468445.7894   20468448.4134
        51.200          52.3004
 119634860.818 6  93221937.77643  22765756.841    22765756.4574   22765760.3364
        41.700          20.8004


 110281850.517 6  85774795.989 7  20616025.934    20616026.092    20616030.796
        38.000          42.900
 106658724.272 8  82956892.318 8  19917739.242    19917739.112    19917742.927
        50.000          48.500
 116238507.665 5                  21767731.706    21767733.454
        33.800
 128199668.471 6                  24395587.553
        41.100
 121933362.705 6  94837206.327 5  22842265.649    22842268.413    22842271.416
        38.800          35.400


 118235586.715 6  91960996.051 6  22118405.277    22118403.215    22118407.201
        39.800          36.000


 198899422.559 7                  37849301.093
        42.100
 123596462.160 6  96308869.31543  23519623.180    23519622.3534   23519621.9184
        39.900          23.8004
 202014951.927 7                  38442174.161
        44.200
 129067372.218 7                  24560703.760
        42.400


 115480905.094 7  89818490.321 7  21663922.226    21663920.536    21663926.372
        44.600          42.200


 116019403.851 5  90237353.668 7  21696211.268    21696211.682    21696219.918
        31.500          45.000
 147097446.562 5                  27991710.860
        30.700
 25  1  1 11  3 45.0000000  0 28G18G08G23G02E29G32G24E33G10G28G27R19
                                R04R13E26R18S35R05G25S31G21S33E07E19
                                R14E13R20E12
 131252396.943 5                  24976501.399
        34.200


 113445804.930 6  88399332.52744  21588022.371    21588021.9154   21588024.2444
        41.200          24.5004
 132102016.997 6 102936618.93143  25138175.901    25138175.2674   25138175.9234
        37.400          19.7004
 123919141.733 8                  23581022.044
        50.800
 110083665.030 8  85779444.35248  20948194.407    20948194.0594   20948195.2884
        53.600          52.2004
 122750690.790 5  95649881.36243  23358678.549    23358678.4604   23358685.2834
        32.100          19.4004
 125794366.480 8                  23937866.586
        49.200
 107555869.727 8  83809811.08448  20467201.588    20467201.0704   20467202.8344
        50.100          51.5004
 119583792.311 6  93182144.23042  22756038.874    22756038.5704   22756037.6384
        40.400          16.2004


 110321929.831 6  85805968.785 7  20623518.261    20623517.996    20623523.187
        37.700          42.900
 106656417.745 8  82955098.388 8  19917307.996    19917307.985    19917312.422
        50.100          48.600
 116248249.299 4                  21769573.476
        24.100
 128232574.243 7                  24401850.167
        43.200
 121999459.744 6  94888615.109 6  22854648.182    22854648.100    22854654.550
        37.900          36.600


 118201616.511 6  91934574.752 6  22112047.278    22112048.784    22112051.769
        38.000          36.700


 198899424.944 7                  37849304.563
        43.000
 123569811.985 6  96288102.98544  23514551.606    23514550.7484   23514549.7024
        41.100          24.9004
 202014946.522 7                  38442174.362
        44.100
 129092430.584 7                  24565471.650
        42.400


 115433002.605 6  89781232.893 7  21654935.537    21654936.568    21654938.799
        37.800          42.100


 115987198.278 5  90212304.994 7  21690189.798    21690188.988    21690197.984
        32.200          45.500
 147057159.331 4                  27984045.841
        28.900
 25  1  1 11  4  0.0000000  0 28G18G08G23G02E29G32G24E33G10G28G27R19
                                R04R03E26R18S35R05G25S31G21S33E07E19
                                R14E13R20E12
 131311288.500 5                  24987707.833
        34.700


 113476522.788 6  88423268.52144  21593868.943    21593868.4654   21593870.5774
        41.300          25.7004
 132060459.094 6 102904236.15443  25130267.212    25130266.5284   25130268.9504
        40.500          20.7004
 123910976.120 8                  23579468.009
        50.400
 110073700.327 8  85771679.65448  20946298.195    20946297.8604   20946299.0024
        53.900          52.2004
 122801175.664 5  95689220.13343  23368292.504    23368292.4784   23368292.7924
        31.300          19.7004
 125787504.530 7                  23936560.379
        47.800
 107549410.897 8  83804778.21648  20465972.014    20465971.4964   20465973.3084
        49.200          50.4004
 119532787.963 6  93142400.63542  22746333.084    22746332.7894   22746329.1644
        41.300          15.5004


 110362172.137 6  85837268.326 7  20631040.933    20631039.936    20631045.878
        36.000          42.600
 106654167.901 8  82953348.491 8  19916887.591    19916888.185    19916892.791
        50.200          48.600
                                                  21376101.856

 128265560.162 7                  24408127.187
        44.800
 122065583.014 6  94940044.342 6  22867035.151    22867035.160    22867043.239
        38.000          38.300


 118167679.865 6  91908179.442 5  22105704.228    22105706.204    22105700.339
        37.700          35.300


 198899429.404 7                  37849305.144
        43.100
 123543262.486 6  96267415.08044  23509499.359    23509498.4834   23509497.3414
        41.900          25.1004
 202014943.870 7                  38442172.659
        43.800
 129117513.215 7                  24570244.249
        42.300


 115385209.825 6  89744060.980 6  21645985.923    21645982.318    21645974.086
        38.100          41.900


 115955171.382 5  90187395.208 7  21684200.288    21684200.922    21684208.013
        33.600          45.000
 147016915.310 5                  27976388.360
        30.700
 25  1  1 11  4 15.0000000  0 28G18G08G23G02E29G32G24E33G10G28G27R19
                                R04E26R18S35R05G12G25S31G21S33E07E19
                                R14E13R20E12
 131370186.646 5                  24998915.837
        34.300


 113507324.781 6  88447270.06744  21599732.450    21599731.9414   21599732.4774
        40.600          26.7004
 132018969.217 6 102871906.38243  25122371.233    25122370.5454   25122373.6434
        40.700          20.8004
 123902866.686 8                  23577924.977
        49.800
 110063809.776 9  85763972.74548  20944416.474    20944416.1394   20944416.5974
        54.300          52.0004


 125780754.614 7                  23935276.255
        47.700
 107543040.615 8  83799814.35448  20464759.139    20464758.6074   20464760.9574
        48.700          49.2004
 119481851.653 6  93102710.04942  22736639.409    22736639.1374   22736635.5584
        39.100          17.4004


 110402580.602 5  85868697.041 7  20638596.216    20638593.893    20638598.856
        35.100          42.400
 106651978.600 8  82951645.691 8  19916478.154    19916479.211    19916484.045
        49.800          48.400
 128298629.609 7                  24414420.482
        45.400
 122131735.805 6  94991496.473 6  22879429.798    22879430.494    22879437.892
        41.700          39.800


 118133780.265 6  91881813.198 5  22099382.920    22099366.878    22099360.942
        37.600          35.800
 129538481.310 5                  24650348.876
        35.300


 198899438.867 7                  37849306.150
        42.400
 123516817.436 7  96246808.57644  23504466.501    23504465.6074   23504465.0184
        42.100          25.0004
 202014946.975 7                  38442173.727
        43.900
 129142623.575 7                  24575022.759
        42.100


 115337531.372 5  89706977.902 6  21637034.816    21637030.572    21637028.498
        30.800          41.100


 115923326.537 5  90162626.983 7  21678246.153    21678247.037    21678252.961
        34.000          44.200
 146976718.651 5                  27968738.382
        32.900
 25  1  1 11  4 30.0000000  0 28G18G08G23G02E29G32G24E33G10G28G27R19
                                R04R03E26R18S35R05G12G25S31G21S33E07
                                E19R14R20E12
 131429081.156 4                  25010121.973
        28.900


 113538201.086 6  88471329.48444  21605608.511    21605608.0114   21605609.1554
        41.800          27.8004
 131977537.945 6 102839622.35443  25114487.240    25114486.5434   25114489.0284
        41.600          21.3004
 123894803.540 8                  23576390.784
        49.900
 110053983.446 8  85756315.88248  20942546.595    20942546.2604   20942546.5424
        53.900          51.6004


 125774106.944 7                  23934011.499
        47.600
 107536749.228 8  83794911.98147  20463561.718    20463561.1864   20463563.5464
        48.900          47.9004
 119430973.881 6  93063065.09942  22726958.461    22726958.2294   22726954.4284
        37.400          17.0004


 110443144.417 5  85900246.656 7  20646174.242    20646173.897    20646181.793
        31.000          42.300
 106649839.607 8  82949982.027 8  19916078.425    19916078.911    19916084.483
        48.500          48.300
                  89047822.503 5                                  21387701.450
                        33.000
 128331772.667 7                  24420727.417
        44.600
 122197907.366 6  95042963.237 6  22891824.579    22891826.077    22891834.299
        41.500          39.400


                  91855468.034 5                                  22093022.676
                        35.300
 129510618.504 5 100917347.75841  24645042.009    24645041.6294   24645047.0564
        31.300          10.1004


 198899444.294 7                  37849308.980
        42.600
 123490467.141 6  96226275.88843  23499452.309    23499451.4064   23499450.8134
        40.300          23.6004
 202014945.813 7                  38442172.158
        43.500
 129167751.737 6                  24579803.663
        38.700


 115289957.659 6  89669976.198 6  21628106.650    21628106.725    21628103.846
        38.400          40.100
 115891654.636 5  90137993.287 7  21672323.248    21672322.974    21672329.800
        33.700          43.300
 146936559.430 5                  27961095.787
        33.800
 25  1  1 11  4 45.0000000  0 27G08G23G02E29G32G24E33G10G28G27R19R04
                                R03E26R18S35R05G12G25S31G21S33E07E19
                                R14R20E12


 113569158.756 7  88495452.31944  21611497.952    21611497.4964   21611500.8884
        42.300          28.4004
 131936172.387 6 102807389.48043  25106615.686    25106614.9674   25106616.2624
        41.800          20.9004
 123886793.755 8                  23574866.362
        50.500
 110044228.442 9  85748714.60148  20940690.592    20940690.2534   20940690.6584
        54.100          51.7004


 125767568.791 8                  23932767.441
        48.800
 107530544.098 8  83790076.80847  20462380.667    20462380.1354   20462382.3624
        48.500          46.9004
 119380162.135 6  93023471.61942  22717291.255    22717291.0274   22717285.7614
        38.500          16.9004


 110483870.788 5  85931922.693 7  20653791.877    20653789.499    20653796.005
        33.400          42.100
 106647758.165 8  82948363.109 8  19915690.459    19915690.707    19915696.136
        49.300          48.400
                  89072025.440 5                                  21393513.200
                        34.500
 128364996.258 7                  24427049.682
        44.900
 122264104.502 6  95094449.957 6  22904225.984    22904227.058    22904233.661
        41.500          37.000


 118066069.984 7  91829149.829 6  22086697.963    22086698.543    22086693.815
        43.000          37.200
 129482845.491 4 100895706.51841  24639757.766    24639757.6684   24639766.4674
        24.500           6.5004


 198899451.691 7                  37849309.159
        42.400
 123464218.981 6  96205822.78643  23494457.821    23494456.9094   23494456.6104
        38.700          21.9004
 202014945.367 7                  38442170.843
        44.000
 129192904.701 6                  24584593.078
        37.800
 136732060.942 5                  26019246.594
        34.600
 115242496.588 6  89633062.090 6  21619200.085    21619198.511    21619198.171
        40.100          37.600
 115860163.345 6  90113500.063 7  21666435.578    21666436.964    21666441.322
        37.900          44.100
 146896445.378 6                  27953462.586
        36.100
 25  1  1 11  5  0.0000000  0 28G18G08G23G02E29G32G24E33G10G28G27R19
                                R04R03E26R18S35R05G12G25S31G21S33E07
                                E19R14R20E12




 113600196.192 7  88519637.32044  21617403.859    21617403.4484   21617406.0554
        44.900          28.2004
 131894871.327 6 102775206.80643  25098756.717    25098755.9304   25098756.1164
        40.300          19.7004
 123878835.637 8                  23573352.159
        51.200
 110034543.061 8  85741167.56148  20938847.797    20938847.4534   20938848.1354
        53.100          52.1004


 125761138.599 8                  23931543.642
        49.500
 107524423.691 8  83785307.68047  20461216.340    20461215.8174   20461217.2414
        49.300          46.7004




 110524757.400 5  85963723.378 7  20661433.292    20661433.805    20661439.667
        35.800          42.500
 106645732.532 8  82946787.630 7  19915312.001    19915311.956    19915316.871
        49.200          47.300
                  89096249.926 5                                  21399331.268
                        34.500
 128398298.631 7                  24433386.354
        43.800
 122330324.964 7  95145954.781 5  22916631.497    22916632.162    22916636.466
        42.600          33.400


 118032264.578 6  91802856.711 6  22080367.438    22080366.198    22080370.963
        39.000          39.500
 129455161.028 4 100874134.3134   24634488.914    24634488.4764   24634502.0354
        29.200           2.6004


 198899460.791 7                  37849311.154
        42.500
 123438071.705 6  96185448.28343  23489482.883    23489481.9444   23489481.6974
        36.000          21.6004
 202014947.177 7                  38442176.120
        44.700
 129218080.709 6                  24589383.415
        39.600
 136701994.530 5                  26013524.279
        33.000
 115195146.913 7  89596234.671 6  21610314.354    21610314.117    21610316.635
        43.100          37.300
 115828851.080 6  90089146.112 7  21660578.492    21660578.494    21660585.925
        36.700          42.200
 146856374.715 6                  27945837.170
        36.700
 25  1  1 11  5 15.0000000  0 30G18G08G23G02E29G32G24E33G10G28G27R19
                                R04R03R13E26R18S35R05G12G25S31G31G21
                                S33E07E19R14R20E12




 113631305.585 7  88543878.39744  21623323.289    21623322.9004   21623324.3554
        42.600          26.4004
 131853627.487 6 102743068.79242  25090909.479    25090908.6214   25090906.2764
        39.500          17.4004
 123870921.338 8                  23571846.229
        51.600
 110024919.439 8  85733668.63448  20937015.808    20937015.4464   20937017.5464
        53.300          52.2004


 125754808.689 8                  23930339.301
        49.000
 107518380.480 8  83780598.68947  20460066.339    20460065.8164   20460067.0644
        49.700          46.7004




 110565795.822 5  85995642.130 7  20669106.975    20669105.339    20669111.536
        35.200          42.300
 106643754.858 8  82945249.442 7  19914943.323    19914943.624    19914946.987
        50.700          46.600
 114583672.335 6  89120489.566 5  21405152.839    21405165.359    21405155.574
        38.900          34.900
 116310777.505 5                  21781272.476    21781270.576
        34.600
 128431671.836 6                  24439737.284
        39.900
 122396560.414 7  95197471.171 5  22929040.217    22929041.098    22929043.649
        44.300          33.300


                  91776582.923 6                  22074043.570    22074052.014
                        39.400
 129427557.574 4                  24629237.550
        28.600


 198899462.188 7                  37849312.200
        42.300
 131774194.066 5                  25075795.870
        33.500
 123412017.627 6  96165146.41943  23484524.987    23484524.0174   23484523.7054
        38.100          21.4004
 202014942.330 7                  38442172.118
        43.500
 129243272.001 6                  24594177.661
        40.500
 136671955.884 5                  26007808.441
        30.100
 115147901.248 7  89559488.039 6  21601449.655    21601450.932    21601455.117
        44.400          38.200
 115797710.566 6  90064925.740 6  21654753.733    21654755.073    21654762.638
        36.400          41.100
 146816340.048 5                  27938218.850
        35.800
 25  1  1 11  5 30.0000000  0 30G18G08G23G02E29G32G24E33G10G28G27R19
                                R04R03R13E26R18S35R05G12G25S31G31G21
                                S33E07E19R14R20E12




 113662496.342 6  88568182.87444  21629258.919    21629258.5484   21629259.0754
        40.900          25.5004
 131812450.185 6 102710982.61242  25083072.928    25083072.0704   25083068.9984
        41.000          17.1004
 123863060.229 8                  23570350.434
        51.000
 110015366.956 8  85726225.13448  20935198.102    20935197.7314   20935200.3194
        52.700          52.4004
 123105600.963 5                  23426216.465
        34.800
 125748588.554 8                  23929155.810
        48.700
 107512424.026 8  83775957.30247  20458933.037    20458932.5144   20458933.7674
        49.300          46.7004
 119228090.803 5                  22688347.280
        33.000


 110606995.080 5  86027685.997 6  20676807.624    20676806.475    20676812.014
        33.300          40.400
 106641834.755 8  82943756.027 7  19914583.997    19914585.747    19914588.180
        51.900          45.800
 114614866.677 6  89144751.871 5  21410979.841    21410981.348    21410983.297
        38.900          34.100
 116321888.218 5                  21783350.602    21783347.958
        32.000
 128465125.111 6                  24446101.723
        37.100
 122462819.882 7  95249006.265 5  22941453.656    22941452.771    22941455.586
        42.900          34.200


 117964737.668 6  91750335.651 6  22067738.966    22067734.155    22067740.078
        37.800          39.000
 129400045.011 5 100831227.73541  24624001.814    24624001.3814   24624015.6874
        34.500          10.1004
 127233464.335 5                  24211718.685
        32.100
 198899466.621 7                  37849309.928
        42.400
 131713768.680 5                  25064290.904
        34.400
 123386066.437 6  96144924.69943  23479585.080    23479584.1194   23479585.1294
        39.300          21.7004
 202014939.462 7                  38442172.690
        44.900
 129268487.823 6                  24598976.261
        41.200
 136641954.195 4                  26002096.535
        24.700
 115100770.130 7  89522830.496 6  21592609.580    21592608.021    21592615.431
        45.600          39.500
 115766751.711 6  90040846.674 6  21648965.895    21648966.026    21648973.264
        37.000          39.600
 146776350.892 5                  27930609.312
        35.200
 25  1  1 11  5 45.0000000  0 30G18G08G23G02E29G32G24E33G10G28G27R19
                                R04R03R13E26R18S35R05G12G25S31G31G21
                                S33E07E19R14R20E12




 113693769.072 6  88592551.19944  21635210.905    21635210.5484   21635210.7914
        39.000          24.3004
 131771340.548 7 102678949.18642  25075250.412    25075249.4964   25075244.7544
        42.300          17.9004
 123855252.880 8                  23568865.078
        51.800
 110005886.192 8  85718837.51348  20933394.047    20933393.6544   20933396.4984
        51.800          51.7004
 123156597.691 5  95966176.16441  23435919.752    23435919.8724   23435923.6114
        32.600          10.4004
 125742478.978 8                  23927993.379
        49.300
 107506555.131 8  83771384.15047  20457816.462    20457815.9124   20457817.3144
        49.700          47.0004
 119177535.491 5  92865573.28341  22678730.841    22678731.0244   22678725.2514
        34.100           9.2004


 110648355.455 5  86059855.143 6  20684539.542    20684537.955    20684542.770
        32.200          38.000
 106639972.674 8  82942307.760 7  19914235.654    19914236.227    19914241.356
        49.500          45.600
 114646090.942 5  89169037.473 5  21416815.903    21416813.824    21416815.634
        34.200          34.300
 116333197.175 5                  21785470.162    21785468.272
        33.400
 128498658.946 5                  24452485.117
        35.600
 122529103.461 6  95300560.102 6  22953869.509    22953868.767    22953876.752
        41.500          37.700


 117931026.624 7  91724115.972 6  22061434.323    22061437.851    22061434.021
        42.800          37.500
 129372624.146 5 100809861.0194   24618781.495    24618781.0844   24618796.6154
        30.600           5.0004
 127190422.585 4                  24203514.099
        27.300
 198899475.220 7                  37849312.607
        43.000
 131653345.283 5 102586992.44641  25052786.108    25052785.7644   25052791.9034
        34.100           8.3004
 123360218.743 6  96124783.66243  23474666.734    23474665.7154   23474666.2684
        38.900          21.6004
 202014940.694 7                  38442170.655
        44.700
 129293728.731 6                  24603779.177
        41.500
 136611990.200 4                  25996397.104
        26.200
 115053754.363 8  89486262.668 6  21583790.702    21583789.395    21583799.421
        48.300          38.600
 115735975.476 6  90016909.589 6  21643211.038    21643210.422    21643217.982
        37.000          37.000
 146736408.296 5                  27923008.784
        34.100
 25  1  1 11  6  0.0000000  0 30G18G08G23G02E29G32G24E33G10G28G27R19
                                R04R03R13E26R18S35R05G12G25S31G31G21
                                S33E07E19R14R20E12




 113725119.147 6  88616979.82243  21641176.625    21641176.2544   21641177.7024
        37.400          22.4004
 131730294.056 7 102646964.90043  25067438.855    25067437.9254   25067433.3434
        43.000          19.1004
 123847494.654 8                  23567388.454
        51.400
 109996472.504 8  85711502.15148  20931602.777    20931602.3714   20931604.9654
        51.500          52.0004
 123207664.514 4  96005968.43441  23445639.009    23445638.7594   23445643.9614
        29.300          11.6004
 125736475.432 8                  23926850.881
        49.100
 107500769.402 8  83766875.81448  20456715.555    20456714.9924   20456716.4414
        51.200          48.3004
 119127043.884 4  92826229.20242  22669122.384    22669122.8664   22669122.7284
        26.900          15.5004


 110689871.792 5  86092145.583 6  20692299.429    20692300.803    20692302.015
        34.600          36.300
 106638163.971 8  82940901.024 7  19913899.489    19913899.250    19913904.652
        50.500          45.700
 114677340.716 4  89193342.703 5  21422671.165    21422667.929    21422654.572
        29.400          32.600
 116344699.909 5                  21787625.647    21787625.633
        33.600
 128532268.540 5                  24458876.972
        33.300
 122595406.036 6  95352128.788 6  22966289.700    22966288.600    22966298.749
        40.600          39.600


 117897345.729 7  91697919.858 5  22055139.843    22055137.814    22055131.318
        46.400          35.600
 129345290.820 5                  24613591.937
        32.000
 127147404.015 5                  24195337.415
        31.700
 198899481.038 7                  37849314.239
        43.200
 131592919.805 5 102539907.55341  25041292.558    25041292.3844   25041291.4764
        30.800           9.9004
 123334470.204 6  96104719.81743  23469766.045    23469764.9994   23469766.6624
        38.700          21.8004
 202014940.044 7                  38442170.901
        44.800
 129318990.041 6                  24608585.637
        40.400
 136582059.236 4                  25990700.668
        29.500
 115006849.899 7  89449781.413 5  21574989.338    21574988.554    21574998.597
        45.500          33.600
 115705377.809 6  89993111.368 5  21637487.497    21637487.648    21637499.067
        36.600          35.600
 146696507.924 5                  27915416.249
        34.400
 25  1  1 11  6 15.0000000  0 28G08G23G02E29G32G24E33G10G28G27R19R04
                                R03E26R18S35R05G12G25S31G31G21S33E07
                                E19R14R20E12


 113756546.331 5  88641468.56343  21647156.132    21647155.7214   21647158.9574
        32.100          19.3004
 131689311.182 7 102615030.21843  25059640.383    25059639.4184   25059636.1804
        43.500          20.3004
 123839785.315 8                  23565921.385
        50.800
 109987125.668 8  85704218.88948  20929824.355    20929823.9534   20929825.9394
        52.900          52.8004


 125730577.891 8                  23925728.614
        48.900
 107495066.889 8  83762432.32648  20455630.204    20455629.6544   20455630.9144
        50.900          48.6004
 119076615.937 6  92786934.64243  22659533.188    22659533.3984   22659528.4154
        36.900          19.4004
 134584019.445 5 104870662.1604   25610489.126    25610489.5194   25610483.1024
        34.100           4.4004
 110731543.459 5  86124556.875 6  20700090.759    20700090.133    20700095.270
        33.700          39.100
 106636408.601 8  82939535.794 7  19913571.367    19913572.102    19913575.111
        51.200          42.800
 114708615.358 6  89217667.321 4  21428513.379    21428514.245    21428497.542
        38.800          29.100
 128565953.698 5                  24465291.073
        31.200
 122661726.926 6  95403711.713 6  22978712.987    22978713.563    22978723.188
        40.900          40.300


 117863694.993 7  91671747.003 6  22048842.396    22048843.048    22048839.571
        44.000          39.500
 129318045.563 5 100767355.19741  24608398.596    24608398.0604   24608415.8824
        32.000          10.1004
 127104408.909 5  99042394.7614   24187153.953    24187154.2524   24187162.9844
        33.500           4.9004
 198899486.048 7                  37849313.555
        43.000
 131532492.207 4 102492821.09641  25029800.430    25029799.8184   25029792.8414
        27.700           7.1004
 123308820.947 6  96084733.35643  23464885.209    23464884.1364   23464885.8594
        38.700          22.0004
 202014938.913 7                  38442166.278
        43.700
 129344271.487 6                  24613396.660
        40.000
