     2.11           OBSERVATION DATA    M (MIXED)           RINEX VERSION / TYPE
teqc  2019Feb25                         20260317 16:18:01UTCPGM / RUN BY / DATE
Linux 2.4.21-27.ELsmp|Opteron|gcc -static|Linux 64|=+       COMMENT
BIT 2 OF LLI FLAGS DATA COLLECTED UNDER A/S CONDITION       COMMENT
-Unknown-                                                   MARKER NAME
-Unknown-           -Unknown-                               OBSERVER / AGENCY
-Unknown-           -Unknown-           -Unknown-           REC # / TYPE / VERS
-Unknown-           -Unknown-                               ANT # / TYPE
        0.0000        0.0000        0.0000                  APPROX POSITION XYZ
        0.0000        0.0000        0.0000                  ANTENNA: DELTA H/E/N
     1     1                                                WAVELENGTH FACT L1/2
     7    L1    L2    C1    P1    P2    S1    S2            # / TYPES OF OBSERV
 SNR is mapped to RINEX snr flag value [0-9]                COMMENT
  L1 & L2: min(max(int(snr_dBHz/6), 0), 9)                  COMMENT
  2025     1     1     5     0    0.0000000     GPS         TIME OF FIRST OBS
    18                                                      LEAP SECONDS
                                                            END OF HEADER
 25  1  1  5  0  0.0000000  0 28G18R01G15G12G11G20E27E03G25G05E34G29
                                E05E15E26S35R23R17S31R15G13S33E08E21
                                E13R14R24R08
 128205374.187 6  99900286.68942  24396675.489    24396675.4934   24396672.1094
        36.800          12.1004
 106098327.597 7  82520959.917 6  19847886.560    19847887.846    19847893.299
        46.300          36.900
 124667193.781 5  97143277.51144  23723378.058    23723377.9474   23723378.5794
        35.600          24.6004
 126105102.347 7  98263700.73945  23997007.631    23997007.1624   23997008.0764
        45.800          33.8004
 118296468.608 7  92179063.64844  22511070.601    22511070.4544   22511070.5334
        42.500          29.1004
 111614145.422 6  86972057.69042  21239464.085    21239463.4284   21239462.8004
        38.200          16.8004
 135634109.884 7                  25810304.322
        43.300
 133903972.242 6                  25481051.984
        41.400
 118672881.706 7  92472368.24146  22582703.020    22582702.2074   22582707.1904
        43.200          36.0004
 105416176.382 8  82142466.86548  20060026.596    20060026.2614   20060024.5424
        52.800          51.4004


 111314755.409 7  86738734.01846  21182494.426    21182493.9264   21182493.7074
        46.700          40.5004


 126624275.799 6                  24095795.789
        40.400




 113631723.201 7                  21242257.265    21242257.470
        42.100
 124026632.888 6  96465125.539 7  23177326.980    23177325.311    23177339.054
        38.300          42.500
 198904432.535 7                  37850257.760
        44.200
 121893948.158 7  94806442.948 5  22810793.222    22810795.859    22810797.125
        43.600          32.100
 120034734.450 7  93533548.27043  22841848.685    22841848.5744   22841847.8174
        42.700          19.3004
 202046935.861 7                  38448250.739
        45.600
 138677411.389 5                  26389442.536
        33.500
 134449687.082 6                  25584894.475
        36.700
 127996241.082 7                  24356860.095
        47.000
 122352476.668 6  95163084.282 5  22953013.562    22953013.745    22953019.478
        38.700          33.800
 106886048.141 6  83133573.372 7  19988220.870    19988221.339    19988226.837
        41.500          44.000
 111271311.281 4  86544311.355 6  20779128.218                    20779120.661
        29.700          36.200
 25  1  1  5  0 15.0000000  0 28G18R01G15G12G11G20E27E03G25G05E34G29
                                E05E15E26S35R23R17S31R15G13S33E08E21
                                E13R14R24R08


 106062807.056 6  82493332.925 6  19841240.932    19841239.429    19841248.745
        41.900          39.500
 124609673.269 5  97098456.40343  23712435.612    23712435.5814   23712434.3954
        34.200          19.3004
 126158434.689 7  98305258.38545  24007157.043    24007156.5874   24007158.1954
        45.100          34.0004
 118327883.629 6  92203542.88444  22517048.469    22517048.2244   22517048.9324
        41.600          27.9004
 111646136.735 6  86996986.10743  21245552.099    21245551.5324   21245551.6564
        40.100          18.9004
 135672643.711 6                  25817635.110
        40.900
 133889587.631 6                  25478315.267
        41.400
 118709784.986 7  92501124.05046  22589725.541    22589724.7234   22589729.5114
        42.100          37.7004
 105417611.160 8  82143584.89048  20060299.345    20060299.0104   20060297.8744
        52.900          51.7004


 111283482.641 7  86714365.68646  21176544.305    21176543.7824   21176541.0304
        43.800          39.2004


 126637298.059 7                  24098274.134
        44.200


 200870274.322 6                  38224349.031
        36.800
 113659673.824 6                  21247483.655    21247483.750
        41.900
 123980821.428 6  96429494.490 6  23168770.537    23168768.235    23168776.701
        40.800          41.500
 198904420.448 6                  37850253.638
        41.200
 121899563.207 7  94810810.195 6  22811845.994    22811846.699    22811852.156
        45.200          36.000
 119988258.358 6  93497333.24343  22833003.106    22833003.0754   22833004.3384
        41.100          21.9004
 202046913.842 7                  38448250.841
        45.900
 138635228.857 4                  26381407.539
        29.500
 134454191.070 7                  25585751.294
        43.600
 127980623.816 8                  24353887.979
        48.400
 122398620.850 6                  22961670.187    22961671.701
        41.700
 106866605.176 8  83118451.069 7  19984586.042    19984586.321    19984591.408
        48.700          43.800
                  86569135.361 5                                  20785082.796
                        34.600
 25  1  1  5  0 30.0000000  0 29G18R01G15G12G11G20E27E03G25G05E34G29
                                E05E15E26S35R23R17R02S31R15G13S33E08
                                E21E13R14R24R08


 106027462.109 7  82465842.379 6  19834631.152    19834629.177    19834637.026
        46.600          41.400


 126211780.077 7  98346826.19545  24017308.375    24017307.9374   24017309.7444
        45.000          32.7004
 118359333.424 6  92228049.20644  22523033.172    22523032.8644   22523033.7114
        41.300          28.4004
 111678194.848 6  87021966.52743  21251653.824    21251653.0964   21251652.8054
        39.600          21.9004
 135711226.300 6                  25824978.471
        41.300
 133875303.284 6                  25475596.645
        39.600
 118746774.290 6  92529946.83345  22596763.332    22596762.5054   22596767.3894
        39.300          33.8004
 105419174.130 8  82144802.79648  20060596.907    20060596.5814   20060595.4794
        52.500          51.7004


 111252304.392 7  86690070.94146  21170610.536    21170610.0184   21170608.3814
        45.700          40.6004


 126650342.580 7                  24100756.130
        42.100


 200870338.748 6                  38224343.173
        36.600
 113687693.642 7                  21252719.028    21252721.027
        43.400
 123935000.051 6  96393855.587 6  23160206.549    23160205.632    23160215.731
        41.200          40.400
 123601348.033 4  96134368.885 6  23162841.812                    23162835.056
        26.800          36.000
 198904409.296 6                  37850242.069
        40.400
 121905359.327 7  94815318.394 5  22812929.332    22812930.687    22812932.433
        45.200          35.600
 119941840.752 6  93461163.70543  22824170.631    22824170.6484   22824171.4304
        38.800          21.7004
 202046893.249 7                  38448248.167
        43.900
 138593074.637 6                  26373384.532
        37.600
 134458803.224 7                  25586629.216
        42.600
 127965028.904 8                  24350920.249
        48.000
 122444846.299 7  95234910.239 5  22970344.621    22970343.966    22970346.792
        43.700          35.300
 106847225.738 8  83103378.313 7  19980961.448    19980962.701    19980966.300
        49.400          44.100
 111335350.929 5  86594094.062 5  20791069.289    20791067.687    20791071.998
        30.800          33.900
 25  1  1  5  0 45.0000000  0 28G18R01G15G12G11G20E27E03G25G05E34G29
                                E05E15E26S35R23R17S31R15G13S33E08E21
                                E13R14R24R08


 105992290.971 8  82438487.093 7  19828052.037    19828051.532    19828057.579
        49.600          43.500


 126265136.099 7  98388402.30845  24027461.936    24027461.5074   24027462.0354
        44.800          32.1004
 118390815.793 7  92252580.91644  22529022.562    22529022.2184   22529024.1704
        44.600          29.4004
 111710317.687 7  87046997.34143  21257764.481    21257763.7484   21257765.7194
        43.200          22.1004
 135749855.441 6                  25832329.487
        39.200
 133861117.206 6                  25472897.317
        39.500
 118783847.700 4  92558835.25945  22603816.811    22603815.9804   22603822.4784
        28.700          32.2004
 105420863.454 8  82146119.16948  20060918.280    20060917.9504   20060917.4444
        52.000          51.8004


 111221218.827 7  86665848.44446  21164694.530    21164694.0034   21164693.0414
        46.600          40.3004


 126663407.506 7                  24103242.561
        43.100




 113715781.286 6                  21257969.441    21257969.683
        40.200
 123889166.847 6  96358207.647 6  23151640.585    23151639.510    23151650.579
        38.700          36.400
 198904398.073 7                  37850252.546
        43.100
 121911334.619 7  94819965.755 5  22814049.068    22814047.936    22814051.031
        46.200          33.800
 119895479.979 6  93425038.43043  22815348.591    22815348.6134   22815349.5274
        38.700          20.5004
 202046871.616 7                  38448241.724
        44.900
 138550946.788 6                  26365370.877
        36.800
 134463521.471 6                  25587527.380
        39.300
 127949454.407 8                  24347956.385
        48.800
 122491150.059 6  95270924.307 5  22979028.146    22979027.754    22979033.286
        38.900          35.000
 106827908.239 8  83088353.647 7  19977349.258    19977350.279    19977353.023
        49.800          42.100
 111367611.954 7  86619185.950 6  20797097.455    20797098.618    20797098.958
        44.000          38.600
 25  1  1  5  1  0.0000000  0 28G18R01G15G12G11G20E27E03G25G05E34G29
                                E05E15E26S35R23R17S31R15G13S33E08E21
                                E13R14R24R08
 128048596.093 4  99778125.47541  24366822.855    24366822.6544   24366834.8774
        26.400           9.5004
 105957297.932 8  82411270.325 7  19821505.585    19821505.403    19821511.763
        49.300          43.000
 124437246.873 5                  23679621.128
        34.200
 126318506.098 7  98429989.33245  24037617.211    24037616.7874   24037618.1684
        45.400          31.1004
 118422334.617 7  92277141.04944  22535020.418    22535020.0924   22535020.8524
        44.400          29.6004
 111742508.640 7  87072081.20344  21263891.611    21263890.8474   21263891.2564
        42.700          25.0004
 135788534.645 7                  25839690.209
        44.100
 133847033.505 6                  25470216.578
        41.500
 118821007.928 4  92587791.34844  22610890.445    22610889.4484   22610893.4724
        26.700          25.0004
 105422682.652 8  82147536.74748  20061264.726    20061264.4004   20061264.0224
        52.900          51.7004


 111190230.005 7  86641701.34046  21158797.767    21158797.2714   21158797.0374
        43.400          41.1004


 126676496.462 7                  24105733.760
        42.000


 200870390.355 6                  38224376.621
        38.100
 113743940.028 6                  21263236.724    21263237.268
        41.300
 123843325.983 6  96322553.376 5  23143076.008    23143074.797    23143097.595
        40.600          35.400
 198904389.868 6                  37850247.140
        41.900
 121917492.555 7  94824755.262 5  22815201.349    22815201.288    22815204.701
        47.400          33.900
 119849180.094 6  93388960.61243  22806537.833    22806537.8294   22806538.4104
        36.600          18.8004
 202046853.473 7                  38448241.446
        43.200
 138508849.428 6                  26357358.881
        37.400
 134468349.560 6                  25588445.628
        41.400
 127933904.044 8                  24344997.844
        50.000
 122537535.763 7  95307002.069 6  22987731.423    22987732.447    22987736.919
        43.900          39.000
 106808656.674 8  83073380.209 7  19973749.303    19973750.399    19973753.814
        51.300          44.700
 111400047.361 6  86644413.566 6  20803154.091    20803152.184    20803156.495
        40.900          41.600
 25  1  1  5  1 15.0000000  0 29G18R01G15G12G11G20E27E03G25G05E34G29
                                E05E15E26S35R23R17R02S31R15G13S33E08
                                E21E13R14R24R08


 105922478.210 8  82384188.321 7  19814992.132    19814992.154    19814997.732
        50.100          43.000
 124379757.702 5                  23668678.339
        33.000
 126371884.545 7  98471582.94945  24047775.273    24047774.8354   24047774.8774
        44.100          30.4004
 118453884.607 7  92301725.47045  22541024.478    22541024.1744   22541023.8224
        45.300          30.1004
 111774762.274 6  87097213.92744  21270027.664    21270026.8604   21270028.7594
        41.800          25.3004
 135827258.542 6                  25847058.128
        39.300
 133833046.996 7                  25467554.200
        42.200
 118858249.581 6  92616810.90845  22617978.735    22617977.7794   22617980.6684
        39.100          32.6004
 105424626.420 8  82149051.37648  20061634.282    20061633.9524   20061633.9824
        52.100          52.2004


 111159332.970 7  86617625.74547  21152919.486    21152919.0084   21152918.9414
        43.900          44.1004


 126689604.281 7                  24108227.768
        44.600


 200870408.933 6                  38224361.194
        40.900
 113772164.728 6                  21268510.879    21268511.131
        41.800
 123797472.074 6                  23134511.657    23134510.312
        36.300
 123399329.250 5                  23124986.607    23124986.847
        34.300
 198904379.871 7                  37850241.850
        42.500
 121923827.598 7  94829682.469 6  22816386.125    22816388.146    22816391.957
        47.300          39.200
 119802936.417 6  93352926.61443  22797739.118    22797739.0604   22797737.8414
        41.500          18.7004
 202046834.338 7                  38448241.630
        44.400
 138466777.617 6                  26349352.563
        39.600
 134473282.298 6                  25589384.099
        40.300
 127918372.620 8                  24342041.816
        48.900
 122583997.562 7  95343138.980 5  22996446.031    22996445.542    22996449.133
        43.300          34.100
 106789465.953 8  83058454.079 7  19970160.015    19970160.728    19970165.149
        50.900          45.800
 111432651.714 6  86669772.463 7  20809243.799    20809243.236    20809246.465
        41.100          42.700
 25  1  1  5  1 30.0000000  0 28G18R01G12G11G20E27E03G25G05E34G29E05
                                E15E26S35R23R17R02S31R15G13S33E08E21
                                E13R14R24R08
 127970135.851 4                  24351909.055
        27.400
 105887835.385 8  82357243.935 7  19808510.411    19808511.440    19808516.549
        49.800          43.400
 126425274.383 6  98513185.40144  24057934.686    24057934.2084   24057932.8124
        40.700          29.3004
 118485469.125 7  92326336.78145  22547036.055    22547035.7424   22547034.7474
        42.800          30.6004
 111807081.737 6  87122397.90943  21276177.370    21276176.4854   21276178.6584
        39.800          22.9004
 135866030.098 6                  25854437.758
        37.400
 133819161.202 7                  25464912.269
        43.000
 118895576.065 6  92645896.47645  22625080.866    22625079.9274   22625082.8214
        40.400          33.8004
 105426698.080 8  82150665.67648  20062028.251    20062027.9254   20062028.0934
        51.000          51.9004


 111128531.556 7  86593624.67147  21147056.729    21147056.2474   21147058.5854
        45.300          44.0004


 126702734.437 7                  24110726.468
        43.600


 200870430.028 6                  38224371.125
        36.700
 113800458.956 5                  21273801.943    21273799.003
        35.300
                  96251294.937 5                                  23125954.168
                        35.800
 123332043.077 6  95924916.743 5  23112364.378    23112369.771    23112370.265
        36.000          33.400
 198904371.147 7                  37850247.963
        45.000
 121930343.186 7  94834750.103 6  22817604.224    22817605.559    22817609.643
        47.100          38.000
 119756752.706 6  93316939.38842  22788949.718    22788949.6694   22788948.2814
        40.700          17.2004
 202046815.558 7                  38448233.679
        45.700
 138424734.920 6                  26341352.386
        41.100
 134478322.898 6                  25590343.076
        38.800
 127902863.451 7                  24339090.418
        47.500
 122630538.050 7  95379337.099 6  23005180.063    23005180.423    23005182.825
        44.500          36.900
 106770339.542 8  83043577.962 7  19966583.042    19966583.833    19966587.529
        51.200          44.800
 111465427.910 7  86695265.067 7  20815363.230    20815365.138    20815367.821
        42.600          42.800
 25  1  1  5  1 45.0000000  0 29G18R01G15G12G11G20E27E03G25G05E34G29
                                E05E15E26S35R23R17R02S31R15G13S33E08
                                E21E13R14R24R08
 127930961.220 6  99686498.50041  24344457.215    24344457.6444   24344459.0164
        36.400          10.4004
 105853368.727 8  82330436.569 7  19802061.704    19802062.412    19802068.232
        49.000          42.900
 124264845.672 5  96829765.83342  23646814.508    23646814.5254   23646816.9254
        30.600          13.9004
 126478674.082 6  98554795.55344  24068097.338    24068096.8424   24068095.6784
        40.600          27.9004
 118517086.982 7  92350974.09445  22553053.160    22553052.8304   22553053.0824
        43.600          32.8004
 111839465.565 5  87147632.02943  21282341.059    21282340.1614   21282341.3234
        35.300          21.1004
 135904848.024 6                  25861824.157
        41.200
 133805375.025 7                  25462289.325
        43.000
 118932985.635 7  92675046.78946  22632200.982    22632200.0174   22632201.3624
        43.800          37.0004
 105428896.147 8  82152378.45448  20062446.348    20062446.0224   20062446.3774
        51.300          51.7004


 111097824.640 8  86569697.20247  21141213.329    21141212.8644   21141215.8334
        48.200          46.8004


 126715885.537 7                  24113229.817
        44.100


 200870450.015 5                  38224381.092
        34.200
 113828821.743 6                  21279102.906    21279099.844
        37.300
                  96215614.682 5                                  23117383.471
                        30.600
 123264785.048 5  95872604.873 5  23099768.926    23099767.057    23099761.921
        35.100          33.600
 198904362.284 7                  37850238.103
        43.800
 121937037.848 7  94839957.130 6  22818856.212    22818857.117    22818864.635
        46.100          39.700
 119710628.172 7  93280998.24742  22780172.658    22780172.5384   22780170.0974
        43.600          14.2004
 202046797.367 7                  38448231.998
        44.600
 138382720.339 6                  26333356.556
        40.300
 134483470.187 6                  25591323.771
        41.900
 127887375.357 7                  24336142.806
        46.800
 122677155.625 7  95415595.262 6  23013924.274    23013924.100    23013928.192
        45.600          38.800
 106751276.542 8  83028751.141 7  19963019.306    19963020.124    19963023.512
        50.700          45.200
 111498374.384 6  86720890.036 6  20821518.453    20821520.725    20821519.468
        41.200          40.900
 25  1  1  5  2  0.0000000  0 29G18R01G15G12G11G20E27E03G25G05E34G29
                                E05E15E26S35R23R17R02S31R15G13S33E08
                                E21E13R14R24R08
 127891786.887 5  99655973.04842  24337000.824    24337001.0524   24337002.6574
        31.600          13.0004
 105819070.731 7  82303760.374 7  19795645.504    19795644.816    19795653.059
        46.600          43.600
 124207400.572 5                  23635890.256
        30.100
 126532075.326 6  98596406.92444  24078259.408    24078258.8814   24078257.0204
        41.200          28.0004
 118548730.198 6  92375631.15645  22559075.034    22559074.6774   22559075.6024
        41.500          32.8004
 111871905.619 6  87172909.96143  21288514.730    21288513.7914   21288514.5054
        38.100          19.6004
 135943704.159 7                  25869217.852
        42.400
 133791680.712 7                  25459683.189
        42.900
 118970469.948 7  92704255.30246  22639332.867    22639331.9064   22639335.2904
        46.600          39.8004
 105431212.642 8  82154183.52048  20062887.836    20062887.5194   20062887.5214
        50.500          51.9004


 111067204.895 7  86545837.65647  21135386.651    21135386.1824   21135389.3364
        47.500          46.4004


 126729049.833 7                  24115735.206
        42.100


 200870462.398 5                  38224384.817
        32.800
 113857245.081 6                  21284414.243    21284414.971
        39.900
 123659841.405 5  96179920.151 5  23108786.929    23108785.282    23108798.591
        34.500          32.700
                  95820308.831 5                                  23087161.340
                        33.700
 198904345.775 7                  37850231.709
        42.300
 121943903.361 7  94845297.013 6  22820139.332    22820140.531    22820147.709
        46.200          39.300
 119664555.433 7  93245097.57842  22771405.174    22771405.0454   22771401.9254
        42.300          12.7004
 202046771.332 7                  38448222.630
        45.500
 138340726.458 6                  26325367.135
        41.600
 134488716.199 6                  25592322.600
        40.700
 127871900.398 7                  24333197.527
        47.300
 122723841.808 7  95451906.745 6  23022679.940    23022680.601    23022688.123
        43.900          40.600
 106732269.212 8  83013967.623 7  19959464.205    19959464.719    19959469.341
        51.100          45.800
                  86746640.958 7                                  20827702.824
                        42.300
 25  1  1  5  2 15.0000000  0 27G18R01G12G11G20E27E03G25G05E34G29E05
                                E15E26S35R23R17S31R15G13S33E08E21E13
                                R14R24R08
 127852609.631 6  99625429.83941  24329550.015    24329550.1314   24329547.6574
        38.400           8.3004
 105784954.598 7  82277225.644 7  19789265.166    19789264.195    19789271.468
        43.600          43.500
 126585490.675 6  98638029.25644  24088422.928    24088422.3964   24088421.8464
        41.000          29.3004
 118580411.620 7  92400317.99845  22565103.130    22565102.7734   22565104.1854
        45.900          32.5004
 111904414.511 6  87198241.51943  21294699.165    21294698.1774   21294699.5324
        40.000          18.3004
 135982611.116 7                  25876620.327
        42.700
 133778091.233 7                  25457097.578
        45.200
 119008041.517 7  92733531.79046  22646482.069    22646481.0994   22646484.6994
        43.600          38.3004
 105433660.090 8  82156090.60948  20063353.127    20063352.8104   20063353.4374
        50.100          51.4004


 111036685.448 7  86522056.29847  21129578.992    21129578.5324   21129581.4544
        45.600          45.0004


 126742240.225 6                  24118243.038
        39.800


 200870480.612 6                  38224371.724
        39.200
 113885741.792 6                  21289743.995    21289743.929
        39.600
 123613943.234 6  96144221.573 5  23100210.867    23100212.707    23100222.292
        39.300          32.500
 198904335.164 7                  37850235.174
        42.400
 121950952.792 7  94850779.822 6  22821461.788    22821461.462    22821466.480
        47.100          40.800
 119618547.645 6  93209247.38943  22762650.853    22762650.7374   22762647.6284
        41.400          18.6004
 202046749.819 7                  38448220.734
        44.500
 138298766.352 6                  26317379.767
        37.600
 134494073.666 4                  25593339.371
        28.200
 127856451.434 7                  24330257.401
        43.800
 122770608.778 6  95488281.180 7  23031452.375    23031450.835    23031461.661
        38.000          43.700
 106713330.749 8  82999237.719 7  19955922.714    19955923.113    19955927.391
        52.300          44.800
 111564761.092 6  86772527.515 7  20833926.281                    20833917.534
        40.200          42.000
 25  1  1  5  2 30.0000000  0 27G18R01G12G11G20E27E03G25G05E34G29E15
                                E26S35R23R17R02S31R15G13S33E08E21E13
                                R14R24R08
 127813454.035 5  99594918.97041  24322099.997    24322100.2924   24322093.5884
        35.100           6.4004
 105751013.174 7  82250826.768 7  19782914.331    19782915.725    19782921.299
        46.700          43.100
 126638912.375 6  98679656.57444  24098588.043    24098587.4714   24098587.6594
        41.800          28.7004
 118612123.781 7  92425028.80345  22571137.236    22571136.8834   22571138.4614
        44.400          32.6004
 111936984.543 6  87223620.82043  21300898.263    21300897.2534   21300897.2374
        39.700          18.6004
 136021561.028 7                  25884033.064
        42.900
 133764599.286 7                  25454529.502
        46.200
 119045692.444 7  92762870.10846  22653647.600    22653646.6484   22653649.9424
        46.800          38.7004
 105436231.224 8  82158094.10948  20063842.373    20063842.0654   20063842.8744
        50.200          52.2004
 145389489.703 5                  27666700.996
        33.900
 111006258.855 7  86498347.26047  21123789.229    21123788.7644   21123790.9444
        47.200          46.2004
 126755449.072 7                  24120758.301
        43.600




 113914304.428 4                  21295081.197    21295081.306
        29.700
 123568032.051 5  96108512.689 5  23091630.926    23091628.046    23091641.981
        33.100          34.500
 123063125.508 5                  23061976.645    23061974.638
        33.900
 198904321.408 7                  37850233.703
        44.200
 121958178.064 7  94856399.512 6  22822813.388    22822814.154    22822819.141
        44.900          40.200
 119572597.920 7  93173442.48843  22753906.350    22753906.2074   22753905.2354
        42.900          20.2004
 202046726.742 7                  38448215.860
        44.000
 138256832.525 5                  26309403.994
        34.700
 134499535.164 6                  25594379.058
        36.000
 127841021.022 7                  24327320.917
        43.300
 122817448.716 7  95524712.145 6  23040242.979    23040242.465    23040247.836
        43.700          41.800
 106694453.777 8  82984555.605 7  19952392.670    19952392.535    19952397.242
        49.500          44.500
 111598210.352 6  86798543.684 6  20840161.481    20840164.551    20840162.584
        40.300          41.900
 25  1  1  5  2 45.0000000  0 29G18R01G15G12G11G20E27E03G25G05E34G29
                                E05E15E26S35R23R17R02S31R15G13S33E08
                                E21E13R14R24R08
 127774310.712 6  99564417.71341  24314653.957    24314654.3284   24314648.6044
        37.300           6.8004
 105717253.327 7  82224569.109 7  19776598.998    19776600.193    19776606.071
        45.000          42.500
 124035122.460 5  96650781.81042  23603116.224    23603116.0644   23603105.1864
        34.200          15.0004
 126692346.486 6  98721293.53745  24108757.252    24108756.7024   24108756.1824
        41.300          30.9004
 118643873.189 7  92449768.62445  22577178.872    22577178.5244   22577180.0254
        45.600          31.6004
 111969622.091 6  87249052.60142  21307107.359    21307106.3494   21307107.2164
        41.600          17.6004
 136060560.428 7                  25891454.266
        43.300
 133751211.514 7                  25451982.102
        46.200
 119083428.957 7  92792275.14546  22660828.863    22660827.9384   22660829.6114
        45.900          37.5004
 105438932.557 8  82160199.03448  20064356.649    20064356.3324   20064356.7224
        50.900          52.2004
 145418971.017 5                  27672311.047
        33.100
 110975932.056 8  86474715.98347  21118018.281    21118017.8124   21118018.5224
        48.600          45.8004


 126768683.171 6                  24123275.056
        39.200




 113942943.802 6                  21300432.810    21300438.865
        37.500
 123522114.688 6  96072799.231 5  23083059.564    23083057.354    23083054.937
        37.400          31.500
 122995983.407 5                  23049401.075    23049411.507
        30.000
 198904312.197 7                  37850232.017
        44.100
 121965586.195 6  94862161.387 6  22824195.325    22824194.982    22824204.209
        39.200          38.600
 119526713.151 6  93137688.15242  22745174.253    22745174.1424   22745172.5494
        39.700          17.2004
 202046707.946 7                  38448216.383
        45.500
 138214932.117 6                  26301430.537
        39.600
 134505107.255 6                  25595440.157
        38.800
 127825615.667 7                  24324390.252
        45.000
 122864367.779 7  95561204.792 7  23049044.208    23049042.327    23049050.994
        42.900          42.300
 106675645.209 8  82969926.669 7  19948873.384    19948874.696    19948879.148
        50.400          42.300
 111631832.487 6  86824694.169 6  20846441.912    20846440.876    20846440.988
        38.800          39.100
 25  1  1  5  3  0.0000000  0 28G18R01G15G12G11G20E27E03G25G05E34G29
                                E05E15E26S35R23R17S31R15G13S33E08E21
                                E13R14R24R08
 127735172.375 5  99533920.1484   24307219.097    24307219.6334   24307202.9594
        30.000           3.2004
 105683667.828 7  82198447.043 6  19770314.132    19770313.977    19770322.382
        44.000          40.800
 123977736.585 5  96606065.57741  23592183.119    23592182.8834   23592182.5284
        34.800          11.4004
 126745785.148 7  98762934.04544  24118925.724    24118925.2374   24118925.6094
        42.200          29.9004
 118675652.415 7  92474531.65645  22583227.663    22583227.3154   22583227.0864
        42.100          31.0004
 112002319.468 6  87274531.06342  21313330.128    21313329.0964   21313329.0454
        40.400          17.2004
 136099601.517 7                  25898883.767
        42.100
 133737920.654 7                  25449452.261
        45.300
 119121243.209 7  92821740.75646  22668024.217    22668023.2964   22668025.4944
        46.400          37.4004
 105441756.383 8  82162399.42048  20064893.836    20064893.5104   20064893.9924
        51.100          52.5004
 145448450.984 5                  27677917.653
        32.200
 110945697.939 8  86451156.93347  21112264.608    21112264.1524   21112263.9694
        48.700          44.9004


 126781934.940 6                  24125798.793
        38.100




 113971644.387 5                  21305809.853    21305812.999
        35.300
                  96037075.201 6                                  23074471.241
                        36.500
 198904299.882 6                  37850218.893
        41.100
 121973169.103 7  94868059.108 6  22825619.305    22825620.970    22825624.137
        44.400          39.700
 119480886.259 6  93101978.90342  22736455.273    22736455.1174   22736451.9824
        41.600          17.7004
 202046685.563 7                  38448210.498
        43.200
 138173058.053 5                  26293458.679
        35.600
 134510782.383 6                  25596519.791
        36.900
 127810227.909 7                  24321462.233
        44.700
 122911357.562 7  95597752.371 7  23057859.206    23057857.711    23057865.908
        43.200          42.100
 106656897.560 7  82955345.171 7  19945368.548    19945367.365    19945373.866
        47.500          43.000
 111665619.317 6  86850972.788 6  20852749.271    20852750.166    20852751.789
        40.200          40.100
 25  1  1  5  3 15.0000000  0 27G18R01G15G12G11G20E27E03G25G05E34G29
                                E15E26S35R17R02S31R15G13S33E08E21E13
                                R14R24R08
 127696042.675 5  99503429.5584   24299751.350    24299752.1864   24299756.8544
        34.600           4.4004
 105650261.291 7  82172464.197 6  19764067.754    19764066.611    19764073.830
        47.400          41.400
 123920365.758 4                  23581269.397
        27.500
 126799231.746 6  98804580.73244  24129095.808    24129095.3754   24129095.4074
        40.000          28.7004
 118707465.405 7  92499321.00145  22589280.749    22589280.4014   22589280.8714
        44.300          31.6004
 112035080.331 7  87300059.06943  21319564.669    21319563.6104   21319564.5004
        45.300          23.0004
 136138687.926 6                  25906321.059
        40.200
 133724730.607 7                  25446943.736
        44.100
 119159138.693 7  92851269.67046  22675235.148    22675234.2364   22675237.1394
        47.200          37.8004
 105444706.330 8  82164698.03348  20065455.462    20065455.1274   20065455.0104
        51.900          51.5004
 145477933.520 5                  27683527.852
        30.600
 110915560.706 8  86427673.40347  21106529.923    21106529.4634   21106528.4384
        48.500          45.4004
 126795208.177 6                  24128320.413
        38.500




 123430261.066 5  96001343.731 6  23065895.155                    23065882.140
        30.100          38.600
 122861921.493 6  95559177.816 6  23024235.203    23024239.331    23024247.565
        40.500          37.500
 198904288.187 6                  37850225.922
        39.800
 121980931.746 6  94874095.850 6  22827066.319    22827063.940    22827074.780
        41.500          40.100
 119435121.837 6  93066318.25842  22727744.511    22727744.3774   22727743.7484
        36.600          15.3004
 202046663.991 7                  38448199.646
        44.100
 138131214.101 6                  26285500.076
        38.300
 134516564.354 7                  25597621.672
        42.500
 127794861.570 7                  24318538.118
        43.900
 122958421.848 7  95634357.897 6  23066690.622    23066690.114    23066692.842
        46.600          39.700
 106638215.223 8  82940814.476 7  19941874.122    19941873.423    19941880.867
        48.200          44.200
 111699574.581 6  86877382.449 7  20859086.416    20859087.309    20859095.439
        37.700          45.600
 25  1  1  5  3 30.0000000  0 24G18R01G12G11G20E27E03G25G05E34G29E15
                                E26S35R17S31R15S33E08E21E13R14R24R08


 105617033.620 8  82146620.465 6  19757851.027    19757850.872    19757856.290
        48.600          39.400
 126852686.168 6  98846233.55644  24139268.494    24139268.1284   24139269.1624
        38.700          28.2004
 118739311.740 7  92524136.34745  22595341.190    22595340.8464   22595340.9394
        45.400          31.4004
 112067904.239 6  87325636.04343  21325810.714    21325809.6414   21325812.1304
        41.400          23.6004
 136177819.194 7                  25913768.272
        42.000
 133711641.458 7                  25444452.041
        45.300
 119197114.968 7  92880861.47946  22682461.294    22682460.3914   22682464.5154
        43.300          36.7004
 105447782.098 8  82167094.78748  20066040.879    20066040.5494   20066040.2074
        49.500          52.2004
 145507418.742 4                  27689137.855
        26.900
 110885520.527 7  86404265.43647  21100814.099    21100813.6394   21100812.2024
        47.400          44.9004
 126808502.916 6                  24130852.933
        40.400




                  95965605.016 6                  23057291.069    23057300.389
                        40.400
 198904276.624 6                  37850218.128
        40.900
 121988871.436 6  94880271.164 6  22828555.687    22828556.809    22828561.277
        40.500          40.800
 202046643.401 6                  38448197.973
        36.000
 138089400.518 5                  26277540.609
        34.200
 134522453.045 6                  25598740.834
        39.200
 127779516.582 7                  24315616.916
        44.900
 123005559.563 7  95671020.551 7  23075531.345    23075532.403    23075536.446
        46.900          42.100
 106619597.960 8  82926334.360 7  19938393.594    19938394.165    19938398.246
        50.100          42.200
 111733697.673 6  86903922.667 6  20865456.853    20865456.089    20865464.290
        37.600          41.600
 25  1  1  5  3 45.0000000  0 26G18R01G12G11G20E27E03G25G05E34G29E15
                                E26S35R23R17S31R15G13S33E08E21E13R14
                                R24R08
 127617824.322 5                  24284866.195
        32.900
 105583986.337 7  82120917.076 7  19751669.599    19751668.787    19751675.331
        47.900          43.300
 126906148.986 6  98887892.84744  24149443.300    24149442.9204   24149442.9574
        41.300          27.7004
 118771192.655 7  92548978.62945  22601408.261    22601407.9174   22601407.6704
        45.100          31.4004
 112100791.870 7  87351262.80743  21332069.339    21332068.2574   21332070.9534
        45.100          23.9004
 136216996.323 6                  25921222.685
        40.800
 133698654.261 7                  25441981.083
        44.700
 119235172.524 7  92910516.78345  22689703.683    22689702.7894   22689707.6004
        42.700          34.8004
 105450984.673 8  82169590.26548  20066650.850    20066650.5154   20066649.6674
        51.000          52.4004


 110855578.949 7  86380934.37846  21095115.166    21095114.6934   21095114.3714
        43.900          40.5004
 126821820.040 6                  24133386.472
        39.200




 114058352.441 6                  21321974.108    21321973.904
        38.800
 123338351.849 6  95929859.673 6  23048707.885    23048705.831    23048709.535
        37.400          40.900
 198904267.448 7                  37850222.721
        45.200
 121996990.145 6  94886585.796 6  22830075.793    22830073.704    22830078.208
        40.400          40.500
 119343747.108 6  92995139.39542  22710363.195    22710362.3954   22710363.2214
        38.400          12.8004
 202046624.271 6                  38448194.883
        41.800
 138047618.549 6                  26269595.135
        37.800
 134528449.198 6                  25599881.864
        37.500
 127764194.002 6                  24312702.082
        41.600
 123052771.247 7  95707740.712 6  23084390.507    23084390.473    23084392.481
        45.800          39.800
 106601047.318 8  82911906.095 6  19934925.233    19934926.525    19934927.820
        50.900          39.000
 111767989.239 6  86930593.829 6  20871863.282    20871865.078    20871866.183
        36.600          36.800
 25  1  1  5  4  0.0000000  0 27G18R01G12G11G20E27E03G25G05E34G29E15
                                E26S35R23R17R02S31R15G13S33E08E21E13
                                R14R24R08
 127578742.205 6                  24277424.042
        37.400
 105551118.025 8  82095352.852 7  19745521.021    19745521.120    19745526.555
        48.800          42.400
 126959618.198 6  98929557.18644  24159615.819    24159615.4174   24159618.4074
        40.300          26.8004
 118803106.403 7  92573846.47944  22607480.503    22607480.1414   22607480.2274
        42.400          29.5004
 112133741.554 6  87376937.86044  21338339.635    21338338.5534   21338341.3034
        39.800          24.4004
 136256217.216 7                  25928686.301
        42.300
 133685767.605 7                  25439528.502
        45.100
 119273309.600 7  92940233.92745  22696961.139    22696960.2414   22696964.7354
        43.600          35.6004
 105454312.247 8  82172183.18848  20067283.859    20067283.5204   20067282.3174
        53.500          51.4004


 110825734.374 7  86357678.87347  21089436.621    21089436.1704   21089435.3974
        46.400          44.5004
 126835158.070 6                  24135925.061
        38.100


 200870466.902 5                  38224404.314
        34.200
 114087330.379 6                  21327390.213    21327394.508
        41.400
 123292383.553 6  95894106.546 6  23040116.897    23040118.563    23040118.770
        40.100          39.700
 122660692.884 6                  22986562.407    22986560.460
        39.200
 198904258.197 6                  37850212.597
        39.300
 122005286.124 6  94893038.152 7  22831626.801    22831626.614    22831634.190
        41.900          42.400
 119298171.941 5  92959624.21441  22701689.248    22701689.1554   22701689.8794
        34.200          11.1004
 202046604.999 6                  38448189.491
        39.500
 138005865.206 5                  26261645.382
        32.100
 134534551.295 5                  25601043.449
        35.600
 127748892.004 7                  24309790.759
        44.400
 123100054.738 6  95744516.683 6  23093256.661    23093254.203    23093264.113
        39.100          40.100
 106582561.754 8  82897528.489 6  19931467.244    19931467.810    19931472.105
        51.100          41.800
                  86957394.401 5                                  20878304.090
                        35.300
 25  1  1  5  4 15.0000000  0 28G18R01G15G12G11G20E27E03G25G05E34G29
                                E15E26S35R23R17R02S31R15G13S33E08E21
                                E13R14R24R08
 127539646.485 6                  24269985.126
        36.100
 105518428.709 8  82069927.836 6  19739405.551    19739406.360    19739412.313
        50.200          41.500
 123691054.474 6  96382667.34942  23537622.731    23537622.8784   23537628.7474
        36.200          17.4004
 127013092.865 5  98971225.79244  24169793.477    24169793.0304   24169794.9934
        35.100          25.1004
 118835052.634 7  92598739.66145  22613559.569    22613559.1944   22613559.8414
        44.400          31.9004
 112166752.581 7  87402660.77943  21344621.374    21344620.2574   21344622.2834
        42.700          18.5004
 136295481.372 6                  25936158.034
        39.600
 133672981.103 7                  25437095.500
        44.800
 119311525.197 7  92970012.27346  22704233.072    22704232.2054   22704237.0154
        45.200          36.7004
 105457763.970 8  82174872.83648  20067940.377    20067940.0334   20067939.3414
        52.500          52.1004


 110795986.709 6  86334498.84346  21083776.182    21083775.6954   21083775.1954
        38.700          41.1004
 126848516.597 6                  24138467.076
        38.200




 114116376.367 7                  21332823.104    21332823.590
        42.400
 123246404.597 6  95858345.313 6  23031518.205    23031519.302    23031526.887
        38.900          39.400
 122593736.258 6  95350714.484 5  22974014.261    22974014.111    22974021.590
        40.300          31.400
 198904247.911 7                  37850219.430
        43.000
 122013758.822 7  94899628.028 7  22833211.563    22833211.862    22833220.923
        42.600          43.700
 119252659.875 5  92924160.30442  22693028.950    22693028.5124   22693029.9834
        32.000          12.7004
 202046584.823 7                  38448188.525
        44.300


 134540758.874 7                  25602224.724
        42.800
 127733610.365 7                  24306882.191
        46.000
 123147409.083 6  95781347.785 6  23102141.572    23102142.157    23102149.473
        41.700          39.400
 106564140.995 8  82883201.200 7  19928023.886    19928024.902    19928028.348
        51.200          45.100
 111836955.521 6  86984323.904 6  20884763.523    20884766.563    20884768.987
        40.900          39.700
 25  1  1  5  4 30.0000000  0 28G18R01G15G12G11G20E27E03G25G05E34G29
                                E15E26S35R23R17R02S31R15G13S33E08E21
                                E13R14R24R08
 127500560.967 6  99351025.22741  24262546.785    24262547.3394   24262540.0044
        36.200           9.1004
 105485920.980 7  82044644.118 6  19733322.960    19733322.816    19733330.728
        47.800          41.700
 123633765.321 5  96338026.41243  23526722.731    23526722.6114   23526725.7504
        35.300          22.5004


 118867033.546 7  92623659.83445  22619645.393    22619645.0364   22619646.0684
        44.700          31.6004
 112199826.933 6  87428432.96643  21350914.498    21350913.3544   21350915.2964
        39.900          18.8004
 136334790.936 6                  25943638.212
        41.200
 133660297.287 7                  25434682.234
        46.400
 119349821.310 6  92999853.37046  22711520.134    22711519.2634   22711524.7764
        39.700          36.1004
 105461342.639 8  82177661.39548  20068621.392    20068621.0484   20068620.4994
        50.300          51.6004


 110766338.539 7  86311396.33947  21078134.983    21078134.5014   21078133.3444
        45.600          42.9004
 126861897.902 6                  24141013.648
        41.600
 148377146.427 5                  28235230.288
        32.100
 200870529.389 6                  38224407.077
        38.400
 114145492.953 7                  21338264.905    21338265.402
        42.600
                  95822578.068 6                  23022924.154    23022932.250
                        39.600
 122526814.800 5  95298664.290 5  22961472.346    22961469.470    22961480.061
        34.100          33.600
 198904239.808 6                  37850212.154
        41.500
 122022410.179 6  94906357.006 7  22834833.809    22834831.368    22834838.971
        40.200          43.700
 119207201.269 6  92888748.32342  22684380.738    22684380.3144   22684381.2524
        36.100          16.6004
 202046566.937 7                  38448183.709
        43.000
 137922511.667 6                  26245783.031
        37.100
 134547074.208 7                  25603427.483
        44.800
 127718351.243 7                  24303978.120
        45.700
 123194836.178 6  95818235.529 6  23111039.130    23111038.530    23111044.174
        40.500          37.800
 106545787.695 8  82868926.426 7  19924590.694    19924590.986    19924596.373
        52.000          45.500
 111871746.651 6  87011383.595 6  20891267.628    20891267.511    20891265.141
        41.000          39.200
 25  1  1  5  4 45.0000000  0 27G18R01G12G11G20E27E03G25G05E34G29E05
                                E15E26S35R23R17S31R15G13S33E08E21E13
                                R14R24R08


 105453587.930 8  82019496.269 7  19727275.355    19727274.669    19727281.204
        48.400          42.200
 127120125.269 5  99054652.56643  24190148.697    24190148.2244   24190154.2594
        35.300          21.4004
 118899042.085 7  92648601.54445  22625736.042    22625735.6944   22625737.3084
        45.100          30.0004
 112232957.591 7  87454248.99443  21357219.152    21357218.0214   21357219.9934
        42.600          20.1004
 136374138.303 7                  25951126.511
        44.600
 133647709.188 7                  25432286.126
        44.100
 119388190.425 7  93029751.43145  22718821.955    22718821.0664   22718824.8304
        42.200          34.5004
 105465040.805 8  82180543.06848  20069325.179    20069324.8404   20069324.3374
        49.200          50.5004


 110736783.057 7  86288366.10846  21072509.440    21072508.9534   21072508.6874
        47.200          41.3004


 126875294.862 6                  24143562.209
        38.400


 200870544.715 6                  38224401.832
        37.000
 114174673.339 6                  21343719.678    21343718.600
        41.300
 123154415.737 5  95786799.069 7  23014338.124                    23014337.670
        31.200          42.700
 198904226.511 6                  37850208.568
        41.800
 122031234.191 6  94913219.345 6  22836484.149    22836480.958    22836489.120
        40.500          41.900
 119161813.529 5  92853381.21142  22675745.628    22675745.0524   22675744.7654
        33.700          12.6004
 202046544.328 7                  38448172.932
        43.400
 137880847.881 6                  26237854.153
        37.000
 134553490.071 6                  25604647.843
        40.700
 127703107.663 7                  24301076.962
        43.000
 123242328.221 7  95855173.810 6  23119947.822    23119946.624    23119954.861
        44.400          38.700
 106527494.927 8  82854698.700 7  19921170.833    19921171.286    19921175.059
        52.800          44.500
 111906697.587 6  87038567.705 6  20897790.228    20897789.484    20897792.020
        37.600          39.600
 25  1  1  5  5  0.0000000  0 29G18R01G15G12G11G20E27E03G25G05E34G29
                                E05E15E26S35R23R17R02S31R15G13S33E08
                                E21E13R14R24R08
 127422447.310 6  99290157.13641  24247674.170    24247674.7244   24247673.1564
        38.700          10.6004
 105421439.987 8  81994492.299 6  19721261.533    19721261.754    19721267.337
        49.600          40.100


 127173616.591 5  99096334.20143  24200325.998    24200325.6454   24200329.7144
        35.900          22.1004
 118931087.862 7  92673572.23445  22631834.457    22631834.1134   22631835.1754
        43.800          30.0004
 112266153.775 5  87480116.13343  21363536.808    21363535.7004   21363537.3994
        34.300          21.9004
 136413533.042 7                  25958622.587
        42.600
 133635226.381 7                  25429910.728
        46.500
 119426641.913 6  93059713.57845  22726138.707    22726137.8364   22726141.4194
        41.200          35.3004
 105468867.469 8  82183524.89048  20070053.286    20070052.9474   20070052.7064
        50.900          49.4004


 110707330.282 8  86265415.94947  21066903.504    21066903.0174   21066903.6514
        49.100          42.7004
 137484168.669 5                  26162368.930
        31.500
 126888717.125 6                  24146116.410
        38.100
 148317261.845 5                  28223834.251
        31.800
 200870564.640 6                  38224394.293
        37.900
 114203926.812 6                  21349189.899    21349186.947
        37.700
                  95751016.027 7                                  23005741.472
                        43.200
 122393093.576 6                  22936419.447
        40.900
 198904217.874 7                  37850216.608
        42.100
 122040238.002 6  94920222.316 6  22838167.135    22838165.901    22838173.911
        39.200          41.500
 119116494.949 5  92818067.98142  22667122.491    22667122.2234   22667120.7854
        35.400          13.4004
 202046525.765 6                  38448170.768
        40.200
 137839219.827 5                  26229923.168
        30.500
 134560016.160 6                  25605890.114
        40.200
 127687889.194 7                  24298182.953
        42.600
 123289894.210 7  95892169.629 6  23128872.698    23128873.360    23128879.393
        45.300          41.400
 106509272.602 8  82840525.812 7  19917762.887    19917763.695    19917767.271
        53.900          45.500
 111941817.732 4  87065883.518 4  20904347.669                    20904350.781
        28.800          28.100
 25  1  1  5  5 15.0000000  0 29G18R01G15G12G11G20E27E03G25G05E34G29
                                E05E15E26S35R23R17R02S31R15G13S33E08
                                E21E13R14R24R08
 127383344.339 6                  24240240.922
        36.900
 105389467.361 8  81969624.710 6  19715280.197    19715279.680    19715286.828
        48.500          40.000
 123461965.150 6  96204137.05643  23494029.868    23494029.7614   23494033.1324
        37.800          18.9004
 127227107.021 5  99138015.05143  24210504.528    24210504.3504   24210505.4364
        33.200          23.1004
 118963161.087 7  92698564.36245  22637937.153    22637936.8144   22637938.0724
        45.000          30.0004
 112299405.325 6  87506026.42243  21369863.737    21369862.6644   21369865.8944
        38.700          22.1004
 136452965.040 7                  25966126.725
        43.700
 133622839.445 7                  25427553.428
        46.100
 119465165.671 6  93089732.12845  22733468.827    22733467.9734   22733473.2664
        37.500          34.2004
 105472813.093 8  82186599.40148  20070804.308    20070803.9604   20070803.5414
        50.900          49.9004


 110677970.739 7  86242538.42347  21061316.887    21061316.4274   21061317.5084
        46.400          43.9004
 137507150.653 5                  26166741.758
        30.600
 126902154.907 5                  24148674.197
        35.400
 148287329.123 5                  28218139.234
        30.700
 200870578.740 5                  38224409.626
        35.800
 114233243.783 6                  21354666.802    21354666.531
        39.000
 123062386.970 7  95715221.822 6  22997140.484    22997137.599    22997142.305
        42.100          41.400
 122326268.541 6                  22923896.810    22923899.264
        36.100
 198904203.231 7                  37850210.214
        43.300
 122049412.711 7  94927358.252 6  22839885.718    22839884.744    22839888.685
        44.700          41.000
 119071236.177 4                  22658511.579
        28.100
 202046501.343 7                  38448174.497
        45.300
 137797620.348 5                  26222007.468
        33.900
 134566642.564 6                  25607149.487
        39.600
 127672686.099 7                  24295287.909
        42.200
 123337524.031 7  95929215.115 6  23137808.656    23137808.847    23137810.444
        43.000          36.000
 106491110.895 9  82826400.046 7  19914366.781    19914366.747    19914371.127
        54.100          46.400
 111977101.873 5  87093322.775 5  20910936.255    20910941.993    20910939.073
        35.800          33.200
 25  1  1  5  5 30.0000000  0 27G18R01G15G12G11G20E27E03G25G05E34G29
                                E05E15E26S35R23R17R02S31R15S33E08E21
                                E13R14R24
 127344286.211 4  99229275.71841  24232808.855    24232808.9714   24232804.7524
        28.700          10.5004
 105357676.779 7  81944898.781 6  19709332.680    19709332.234    19709339.409
        47.400          39.400
 123404739.710 6  96159545.79743  23483143.930    23483143.8054   23483142.2404
        40.100          20.5004
 127280583.156 6  99179678.37343  24220686.189    24220686.1634   24220687.7554
        38.100          22.8004
 118995268.093 7  92723582.85545  22644047.540    22644047.1924   22644048.2094
        43.800          30.7004
 112332718.438 7  87531984.69743  21376203.401    21376202.3864   21376205.6984
        44.200          22.3004
 136492440.484 7                  25973639.805
        44.600
 133610554.751 7                  25425216.577
        45.100
 119503767.335 6  93119811.31345  22740815.991    22740815.1464   22740820.8624
        37.100          33.2004
 105476884.161 8  82189771.68248  20071579.477    20071579.1334   20071578.3884
        49.500          50.2004


 110648711.112 7  86219738.69247  21055749.839    21055749.3744   21055750.2894
        45.800          44.9004
 137530222.673 5                  26171130.473
        30.400
 126915614.723 6                  24151235.350
        41.100
 148257398.950 4                  28212443.721
        27.800
 200870644.553 6                  38224419.182
        40.700
 114262630.928 6                  21360160.204    21360159.401
        41.700
 123016357.445 6  95679421.067 6  22988537.016    22988537.927    22988538.903
        37.800          40.800
 122259478.292 4                  22911368.126
        27.800
 198904190.762 7                  37850211.788
        44.300
 122058764.716 7  94934632.038 6  22841634.781    22841635.192    22841640.108
        45.800          40.700
 202046478.603 7                  38448166.918
        44.000


 134573375.482 6                  25608431.671
        40.100
 127657504.666 7                  24292400.233
        42.900
 123385223.123 6  95966314.421 6  23146753.157    23146752.347    23146759.998
        37.700          37.700
 106473016.619 8  82812326.724 7  19910983.597    19910984.657    19910987.755
        53.700          46.300
 25  1  1  5  5 45.0000000  0 27G18R01G15G12G11G20E27E03G25G05E34G29
                                E05E15E26S35R23R17S31R15G13S33E08E21
                                E13R14R24
 127305238.174 6  99198848.68742  24225380.728    24225381.0144   24225377.2524
        41.100          17.8004
 105326069.013 7  81920315.041 6  19703420.081    19703419.377    19703426.453
        47.200          39.500
 123347534.013 7  96114969.85842  23472255.561    23472255.5394   23472255.9414
        42.700          17.1004
 127334084.156 6  99221367.51143  24230867.024    24230867.2474   24230866.0844
        37.700          23.5004
 119027409.253 7  92748627.89245  22650164.357    22650164.0224   22650164.1014
        47.600          32.4004
 112366093.317 6  87557991.02643  21382554.781    21382553.8204   21382556.2834
        38.000          19.5004
 136531959.551 7                  25981158.658
        43.800
 133598372.789 7                  25422897.798
        43.900
 119542447.430 6  93149951.65445  22748174.598    22748173.8384   22748181.1754
        39.000          30.2004
 105481080.714 8  82193041.71548  20072377.488    20072377.1444   20072376.9534
        52.000          49.1004


 110619552.279 7  86197017.53147  21050201.410    21050200.9374   21050201.1394
        47.100          44.0004
 137553384.389 5                  26175539.309
        32.700
 126929096.792 6                  24153799.444
        41.100
 148227485.059 5                  28206748.418
        30.300
 200870661.265 6                  38224404.403
        38.500
 114292088.488 7                  21365669.974    21365670.323
        45.000
 122970320.119 6  95643614.222 5  22979928.027    22979928.015    22979934.281
        40.700          32.500
 198904179.152 6                  37850201.646
        39.900
 122068294.201 7  94942043.818 6  22843419.169    22843418.632    22843422.832
        46.400          38.600
 118980984.701 5                  22641320.457
        33.400
 202046456.648 6                  38448153.601
        40.100
 137714519.246 5                  26206193.009
        33.000
 134580215.396 6                  25609732.060
        38.700
 127642345.244 7                  24289515.306
        42.900
 123432991.863 6  96003467.762 6  23155712.124    23155711.891    23155721.895
        40.500          36.800
 106454990.384 8  82798306.319 7  19907611.352    19907611.775    19907616.728
        52.200          45.700
 25  1  1  5  6  0.0000000  0 28G18R01G15G12G11G20E27E03G25G05E34G29
                                E05E15E26S35R23R17S31R15G13S33E08E21
                                E13R14R24R08
 127266197.050 6  99168427.06543  24217952.548    24217952.6824   24217949.5344
        41.000          22.0004
 105294641.686 7  81895871.564 6  19697540.718    19697540.280    19697547.083
        47.500          39.100
 123290345.385 6  96070407.41442  23461373.443    23461373.4964   23461371.6234
        38.800          15.1004
