     2.11           OBSERVATION DATA    M (MIXED)           RINEX VERSION / TYPE
teqc  2019Feb25                         20260317 16:18:01UTCPGM / RUN BY / DATE
Linux 2.4.21-27.ELsmp|Opteron|gcc -static|Linux 64|=+       COMMENT
BIT 2 OF LLI FLAGS DATA COLLECTED UNDER A/S CONDITION       COMMENT
-Unknown-                                                   MARKER NAME
-Unknown-           -Unknown-                               OBSERVER / AGENCY
-Unknown-           -Unknown-           -Unknown-           REC # / TYPE / VERS
-Unknown-           -Unknown-                               ANT # / TYPE
        0.0000        0.0000        0.0000                  APPROX POSITION XYZ
        0.0000        0.0000        0.0000                  ANTENNA: DELTA H/E/N
     1     1                                                WAVELENGTH FACT L1/2
     7    L1    L2    C1    P1    P2    S1    S2            # / TYPES OF OBSERV
 SNR is mapped to RINEX snr flag value [0-9]                COMMENT
  L1 & L2: min(max(int(snr_dBHz/6), 0), 9)                  COMMENT
  2025     1     1    22     0    0.0000000     GPS         TIME OF FIRST OBS
    18                                                      LEAP SECONDS
                                                            END OF HEADER
 25  1  1 22  0  0.0000000  0 33G21E31G07G02G30G08G13G15G19E10G17E33
                                E24R10E09E03E25R12E12G14S35S31E05E06
                                S33R03R11R21R23R20R02E26R22
 120412392.016 6                  22913710.650
        37.400
 126117066.894 7                  23999271.267
        46.100
 117844705.069 7  91826971.32646  22425109.240    22425108.6954   22425112.5564
        44.800          36.8004
 115011852.003 8  89619655.95145  21886022.702    21886021.5444   21886023.7794
        48.500          35.2004
 108655117.258 7  84666319.88546  20676379.583    20676378.8374   20676386.0284
        43.600          40.7004


 119950403.485 6  93467851.34342  22825807.365    22825806.9904   22825805.5984
        39.400          13.4004
 129210421.943 5 100683441.48842  24587921.059    24587921.8144   24587937.7854
        33.500          12.1004
 119332575.609 6  92986395.92544  22708219.733    22708218.3294   22708219.4644
        36.800          24.1004
 140114508.282 5                  26662907.510
        30.800
 108351153.513 8  84429489.64748  20618538.933    20618538.4824   20618539.6914
        49.700          48.4004
 130054676.117 7                  24748577.553
        45.600
 128441285.649 7                  24441563.801
        44.900
 123397442.013 4                  23149043.897    23149042.010
        27.100
 143618377.209 5                  27329669.870
        32.000




 111283101.654 7  86553551.010 7  20832430.169    20832431.319    20832438.210
        47.100          42.300
 133881744.536 6                  25476844.885
        40.100
 106752988.382 8  83184148.66846  20314418.414    20314418.1334   20314420.2964
        49.600          40.3004


 198897278.649 7                  37848916.359
        44.500
 130392137.171 5                  24812806.453
        30.900


 202055096.000 7                  38449819.683
        44.000
 128463537.174 5                  23998071.066    23998071.575
        35.000
 105111138.586 8  81753100.533 7  19670120.803    19670121.894    19670127.105
        49.500          43.100
 105067315.404 7  81719331.891 6  19634336.656    19634333.908    19634340.452
        44.800          38.300
 129041735.308 5                  24122982.840    24122987.275
        32.900


 127111334.513 6                  23820612.752    23820613.268
        36.600


 108262011.284 7  84203639.576 7  20281086.869    20281087.403    20281092.427
        46.000          46.400
 25  1  1 22  0 15.0000000  0 33G21E31G07G02G30G08G13G15G19E10G17E33
                                E24R10E09E03E25R12E12G14S35S31E05E06
                                S33R03R11R21R23R20R02E26R22
 120453236.584 5  93859669.9364   22921481.282    22921481.0504   22921483.9214
        32.600           5.7004
 126129515.497 7                  24001640.727
        47.600
 117892492.863 7  91864208.49045  22434203.700    22434203.1334   22434206.8174
        42.000          34.8004
 115031714.159 8  89635132.95945  21889802.527    21889801.3694   21889803.2124
        49.000          35.6004
 108679669.985 6  84685451.82746  20681051.754    20681051.0304   20681058.5564
        39.500          37.8004


 119968778.262 6  93482169.27341  22829304.294    22829303.7094   22829302.1164
        36.900          10.5004
 129218969.197 6 100690101.70542  24589549.296    24589550.0474   24589566.1314
        37.900          12.5004
 119290111.056 6  92953306.76344  22700139.072    22700137.6914   22700139.2644
        37.900          24.0004
 140067478.821 5                  26653958.687
        31.500
 108335728.360 8  84417470.08347  20615603.742    20615603.2864   20615603.6114
        49.200          47.9004
 130056772.986 7                  24748976.855
        44.800
 128423994.367 7                  24438272.717
        45.300
 123444895.692 4                  23157947.601    23157945.292
        28.100
 143660194.407 5                  27337631.198
        32.400




 111241484.381 7  86521182.064 6  20824639.860    20824639.007    20824644.315
        47.000          36.200
 133843295.242 6                  25469528.346
        40.300
 106741080.739 8  83174869.97446  20312152.536    20312152.2594   20312153.6264
        48.600          38.0004


 198897276.750 7                  37848912.312
        42.000




 202055101.565 7                  38449821.718
        44.800
 128464213.505 5  99916644.837 5  23998197.049    23998197.192    23998193.310
        33.900          30.900
 105122326.556 8  81761802.243 7  19672216.270    19672217.256    19672221.420
        50.100          42.100
 105087898.014 7  81735340.543 5  19638179.253    19638179.137    19638184.299
        44.000          32.100
 128974002.040 4                  24110327.981    24110324.753
        28.600


 127149751.115 6                  23827815.066    23827816.591
        39.300


 108216409.591 6  84168171.630 7  20272540.400    20272539.637    20272547.854
        41.100          45.000
 25  1  1 22  0 30.0000000  0 29G21E31G07G02G30G13G15G19E10G17E33E24
                                E09E03E25R12E12G14S35S31E05E06S33R03
                                R11R21R02E26R22
 120494186.249 4  93891578.85641  22929273.988    22929273.9044   22929274.5204
        28.700           8.6004
 126142000.077 7                  24004016.472
        46.900
 117940359.626 6  91901507.21445  22443312.416    22443311.8354   22443316.5454
        41.800          34.8004
 115051712.123 8  89650715.78146  21893607.125    21893605.9814   21893608.0224
        50.100          37.5004
 108704356.079 6  84704687.72746  20685748.800    20685748.0814   20685755.9824
        41.000          38.7004
 119987282.866 4  93496588.51941  22832823.045    22832822.3574   22832823.4744
        25.600           9.6004
 129227649.102 6 100696864.95242  24591200.907    24591201.6174   24591218.6464
        38.200          14.4004
 119247708.148 7  92920265.63744  22692069.294    22692067.8324   22692070.5354
        42.800          24.6004
 140020474.637 5                  26645011.572
        31.800
 108320405.935 8  84405530.56147  20612687.929    20612687.4734   20612687.3794
        48.100          47.1004
 130058986.581 7                  24749397.999
        44.900
 128406729.143 7                  24434988.380
        46.000
 143702020.354 5                  27345591.626
        32.700




 111199917.749 7  86488852.534 5  20816857.430    20816857.262    20816860.526
        45.600          33.800
 133804912.482 6                  25462224.102
        40.500
 106729240.476 8  83165643.79046  20309899.848    20309899.5714   20309900.2644
        49.300          37.2004


 198897278.062 7                  37848908.131
        43.200
 130432280.306 5                  24820432.780
        32.800


 202055111.136 7                  38449825.443
        45.300
 128465067.587 5  99917309.157 4  23998358.053    23998357.951    23998352.638
        30.600          29.400
 105133637.915 8  81770599.931 7  19674333.685    19674333.241    19674339.288
        49.600          43.500


 127188270.887 6  98924271.751 5  23835033.395    23835032.095    23835041.197
        36.800          33.000


 108170955.465 6  84132818.474 7  20264027.663    20264031.360    20264032.289
        40.900          43.600
 25  1  1 22  0 45.0000000  0 29G21E31G07G02G30G15G19E10G17E33E24E09
                                E03E25R12E12G14S35S31E05E06S33R03R11
                                R21R20R02E26R22
 120535240.278 6  93923569.05341  22937086.683    22937086.2414   22937087.0534
        36.400          11.7004
 126154520.380 7                  24006399.266
        46.400
 117988304.605 7  91938866.87545  22452434.996    22452434.4204   22452440.8244
        43.200          35.3004
 115071845.543 8  89666404.13946  21897437.895    21897436.7554   21897438.9954
        48.900          37.6004
 108729175.154 6  84724027.22946  20690473.044    20690472.3604   20690478.9454
        38.400          38.4004
 129236460.977 5 100703731.27042  24592876.599    24592877.2834   24592896.5644
        35.000          12.9004
 119205366.680 7  92887272.41844  22684012.461    22684010.9864   22684014.2984
        44.100          26.3004
 139973495.431 5                  26636075.146
        32.400
 108305185.824 8  84393670.74947  20609791.533    20609791.0774   20609790.8864
        48.200          46.9004
 130061316.497 7                  24749841.730
        44.900
 128389489.714 7                  24431708.113
        46.900
 143743854.226 5                  27353551.557
        31.300




 111158401.682 8  86456562.219 5  20809085.727    20809086.315    20809088.358
        48.600          35.200
 133766596.198 6                  25454933.768
        40.600
 106717467.404 8  83156469.97646  20307659.224    20307658.9384   20307659.7484
        50.000          36.6004


 198897282.663 7                  37848906.195
        42.500
 130452448.009 5                  24824272.556
        30.600


 202055122.939 7                  38449820.202
        44.000
                  99918111.392 5                                  23998547.583
                        32.000
 105145072.581 8  81779493.541 7  19676472.821    19676472.828    19676478.365
        50.300          43.300
 105129628.004 7  81767471.045 5  19645979.245    19645978.729    19645985.063
        43.500          35.200


 127226892.873 5  98954310.982 4  23842268.142    23842265.030    23842279.631
        32.400          26.900


                  84097580.158 7                                  20255545.475
                        44.700
 25  1  1 22  1  0.0000000  0 29G21E31G07G02G30G13G15G19E10G17E33E24
                                E09E03E25R12E12G14S35S31E05E06S33R03
                                R11R21R02E26R22
 120576388.042 6  93955632.28242  22944915.971    22944915.4934   22944917.8174
        37.500          12.7004
 126167066.485 7                  24008786.508
        45.300
 118036317.594 7  91976279.51045  22461571.184    22461570.6344   22461577.8204
        44.500          35.9004
 115092104.212 8  89682190.09746  21901293.559    21901292.4424   21901294.6794
        49.000          38.1004
 108754117.068 6  84743462.45246  20695219.610    20695218.9314   20695225.0234
        41.400          38.7004
 120024735.476 6  93525776.73842  22839940.581    22839940.6434   22839948.1784
        39.700          17.7004
 129245394.858 5 100710692.8524   24594577.025    24594577.6554   24594598.0174
        30.600           3.8004
 119163076.930 7  92854319.49044  22675965.788    22675964.3084   22675966.5004
        44.700          27.4004
 139926531.550 5                  26627149.611
        30.000
 108290058.037 8  84381882.87647  20606912.364    20606911.9084   20606912.4404
        48.700          47.2004
 130063752.804 7                  24750305.408
        44.400
 128372266.165 7                  24428430.595
        46.800






 111116926.292 8  86424303.562 6  20801321.968    20801322.210    20801324.669
        49.300          38.300
 133728336.640 6                  25447653.011
        40.300
 106705751.692 8  83147340.86545  20305429.443    20305429.1484   20305430.3224
        49.400          35.8004


 198897281.429 7                  37848907.160
        42.500




 202055128.873 7                  38449826.359
        45.300
                  99919043.788 4                                  23998772.837
                        29.400
 105156620.458 8  81788475.278 7  19678632.336    19678632.787    19678640.761
        48.800          44.400
 105150764.160 6  81783910.372 6  19649925.648    19649924.999    19649933.040
        38.900          36.700
 127265606.668 6                  23849523.937    23849522.987
        37.500


 108080480.531 6  84062449.061 7  20247086.206    20247083.218    20247084.352
        41.200          45.900
 25  1  1 22  1 15.0000000  0 29G21E31G07G02G30G13G15G19E10G17E33E24
                                E09E03E25R12E12G14S35S31E05E06S33R03
                                R11R21R02E26R22
 120617638.533 5  93987775.56241  22952764.136    22952763.6494   22952768.1844
        33.900          11.2004
 126179647.491 7                  24011180.384
        44.500
 118084407.498 7  92013752.06646  22470723.138    22470722.6114   22470729.4974
        43.400          36.4004
 115112496.971 8  89698080.53946  21905174.276    21905173.1634   21905176.1234
        49.900          38.6004
 108779190.724 7  84763000.34046  20699990.022    20699989.2984   20699995.9134
        42.200          39.9004
 120043617.105 6  93540489.67542  22843533.428    22843533.4284   22843537.8264
        41.700          16.9004
 129254459.561 5                  24596301.517
        30.600
 119120847.985 7  92821413.94644  22667930.141    22667928.6614   22667930.3594
        43.200          28.8004
 139879592.360 5                  26618209.059
        30.200
 108275031.806 8  84370174.13847  20604053.094    20604052.6474   20604053.2674
        49.200          47.9004
 130066304.519 7                  24750791.475
        45.100
 128355067.593 7                  24425157.990
        46.500






 111075501.183 8  86392084.008 6  20793567.690    20793567.616    20793571.618
        49.600          41.200
 133690143.152 6                  25440384.766
        40.500
 106694102.492 7  83138263.58845  20303213.109    20303212.8144   20303214.0794
        47.300          35.8004


 198897282.100 7                  37848908.193
        42.800




 202055137.092 7                  38449831.587
        45.700


 105168290.927 8  81797552.236 7  19680818.925    19680819.893    19680826.052
        50.300          44.900
 105172086.709 6  81800494.633 6  19653911.875    19653908.302    19653919.183
        38.400          39.600
 127304420.821 6                  23856812.286    23856812.121
        37.200
 146201537.624 5                  27821225.327
        34.300
 108035459.261 7  84027432.620 7  20238644.796    20238643.862    20238650.456
        42.600          46.000
 25  1  1 22  1 30.0000000  0 28G21E31G07G02G30G13G15G19E10G17E33E24
                                E09E03E25R12E12G14S35S31E05E06S33R03
                                R11R21E26R22
 120658987.289 4  94019995.50641  22960632.728    22960632.0944   22960636.9834
        29.700           6.9004
 126192259.209 7                  24013580.446
        44.800
 118132569.906 7  92051281.10146  22479889.757    22479889.2614   22479895.3664
        46.000          38.0004
 115133019.428 8  89714072.04646  21909079.379    21909078.2664   21909081.3254
        49.200          38.4004
 108804391.752 7  84782637.48346  20704787.167    20704786.3724   20704791.4204
        42.700          40.1004
 120062622.275 6  93555298.88442  22847150.114    22847149.9094   22847152.0244
        41.200          13.3004
 129263650.680 6 100725010.31841  24598053.514    24598054.1804   24598074.6724
        37.700           8.5004
 119078675.830 6  92788552.62744  22659905.478    22659903.9984   22659905.2234
        41.700          27.8004


 108260102.617 8  84358541.00948  20601212.084    20601211.6334   20601212.3554
        49.500          48.1004
 130068967.376 7                  24751298.797
        45.600
 128337889.815 7                  24421888.891
        45.500






 111034122.455 7  86359900.583 7  20785820.398    20785819.765    20785827.313
        47.800          43.200
 133652011.681 6                  25433128.736
        39.600
 106682515.722 7  83129234.96346  20301008.557    20301008.2624   20301010.1954
        47.200          36.3004


 198897281.093 7                  37848906.253
        42.400
 130513389.366 5                  24835874.974
        35.200


 202055143.266 7                  38449827.688
        46.100
 128470225.318 6                  23999322.645    23999324.783
        36.500
 105180079.834 7  81806721.366 7  19683022.155    19683023.093    19683029.940
        47.500          42.400
 105193590.922 7  81817220.129 6  19657931.922    19657929.096    19657936.520
        42.700          41.000
 146236392.043 4                  27827856.735
        29.400
 107990581.564 7  83992527.815 7  20230236.113    20230236.402    20230242.307
        45.300          44.700
 25  1  1 22  1 45.0000000  0 28G21E31G07G02G30G13G15G19E10G17E33E24
                                E09E03E25R12E12G14S35S31E05E06S33R11
                                R21R23R02R22
 120700439.880 5  94052296.3684   22968530.881    22968530.0324   22968525.5024
        30.100           3.2004
 126204907.932 7                  24015987.017
        45.100
 118180810.663 8  92088871.20846  22489069.486    22489068.9954   22489075.3344
        48.500          38.5004
 115153677.531 8  89730169.23246  21913010.907    21913009.8034   21913011.6714
        49.200          38.4004
 108829726.268 7  84802378.62146  20709607.807    20709606.9094   20709612.1914
        43.800          39.6004
 120081757.110 6  93570209.08841  22850790.508    22850790.3654   22850792.3774
        39.300          10.0004
 129272974.380 5 100732275.72042  24599824.818    24599825.5424   24599838.8614
        34.200          14.1004
 119036566.775 6  92755740.47544  22651891.504    22651890.0074   22651892.6264
        38.300          25.5004
 139785770.764 6                  26600350.704
        37.000
 108245276.515 8  84346988.21747  20598390.672    20598390.2074   20598391.2004
        49.200          47.6004
 130071747.582 7                  24751827.734
        45.200
 128320739.111 7                  24418624.907
        44.900






 110992796.712 8  86327758.355 7  20778085.203    20778085.370    20778090.950
        48.400          44.600
 133613948.692 6                  25425886.059
        41.200
 106670997.713 8  83120259.91746  20298816.549    20298816.2594   20298819.4404
        48.000          36.8004


 198897285.057 7                  37848918.957
        44.000
 130533895.226 6                  24839776.834
        36.600


 202055154.640 7                  38449826.588
        44.200
 105191993.657 8  81815987.644 6  19685253.922    19685254.379    19685256.039
        49.100          37.700
 105215282.633 7  81834091.486 7  19661983.336    19661983.409    19661991.817
        46.200          43.600
 128567977.615 5                  24034430.950    24034429.187
        35.200
                  99075225.140 5                                  23871410.106
                        34.100
 107945854.163 7  83957739.881 7  20221857.652    20221857.664    20221863.515
        47.500          45.000
 25  1  1 22  2  0.0000000  0 27G21E31G07G02G30G13G15G19E10G17E33E24
                                E09E03E25R12E12G14S35S31E05E06S33R11
                                R21R23R22
 120741987.410 5  94084671.07541  22976429.117    22976428.3224   22976431.8674
        34.800           9.0004
 126217585.071 7                  24018399.637
        44.700
 118229120.792 8  92126515.33546  22498261.574    22498261.0784   22498267.8054
        48.200          37.8004
 115174462.526 8  89746365.35146  21916965.847    21916964.7474   21916966.2134
        49.400          38.4004
 108855185.418 7  84822216.89546  20714452.136    20714451.1974   20714456.7784
        43.400          40.5004
 120101012.599 6  93585213.40541  22854454.023    22854453.8674   22854456.0224
        39.100           8.5004
 129282421.737 5 100739637.36942  24601624.515    24601624.9754   24601629.9744
        35.100          17.2004
 118994512.251 5  92722970.79843  22643884.594    22643883.0034   22643890.0494
        30.200          21.6004
 139738898.137 5                  26591428.791
        30.900
 108230545.024 8  84335509.15047  20595587.671    20595587.1934   20595588.2304
        49.300          47.8004
 130074636.542 7                  24752377.164
        45.900
 128303606.874 7                  24415364.863
        44.000




 146480943.204 5                  27874396.202
        32.200
 110951515.540 8  86295650.789 7  20770356.419    20770357.494    20770361.956
        49.700          43.600
 133575945.884 6                  25418654.339
        41.800
 106659540.004 8  83111331.86146  20296636.152    20296635.8804   20296639.3594
        48.500          37.0004


 198897284.452 7                  37848913.895
        42.700
 130554481.232 6                  24843694.396
        37.400


 202055161.689 7                  38449830.111
        45.800
 105204023.613 7  81825344.240 5  19687503.402    19687503.520    19687504.921
        47.300          34.500
 105237153.103 8  81851101.806 7  19666074.400    19666074.505    19666078.357
        51.600          43.700
 128500375.980 6                  24021790.974    24021793.718
        36.100
 107901268.591 7  83923062.267 7  20213504.387    20213504.539    20213511.522
        47.800          46.600
 25  1  1 22  2 15.0000000  0 29G21E31G07G02G30G13G15G19E10G17E33E24
                                E09E03E25R12E12G14S35S31E05E06S33R03
                                R11R21R23R02R22
 120783634.552 5  94117123.48341  22984355.397    22984354.7584   22984357.1034
        34.200           6.1004
 126230295.574 7                  24020818.515
        45.600
 118277504.962 7  92164217.12745  22507468.310    22507467.8144   22507473.9374
        46.500          35.9004
 115195379.073 8  89762663.96546  21920946.677    21920945.5864   21920945.7884
        49.300          38.1004
 108880774.011 7  84842156.02347  20719322.096    20719321.1844   20719325.8034
        46.500          42.4004
 120120393.416 6  93600315.25041  22858141.643    22858141.4834   22858143.3084
        38.200           6.9004
 129291997.470 5 100747098.99143  24603446.273    24603446.4784   24603448.7174
        32.300          19.8004
 118952517.312 5  92690247.61043  22635892.985    22635891.3894   22635897.9414
        35.400          19.9004
 139692049.547 4                  26582512.669
        28.500
 108215912.898 8  84324107.52347  20592803.093    20592802.6154   20592803.7294
        49.000          47.5004
 130077639.055 7                  24752947.775
        44.600
 128286498.141 6                  24412109.771
        39.100


 146557250.690 5                  27888917.933
        34.700
 146448923.491 5                  27868307.110
        34.100
 110910284.116 7  86263581.951 7  20762637.715    20762637.439    20762644.387
        47.300          43.700
 133538008.286 7                  25411435.494
        43.500
 106648147.572 7  83102454.62846  20294467.972    20294467.7004   20294470.6044
        47.600          36.2004


 198897284.654 7                  37848915.536
        42.400
 130575152.375 4                  24847637.348
        25.700


 202055169.105 7                  38449832.190
        43.800
 128475978.681 6                  24000388.723
        36.500
 105216174.946 7  81834795.244 6  19689779.138    19689777.832    19689784.376
        46.800          38.800
 105259206.573 8  81868254.511 7  19670194.704    19670195.365    19670199.525
        51.400          45.600
 128432795.207 5                  24009170.498    24009173.047
        33.000
 127460692.699 5  99136127.237 5  23886077.485                    23886083.333
        33.100          30.100
 107856830.213 7  83888499.131 7  20205180.170    20205179.205    20205187.556
        45.200          46.500
 25  1  1 22  2 30.0000000  0 29G21E31G07G02G30G13G15G19E10G17E33E24
                                E09E03E25R12E12G14S35S31E05E06S33R03
                                R11R21R23R02R22
 120825381.605 5  94149653.4084   22992297.427    22992296.5914   22992301.4064
        31.600           4.4004
 126243040.108 7                  24023244.380
        46.800
 118325963.455 7  92201976.85145  22516689.504    22516689.0044   22516695.0044
        44.800          35.6004
 115216427.537 8  89779065.37446  21924952.035    21924950.9444   21924950.9134
        48.700          38.1004
 108906492.486 7  84862196.37047  20724215.659    20724214.7614   20724220.4724
        46.400          44.5004
 120139899.879 5  93615515.02741  22861852.432    22861852.2184   22861855.1674
        35.800          11.0004
 129301701.948 5 100754660.94943  24605293.240    24605293.5664   24605294.5414
        34.400          19.8004
 118910582.648 6  92657571.38743  22627917.378    22627915.9124   22627917.7094
        39.300          20.8004
 139645225.630 5                  26573604.913
        33.200
 108201380.683 8  84312783.73147  20590037.688    20590037.1924   20590038.1384
        49.000          47.2004
 130080755.704 7                  24753540.791
        44.400
 128269413.538 6                  24408858.083
        37.500


 146544892.933 6                  27886567.180
        36.500
 146416898.925 5                  27862210.765
        30.400
 110869103.521 8  86231552.558 7  20754928.650    20754929.157    20754934.876
        48.300          43.900
 133500136.816 7                  25404228.726
        43.900
 106636821.137 8  83093628.86245  20292312.505    20292312.2154   20292313.5154
        48.500          35.6004


 198897286.818 7                  37848911.882
        42.600




 202055177.768 7                  38449827.920
        43.800
 128478222.030 6                  24000803.770    24000806.836
        37.300
 105228448.403 7  81844341.216 6  19692074.554    19692073.997    19692081.216
        46.700          41.700
 105281443.526 8  81885549.906 7  19674349.599    19674349.869    19674355.702
        50.900          46.800
 128365236.420 5                  23996546.170    23996545.690
        30.500


 107812539.996 7  83854051.203 7  20196882.881    20196881.251    20196890.121
        45.700          45.700
 25  1  1 22  2 45.0000000  0 28G21E31G07G02G30G13G15G19E10G17E33E24
                                E09E03E25R12E12G14S35S31E05E06S33R03
                                R11R21R02R22
 120867226.622 5  94182259.89041  23000261.488    23000260.6704   23000264.7264
        30.400           6.4004
 126255817.328 7                  24025675.599
        47.900
 118374494.660 6  92239793.25845  22525924.429    22525923.9334   22525931.3694
        38.800          34.1004
 115237606.426 8  89795568.40846  21928982.262    21928981.1804   21928981.1734
        48.600          38.0004
 108932339.288 7  84882336.71247  20729134.841    20729133.9434   20729140.4564
        46.400          46.3004
 120159530.347 6  93630811.46142  22865588.616    22865588.4474   22865591.9094
        38.200          15.5004
 129311533.792 5 100762322.09042  24607162.740    24607163.0174   24607165.0344
        31.300          17.5004
 118868707.143 7  92624941.19744  22619946.111    22619944.6454   22619949.0404
        42.300          25.8004
 139598425.321 6                  26564698.196
        36.000
 108186947.025 8  84301536.72647  20587291.334    20587290.8614   20587291.2424
        49.200          47.2004
 130083985.099 7                  24754155.193
        42.900
 128252351.645 6                  24405610.991
        39.700


 146532634.603 6                  27884235.264
        36.700
 146384867.930 5                  27856110.069
        32.700
 110827972.557 7  86199561.871 7  20747228.085    20747228.572    20747234.349
        46.600          43.600
 133462330.275 7                  25397034.139
        43.400
 106625559.416 8  83084853.52646  20290169.523    20290169.2064   20290169.5114
        48.100          36.3004


 198897288.723 7                  37848913.081
        42.200




 202055186.975 7                  38449833.845
        44.800
 128480638.494 5                  24001246.399    24001246.911
        30.100
 105240842.637 8  81853981.148 7  19694393.963    19694395.051    19694400.798
        49.500          42.900
 105303862.193 8  81902986.655 7  19678538.785    19678537.964    19678545.509
        48.700          47.200
                                                  23900825.354

 107768396.946 8  83819717.766 7  20188616.266    20188614.924    20188618.969
        49.000          43.900
 25  1  1 22  3  0.0000000  0 30G21E31G07G02G30G13G15G19E10G17E33E24
                                E09E03E25R12E12G14S35S31E05E06S33R11
                                R21R23R10R02E26R22
 120909166.617 4  94214940.5104   23008244.502    23008243.8544   23008246.2194
        28.300           2.4004
 126268624.289 8                  24028112.704
        48.300
 118423095.318 6  92277663.79045  22535174.296    22535173.8004   22535181.4704
        39.300          31.9004
 115258912.506 7  89812170.55546  21933036.542    21933035.4744   21933036.2414
        47.200          37.4004
 108958311.333 8  84902574.64848  20734078.323    20734077.4784   20734083.9784
        48.300          48.2004
 120179281.565 5  93646201.97442  22869346.912    22869346.7204   22869352.7364
        34.500          16.6004


 118826887.686 6  92592354.69044  22611989.337    22611987.8624   22611991.6184
        41.700          26.8004
 139551645.902 6                  26555796.292
        36.700
 108172608.888 8  84290364.15947  20584562.541    20584562.0634   20584562.8104
        50.600          47.6004
 130087324.238 6                  24754790.587
        41.400
 128235309.618 7                  24402366.623
        42.900


 146520472.844 5                  27881919.263
        34.700
 146352827.678 5                  27850012.551
        35.100
 110786888.540 7  86167607.669 7  20739538.793    20739536.477    20739544.115
        45.500          42.700
 133424585.966 7                  25389851.289
        43.000
 106614359.586 8  83076126.40346  20288038.865    20288038.5524   20288038.3984
        48.200          37.5004


 198897287.235 7                  37848910.653
        42.300




 202055192.985 7                  38449834.507
        44.500
 105253354.780 8  81863712.818 7  19696736.355    19696737.202    19696741.970
        49.500          43.300
 105326459.095 7  81920562.032 7  19682760.945    19682760.191    19682767.785
        47.600          46.800
 128230249.842 6                  23971286.857    23971288.727
        37.400
 123970949.918 5                  23256634.152    23256633.980
        30.600
 127578840.952 6                  23908224.542    23908225.572
        41.800


 107724398.390 8  83785496.745 7  20180372.841    20180373.196    20180376.991
        49.900          42.700
 25  1  1 22  3 15.0000000  0 28E31G07G02G30G13G15G19E10G17E33E24E09
                                E03E25R12E12G14S35S31E05S33R11R21R23
                                R10R02E26R22
 126281465.852 8                  24030556.286
        48.400
 118471769.948 6  92315592.02845  22544436.508    22544435.9364   22544445.1344
        36.600          30.6004
 115280350.509 7  89828875.50146  21937116.547    21937115.4794   21937116.5834
        44.900          36.4004
 108984413.270 8  84922913.79048  20739044.871    20739044.0534   20739050.6624
        49.900          48.8004
 120199158.162 6  93661690.18142  22873133.772    22873133.5534   22873136.7754
        36.600          13.2004
 129331601.214 5                  24610984.086
        30.000
 118785129.312 6  92559815.74544  22604042.902    22604041.4274   22604045.2724
        40.900          26.2004
 139504892.428 6                  26546899.743
        37.700
 108158371.015 8  84279269.72947  20581853.204    20581852.7394   20581853.9774
        49.100          47.7004
 130090777.855 7                  24755448.141
        42.800
 128218292.315 7                  24399129.775
        42.700


 146508412.431 5                  27879624.547
        30.400
 146320782.934 6                  27843916.186
        37.400
 110745856.804 8  86135694.067 7  20731859.150    20731858.451    20731863.016
        48.500          42.700
 133386908.856 6                  25382681.719
        41.700
 106603226.570 8  83067451.32946  20285920.133    20285919.8254   20285920.6604
        48.200          38.9004


 198897287.945 7                  37848918.344
        43.900


 202055200.519 7                  38449835.616
        45.000
 105265989.808 8  81873540.082 7  19699100.700    19699101.318    19699105.656
        49.300          43.800
 105349238.924 7  81938279.655 7  19687018.623    19687017.350    19687024.967
        46.200          46.000
 128162754.522 5                  23958665.405    23958669.736
        32.600
 124019132.071 5                  23265672.235    23265668.366
        31.900
 127618418.463 6                  23915640.953    23915641.481
        38.400


 107680549.552 7  83751392.136 6  20172155.896    20172155.870    20172160.876
        46.400          40.900
 25  1  1 22  3 30.0000000  0 28E31G07G02G30G13G19E10G17E33E24E09E03
                                E25R12E12G14S35S31E05S33R03R11R21R23
                                R10R02E26R22
 126294338.839 8                  24033006.488
        48.000
 118520515.118 6  92353575.22345  22553713.220    22553712.7024   22553721.7384
        37.300          32.1004
 115301916.851 7  89845680.46345  21941220.570    21941219.5154   21941220.8984
        45.700          35.3004
 109010641.658 8  84943351.48247  20744035.690    20744034.8864   20744040.1574
        49.100          47.3004
 120219156.647 6  93677273.39241  22876938.674    22876938.4424   22876942.9984
        38.800          11.9004
 118743428.657 6  92527321.78544  22596106.673    22596105.1804   22596110.0244
        36.600          25.8004
 139458161.943 6                  26538006.242
        40.400
 108144229.971 8  84268250.78648  20579162.408    20579161.9484   20579163.4564
        50.500          48.3004
 130094342.719 7                  24756126.644
        42.600
 128201296.540 6                  24395893.703
        41.700
 144204234.419 5                  27441152.164
        30.200
 146496450.271 4                  27877347.764
        29.500
 146288730.542 5                  27837817.158
        34.200
 110704874.310 8  86103818.785 7  20724187.090    20724187.396    20724190.826
        49.500          42.400
 133349296.017 6                  25375523.658
        41.300
 106592157.223 7  83058825.86746  20283813.647    20283813.3434   20283814.5174
        47.600          38.3004


 198897288.246 6                  37848913.135
        40.300


 202055207.185 7                  38449842.824
        45.500
                                                  24002789.316

 105278744.533 8  81883460.437 7  19701486.989    19701486.848    19701491.795
        48.700          44.300
 105372198.078 8  81956136.762 7  19691309.264    19691308.945    19691315.430
        48.000          45.100
 128095279.767 6                  23946051.798    23946059.484
        36.400
 124067372.256 5                  23274722.036    23274720.969
        35.000
                                                  23923072.638



 107636847.589 7  83717401.747 6  20163971.051    20163971.464    20163976.774
        46.900          41.000
 25  1  1 22  3 45.0000000  0 27E31G07G02G30G13G19E10G17E33E24E09E03
                                E25R12E12G14S35S31E05S33R11R21R23R10
                                R02E26R22
 126307245.410 7                  24035462.364
        46.700
 118569332.437 6  92391614.61545  22563002.668    22563002.1904   22563011.1454
        41.600          33.3004
 115323613.657 7  89862587.09345  21945349.386    21945348.3364   21945349.6594
        43.700          34.3004
 109036998.529 8  84963889.26747  20749050.605    20749049.8274   20749054.2194
        48.400          47.0004
 120239278.876 6  93692952.90241  22880767.923    22880767.6334   22880772.5544
        37.300           8.5004
 118701788.296 6  92494874.79944  22588182.718    22588181.2474   22588187.1054
        38.300          26.1004
 139411456.823 6                  26529118.305
        39.100
 108130187.786 8  84257308.85148  20576490.129    20576489.6694   20576491.1514
        50.900          48.6004
 130098020.954 7                  24756826.193
        44.400
 128184324.489 7                  24392666.118
        43.700
 144246099.572 5                  27449120.371
        30.200


 146256672.631 5                  27831714.273
        34.700
 110663943.476 8  86071983.624 6  20716523.422    20716524.479    20716528.651
        50.000          41.900
 133311749.784 6                  25368379.421
        41.400
 106581153.881 7  83050251.83546  20281719.811    20281719.5124   20281721.1544
        46.500          39.3004


 198897287.718 6                  37848910.881
        41.500
 130700988.221 5                  24871561.876
        32.300
 202055213.943 7                  38449841.161
        45.400
 105291621.337 7  81893475.688 7  19703896.466    19703896.449    19703902.303
        47.300          45.500
 105395338.257 7  81974134.713 7  19695632.994    19695633.406    19695639.896
        47.500          44.200
 128027828.331 5                  23933444.847    23933450.742
        31.000
 124115673.044 5                  23283784.222    23283782.104
        35.100
                                                  23930532.364



 107593295.000 7  83683527.606 6  20155807.388    20155807.936    20155814.762
        42.200          39.500
 25  1  1 22  4  0.0000000  0 24E31G07G02G30G13G19E10G17E33E24E09E03
                                E25R12E12G14S35S31E05S33R11R21R10R22
 126320182.689 7                  24037924.146
        46.800
 118618219.039 7  92429707.95345  22572304.278    22572303.7964   22572312.0714
        43.200          31.3004
 115345437.642 7  89879592.81845  21949502.677    21949501.6274   21949501.7844
        44.200          32.5004
 109063480.734 7  84984524.74047  20754089.927    20754089.1584   20754092.9014
        46.100          45.0004
 120259521.699 6  93708726.37441  22884621.126    22884620.7874   22884625.3444
        38.600           7.6004
 118660205.374 6  92462472.57944  22580270.142    22580268.7214   22580274.6234
        39.300          27.3004
 139364774.373 5                  26520234.802
        35.900
 108116241.673 8  84246441.79448  20573835.942    20573835.4824   20573836.6624
        51.700          48.4004
 130101809.578 7                  24757547.359
        47.400
 128167373.248 7                  24389440.556
        42.900
 144287963.972 5                  27457087.252
        30.100
 146472835.395 5                  27872855.332
        35.900
 146224606.153 5                  27825616.330
        33.900
 110623061.562 8  86040186.601 7  20708869.510    20708870.864    20708877.799
        50.100          43.800
 133274267.443 6                  25361245.819
        38.200
 106570213.665 7  83041726.98146  20279638.138    20279637.8574   20279639.9004
        46.500          38.5004


 198897286.032 7                  37848915.768
        42.200
 130722240.954 5                  24875604.933
        34.600
 202055218.750 7                  38449842.171
        45.500
 105304617.193 7  81903583.551 7  19706329.281    19706329.736    19706333.981
        47.600          46.300
 105418656.245 8  81992270.925 7  19699989.799    19699990.672    19699997.555
        48.300          42.800
 124164030.800 5                  23292853.469    23292853.345
        32.000
 107549889.194 7  83649767.664 6  20147677.358    20147677.466    20147684.324
        42.800          38.700
 25  1  1 22  4 15.0000000  0 28G21E31G07G02G30G13G15G19E10G17E33E24
                                E09E03E25R12E12G14S35S31E05S33R03R11
                                R21R10R02R22
 121120345.613 5                  23048430.607
        34.000
 126333156.054 7                  24040392.508
        45.100
 118667179.815 7  92467859.06445  22581621.190    22581620.7394   22581626.4034
        42.200          30.2004
 115367393.787 7  89896701.53645  21953681.160    21953680.1454   21953679.5634
        45.000          33.2004
 109090093.459 7  85005261.91247  20759155.217    20759154.4624   20759157.4164
        42.800          43.1004
 120279889.899 6  93724597.52741  22888492.849    22888492.5954   22888501.9864
        37.600           8.6004
 129373188.789 5                  24618898.105
        32.900
 118618685.259 6  92430119.26544  22572367.875    22572366.4804   22572373.5704
        38.500          24.7004
 139318120.108 5                  26511357.323
        33.100
 108102396.787 8  84235653.58948  20571201.115    20571200.6594   20571201.4234
        51.600          48.5004
 130105713.871 7                  24758290.559
        46.500
 128150448.234 7                  24386220.971
        43.300


 146461174.162 4                  27870631.496
        27.000


 110582234.624 7  86008432.334 6  20701225.754    20701225.565    20701231.137
        47.200          39.300
 133236854.544 6                  25354127.462
        37.000
 106559342.004 7  83033255.54446  20277568.854    20277568.5734   20277570.5364
        47.200          37.7004


 198897287.987 7                  37848916.014
        42.800
 130743579.488 6                  24879667.630
        38.900
 202055227.423 7                  38449841.889
        42.400
 128498789.230 5                  24004649.714    24004646.556
        34.100
 105317737.681 6  81913788.439 7  19708778.847    19708779.760    19708789.438
        41.100          47.500
 105442156.855 7  82010549.198 7  19704381.349    19704381.653    19704389.476
        47.200          42.500
 124212450.116 4                  23301928.646
        25.800


 107506635.712 5  83616126.200 6  20139579.751    20139571.474    20139582.088
        32.400          41.800
 25  1  1 22  4 30.0000000  0 28G21E31G07G02G30G13G15G19E10G17E33E24
                                E09E03E25R12E12G14S35S31E05S33R03R11
                                R21R23R02R22
 121162868.761 5                  23056519.928
        31.700
 126346163.637 7                  24042867.418
        44.600
 118716212.558 6  92506066.28845  22590952.810    22590952.3954   22590956.8724
        40.400          32.2004
 115389480.233 7  89913911.78445  21957882.721    21957881.6894   21957881.6544
        44.200          32.6004
 109116834.660 7  85026099.15147  20764243.446    20764242.6914   20764246.9554
        47.200          45.5004
 120300381.242 5  93740564.90541  22892393.082    22892392.8864   22892402.2254
        35.000          10.0004
 129383906.024 4                  24620927.700
        27.200
 118577226.112 7  92397813.44144  22564480.177    22564478.8494   22564484.5054
        43.000          25.3004
 139271492.446 5                  26502483.559
        31.900
 108088651.346 8  84224942.88448  20568585.725    20568585.2434   20568586.1904
        49.100          48.3004
 130109731.877 7                  24759054.891
        46.300
 128133547.556 7                  24383005.320
        42.600






 110541460.872 8  85976719.473 6  20693594.844    20693593.623    20693598.466
        48.400          39.700
 133199509.426 6                  25347021.440
        37.800
 106548537.165 7  83024836.17046  20275513.252    20275512.9664   20275514.0504
        45.600          37.1004


 198897289.915 7                  37848920.955
        42.700
 130765001.778 7                  24883743.073
        42.000
 202055236.192 7                  38449851.463
        46.900
 128502416.283 4                  24005317.818
        27.700
 105330981.013 7  81924088.764 8  19711261.164    19711262.499    19711268.662
        42.800          49.000
 105465838.195 7  82028968.054 7  19708806.370    19708807.088    19708816.624
        47.600          42.500
 127825675.592 6                  23895649.299    23895647.797
        38.400
 127817761.551 5  99413838.551 5  23952993.101                    23952988.126
        32.100          31.600
 107463533.464 7  83582602.138 7  20131502.665    20131501.546    20131509.374
        42.700          44.900
 25  1  1 22  4 45.0000000  0 27G21E31G07G02G30G15G19E10G17E33E24E09
                                E03E25R12E12G14S35S31E05S33R11R21R23
                                R02E26R22
 121205481.628 5  94445800.9224   23064626.412    23064625.9614   23064629.0114
        33.200           5.7004
 126359198.509 7                  24045346.799
        43.200
 118765310.142 6  92544324.04545  22600296.555    22600296.1714   22600300.7624
        41.000          31.9004
 115411689.563 7  89931217.75945  21962109.471    21962108.4344   21962107.5834
        45.000          33.0004
 109143697.113 7  85047030.89247  20769354.903    20769354.1164   20769359.6514
        47.200          47.3004
 129394743.224 5 100827053.89642  24622994.327    24622994.4874   24622997.5964
        33.400          13.8004
 118535821.264 7  92365549.97643  22556601.059    22556599.6914   22556602.0814
        43.400          21.9004


 108074998.199 8  84214304.09548  20565988.113    20565987.6264   20565988.2314
        50.400          48.6004
 130113856.584 7                  24759840.252
        44.400
 128116664.317 6                  24379790.288
        37.100
 144413579.917 5                  27480992.103
        34.200




 110500733.391 8  85945042.606 6  20685970.937    20685970.424    20685975.311
        50.300          39.700
 133162225.304 6                  25339925.520
        37.800
 106537792.217 7  83016463.49146  20273468.132    20273467.8604   20273469.3834
        47.300          36.8004


 198897286.644 7                  37848909.325
        42.300
 130786500.639 7                  24887833.567
        42.800
 202055240.334 7                  38449845.261
        44.200
 105344340.267 6  81934479.297 8  19713763.659    19713761.143    19713768.675
        40.600          48.700
 105489692.334 8  82047521.215 6  19713266.634    19713267.563    19713271.102
        49.800          40.100
 127758315.161 5                  23883045.885    23883043.411
        35.200
 127857851.752 6  99445046.152 5  23960504.507                    23960506.591
        36.700          30.400


 107420575.261 8  83549190.195 7  20123457.387    20123457.088    20123461.182
        48.800          45.400
 25  1  1 22  5  0.0000000  0 27G21E31G07G02G30G15G19E10G17E33E24E09
                                E03E25R12E12G14S35S31E05S33R11R21R23
                                R02E26R22
 121248194.218 5  94479083.4734   23072752.798    23072752.4854   23072756.5204
        31.100           4.0004
 126372271.188 6                  24047834.953
        41.900
 118814482.679 7  92582640.22945  22609653.616    22609653.1874   22609660.2704
        43.400          33.5004
 115434032.127 7  89948627.57145  21966360.503    21966359.4844   21966359.4934
        46.700          34.4004
 109170691.287 8  85068065.27848  20774492.325    20774491.5474   20774497.2824
        48.500          48.2004
 129405710.776 5 100835600.06442  24625082.008    24625082.4104   24625086.4164
        33.800          13.9004
 118494481.141 7  92333337.01843  22548734.185    22548732.8754   22548729.6204
        44.300          18.9004


 108061447.706 8  84203745.28648  20563409.184    20563408.6934   20563409.4914
        50.100          48.4004
 130118098.500 7                  24760647.769
        44.800
 128099809.003 6                  24376582.198
        36.500
 144455450.700 5                  27488957.175
        32.700


 146096287.311 4                  27801196.988
        28.400
 110460063.409 8  85913410.394 6  20678356.115    20678357.236    20678362.602
        49.800          41.200
 133125013.008 6                  25332844.373
        39.500
 106527117.913 7  83008145.84946  20271436.618    20271436.3644   20271437.9564
        47.600          36.5004


 198897288.955 7                  37848913.662
        43.100
 130808086.434 7                  24891941.537
        42.000
 202055248.813 7                  38449848.986
        43.900
 105357826.156 7  81944968.294 8  19716286.705    19716286.161    19716292.128
        47.200          48.400
 105513729.865 8  82066217.127 6  19717756.388    19717757.788    19717763.321
        48.700          39.600
 127690984.249 5                  23870451.416    23870447.445
        30.100
 127898070.363 5  99476327.275 5  23968040.362    23968038.532    23968047.151
        35.600          35.300


 107377772.216 7  83515899.007 7  20115435.583    20115435.811    20115442.718
        45.900          44.800
 25  1  1 22  5 15.0000000  0 28G21E31G07G02G30G15G19E10G17E33E24E09
                                E03E25R12E12G14S35S31E05S33R03R11R21
                                R23R02E26R22
 121291001.344 5  94512439.7834   23080899.049    23080898.9064   23080903.7274
        30.200           3.2004
 126385377.028 7                  24050330.049
        43.600
 118863724.928 7  92621010.73445  22619024.638    22619024.2184   22619033.1714
        45.900          35.1004
 115456503.062 7  89966137.40945  21970636.148    21970635.1244   21970636.5334
        46.900          35.3004
 109197812.164 8  85089198.39247  20779652.902    20779652.1294   20779657.9014
        48.600          46.8004
 129416803.621 5 100844243.76542  24627192.283    24627192.8914   24627198.8784
        33.600          12.8004
 118453201.085 7  92301170.86643  22540879.250    22540878.0074   22540870.8594
        45.300          19.3004


 108047995.142 8  84193262.79448  20560849.259    20560848.7774   20560849.2464
        51.300          48.5004
 130122452.784 7                  24761476.170
        45.500
 128082976.955 7                  24373381.060
        42.400
 144497321.545 5                  27496929.772
        32.400


 146064192.723 5                  27795087.513
        30.300
 110419446.234 8  85881819.235 7  20670752.677    20670753.224    20670759.886
        48.400          42.000
 133087867.954 6                  25325775.087
        39.500
 106516509.537 7  82999879.58846  20269417.868    20269417.6094   20269419.8634
        46.700          36.5004


 198897290.505 7                  37848908.873
        42.400
 130829754.182 6                  24896064.118
        37.300
 202055256.835 7                  38449846.804
        43.000
 128514293.358 4                  24007535.224    24007534.956
        29.100
 105371433.980 8  81955552.118 7  19718833.658    19718833.971    19718836.892
        49.300          46.000
 105537945.590 8  82085051.521 6  19722283.138    19722283.718    19722289.546
        49.500          41.500
                                                  23857862.806

 127938378.632 5  99507678.025 5  23975587.483    23975585.898    23975599.579
        31.200          35.100


 107335119.966 7  83482725.045 7  20107445.208    20107445.120    20107453.163
        45.500          44.300
 25  1  1 22  5 30.0000000  0 28G21E31G07G02G30G15G19E10G17E33E24E09
                                E03E25R12E12G14S35S31E05S33R03R11R21
                                R23R02E26R22
 121333903.169 5  94545869.7114   23089063.245    23089063.1874   23089068.0074
        30.700           5.0004
 126398516.192 7                  24052830.028
        44.800
 118913036.835 7  92659435.54045  22628408.098    22628407.6964   22628418.6154
        46.300          34.3004
 115479102.361 7  89983747.26645  21974936.732    21974935.7084   21974937.6484
        45.600          35.6004
 109225059.776 7  85110430.25647  20784837.502    20784836.7424   20784841.8804
        47.600          45.0004
 129428021.592 5 100852985.13442  24629328.198    24629328.9084   24629334.3064
        34.800          15.1004
 118411981.324 7  92269051.68744  22533035.214    22533033.9854   22533029.6594
        46.000          24.0004


 108034640.709 8  84182856.77848  20558307.903    20558307.4304   20558307.9424
        51.300          49.2004
 130126919.545 7                  24762325.771
        45.600
 128066168.419 7                  24370181.275
        44.700
 144539192.399 5                  27504888.628
        31.300
 146404362.718 5                  27859824.841
        34.200
 146032091.988 5                  27788978.352
        30.500
 110378882.591 8  85850269.698 6  20663159.311    20663160.690    20663164.509
        48.000          40.300
 133050790.464 6                  25318718.793
        38.800
 106505967.313 7  82991664.88046  20267411.899    20267411.6404   20267414.2424
        46.500          36.8004


 198897292.846 6                  37848906.865
        41.000
 130851503.812 5                  24900202.800
        34.900
 202055264.875 7                  38449851.307
        46.000
 128518608.779 6                  24008348.520    24008346.833
        36.400
 105385163.961 8  81966231.007 7  19721402.201    19721402.784    19721406.081
        50.500          45.200
 105562339.384 8  82104024.471 6  19726841.038    19726841.567    19726847.610
        48.700          41.700
 127556397.615 4                  23845341.222    23845344.623
        25.600
 127978775.844 5  99539097.969 5  23983157.890    23983157.804    23983169.995
        34.400          34.900


 107292618.954 7  83449668.809 7  20099484.002    20099482.859    20099489.404
        43.500          42.700
 25  1  1 22  5 45.0000000  0 26E31G07G02G30G13G15G19E10G17E33E24E09
                                E03E25R12E12G14S35S31E05S33R11R21R02
                                E26R22
 126411687.850 7                  24055336.050
        45.400
 118962417.249 7  92697913.67745  22637804.661    22637804.2594   22637814.2814
        47.700          33.5004
 115501828.855 7  90001456.23845  21979262.649    21979261.6344   21979261.9354
        45.300          35.2004
 109252433.012 7  85131760.02947  20790046.788    20790046.0284   20790049.9614
        45.500          42.7004
 120404552.814 5  93821802.81742  22912236.387    22912236.1374   22912242.2874
        35.400          16.4004
 129439363.762 5 100861823.17142  24631484.267    24631484.9514   24631493.3444
        30.000          15.9004
 118370821.207 7  92236978.94144  22525201.990    22525200.7474   22525201.8654
        43.800          26.8004
 139038733.808 5                  26458192.646
        32.000
 108021383.382 8  84172526.42048  20555785.264    20555784.7914   20555785.2504
        50.400          49.2004
 130131497.905 7                  24763197.122
        45.800
 128049382.564 7                  24366987.606
        44.400
 144581062.242 5                  27512866.020
        31.600
 146393301.511 5                  27857719.780
        35.900
 145999984.451 4                  27782867.740
        27.600
 110338371.760 7  85818761.265 6  20655574.996    20655574.310    20655582.180
        44.900          41.900
 133013779.928 6                  25311676.864
        40.200
 106495490.532 7  82983501.17946  20265418.409    20265418.1504   20265420.7174
        46.600          37.1004


 198897294.389 6                  37848913.237
        41.500
 130873334.309 5                  24904358.959
        35.900
 202055273.156 7                  38449857.106
        45.200
 105399015.390 8  81977004.278 7  19723994.511    19723995.324    19724000.856
        50.800          47.700
 105586909.943 8  82123134.886 7  19731432.799    19731433.137    19731439.796
        49.600          42.500
 128019260.804 6  99570586.110 5  23990752.108    23990751.607    23990756.170
        38.400          33.300


 107250268.652 7  83416729.786 7  20091550.676    20091549.745    20091554.961
        45.200          42.200
 25  1  1 22  6  0.0000000  0 28E31G07G02G30G13G15G19E10G17E33E24E09
                                E03E25R12E12G14S35S31E05S33R03R11R21
                                R23R02E26R22
 126424891.754 7                  24057849.207
        46.400
 119011865.628 7  92736444.69745  22647213.797    22647213.3864   22647221.3454
        46.200          32.2004
 115524681.977 7  90019263.88946  21983611.207    21983610.1884   21983610.0694
        47.400          36.0004
 109279931.465 7  85153187.34946  20795279.051    20795278.2734   20795282.2564
        45.900          41.7004
 120425768.548 6  93838334.53543  22916272.880    22916272.4514   22916279.4114
        39.200          18.6004
 129450829.548 5 100870757.40941  24633669.728    24633670.2514   24633674.3964
        34.000           7.4004
 118329720.480 7  92204952.47544  22517380.534    22517379.2384   22517383.0134
        44.000          26.0004
 138992260.847 5                  26449350.234
        35.500
 108008222.655 8  84162271.33148  20553281.362    20553280.8844   20553280.7924
        49.600          48.2004
 130136187.485 7                  24764088.841
        46.000
 128032619.086 7                  24363798.164
        47.100
 144622930.323 5                  27520829.683
        35.400
 146382339.508 5                  27855630.690
        32.100
 145967869.485 4                  27776755.909
        28.200
 110297913.742 7  85787293.900 6  20648002.165    20648000.477    20648007.935
        44.600          40.200
 132976836.334 7                  25304647.095
        42.000
 106485078.991 7  82975388.29546  20263437.620    20263437.3614   20263439.5294
        46.300          37.0004


 198897294.523 6                  37848905.859
        41.300
 130895245.159 6                  24908529.610
        38.700
 202055279.756 7                  38449855.300
        45.300
 128527752.634 6                  24010074.957
        36.900
 105412988.034 8  81987871.886 8  19726609.374    19726609.059    19726616.523
        50.600          49.200
 105611656.347 8  82142382.070 7  19736058.342    19736057.684    19736063.928
        49.600          42.800
 127421751.584 5                  23820157.147    23820156.336
        33.500
 128059832.603 6  99602141.951 5  23998370.043                    23998360.428
        38.000          32.500


 107208069.083 7  83383908.017 7  20083645.420    20083644.846    20083650.859
        46.700          44.100
 25  1  1 22  6 15.0000000  0 27E31G07G02G30G13G15G19E10G17E33E24E09
                                E03E25R12E12G14S35S31E05S33R03R11R21
                                R02E26R22
 126438128.878 7                  24060368.114
        47.100
 119061382.717 7  92775029.31845  22656635.821    22656635.4324   22656641.6864
        45.700          32.9004
 115547662.539 7  90037170.82046  21987983.980    21987982.9564   21987982.9144
        47.300          36.9004
 109307555.872 7  85174712.84047  20800535.052    20800534.2924   20800539.5244
        44.800          42.2004
 120447104.381 6  93854959.79942  22920333.800    22920333.4344   22920338.2134
        40.700          17.1004
 129462419.702 6 100879788.8244   24635873.703    24635874.0244   24635879.5504
        37.400           2.0004
