     2.11           OBSERVATION DATA    M (MIXED)           RINEX VERSION / TYPE
teqc  2019Feb25                         20260317 16:18:01UTCPGM / RUN BY / DATE
Linux 2.4.21-27.ELsmp|Opteron|gcc -static|Linux 64|=+       COMMENT
BIT 2 OF LLI FLAGS DATA COLLECTED UNDER A/S CONDITION       COMMENT
-Unknown-                                                   MARKER NAME
-Unknown-           -Unknown-                               OBSERVER / AGENCY
-Unknown-           -Unknown-           -Unknown-           REC # / TYPE / VERS
-Unknown-           -Unknown-                               ANT # / TYPE
        0.0000        0.0000        0.0000                  APPROX POSITION XYZ
        0.0000        0.0000        0.0000                  ANTENNA: DELTA H/E/N
     1     1                                                WAVELENGTH FACT L1/2
     7    L1    L2    C1    P1    P2    S1    S2            # / TYPES OF OBSERV
 SNR is mapped to RINEX snr flag value [0-9]                COMMENT
  L1 & L2: min(max(int(snr_dBHz/6), 0), 9)                  COMMENT
  2025     1     1    21     0    0.0000000     GPS         TIME OF FIRST OBS
    18                                                      LEAP SECONDS
                                                            END OF HEADER
 25  1  1 21  0  0.0000000  0 26G21E31G07G02G30G08G17E33E24R10E09E04
                                R12E12G14S35S31E05E06S33R11R21R01R02
                                E26R22
 114227427.458 7  89008397.35743  21736757.858    21736756.6474   21736758.9934
        43.900          19.9004
 123985591.286 7                  23593664.049
        44.700
 109099734.370 8  85012725.80348  20760982.838    20760982.3024   20760984.1184
        50.400          48.6004
 114320806.513 7  89081174.97645  21754524.242    21754523.1564   21754524.8624
        46.800          30.4004
 106667149.824 8  83117258.88948  20298080.085    20298079.3834   20298083.4844
        52.000          53.2004
 120102822.106 5  93586636.43243  22854803.477    22854802.9634   22854811.3564
        34.400          20.8004
 114925662.476 6  89552486.59845  21869628.609    21869628.6624   21869629.8924
        40.300          32.6004
 132740835.109 6                  25259725.188
        40.900
 133169313.958 7                  25341280.460
        46.800
 113946874.766 7                  21376150.674    21376150.196
        44.700
 134325686.776 6                  25561342.260
        40.400
 145926461.236 5                  27768876.555
        31.500
 122008418.933 6  94895431.809 6  22840228.522    22840225.813    22840234.067
        36.800          36.700


 111214751.906 8  86660847.05946  21163464.892    21163464.5664   21163464.8364
        48.500          36.3004


 198897883.801 6                  37849026.593
        40.500
 128388152.373 6                  24431454.467
        41.000
 137813705.904 6                  26225073.420
        36.500
 202052353.749 7                  38449302.232
        46.000
 105499472.580 8  82055140.107 7  19742792.327    19742793.663    19742795.269
        51.800          45.200
 105900364.079 8  82367192.062 7  19789996.808    19789995.921    19790004.302
        48.100          47.200
 122765956.198 5  95484698.885 5  22965915.419                    22965931.635
        33.500          31.700
 121822998.748 7  94751256.277 6  22829575.442    22829574.125    22829584.506
        42.800          41.500
 140115130.222 4                  26663021.565
        28.000
 122348240.950 5                  22919951.391    22919951.953
        33.900
 25  1  1 21  0 15.0000000  0 29G21E31G07G02G30G08G13G19G17E33E24R10
                                E09E04R12E12G14S35S31E05E06S33R11R21
                                R01R20R02E26R22
 114236010.945 7  89015085.80143  21738390.948    21738389.7324   21738391.8064
        45.300          23.0004
 123991138.998 7                  23594719.943
        44.700
 109123157.891 8  85030977.89448  20765440.636    20765440.0954   20765441.9104
        49.600          48.9004
 114306658.832 7  89070150.84445  21751831.344    21751830.2674   21751832.7494
        44.600          30.2004
 106659432.088 8  83111245.05548  20296611.007    20296610.2834   20296614.4714
        52.000          52.7004
 120152572.870 5  93625403.20743  22864269.402    22864268.5394   22864279.8254
        34.400          21.6004
 119582451.064 4  93181176.90041  22755802.142    22755801.5704   22755793.0254
        28.800          10.6004
 130828422.735 4                  24895815.516
        28.100
 114886842.406 6  89522237.28445  21862242.183    21862242.2594   21862243.5184
        41.900          33.8004
 132717313.279 6                  25255249.191
        40.400
 133147350.105 7                  25337100.281
        44.400
 113977888.424 6                  21381968.850    21381965.903
        40.100
 134358885.278 7                  25567660.733
        44.400
 145971995.870 5                  27777542.099
        32.600
 121962724.807 5  94859891.890 6  22831672.644    22831672.323    22831683.457
        32.500          37.500


 111190354.540 7  86641836.12146  21158821.207    21158820.8814   21158823.3104
        46.100          36.1004


 198897879.614 6                  37849024.389
        40.600
 128384097.231 7                  24430682.627
        42.700
 137856238.482 5                  26233154.746
        33.800
 202052367.986 7                  38449301.471
        43.600
 105486993.309 8  82045434.033 7  19740454.165    19740455.210    19740461.230
        48.300          47.300
 105872788.446 8  82345744.353 7  19784843.840    19784844.357    19784850.753
        50.800          45.700
                  95519692.192 5                                  22974349.952
                        32.500


 121825325.088 7  94753065.541 6  22830013.452    22830012.595    22830019.099
        46.000          38.600


 122281072.803 5                  22907377.670
        33.100
 25  1  1 21  0 30.0000000  0 28G21E31G07G02G30G08G13G17E33E24R10E09
                                E04R12E12G14S35S31E05E06S33R11R21R01
                                R20R02E26R22
 114244751.086 7  89021896.32744  21740054.150    21740052.9254   21740055.5454
        44.400          25.5004
 123996714.487 7                  23595781.113
        45.100
 109146700.753 8  85049322.96948  20769920.692    20769920.1474   20769922.6414
        51.500          50.3004
 114292648.352 7  89059233.62145  21749165.208    21749164.1314   21749167.1474
        43.900          30.6004
 106651841.598 8  83105330.38548  20295166.525    20295165.7974   20295169.8954
        51.400          52.2004
 120202357.986 5  93664196.74342  22873743.790    22873742.2794   22873753.5384
        32.600          16.4004
 119566533.734 5  93168773.58442  22752753.381    22752753.1184   22752761.9724
        31.800          13.3004
 114848110.926 6  89492057.02645  21854872.182    21854872.2664   21854873.7484
        41.900          34.6004
 132693883.935 6                  25250790.272
        39.100
 133125405.791 7                  25332924.242
        44.200
 114008973.035 6                  21387801.694    21387800.731
        40.100
 134392150.119 7                  25573989.927
        44.800
 146017515.113 5                  27786204.502
        32.500
 121917026.763 6  94824348.887 6  22823123.314    22823124.562    22823128.841
        39.500          36.400


 111166000.798 7  86622859.16646  21154187.251    21154186.9164   21154190.0384
        44.900          36.3004


 198897875.515 6                  37849013.384
        40.800
 128380149.529 6                  24429930.667
        40.800
 137898796.783 5                  26241244.883
        30.300
 202052381.605 7                  38449303.309
        44.500
 105474589.318 8  82035786.445 8  19738135.788    19738135.538    19738141.236
        49.400          48.500
 105845404.109 8  82324445.441 7  19779726.301    19779726.558    19779732.297
        50.400          44.600
 122856028.044 5  95554754.268 5  22982766.117    22982764.291    22982785.163
        31.500          32.300
                  87410252.815 5                                  21016487.101
                        31.700
 121827836.481 7  94755018.855 6  22830482.564    22830482.021    22830488.324
        46.600          37.300


 122213990.197 6                  22894798.334
        36.200
 25  1  1 21  0 45.0000000  0 27G21E31G07G02G30G08G13G17E33E24R10E09
                                E04R12E12G14S35S31E05E06S33R11R21R01
                                R02E26R22
 114253642.570 7  89028824.77144  21741746.985    21741745.7964   21741748.8504
        42.600          26.4004
 124002312.416 7                  23596846.082
        44.800
 109170357.747 8  85067756.94548  20774422.496    20774421.9424   20774424.7204
        52.300          51.2004
 114278769.827 7  89048419.26144  21746523.923    21746522.8464   21746526.1224
        43.500          28.4004
 106644373.237 8  83099510.87348  20293745.450    20293744.7084   20293748.5994
        50.300          51.4004
 120252171.898 5  93703012.72742  22883225.198    22883223.4234   22883232.6454
        34.400          16.4004
 119550756.841 6  93156479.84543  22749756.763    22749756.4644   22749758.5084
        38.500          19.1004
 114809462.790 6  89461941.69045  21847517.775    21847517.8644   21847519.1094
        38.800          32.9004
 132670542.140 5                  25246350.202
        31.400
 133103475.707 7                  25328750.859
        45.700
 114040122.907 5                  21393642.312    21393639.548
        34.700
 134425475.845 7                  25580330.572
        42.800
 146063013.318 5                  27794864.941
        31.800
 121871319.444 5  94788798.658 5  22814563.561    22814563.940    22814572.485
        34.900          35.700


 111141685.456 7  86603912.14646  21149561.091    21149560.7964   21149563.3714
        45.300          36.3004


 198897867.483 7                  37849013.988
        42.200
 128376303.988 7                  24429199.709
        43.200
 137941375.452 5                  26249350.509
        35.600
 202052391.457 7                  38449306.757
        45.700
 105462255.309 8  82026193.286 7  19735828.527    19735827.559    19735832.148
        51.100          46.700
 105818206.011 8  82303291.405 7  19774644.016    19774643.718    19774647.695
        49.800          42.100
 122901190.796 5  95589880.753 4  22991231.221    22991220.640    22991230.984
        33.600          29.400
 121830527.220 7  94757111.628 6  22830988.794    22830987.310    22830994.507
        45.200          39.700


 122146882.501 5                  22882213.902    22882213.730
        30.300
 25  1  1 21  1  0.0000000  0 27G21E31G07G02G30G08G13G17E33E24R10E09
                                E04R12E12G14S35S31E05E06S33R11R21R01
                                R20R02E26
 114262693.249 7  89035877.24944  21743468.571    21743467.4044   21743471.4134
        42.600          26.8004
 124007940.491 7                  23597917.935
        45.300
 109194136.235 8  85086285.59148  20778947.366    20778946.8164   20778949.0814
        51.900          50.9004
 114265031.103 6  89037713.83544  21743910.453    21743909.3454   21743910.7464
        41.900          25.5004
 106637034.783 8  83093792.58648  20292349.319    20292348.5684   20292352.2194
        50.800          52.0004
 120302021.902 5  93741856.84642  22892711.695    22892709.9294   22892718.8884
        35.300          17.4004
 119535128.460 6  93144301.86343  22746783.015    22746782.8634   22746783.5204
        40.700          22.6004
 114770905.695 6  89431897.27445  21840181.074    21840181.0914   21840181.5524
        40.200          33.5004
 132647295.444 5                  25241925.657
        34.400
 133081567.486 7                  25324581.230
        45.900
 114071346.211 6                  21399500.359    21399498.845
        39.700
 134458869.787 6                  25586685.352
        41.400
 146108498.130 4                  27803535.624
        29.000
 121825610.645 5  94753247.365 6  22806003.033    22806003.806    22806020.632
        34.500          36.000


 111117416.208 7  86585001.04146  21144942.912    21144942.6354   21144944.7224
        45.600          36.2004


 198897861.856 7                  37849015.714
        42.300
 128372568.284 7                  24428486.973
        42.100
 137983981.872 6                  26257459.507
        37.400
 202052403.869 7                  38449308.492
        46.100
 105449999.315 8  82016660.854 7  19733533.657    19733533.630    19733535.872
        52.100          43.400
 105791202.300 8  82282288.597 6  19769596.280    19769597.412    19769601.393
        49.400          41.000
 122946443.282 5                  22999681.520    22999685.014
        34.400


 121833405.128 6  94759350.103 6  22831523.136    22831521.571    22831532.425
        39.800          38.300
 140168779.031 5                  26673231.931
        33.300
 25  1  1 21  1 15.0000000  0 28G21E31G07G02G30G08G13G17E33E24R10E09
                                E04R12E12G14S35S31E05E06S33R11R21R01
                                R20R02E26R22
 114271899.533 7  89043050.98644  21745221.177    21745220.0334   21745222.3124
        42.400          26.0004
 124013595.652 7                  23598994.423
        45.400
 109218033.157 8  85104906.51948  20783494.867    20783494.3314   20783496.0464
        51.100          49.6004
 114251429.470 6  89027115.20443  21741322.133    21741321.0424   21741322.1154
        37.100          23.0004
 106629823.498 8  83088173.38848  20290977.082    20290976.3184   20290980.5084
        51.300          52.4004
 120351904.812 5  93780726.58842  22902203.242    22902201.5254   22902211.4504
        35.200          16.0004
 119519645.498 6  93132237.17943  22743835.983    22743835.8234   22743836.4884
        39.000          23.9004
 114732436.833 6  89401921.63145  21832860.593    21832860.5404   21832861.3994
        40.600          33.3004
 132624141.284 6                  25237517.646
        37.200
 133059678.209 7                  25320415.797
        45.800
 114102639.576 7                  21405371.591    21405373.349
        42.800
 134492328.764 6                  25593052.393
        37.400
 146153966.354 4                  27812189.601
        27.300
 121779897.690 6  94717692.658 5  22797449.540    22797447.709    22797467.290
        38.100          33.600


 111093190.163 7  86566123.60645  21140332.626    21140332.3584   21140333.7994
        46.800          35.0004


 198897856.171 7                  37849020.673
        43.800
 128368939.456 6                  24427795.124
        38.900
 138026612.699 5                  26265571.716
        35.400
 202052416.420 7                  38449315.660
        46.200
 105437818.457 8  82007186.847 6  19731254.142    19731254.149    19731255.715
        52.000          41.600
 105764390.373 8  82261434.953 7  19764587.149    19764587.607    19764593.395
        48.900          42.100
 122991782.080 6                  23008165.324    23008165.764
        36.000
 112491749.420 5  87493612.867 5  21036525.083    21036526.152    21036535.322
        34.100          33.000
 121836467.278 5  94761731.821 6  22832095.267    22832092.570    22832107.932
        34.100          38.800
 140182453.835 5                  26675832.842
        34.400
 122012773.470 6                  22857090.496    22857091.605
        37.800
 25  1  1 21  1 30.0000000  0 29G21E31G07G02G30G08G13G19G17E33E24R10
                                E09E04R12E12G14S35S31E05E06S33R11R21
                                R01R20R02E26R22
 114281261.038 7  89050345.68144  21747001.782    21747000.6024   21747003.0784
        42.600          27.0004
 124019277.623 7                  23600075.779
        47.700
 109242048.177 8  85123619.46548  20788064.943    20788064.3934   20788065.6554
        50.200          48.8004
 114237964.690 6  89016623.19843  21738761.208    21738760.1084   21738760.1714
        38.900          22.3004
 106622739.139 8  83082653.10148  20289628.793    20289628.0204   20289632.6724
        51.500          52.6004
 120401819.935 6  93819621.38742  22911702.323    22911700.6784   22911709.1454
        36.500          15.2004
 119504307.972 7  93120285.82044  22740917.404    22740917.2614   22740918.2134
        42.200          26.4004
 130567679.384 5                  24846201.251
        30.400
 114694055.980 6  89372014.55245  21825557.713    21825557.6514   21825558.7564
        39.900          33.5004
 132601079.447 5                  25233128.064
        35.600
 133037807.429 7                  25316254.361
        44.500
 114134002.922 7                  21411258.438    21411259.064
        46.300
 134525852.232 6                  25599432.729
        38.500
 146199417.108 4                  27820834.265
        28.500
 121734180.101 7                  22788891.963    22788891.823
        42.200


 111069006.995 7  86547279.59045  21135730.437    21135730.1514   21135730.3934
        46.200          32.4004


 198897850.534 7                  37849019.819
        44.300
 128365417.181 6                  24427124.422
        37.100
 138069267.490 5                  26273689.324
        32.400
 202052428.518 7                  38449318.969
        45.200
 105425712.599 8  81997771.247 6  19728988.204    19728989.813    19728990.177
        53.300          41.000
 105737770.068 7  82240730.306 7  19759611.895    19759612.556    19759617.959
        47.500          42.900
 123037206.270 6                  23016661.687    23016663.470
        39.800
 112527842.155 5  87521684.902 5  21043275.846    21043276.187    21043281.176
        33.300          30.400
 121839713.045 6  94764256.324 6  22832702.813    22832701.418    22832717.477
        36.700          36.900
 140196233.135 5                  26678456.904
        31.800
 121945769.598 6  94846789.720 5  22844538.156    22844539.022    22844569.052
        39.100          32.300
 25  1  1 21  1 45.0000000  0 28G21E31G07G02G30G08G13G17E33E24R10E09
                                E04R12E12G14S35S31E05E06S33R11R21R01
                                R20R02E26R22
 114290778.907 7  89057762.22444  21748812.938    21748811.7544   21748814.2194
        43.000          29.2004
 124024987.420 8                  23601161.617
        48.500
 109266182.355 8  85142425.25848  20792657.688    20792657.1384   20792658.1144
        50.200          48.6004
 114224637.899 7  89006238.75543  21736223.889    21736222.7944   21736224.9264
        43.000          22.6004
 106615782.903 8  83077232.63848  20288305.504    20288304.7354   20288308.5304
        52.400          52.8004
 120451768.042 5  93858541.95042  22921206.008    22921204.5694   22921213.1094
        33.300          13.3004
 119489116.979 7  93108448.66444  22738025.946    22738025.8444   22738027.6134
        45.200          27.5004
 114655764.296 6  89342176.96645  21818275.480    21818275.4884   21818273.5044
        39.400          33.3004
 132578111.167 6                  25228758.811
        36.800
 133015956.273 7                  25312097.155
        45.000
 114165437.250 6                  21417153.142    21417152.569
        41.400
 134559440.998 6                  25605822.312
        39.500
 146244851.228 5                  27829477.478
        34.800
 121688459.220 6                  22780334.262    22780332.234
        40.300
 144025824.813 5                  27407201.457
        31.400
 111044867.828 7  86528469.86144  21131136.455    21131136.1164   21131134.6394
        45.200          29.8004


 198897845.289 7                  37849021.200
        43.200
 128362002.435 6                  24426475.322
        36.800
 138111947.007 5                  26281808.651
        34.000
 202052440.799 7                  38449314.207
        44.200
 105413683.228 8  81988415.081 7  19726737.722    19726738.074    19726740.486
        52.900          44.100
 105711342.520 7  82220175.567 7  19754669.726    19754670.237    19754679.334
        45.100          43.100
 123082716.076 6  95731110.260 5  23025173.489    23025174.524    23025193.003
        37.100          31.000
 112564105.118 5                  21050058.434    21050057.108
        33.600
 121843143.496 6  94766924.251 5  22833349.600    22833349.208    22833359.745
        38.700          34.600


 121878800.992 5                  22831989.096    22831987.831
        35.700
 25  1  1 21  2  0.0000000  0 28G21E31G07G02G30G08G13G17E33E24R10E09
                                E04R12E12G14S35S31E05E06S33R11R21R01
                                R20R02E26R22
 114300451.827 7  89065299.59244  21750653.384    21750652.2314   21750654.9724
        42.900          29.1004
 124030723.857 8                  23602253.186
        49.000
 109290434.322 8  85161322.80648  20797272.136    20797271.5864   20797273.4774
        48.700          48.1004
 114211448.171 6  88995961.07343  21733712.368    21733711.2554   21733715.2504
        41.000          22.8004
 106608953.773 8  83071911.23248  20287005.295    20287004.5314   20287008.5494
        51.400          52.4004
 120501747.737 5  93897487.17042  22930718.231    22930717.0064   22930722.5784
        34.700          13.2004
 119474071.379 7  93096724.79644  22735162.442    22735162.3084   22735163.8254
        44.400          26.6004
 114617560.772 6  89312408.11445  21811007.591    21811007.5294   21811003.7864
        38.200          31.9004
 132555235.433 6                  25224405.782
        36.900
 132994123.461 6                  25307942.181
        41.900
 114196941.253 6                  21423062.514    21423062.212
        41.400
 134593093.621 6                  25612226.863
        38.600
 146290267.634 5                  27838116.564
        31.900
 121642733.988 6                  22771772.646    22771771.339
        40.300
 143979535.375 4                  27398391.890
        29.900
 111020771.505 7  86509693.51644  21126551.011    21126550.6814   21126547.7294
        46.400          28.8004


 198897838.992 7                  37849017.462
        42.900
 128358694.158 5                  24425846.812
        35.100
 138154649.811 4                  26289932.828
        27.800
 202052452.799 7                  38449320.597
        45.700
 105401729.105 8  81979117.454 7  19724500.012    19724500.009    19724505.005
        52.500          46.800
 105685107.118 7  82199770.253 7  19749770.248    19749768.521    19749776.164
        45.000          43.800
 123128310.116 6                  23033701.682    23033701.966
        37.000
 112600536.327 6  87578317.682 5  21056874.051    21056872.884    21056891.516
        36.400          32.400
 121846756.999 6                  22834026.700    22834028.917
        41.700


 121811866.906 5  94742643.723 5  22819452.057    22819447.107    22819487.086
        30.800          34.700
 25  1  1 21  2 15.0000000  0 28G21E31G07G02G30G08G13G17E33E24R10E09
                                E04R12E12G14S35S31E05E06S33R11R21R01
                                R20R02E26R22
 114310282.857 6  89072960.18744  21752524.353    21752523.1954   21752525.5054
        40.600          28.0004
 124036489.979 8                  23603350.085
        48.600
 109314807.163 7  85180314.58248  20801910.099    20801909.5544   20801911.9944
        47.700          48.3004
 114198398.666 6  88985792.64143  21731229.109    21731227.9384   21731231.0054
        39.200          22.0004
 106602254.951 8  83066691.37248  20285730.990    20285730.2354   20285733.1174
        51.600          52.2004
 120551761.748 5  93936459.06242  22940235.106    22940234.0654   22940238.7724
        30.900          13.5004
 119459174.200 7  93085116.55944  22732328.046    22732327.9084   22732327.7214
        45.500          25.1004
 114579448.670 5  89282710.36344  21803739.313    21803739.0944   21803750.2014
        31.000          27.9004
 132532455.486 5                  25220069.664
        35.300
 132972312.053 6                  25303792.025
        41.600
 114228518.058 6                  21428985.394    21428984.657
        40.800
 134626812.916 6                  25618645.248
        39.200
 146335668.948 4                  27846758.553
        29.300
 121597007.440 6  94575463.271 5  22763207.500    22763207.216    22763219.021
        38.600          34.500
 143933252.404 5                  27389582.999
        30.000
 110996721.148 7  86490952.99444  21121974.955    21121974.6074   21121970.9564
        46.800          27.5004


 198897835.826 7                  37849019.389
        43.000
 128355495.303 5                  24425238.869
        35.200
 138197378.632 5                  26298067.384
        35.000
 202052467.694 7                  38449323.704
        46.200
 105389853.709 9  81969880.995 8  19722279.099    19722279.156    19722282.667
        54.300          48.100
 105659067.137 8  82179516.971 7  19744904.583    19744903.619    19744911.728
        49.000          46.400
 123173990.704 6                  23042251.990    23042251.346
        36.900
 112637138.642 5  87606786.245 5  21063715.557    21063715.826    21063721.164
        32.700          34.200
 121850556.916 6                  22834740.680    22834741.171
        41.200


                  94690614.034 5                                  22806946.277
                        33.700
 25  1  1 21  2 30.0000000  0 27G21E31G07G02G30G08G13G17E33E24R10E09
                                E04R12E12G14S35S31E05E06S33R11R21R20
                                R02E26R22
 114320268.900 6  89080741.53344  21754425.449    21754424.2734   21754426.5534
        40.200          27.7004
 124042282.619 7                  23604452.514
        47.500
 109339297.608 7  85199397.99747  20806570.326    20806569.7414   20806573.2544
        45.100          47.2004
 114185486.507 6  88975731.27443  21728773.702    21728772.6114   21728771.7554
        38.900          19.3004
 106595683.460 8  83061570.71348  20284480.020    20284479.2604   20284482.4724
        51.000          50.8004
 120601806.536 5  93975454.98041  22949759.612    22949758.7634   22949761.0254
        31.100          11.0004
 119444422.727 7  93073621.87244  22729520.127    22729519.9754   22729520.0254
        45.600          25.6004
 114541425.231 5  89253081.71044  21796511.481    21796511.2944   21796513.7344
        33.400          27.9004
 132509768.464 5                  25215751.437
        31.400
 132950518.951 7                  25299645.934
        43.700
 114260164.717 7                  21434923.918    21434924.058
        42.000
 134660595.461 6                  25625072.329
        37.500


 121551276.735 6  94539895.014 5  22754649.652    22754647.234    22754655.721
        37.300          32.700
 143886972.991 5                  27380777.887
        30.200
 110972713.711 7  86472245.91544  21117406.254    21117405.9154   21117403.4484
        47.900          29.3004


 198897832.290 7                  37849019.666
        44.500
 128352402.806 6                  24424650.395
        41.400
 138240130.236 5                  26306199.072
        35.100
 202052481.465 7                  38449322.211
        46.000
 105378053.818 8  81960703.318 8  19720069.588    19720070.004    19720075.085
        53.400          48.500
 105633219.658 8  82159413.384 7  19740072.536    19740074.244    19740081.615
        50.600          46.600
 112673908.838 5  87635385.364 5  21070592.591    21070590.396    21070597.956
        32.600          32.500
 121854539.536 6                  22835485.003    22835485.164
        38.300


 121678110.014 5                  22794407.103
        31.100
 25  1  1 21  2 45.0000000  0 25G21E31G07G02G30G08G13G17E33E24R10E09
                                E04R12E12G14S35S31E05E06S33R11R21R02
                                R22
 114330409.823 6  89088643.60144  21756354.232    21756353.0164   21756357.1274
        41.300          28.5004
 124048101.596 7                  23605560.790
        46.700
 109363905.349 8  85218572.84548  20811253.442    20811252.8664   20811256.6614
        48.900          48.8004
 114172711.556 7  88965776.75643  21726342.542    21726341.4514   21726340.4674
        42.000          22.1004
 106589239.218 8  83056549.23748  20283253.829    20283253.0744   20283256.6214
        49.400          50.7004


 119429816.789 7  93062240.60344  22726740.296    22726740.1274   22726741.1094
        45.600          25.4004
 114503490.081 5  89223521.94844  21789293.180    21789292.9704   21789294.1344
        34.200          28.8004
 132487174.145 6                  25211452.851
        38.000
 132928743.870 7                  25295500.841
        44.900
 114291880.907 6                  21440873.507    21440872.206
        40.300
 134694441.033 5                  25631509.683
        30.100


 121505541.718 6  94504323.242 5  22746095.090    22746092.877    22746095.680
        40.600          34.000
 143840697.241 4                  27371972.733
        28.800
 110948748.965 7  86453572.10245  21112846.093    21112845.7634   21112844.7634
        46.400          30.5004


 198897826.958 7                  37849016.800
        44.000
 128349416.460 6                  24424082.588
        40.200
 138282904.215 6                  26314340.134
        37.600
 202052494.646 7                  38449322.054
        45.200
 105366329.537 8  81951584.386 8  19717875.759    19717876.079    19717881.625
        53.100          49.100
 105607564.665 8  82139459.559 7  19735278.950    19735279.690    19735287.396
        51.300          46.100
 121858704.787 6  94779052.160 5  22836260.040    22836262.779    22836283.977
        39.100          33.800


 25  1  1 21  3  0.0000000  0 27G21E31G07G02G30G13G17E33E24R10E09E04
                                R12E12G14S35S31E05E06S33R11R21R01R20
                                R02E26R22
 114340701.118 6  89096662.81044  21758312.966    21758311.7684   21758315.4964
        41.600          28.2004
 124053942.770 8                  23606671.817
        48.000
 109388626.329 8  85237835.91048  20815957.041    20815956.4694   20815960.8174
        50.300          49.7004
 114160069.842 7  88955926.07243  21723935.499    21723934.4404   21723936.3804
        44.400          22.4004
 106582918.306 8  83051623.86148  20282051.314    20282050.5774   20282054.4174
        50.200          50.9004
 119415352.275 7  93050969.54244  22723988.857    22723988.6744   22723989.8624
        43.800          27.4004
 114465639.154 6  89194027.72244  21782091.250    21782090.9464   21782090.4224
        40.100          29.3004
 132464668.767 6                  25207172.180
        38.900
 132906982.708 7                  25291360.089
        45.900
 114323662.456 6                  21446834.924    21446833.903
        40.900




 121459798.227 6  94468745.084 5  22737525.767    22737526.621    22737529.223
        38.700          32.300
 143794421.220 5                  27363166.146
        30.100
 110924822.934 7  86434928.42545  21108293.106    21108292.7534   21108292.6524
        45.700          31.2004


 198897817.448 7                  37849013.849
        43.400
 128346532.153 7                  24423533.701
        42.100
 138325696.008 5                  26322484.947
        30.500
 202052502.930 7                  38449317.024
        42.800
 105354676.991 8  81942521.278 8  19715695.032    19715695.644    19715700.457
        52.300          48.000
 105582098.379 8  82119652.489 7  19730520.319    19730520.149    19730526.393
        51.300          45.200
 123311647.956 6                  23067979.730    23067979.605
        38.600
 112747944.718 5  87692882.834 5  21084436.105    21084436.288    21084444.206
        33.700          32.400
 121863048.287 6                  22837079.834    22837081.001
        38.600
 140281164.623 4                  26694629.471
        28.200


 25  1  1 21  3 15.0000000  0 28G21E31G07G02G30G08G13G19G17E33E24R10
                                E09E04R12E12G14S35S31E05E06S33R11R21
                                R01R20R02R22
 114351151.618 6  89104806.09844  21760301.059    21760299.8704   21760303.5484
        40.100          27.5004
 124059815.092 7                  23607788.866
        47.200
 109413469.375 8  85257194.09548  20820685.500    20820684.9284   20820687.9804
        51.100          51.3004
 114147570.584 7  88946186.34244  21721557.017    21721555.9894   21721559.6994
        44.500          26.4004
 106576729.768 8  83046801.61248  20280873.414    20280872.6724   20280876.9134
        48.200          49.6004


 119401038.167 7  93039815.67444  22721265.153    22721264.9394   22721266.1344
        45.400          27.8004
 130203676.992 5                  24776918.898
        33.000
 114427881.733 6  89164606.41545  21774905.175    21774904.8764   21774905.3784
        39.700          31.0004
 132442261.390 6                  25202906.956
        36.600
 132885244.355 7                  25287222.964
        47.700
 114355518.590 6                  21452808.725    21452808.290
        39.700
 134762382.184 4                  25644426.234
        27.100


 121414055.692 6  94433167.489 4  22728963.157    22728960.977    22728965.091
        40.300          28.900
 143748154.154 4                  27354361.111
        25.300
 110900944.536 8  86416321.89245  21103749.372    21103749.0374   21103750.4714
        48.400          34.5004


 198897811.696 7                  37849011.877
        44.400
 128343758.755 6                  24423006.324
        40.700
 138368514.379 5                  26330633.657
        32.600
 202052514.891 7                  38449326.736
        45.300
 105343105.421 8  81933521.169 7  19713529.464    19713529.988    19713535.109
        52.800          47.700
 105556830.095 8  82099999.383 7  19725798.355    19725798.428    19725804.972
        51.400          44.700
 123357656.556 6                  23076586.141    23076586.767
        39.500
 112785214.686 5  87721870.386 6  21091406.304    21091405.866    21091415.541
        32.000          37.000
 121867579.172 6  94785914.671 5  22837929.316    22837929.872    22837936.509
        40.100          31.000
 121477808.401 5                  22756857.925    22756856.487
        35.600
 25  1  1 21  3 30.0000000  0 29G21E31G07G02G30G08G13G15G19G17E33E24
                                R10E09E04R12E12G14S35S31E05E06S33R11
                                R21R01R20R02R22
 114361757.459 6  89113070.41644  21762320.334    21762319.1634   21762321.5254
        41.400          27.7004
 124065714.593 7                  23608912.172
        46.600
 109438430.542 8  85276644.31148  20825435.654    20825435.0824   20825437.7154
        51.100          51.2004
 114135209.820 7  88936554.58544  21719205.957    21719204.9074   21719207.4914
        45.600          26.2004
 106570669.845 7  83042079.56447  20279720.148    20279719.4154   20279722.9804
        46.800          47.5004


 119386870.770 7  93028776.12144  22718569.594    22718569.3754   22718569.7334
        46.400          29.1004
 130765613.448 4                  24883869.543
        29.500
 130151747.027 5                  24767032.851
        33.400
 114390213.902 6  89135254.93945  21767736.151    21767735.7624   21767737.8554
        36.200          31.4004
 132419948.233 5                  25198662.329
        34.900
 132863524.898 7                  25283089.002
        46.700
 114387445.295 7                  21458800.118    21458800.604
        43.300
 134796416.242 5                  25650931.041
        34.500


 121368309.929 6                  22720398.660    22720394.824
        36.000


 110877109.922 8  86397749.45745  21099212.893    21099212.5494   21099215.6564
        48.500          34.8004


 198897805.190 7                  37849013.755
        43.300
 128341092.450 7                  24422499.398
        42.500
 138411355.198 5                  26338787.155
        34.500
 202052527.040 7                  38449337.222
        46.300
 105331610.988 8  81924581.025 7  19711379.303    19711379.781    19711383.879
        52.600          47.200
 105531756.097 8  82080497.393 7  19721113.315    19721112.727    19721119.364
        50.000          45.100
 123403746.390 6                  23085207.763    23085208.275
        38.600
 112822651.005 4  87750987.567 5  21098407.834    21098408.517    21098413.564
        28.900          34.900
 121872293.009 7  94789580.993 5  22838813.045    22838813.835    22838818.336
        42.000          34.000
 121411095.687 6                  22744361.077    22744361.052
        41.100
 25  1  1 21  3 45.0000000  0 29G21E31G07G02G30G08G13G15G19G17E33E24
                                R10E09E04R12E12G14S35S31E05E06S33R11
                                R21R01R02E26R22
 114372516.696 7  89121454.25844  21764367.470    21764366.2684   21764369.3094
        42.600          27.1004
 124071639.590 7                  23610039.736
        47.200
 109463507.975 8  85296185.12648  20830208.027    20830207.4554   20830209.2674
        52.000          51.2004
 114122985.962 7  88927029.49044  21716879.746    21716878.6694   21716880.2314
        44.900          26.9004
 106564736.907 7  83037456.47647  20278591.325    20278590.5974   20278593.2964
        47.500          47.2004


 119372848.271 7  93017849.46244  22715901.668    22715901.4454   22715900.8054
        44.900          28.3004
 130743379.888 4                  24879628.522
        28.200
 130099837.949 4                  24757149.299
        27.000
 114352634.194 6  89105972.13845  21760584.437    21760584.0444   21760586.6624
        38.300          30.6004
 132397727.649 6                  25194430.092
        36.000
 132841822.642 7                  25278960.181
        46.600
 114419440.691 6                  21464803.690    21464801.070
        41.000
 134830511.706 5                  25657390.663
        35.600


 121322559.462 6                  22711836.351    22711832.409
        40.200


 110853317.438 7  86379209.85345  21094685.212    21094684.8594   21094688.3614
        47.000          34.4004


 198897798.073 7                  37849011.466
        42.700
 128338531.471 7                  24422011.594
        44.400
 138454216.365 5                  26346942.614
        34.600
 202052537.964 7                  38449338.872
        46.400
 105320192.125 8  81915699.680 7  19709241.729    19709242.104    19709246.604
        51.700          46.000
 105506874.761 8  82061145.264 7  19716462.825    19716463.053    19716469.865
        49.000          45.700
 123449915.289 6                  23093843.860    23093843.591
        38.200
 121877188.083 6  94793388.340 5  22839727.779    22839729.074    22839734.589
        41.700          35.600


 121344419.874 6  94378980.017 5  22731868.013    22731867.665    22731889.865
        40.300          32.500
 25  1  1 21  4  0.0000000  0 29G21E31G07G02G30G08G13G19G17E33E24R10
                                E09E04R12E12G14S35S31E05E06S33R11R21
                                R01R20R02E26R22
 114383436.370 6  89129963.11144  21766445.513    21766444.3294   21766447.4424
        40.600          26.8004
 124077597.298 7                  23611172.969
        47.100
 109488708.723 8  85315822.00548  20835003.266    20835002.6904   20835005.0064
        51.500          51.4004
 114110906.512 7  88917616.96044  21714581.752    21714580.6664   21714581.3974
        47.500          27.3004
 106558938.443 7  83032938.17647  20277487.416    20277486.7104   20277490.0304
        47.000          47.3004
 120902691.020 5  94209892.15943  23007018.463    23007018.5394   23007022.0794
        33.200          18.6004
 119358978.011 7  93007041.47644  22713261.426    22713261.1854   22713260.2044
        43.500          25.6004
 130047957.247 5                  24747275.784
        31.400
 114315149.777 5  89076763.58445  21753450.393    21753450.0004   21753455.2564
        33.300          30.5004
 132375607.299 6                  25190222.191
        37.500
 132820144.790 7                  25274835.137
        47.600
 114451512.373 6                  21470820.929    21470819.212
        41.700
 134864675.191 5                  25663895.316
        35.100


 121276811.749 7                  22703272.280    22703273.442
        45.200
 143609369.425 5                  27327954.499
        34.400
 110829574.343 8  86360708.73945  21090167.384    21090167.0364   21090170.0064
        48.100          34.4004


 198897796.495 7                  37849008.921
        42.300
 128336083.072 7                  24421545.444
        44.600
 138497104.986 5                  26355103.148
        32.000
 202052553.731 7                  38449342.785
        44.700
 105308856.472 8  81906883.017 7  19707120.106    19707120.369    19707124.944
        48.200          43.600
 105482193.843 7  82041949.020 7  19711849.688    19711850.400    19711857.785
        47.400          46.800
 123496169.817 6  96052572.871 5  23102497.391    23102498.711    23102511.735
        39.800          31.300
 112898022.817 5  87809610.117 6  21112501.577    21112500.621    21112509.035
        32.700          37.700
 121882271.302 6  94797341.967 6  22840683.186    22840683.211    22840691.333
        39.500          39.300


 121277788.773 6  94327156.426 4  22719387.621    22719384.066    22719402.769
        37.300          28.600
 25  1  1 21  4 15.0000000  0 29G21E31G07G02G30G08G13G19G17E33E24R10
                                E09E04R12E12G14S35S31E05E06S33R11R21
                                R01R20R02E26R22
 114394509.966 6  89138591.89644  21768553.241    21768552.0434   21768553.9204
        40.900          26.5004
 124083581.099 7                  23612310.912
        46.400
 109514026.108 8  85335549.77748  20839821.142    20839820.5574   20839823.0724
        52.200          50.9004
 114098964.868 7  88908311.83744  21712307.746    21712306.6514   21712307.5954
        46.400          25.2004
 106553267.902 7  83028519.53447  20276408.429    20276407.7364   20276411.3454
        47.400          47.8004
 120952949.611 6  94249054.64443  23016583.561    23016584.1194   23016588.0924
        36.700          18.9004
 119345253.421 7  92996347.00743  22710650.127    22710649.9224   22710647.8024
        43.000          23.7004
 129996098.388 5                  24737411.541
        32.500
 114277754.292 6  89047624.25145  21746335.453    21746335.0874   21746341.0744
        39.100          32.6004
 132353580.548 6                  25186033.285
        40.700
 132798484.671 8                  25270713.431
        48.100
 114483653.652 7                  21476849.907    21476850.877
        42.200
 134898899.867 6                  25670409.680
        38.000


 121231060.343 7                  22694709.148    22694707.235
        44.500
 143563127.668 5                  27319154.720
        33.500
 110805874.086 8  86342241.02445  21085657.297    21085656.9624   21085659.3514
        48.500          34.7004


 198897792.999 7                  37849014.877
        43.000
 128333740.610 7                  24421098.941
        42.800
 138540014.224 5                  26363273.269
        35.000
 202052567.770 7                  38449344.734
        45.000
 105297597.455 7  81898125.973 7  19705011.057    19705012.173    19705018.578
        46.100          43.400
 105457706.904 7  82022903.602 7  19707273.874    19707273.744    19707282.675
        46.900          47.500
 123542502.787 5  96088609.416 4  23111164.223    23111161.680    23111177.583
        34.300          28.500
 112935958.328 5  87839115.518 6  21119594.388    21119594.546    21119605.893
        35.500          38.400
 121887536.180 6  94801436.826 6  22841670.364    22841669.476    22841676.262
        40.300          38.600
 140354712.656 5                  26708614.429
        32.300
 121211196.133 5  94275362.621 4  22706912.622    22706909.957    22706947.056
        35.500          27.800
 25  1  1 21  4 30.0000000  0 29G21E31G07G02G30G08G13G19G17E33E24R10
                                E09E04R12E12G14S35S31E05E06S33R11R21
                                R01R20R02E26R22
 114405734.114 6  89147337.99744  21770687.851    21770686.6084   21770689.1744
        40.100          26.6004
 124089587.475 7                  23613453.496
        46.100
 109539456.573 8  85355365.67348  20844660.277    20844659.6924   20844662.5224
        52.000          50.9004
 114087157.770 7  88899111.62343  21710060.584    21710059.5164   21710058.5254
        43.600          21.8004
 106547721.933 7  83024197.97947  20275352.818    20275352.1254   20275355.9714
        46.900          47.4004
 121003232.885 6  94288236.45543  23026152.187    23026152.6694   23026160.7184
        39.000          19.3004
 119331671.269 6  92985763.53543  22708063.228    22708062.9964   22708063.4324
        39.600          21.2004
 129944258.474 4                  24727543.735
        28.800
 114240444.269 6  89018551.57045  21739237.616    21739237.1654   21739242.3464
        37.100          34.7004
 132331644.143 6                  25181857.542
        41.400
 132776838.795 7                  25266594.345
        47.800
 114515861.003 6                  21482892.923    21482892.339
        40.600
 134933182.103 6                  25676933.182
        39.500


 121185301.520 6  94255255.759 5  22686137.778    22686139.960    22686145.647
        41.800          34.900
 143516887.441 5                  27310356.895
        33.000
 110782213.202 7  86323803.96145  21081154.280    21081153.9634   21081155.8994
        47.800          34.4004


 198897786.160 6                  37849006.761
        41.900
 128331500.580 7                  24420672.216
        42.600
 138582940.272 5                  26371443.260
        32.500
 202052579.317 7                  38449341.609
        46.200
 105286411.743 7  81889425.942 7  19702917.211    19702919.727    19702926.542
        44.200          43.600
 105433410.422 7  82004006.330 7  19702735.169    19702733.317    19702741.649
        45.900          47.500
 123588910.262 5                  23119846.514    23119846.657
        35.400
 112974053.705 5  87868745.314 6  21126721.505    21126720.761    21126727.797
        35.700          38.500
 121892978.716 6  94805669.861 6  22842689.183    22842688.904    22842693.802
        39.500          36.200
 140369744.456 4                  26711475.144
        29.000
 121144638.937 6                  22694445.504    22694441.481
        38.800
 25  1  1 21  4 45.0000000  0 28G21E31G07G02G30G08G13G17E33E24R10E09
                                E04R12E12G14S35S31E05E06S33R11R21R01
                                R20R02E26R22
 114417116.325 7  89156207.26544  21772853.584    21772852.3414   21772853.6904
        43.100          26.3004
 124095624.325 7                  23614602.987
        44.200
 109565007.911 8  85375275.77748  20849522.296    20849521.6974   20849525.0354
        50.500          49.9004
 114075493.162 7  88890022.33743  21707841.912    21707840.7774   21707839.8894
        42.200          21.6004
 106542308.576 8  83019979.75548  20274322.464    20274321.7674   20274326.4424
        48.500          49.0004
 121053548.584 6  94327443.52343  23035725.800    23035726.0364   23035736.3584
        38.400          18.7004
 119318239.563 6  92975297.27443  22705508.920    22705508.6394   22705508.0744
        37.900          20.6004
 114203227.930 6  88989551.84645  21732155.309    21732154.8764   21732160.3784
        39.700          35.1004
 132309806.214 6                  25177701.803
        40.800
 132755215.075 8                  25262479.001
        48.300
 114548142.260 6                  21488947.831    21488948.123
        40.500
 134967529.440 6                  25683469.005
        41.300


 121139543.559 5  94219666.326 5  22677570.573    22677566.178    22677576.740
        32.700          33.500
 143470657.092 5                  27301558.734
        30.600
 110758599.701 7  86305403.84645  21076661.430    21076661.1174   21076661.5204
        47.600          34.1004


 198897782.214 7                  37849007.374
        42.800
 128329370.826 7                  24420267.387
        42.200
 138625890.755 5                  26379626.484
        32.900
 202052592.217 7                  38449343.724
        46.900
 105275307.564 7  81880789.340 7  19700838.222    19700838.566    19700845.807
        43.000          42.400
 105409313.054 7  81985263.977 7  19698232.369    19698230.616    19698238.291
        45.400          47.600
 123635399.417 5                  23128539.315    23128537.725
        30.800
 113012316.902 5  87898505.526 6  21133873.976    21133873.582    21133882.984
        33.400          38.800
 121898607.053 7  94810047.412 5  22843744.261    22843744.913    22843747.428
        44.300          33.600
 140384883.462 5                  26714355.848
        32.100
 121078125.665 6                  22681986.887    22681986.241
        40.700
 25  1  1 21  5  0.0000000  0 28G21E31G07G02G30G08G13G17E33E24R10E09
                                E04R12E12G14S35S31E05E06S33R11R21R01
                                R20R02E26R22
 114428652.624 7  89165196.56544  21775049.048    21775047.8234   21775047.6784
        42.700          26.6004
 124101687.660 7                  23615757.108
        44.000
 109590676.172 8  85395276.98448  20854406.951    20854406.3704   20854409.5684
        50.000          48.6004
 114063967.357 7  88881041.20144  21705649.220    21705648.0944   21705648.6114
        44.500          24.3004
 106537023.992 8  83015861.88148  20273317.420    20273316.7184   20273321.7184
        48.900          50.9004
 121103892.328 5  94366672.33742  23045306.861    23045307.0084   23045316.3804
        34.800          16.5004
 119304954.345 6  92964945.16843  22702981.434    22702981.0954   22702980.5844
        38.800          20.4004
 114166101.368 6  88960622.08245  21725090.088    21725089.6374   21725094.4504
        40.500          34.1004
 132288062.893 6                  25173564.225
        40.900
 132733609.480 8                  25258367.291
        48.300
 114580493.506 6                  21495015.347    21495014.322
        38.300
 135001937.760 6                  25690017.618
        40.200


 121093782.797 7  94184074.588 5  22669007.485    22669008.547    22669009.831
        42.100          34.300
 143424432.848 4                  27292762.655
        26.000
 110735029.607 7  86287037.54845  21072176.829    21072176.5124   21072176.6844
        46.300          34.8004


 198897777.364 7                  37849005.536
        42.700
 128327347.428 7                  24419882.799
        43.900
 138668861.206 4                  26387805.125
        29.900
 202052604.970 7                  38449348.280
        45.600
 105264281.096 7  81872213.202 7  19698777.548    19698777.108    19698782.471
        46.400          43.700
 105385410.712 7  81966673.309 7  19693764.193    19693764.100    19693771.735
        45.600          47.700
 123681965.606 4                  23137247.900    23137249.510
        29.700
 113050742.953 6  87928392.437 6  21141058.771    21141060.476    21141068.166
        36.200          39.400
 121904416.721 7  94814565.985 5  22844835.447    22844837.178    22844839.363
        45.500          35.700
 140400125.618 5                  26717255.992
        30.600
 121011652.754 6                  22669530.978    22669531.887
        37.200
 25  1  1 21  5 15.0000000  0 28G21E31G07G02G30G08G13G17E33E24R10E09
                                E04R12E12G14S35S31E05E06S33R11R21R01
                                R20R02E26R22
 114440343.286 7  89174306.18244  21777274.183    21777272.9584   21777272.3504
        43.200          27.4004
 124107777.906 7                  23616915.342
        44.800
 109616461.746 8  85415369.59147  20859312.907    20859312.3354   20859316.1184
        50.400          47.4004
 114052580.778 7  88872168.52944  21703482.317    21703481.2044   21703484.3144
        46.900          27.2004
 106531868.729 8  83011844.75348  20272336.683    20272335.9814   20272340.9934
        49.600          51.3004
 121154264.242 5  94405923.24142  23054890.183    23054890.3614   23054903.3604
        32.200          15.5004
 119291815.986 6  92954707.47743  22700480.973    22700480.6024   22700480.5984
        40.500          19.8004
 114129065.116 6  88931762.72745  21718038.633    21718038.1774   21718045.0584
        37.200          32.1004
 132266414.800 6                  25169444.013
        39.100
 132712022.468 7                  25254259.562
        47.700
 114612914.828 5                  21501092.962    21501096.877
        34.600
 135036407.129 6                  25696577.409
        40.500


 121048019.485 6  94148480.988 6  22660439.375    22660440.494    22660444.563
        41.300          36.900


 110711503.404 7  86268705.45145  21067700.136    21067699.7924   21067700.5954
        45.700          33.7004


 198897772.400 7                  37849000.358
        42.100
 128325430.789 7                  24419518.085
        44.300
 138711852.269 5                  26395989.727
        33.700
 202052618.469 7                  38449349.398
        44.900
 105253332.900 8  81863697.925 7  19696729.462    19696730.393    19696734.767
        50.000          45.600
 105361704.150 7  81948234.895 7  19689333.439    19689333.121    19689341.153
        43.000          46.800
 123728609.111 5                  23145974.718    23145975.282
        31.600
 113089332.174 5  87958406.216 6  21148273.240    21148277.250    21148284.743
        35.800          40.500
 121910408.058 7  94819225.883 5  22845959.458    22845959.954    22845961.476
        46.400          33.700
 140415471.108 4                  26720170.099
        26.900
 120945221.134 6                  22657086.824    22657087.679
        41.800
 25  1  1 21  5 30.0000000  0 29G21E31G07G02G30G08G13G15G17E33E24R10
                                E09E04R12E12G14S35S31E05E06S33R11R21
                                R01R20R02E26R22
 114452187.891 7  89183535.74844  21779528.126    21779526.9064   21779527.6494
        44.000          28.4004
 124113894.682 7                  23618079.736
        44.200
 109642364.070 8  85435553.15347  20864241.813    20864241.2504   20864244.5304
        48.700          46.0004
 114041333.311 7  88863404.25644  21701341.577    21701340.4864   21701344.7914
        46.000          27.1004
 106526842.593 8  83007928.24948  20271380.706    20271380.0134   20271384.2894
        50.400          51.4004
 121204663.780 4  94445195.59741  23064480.787    23064481.0464   23064495.0934
        25.600          11.7004
 119278824.321 7  92944584.11743  22698008.833    22698008.4944   22698007.0084
        42.600          20.3004
 130591414.584 5                  24850719.749
        33.600
 114092118.770 5  88902973.47644  21711009.756    21711009.4214   21711013.1324
        31.200          26.7004
 132244861.708 6                  25165343.195
        40.900
 132690453.612 8                  25250155.480
        48.600
 114645406.448 6                  21507198.338    21507197.315
        40.400
 135070937.017 6                  25703147.970
        40.500


 121002253.545 7  94112885.263 6  22651872.147    22651873.406    22651880.194
        43.200          41.600


 110688020.823 7  86250407.33745  21063232.240    21063231.8654   21063232.1164
        42.700          32.3004


 198897766.948 7                  37848997.474
        43.500
 128323620.571 7                  24419173.305
        44.000
 138754863.137 4                  26404169.196
        28.900
 202052629.885 7                  38449348.428
        45.500
 105242462.911 8  81855243.464 7  19694695.369    19694695.921    19694700.841
        51.300          47.800
 105338193.257 7  81929948.635 7  19684940.162    19684940.525    19684947.037
        44.200          46.300
 123775328.744 5  96269707.840 5  23154719.850    23154718.185    23154741.342
        34.200          33.200
 113128083.501 5  87988546.129 6  21155520.333    21155520.805    21155531.052
        33.900          40.900
 121916580.330 7  94824026.492 5  22847115.074    22847116.821    22847119.582
        44.200          35.100
 140430919.669 5                  26723115.012
        30.900
 120878830.906 6                  22644652.057    22644651.381
        41.200
 25  1  1 21  5 45.0000000  0 29G21E31G07G02G30G08G13G15G17E33E24R10
                                E09E04R12E12G14S35S31E05E06S33R11R21
                                R01R20R02E26R22
 114464188.530 7  89192886.91344  21781811.184    21781809.9374   21781812.4654
        44.500          29.0004
 124120040.246 7                  23619250.318
        44.600
 109668385.257 8  85455829.33547  20869194.118    20869193.5604   20869195.5154
        50.200          45.4004
 114030227.205 7  88854750.14244  21699229.431    21699228.3404   21699229.7404
        44.700          24.2004
 106521947.903 8  83004114.18148  20270449.253    20270448.5744   20270452.1934
        52.100          51.3004


 119265981.625 6  92934576.81843  22695563.354    22695562.9924   22695561.9704
        41.900          19.7004
 130570232.882 5 101743064.21742  24846693.040    24846693.2414   24846695.1724
        31.900          12.4004
 114055265.009 5  88874256.32544  21703996.021    21703995.7134   21704000.0724
        34.500          27.1004
 132223406.044 6                  25161259.092
        40.500
 132668905.124 8                  25246055.119
        49.200
 114677970.223 6                  21513302.038    21513301.809
        36.700
 135105529.346 6                  25709730.220
        40.400


 120956487.181 7  94077289.248 7  22643301.614    22643303.085    22643312.860
        42.000          43.200


 110664584.084 7  86232144.94945  21058772.324    21058771.9274   21058771.3144
        45.400          31.6004


 198897762.917 7                  37849001.342
        43.300
 128321918.951 7                  24418850.529
        43.400
 138797895.625 4                  26412359.681
        29.600
 202052644.133 7                  38449355.744
        45.000
 105231673.481 8  81846851.678 8  19692676.914    19692676.617    19692682.570
        52.300          49.400
 105314880.492 7  81911816.472 7  19680582.376    19680584.467    19680590.555
        45.500          45.800
 123822126.033 5  96306105.567 5  23163474.629    23163470.680    23163492.821
        30.600          30.400
 113166998.864 6  88018813.633 7  21162799.782    21162801.394    21162810.264
        36.700          42.400
 121922936.163 7  94828969.864 6  22848307.131    22848310.382    22848314.851
        42.700          38.100
 140446473.434 4                  26726073.282
        24.100
 120812484.686 6                  22632221.070    22632222.421
        40.400
 25  1  1 21  6  0.0000000  0 28G21E31G07G02G30G08G13G17E33E24R10E09
                                E04R12E12G14S35S31E05E06S33R11R21R01
                                R20R02E26R22
 114476341.086 7  89202356.45344  21784123.835    21784122.5754   21784126.1854
        45.700          29.5004
 124126210.582 7                  23620424.100
        45.200
 109694521.300 8  85476195.00847  20874168.715    20874168.1614   20874168.9484
        49.300          45.2004
 114019258.594 7  88846203.18044  21697141.676    21697140.5944   21697142.3784
        45.100          24.4004
 106517180.805 8  83000399.54848  20269542.051    20269541.3674   20269544.4404
        52.500          50.9004
 121305547.659 5  94523806.10342  23083681.820    23083681.4544   23083693.9914
        35.200          12.6004
 119253283.994 6  92924682.52343  22693148.569    22693148.2074   22693145.0534
