     2.11           OBSERVATION DATA    M (MIXED)           RINEX VERSION / TYPE
teqc  2019Feb25                         20260317 16:18:01UTCPGM / RUN BY / DATE
Linux 2.4.21-27.ELsmp|Opteron|gcc -static|Linux 64|=+       COMMENT
BIT 2 OF LLI FLAGS DATA COLLECTED UNDER A/S CONDITION       COMMENT
-Unknown-                                                   MARKER NAME
-Unknown-           -Unknown-                               OBSERVER / AGENCY
-Unknown-           -Unknown-           -Unknown-           REC # / TYPE / VERS
-Unknown-           -Unknown-                               ANT # / TYPE
        0.0000        0.0000        0.0000                  APPROX POSITION XYZ
        0.0000        0.0000        0.0000                  ANTENNA: DELTA H/E/N
     1     1                                                WAVELENGTH FACT L1/2
     7    L1    L2    C1    P1    P2    S1    S2            # / TYPES OF OBSERV
 SNR is mapped to RINEX snr flag value [0-9]                COMMENT
  L1 & L2: min(max(int(snr_dBHz/6), 0), 9)                  COMMENT
  2025     1     1    13     0    0.0000000     GPS         TIME OF FIRST OBS
    18                                                      LEAP SECONDS
                                                            END OF HEADER
 25  1  1 13  0  0.0000000  0 28E27E10G02E29G32E33G10G28G03G26R06R04
                                R21E21S35R05G25S31G31G21S33E07E30E19
                                R16R14E12R15
 134129993.078 7                  25524080.745
        42.900


 123256270.877 8  96043720.33145  23454884.980    23454884.3284   23454881.2914
        48.100          32.0004
 124479120.778 7                  23687584.819
        47.600
 111809237.517 8  87124076.68446  21276592.811    21276592.6514   21276591.3254
        49.100          36.4004
 133918961.177 6                  25483929.605
        40.700
 115437840.593 7  89951600.44446  21967095.040    21967094.4684   21967097.6304
        43.400          40.3004
 106572017.189 8  83043128.25447  20279958.122    20279957.8634   20279958.2564
        51.300          43.4004
 124441576.545 6  96967430.23344  23680447.533    23680447.4354   23680446.9444
        37.800          26.2004
 124439004.806 4  96965508.00441  23679954.732    23679954.3264   23679956.9394
        28.500           8.6004
 126941967.101 5                  23788865.628    23788869.758
        31.900
 111594475.146 6  86795785.487 6  20839499.370    20839497.816    20839502.436
        41.500          39.400
                  94514051.660 5                  22708553.791    22708554.628
                        35.600
 141085800.437 6                  26847736.455
        39.500


 106055111.434 8  82486885.220 8  19839696.131    19839696.166    19839700.349
        52.600          50.400
 116252794.006 7  90586586.69046  22122173.256    22122172.5054   22122174.5794
        42.600          37.0004
 198902832.237 7                  37849951.566
        42.900
 108710985.705 7  84709870.78346  20687009.154    20687008.7834   20687007.5174
        43.000          40.4004
 123356473.302 6  96121967.74443  23473961.032    23473960.4964   23473959.0224
        39.400          19.0004
 202018783.049 7                  38442904.637
        46.600




 126154391.456 6                  24006383.098
        39.600
 121560575.178 5  94547082.121 5  22756409.599                    22756383.813
        34.200          34.900
 111307759.057 7  86572755.645 6  20881060.944    20881061.457    20881061.779
        43.800          40.100
 136308232.547 6                  25938596.452
        38.000
 105368951.853 8  81953615.899 8  19718355.375    19718355.941    19718360.986
        53.800          50.700
 25  1  1 13  0 15.0000000  0 28E27E10G02E29G32E33G10G28G03G26R06R04
                                R21E21S35R05G25S31G31G21S33E07E30E19
                                R16R14E12R15
 134110862.542 7                  25520440.490
        42.800


 123264451.217 8  96050094.63545  23456441.184    23456440.5234   23456438.0994
        48.300          33.3004
 124487762.966 8                  23689229.433
        49.500
 111825041.476 7  87136391.50946  21279600.282    21279600.1174   21279598.4014
        47.500          37.7004
 133956892.254 6                  25491147.407
        40.400
 115479277.976 7  89983889.28046  21974980.397    21974979.8344   21974983.1754
        42.700          40.7004
 106571966.551 8  83043088.77947  20279948.298    20279948.0444   20279948.8754
        50.500          43.6004
 124389664.636 6  96926979.42844  23670569.708    23670569.6644   23670567.8924
        39.700          27.2004


 126894124.416 4                  23779899.414    23779899.178
        28.600
 111619692.111 7  86815398.675 6  20844207.696    20844207.584    20844213.196
        46.000          40.400
 121524075.086 6  94518788.320 5  22709698.260                    22709694.347
        39.500          35.500
 141041986.008 6                  26839398.764
        40.400


 106039375.357 8  82474645.996 8  19836751.900    19836752.184    19836756.408
        52.100          50.200
 116258854.686 7  90591309.26646  22123326.060    22123325.3184   22123327.4314
        42.700          37.5004
 198902840.492 7                  37849951.973
        43.300
 108680574.873 7  84686173.99446  20681220.802    20681220.3914   20681220.0834
        43.000          38.4004
 123380835.493 6  96140951.28343  23478598.048    23478597.5164   23478594.4404
        38.700          18.0004
 202018800.823 7                  38442910.606
        45.500




 126137536.262 6                  24003175.345
        38.300
                  94495151.076 5                                  22743884.416
                        34.900
 111342661.835 7  86599902.229 6  20887608.455    20887608.641    20887611.919
        46.700          41.200
 136308113.637 6                  25938574.102
        37.800
 105341587.991 8  81932332.795 8  19713234.612    19713234.735    19713239.583
        53.000          50.400
 25  1  1 13  0 30.0000000  0 29E27E10G02E29G32E33G10G28G03G26R06R04
                                R21E21S35R05G25S31G31G21S33E07E30E19
                                R16R14R20E12R15
 134091824.780 7                  25516817.331
        42.500


 123272747.968 8  96056559.63245  23458019.988    23458019.2954   23458016.9584
        48.100          33.2004
 124496431.763 8                  23690879.122
        50.300
 111840894.177 7  87148744.26146  21282616.897    21282616.6964   21282615.7944
        46.200          38.5004
 133994880.769 6                  25498377.141
        40.100
 115520808.130 7  90016250.39846  21982883.603    21982883.0134   21982885.9464
        42.900          40.7004
 106572037.078 8  83043143.71347  20279961.771    20279961.5214   20279962.4104
        50.700          43.5004
 124337781.429 6  96886550.90544  23660696.716    23660696.6674   23660694.6564
        38.600          26.3004


 126846263.405 4                  23770934.285    23770933.257
        28.700
 111644982.365 8  86835068.762 6  20848933.336    20848934.134    20848933.285
        49.500          38.800
 121530351.496 6  94523669.809 6  22710870.072    22710856.216    22710865.205
        40.200          36.500
 140998184.032 7                  26831063.882
        42.100


 106023705.133 8  82462457.990 8  19833819.629    19833819.936    19833825.161
        51.500          50.600
 116265072.746 6  90596154.44546  22124510.160    22124509.4234   22124511.3514
        39.600          37.2004
 198902849.496 7                  37849954.151
        43.000
 108650282.949 7  84662569.89346  20675456.202    20675455.7734   20675455.7824
        43.300          38.3004
 123405278.852 6  96159998.03842  23483249.686    23483249.1954   23483245.4644
        38.500          16.3004
 202018818.441 7                  38442910.105
        45.000
 142072776.250 6                  27035550.595
        36.200


 126120703.095 6                  23999972.732
        37.400
                  94443250.454 5                                  22731392.634
                        34.600
 111377728.445 7  86627176.270 6  20894187.981    20894188.402    20894190.893
        47.700          40.500
                  94572731.787 6                                  22738593.941
                        39.500
 136308106.609 6                  25938572.550
        36.400
 105314410.384 8  81911194.563 8  19708148.648    19708149.042    19708153.810
        52.400          50.000
 25  1  1 13  0 45.0000000  0 29E27E10G02E29G32E33G10G28G03G26R06R04
                                R21E21S35R05G25S31G31G21S33E07E30E19
                                R16R14R20E12R15
 134072880.484 6                  25513211.892
        41.800


 123281161.551 7  96063115.65845  23459621.253    23459620.5694   23459617.7634
        47.400          32.5004
 124505127.726 8                  23692533.573
        50.400
 111856796.215 7  87161135.46446  21285643.395    21285643.1724   21285642.6674
        46.200          38.8004
 134032926.950 6                  25505617.666
        38.300
 115562431.427 7  90048684.09446  21990804.452    21990803.8044   21990806.5664
        42.100          40.6004
 106572229.225 8  83043293.42047  20279998.624    20279998.3654   20279998.7784
        50.600          43.0004
 124285927.876 5  96846145.51244  23650828.013    23650827.9114   23650827.5114
        35.300          24.4004
 124273423.997 5  96836456.64042  23648444.327    23648443.5904   23648451.6124
        35.100          16.5004
 126798384.762 4                  23761963.826    23761962.928
        27.100
 111670346.268 7  86854796.212 6  20853667.348    20853667.208    20853669.283
        46.700          39.000
                  94528696.609 6                  22712062.584    22712071.649
                        36.400
 140954395.283 7                  26822731.549
        42.700


 106008101.300 8  82450321.660 8  19830901.169    19830901.030    19830906.425
        52.200          50.900
 116271448.707 6  90601122.69946  22125723.871    22125723.1384   22125725.5934
        40.300          36.6004
 198902858.806 7                  37849954.593
        43.300
 108620110.607 7  84639058.98246  20669715.177    20669714.7304   20669714.4604
        45.700          40.0004
 123429803.964 5  96179108.48341  23487913.796    23487913.3004   23487912.2244
        34.300           9.1004
 202018836.600 7                  38442914.403
        45.900
 142102016.079 5                  27041112.677
        34.900


 126103892.395 6                  23996773.775
        39.800
 121360362.165 6  94391380.876 5  22718914.688    22718908.544    22718906.335
        36.400          32.900
 111412958.832 7  86654577.653 6  20900793.841    20900794.889    20900799.240
        42.800          38.200
                  94610495.380 6                                  22747674.452
                        38.600
 136308212.041 5                  25938589.831
        33.500
 105287420.169 8  81890202.107 8  19703096.418    19703096.713    19703103.108
        49.800          49.100
 25  1  1 13  1  0.0000000  0 28E27E10G02E29G32E33G10G28G03G26R04R21
                                E21S35R05G25S31G31G21S33E07E30E19R16
                                R14R20E12R15
 134054025.979 6                  25509624.711
        41.000


 123289687.915 7  96069759.57645  23461243.409    23461242.7124   23461240.7124
        44.900          30.7004
 124513847.014 8                  23694192.774
        50.400
 111872743.724 7  87173562.09846  21288676.648    21288676.4124   21288678.0584
        44.700          38.1004
 134071026.803 6                  25512867.414
        36.500
 115604143.844 6  90081187.22346  21998742.588    21998741.9454   21998744.6444
        41.000          41.6004
 106572538.984 8  83043534.77647  20280057.935    20280057.6904   20280057.4994
        50.100          42.7004
 124234100.345 5  96805760.40043  23640964.480    23640964.3514   23640964.7084
        31.900          20.9004
 124218252.203 5  96793465.63943  23637944.761    23637944.7084   23637953.0524
        35.700          22.7004
 111695780.196 7  86874578.117 6  20858416.610    20858416.558    20858419.903
        46.500          40.400
 121543460.298 6  94533865.479 5  22713307.076    22713306.365    22713310.485
        39.900          34.600
 140910616.161 7                  26814400.326
        42.300


 105992560.329 8  82438234.258 8  19827994.210    19827993.573    19827998.645
        51.500          50.800
 116277978.829 6  90606211.10146  22126965.544    22126964.7534   22126968.9914
        41.300          36.0004
 198902863.677 7                  37849961.547
        43.500
 108590054.146 7  84615638.37547  20663995.963    20663995.4814   20663995.7474
        47.900          42.6004
 123454406.430 5  96198279.2294   23492594.686    23492594.0694   23492593.8654
        30.300           4.1004
 202018851.401 7                  38442916.173
        44.900
 142131257.722 4                  27046675.125
        27.900


 126087100.510 7                  23993577.717
        42.000
 121293709.164 7  94339539.637 5  22706437.757    22706433.271    22706430.628
        42.000          34.000
 111448348.279 7  86682102.764 5  20907434.694    20907435.905    20907439.353
        43.300          34.700
                  94648323.843 6                                  22756771.159
                        40.700
 136308425.936 5                  25938632.608
        32.300
 105260613.539 8  81869352.466 8  19698080.705    19698080.035    19698086.811
        48.300          48.300
 25  1  1 13  1 15.0000000  0 28E27E10G02E29G32E33G10G28G03G26R04R21
                                E21S35R05G25S31G31G21S33E07E30E19R16
                                R14R20E12R15
 134035267.125 6                  25506055.111
        40.900


 123298332.567 7  96076495.68444  23462888.800    23462888.1164   23462886.7164
        43.800          29.7004
 124522595.357 8                  23695857.148
        49.100
 111888742.461 7  87186028.66046  21291721.465    21291721.2064   21291723.0234
        42.100          36.6004
 134109185.642 6                  25520129.453
        37.900
 115645950.846 7  90113764.05747  22006698.695    22006698.1104   22006701.0834
        42.900          43.2004
 106572971.974 8  83043872.16447  20280139.995    20280139.7674   20280139.7194
        51.500          42.5004
 124182304.772 5  96765400.15143  23631109.632    23631109.4944   23631106.8114
        33.800          19.2004
 124163097.735 5  96750488.08743  23627454.873    23627455.2704   23627458.1624
        31.800          22.9004
 111721289.921 7  86894418.909 7  20863181.748    20863180.719    20863184.426
        44.400          42.100
 121550294.118 6  94539180.584 6  22714583.833    22714582.039    22714586.745
        41.400          36.400
 140866852.642 6                  26806072.473
        39.300


 105977087.948 8  82426200.175 8  19825100.561    19825100.254    19825104.531
        52.700          51.000
 116284668.788 7  90611424.08646  22128237.796    22128236.9744   22128242.4824
        42.300          36.5004
 198902871.774 7                  37849960.804
        43.500
 108560119.194 7  84592312.40747  20658299.923    20658299.4454   20658300.3974
        47.600          44.2004
 123479091.511 5  96217514.2084   23497294.730    23497294.2304   23497290.8764
        30.200           2.4004
 202018868.367 7                  38442916.746
        44.300




 126070332.966 7                  23990386.846
        42.900
 121227098.785 7  94287731.577 5  22693965.443    22693965.373    22693962.640
        44.300          35.000
 111483902.640 6  86709756.038 5  20914103.104    20914103.528    20914107.061
        41.900          33.600
                  94686221.231 6                                  22765879.380
                        39.000
 136308754.048 5                  25938697.264
        32.500
 105233996.785 8  81848650.503 7  19693099.706    19693100.038    19693105.159
        49.100          46.300
 25  1  1 13  1 30.0000000  0 29E27E10G02E29G32G12E33G10G28G03G26R04
                                R21E21S35R05G25S31G31G21S33E07E30E19
                                R16R14R20E12R15
 134016599.875 7                  25502503.142
        43.300


 123307091.251 7  96083320.63744  23464556.470    23464555.7684   23464554.4434
        42.300          29.7004
 124531368.458 8                  23697526.497
        48.300
 111904788.138 7  87198531.78646  21294775.168    21294774.8694   21294776.9574
        43.100          36.9004
 129992149.638 5 101292657.56541  24736686.887    24736686.7854   24736697.6584
        32.800          10.8004
 134147399.052 5                  25527400.312
        34.800
 115687848.071 7  90146411.18747  22014670.405    22014669.8424   22014674.1524
        45.900          43.4004
 106573523.819 8  83044302.17147  20280244.751    20280244.5154   20280244.5524
        51.000          42.2004
 124130537.350 5  96725061.88043  23621257.377    23621257.2574   23621255.3174
        34.200          21.3004
 124107956.409 5  96707520.96743  23616973.561    23616973.6994   23616965.7464
        31.100          20.8004
 111746871.244 7  86914315.425 7  20867957.983    20867955.902    20867963.290
        42.500          44.000
 121557311.624 6  94544638.707 6  22715894.655    22715894.755    22715901.437
        40.800          41.800
 140823100.725 5                  26797747.549
        34.500


 105961680.235 8  82414216.407 8  19822217.529    19822218.485    19822222.606
        53.400          51.200
 116291514.293 6  90616758.28746  22129540.503    22129539.7304   22129545.1334
        41.600          36.7004
 198902877.412 7                  37849963.715
        43.600
 108530301.795 8  84569078.03547  20652626.234    20652625.7744   20652627.0764
        48.400          44.8004
 123503855.201 5  96236786.43241  23502008.402    23502008.0584   23502006.1574
        35.500           8.5004
 202018882.625 7                  38442921.106
        44.600




 126053585.675 7                  23987200.375
        43.800
 121160527.498 7  94235953.971 5  22681505.912    22681506.131    22681501.601
        43.700          35.100
 111519616.981 6  86737533.773 6  20920802.318    20920803.003    20920806.129
        40.600          36.500
                  94724184.088 6                                  22775007.817
                        38.400
 136309192.117 6                  25938779.049
        37.900
 105207565.691 8  81828092.977 7  19688153.582    19688154.205    19688158.364
        48.900          44.500
 25  1  1 13  1 45.0000000  0 28E27E10G02E29G32G12E33G10G28G03G26R04
                                R21E21S35R05G25S31G31G21S33E07E30E19
                                R16R14E12R15
 133998029.224 7                  25498967.664
        43.200


 123315968.640 7  96090238.08244  23466245.120    23466244.4324   23466244.4844
        43.100          29.2004
 124540171.131 8                  23699202.116
        48.100
 111920885.532 7  87211075.19046  21297838.502    21297838.1894   21297840.6324
        45.100          37.4004
 130024664.794 4 101317993.72441  24742876.914    24742877.0034   24742879.8864
        29.700           8.9004
 134185671.570 6                  25534684.302
        38.100
 115729840.076 7  90179132.16247  22022660.037    22022659.4564   22022664.5484
        46.300          42.4004
 106574199.232 8  83044828.48647  20280373.604    20280373.3544   20280372.6604
        50.700          42.0004
 124078803.159 5  96684749.52343  23611411.332    23611411.3284   23611411.1024
        32.800          19.8004
 124052833.652 5  96664568.43943  23606486.226    23606486.3104   23606476.4644
        33.000          18.4004
 111772529.219 7  86934271.577 7  20872748.553    20872747.585    20872755.899
        43.300          44.900
 121564517.752 7  94550243.478 7  22717242.364    22717243.249    22717247.620
        45.900          43.900
 140779365.471 5                  26789423.557
        33.900


 105946342.257 8  82402286.868 8  19819347.802    19819349.130    19819352.786
        52.100          50.600
 116298519.957 7  90622217.22145  22130874.598    22130873.8204   22130877.6414
        43.300          35.9004
 198902885.513 7                  37849962.226
        43.300
 108500606.733 7  84545938.97647  20646975.549    20646975.0984   20646975.2854
        47.700          43.3004
 123528701.885 5  96256147.44541  23506734.513    23506734.1204   23506734.7284
        32.200           9.4004
 202018900.527 7                  38442927.294
        46.100




 126036863.234 7                  23984018.487
        44.100
 121094000.577 7  94184210.935 5  22669054.802    22669054.106    22669046.549
        42.900          35.100
 111555495.984 6  86765439.712 6  20927532.658    20927534.011    20927538.157
        39.100          40.400
 136309744.939 6                  25938884.248
        38.500
 105181325.349 8  81807683.874 7  19683243.504    19683243.773    19683249.757
        48.300          43.600
 25  1  1 13  2  0.0000000  0 28E27E10G02E29G32G12E33G10G28G03G26R04
                                R21E21S35R05G25S31G31G21S33E07E30E19
                                R16R14E12R15
 133979553.084 6                  25495452.326
        41.700
 140983755.625 5                  26828316.961
        32.700
 123324962.397 6  96097246.18644  23467954.972    23467954.2934   23467956.3964
        40.100          26.9004
 124549001.228 7                  23700882.355
        47.800
 111937032.530 7  87223657.23446  21300911.315    21300910.9944   21300912.9584
        47.200          38.1004
 130057298.677 4 101343422.5554   24749096.251    24749096.3714   24749088.0234
        24.700           5.9004
 134224000.732 6                  25541977.365
        39.600
 115771924.523 7  90211925.14047  22030669.123    22030668.5424   22030672.4774
        46.700          42.9004
 106574995.853 8  83045449.24446  20280525.718    20280525.4734   20280523.8854
        50.400          41.9004
 124027100.216 5  96644461.53843  23601574.561    23601574.5834   23601573.8954
        31.400          20.5004
 123997727.698 6  96621628.92442  23595988.149    23595988.0784   23595988.9004
        36.300          17.3004
 111798261.601 7  86954285.544 7  20877555.735    20877559.946    20877560.277
        46.000          43.700
 121571909.751 8  94555992.750 7  22718624.188    22718625.660    22718629.753
        48.300          44.800
 140735644.897 6                  26781104.173
        36.200


 105931071.814 8  82390409.921 8  19816488.843    19816490.417    19816495.879
        48.900          49.800
 116305683.719 7  90627799.30746  22132237.966    22132237.1664   22132239.3974
        42.700          36.3004
 198902893.791 7                  37849965.102
        43.100
 108471032.116 8  84522893.77247  20641347.808    20641347.3394   20641345.5394
        48.000          42.1004
 123553628.948 5  96275571.12441  23511478.250    23511477.4864   23511477.7384
        33.000           9.8004
 202018918.737 7                  38442929.937
        45.300




 126020163.519 7                  23980840.441
        43.000
 121027516.168 6  94132500.994 5  22656609.893    22656611.132    22656596.613
        41.100          31.600
                  86793471.452 7                                  20934300.520
                        42.600
 136310410.329 6                  25939011.257
        37.200
 105155273.738 8  81787421.517 6  19678368.352    19678369.646    19678371.271
        48.500          40.900
 25  1  1 13  2 15.0000000  0 28E27E10G02E29G32E33G10G28G03G26R04R21
                                E21S35R05G25S31G31G21S33E07E30E19R16
                                R14R20E12R15
 133961169.486 7                  25491954.673
        42.100
 140966776.119 5                  26825086.806
        31.100
 123334070.190 6  96104343.12444  23469688.494    23469687.8014   23469689.0964
        38.600          25.6004
 124557856.539 8                  23702567.083
        48.100
 111953226.998 7  87236276.24546  21303992.872    21303992.5284   21303993.6654
        47.000          38.0004
 134262384.214 7                  25549281.839
        42.000
 115814099.075 7  90244788.32247  22038695.350    22038694.7834   22038697.0364
        47.500          43.3004
 106575911.496 8  83046162.75547  20280699.609    20280699.3814   20280698.2794
        50.200          42.0004
 123975427.012 5  96604196.82443  23591743.024    23591743.0164   23591743.6814
        34.000          22.7004
 123942636.865 6  96578701.12943  23585498.772    23585498.6164   23585502.4214
        37.500          18.5004
 111824066.136 7  86974355.645 7  20882377.125    20882372.874    20882378.504
        42.500          42.100
 121579485.480 8  94561885.043 7  22720039.147    22720040.777    22720046.261
        48.400          45.400
 140691937.113 6                  26772785.933
        38.300


 105915867.267 8  82378584.137 8  19813646.360    19813646.242    19813651.843
        49.400          49.200
 116313003.605 7  90633503.12246  22133631.155    22133630.3554   22133631.2264
        42.700          37.4004
 198902901.466 7                  37849964.713
        42.900
 108441575.888 7  84499940.80946  20635741.943    20635741.4474   20635738.5764
        47.000          40.1004
 123578634.120 4  96295055.74441  23516237.239    23516235.9384   23516235.8844
        28.400           8.8004
 202018935.178 7                  38442932.191
        45.100
 142277569.495 5                  27074520.455
        33.900


 126003484.435 7                  23977666.899
        42.800
 120961072.691 6  94080822.845 5  22644172.820    22644173.180    22644158.374
        41.200          31.200
                  86821627.168 7                                  20941091.350
                        44.000
                  94838473.894 6                                  22802487.208
                        39.100
 136311186.075 6                  25939159.412
        36.900
 105129408.823 7  81767304.386 6  19673525.691    19673526.821    19673533.771
        46.700          41.200
 25  1  1 13  2 30.0000000  0 27E27E10G02E29G32E33G10G28G03G26R04R21
                                E21S35R05G25S31G31S33E07E30E19R16R14
                                R20E12R15
 133942877.801 7                  25488473.931
        43.700
 140949897.513 4                  26821872.902
        28.300
 123343291.167 6  96111528.28244  23471444.263    23471443.5844   23471441.9944
        41.600          26.0004
 124566736.324 7                  23704256.552
        47.900
 111969468.243 7  87248931.72446  21307083.685    21307083.3684   21307083.7174
        47.100          38.0004
 134300820.931 6                  25556595.804
        41.800
 115856362.764 7  90277720.97847  22046737.514    22046736.9424   22046738.9814
        47.300          43.5004
 106576945.203 8  83046968.26047  20280896.318    20280896.0824   20280895.7904
        50.100          42.5004
 123923782.819 5  96563954.69843  23581915.115    23581914.9994   23581918.4404
        32.300          23.9004
 123887560.694 6  96535784.76143  23575020.901    23575020.6654   23575017.7324
        37.200          21.0004
                  86994481.519 6                  20887201.622    20887211.067
                        40.400
 121587243.956 8  94567919.439 7  22721490.323    22721490.598    22721496.140
        48.900          45.000
 140648241.662 6                  26764470.796
        37.900


 105900727.647 8  82366808.856 8  19810814.533    19810815.195    19810818.833
        50.600          48.000
 116320478.660 7  90639327.88346  22135053.275    22135052.4714   22135054.6334
        44.800          39.3004
 198902905.787 7                  37849967.047
        43.100
 108412237.424 7  84477079.63246  20630158.741    20630158.2454   20630155.0444
        45.900          38.8004
 202018949.302 7                  38442936.559
        45.000
 142306843.242 5                  27080090.125
        33.900


 125986825.137 7                  23974496.851
        43.400


 111664345.791 5  86849905.830 7  20947907.242    20947912.814    20947910.377
        34.300          42.200
 121984254.643 5  94876698.352 6  22811671.108                    22811678.744
        35.200          39.500
 136312071.549 6                  25939327.865
        37.000
 105103730.562 8  81747332.387 6  19668722.305    19668723.024    19668725.722
        48.000          41.500
 25  1  1 13  2 45.0000000  0 27E27E10G02E29G32E33G10G28G03G26R04R21
                                E21S35R05G25S31G31S33E07E30E19R16R14
                                R20E12R15
 133924684.002 7                  25485011.734
        44.900
 140933125.868 5                  26818685.234
        30.700
 123352630.932 7  96118805.99444  23473222.609    23473221.9074   23473217.4434
        42.300          27.7004
 124575646.534 7                  23705951.882
        47.800
 111985762.051 8  87261628.19346  21310184.084    21310183.7984   21310184.7294
        48.000          38.9004
 134339316.535 6                  25563921.163
        40.600
 115898721.262 7  90310727.53247  22054797.600    22054797.0194   22054800.1184
        47.200          44.4004
 106578102.767 8  83047870.26447  20281116.787    20281116.5554   20281116.8814
        49.000          42.9004
 123872173.454 5  96523739.60143  23572092.085    23572091.9384   23572099.0874
        30.900          22.8004
 123832505.388 5  96492884.62443  23564543.716    23564543.5204   23564543.8774
        35.700          23.4004
 111875895.998 5  87014667.725 6  20892051.535    20892050.386    20892054.581
        32.100          37.000
 121595190.771 7  94574100.284 7  22722973.279    22722972.668    22722981.300
        44.200          42.600
 140604564.609 6                  26756158.607
        37.100


 105885659.330 8  82355089.062 7  19807995.755    19807995.900    19808000.293
        50.800          47.600
 116328114.483 7  90645277.82446  22136506.180    22136505.3494   22136509.6584
        42.600          40.1004
 198902913.897 7                  37849970.812
        43.100
 108383022.672 7  84454314.86446  20624599.108    20624598.6174   20624595.9994
        47.500          39.3004
 202018966.989 7                  38442939.135
        46.400
 142336125.956 5                  27085664.012
        31.600


 125970191.508 7                  23971331.548
        43.400


 111700867.913 5  86878311.811 6  20954761.693    20954764.453    20954760.599
        32.300          39.900
 122033486.850 5  94914990.051 6  22820886.819    22820885.003    22820886.634
        31.800          40.600
 136313072.425 6                  25939517.637
        38.200
 105078244.963 8  81727510.250 7  19663954.526    19663955.125    19663958.100
        50.300          43.500
 25  1  1 13  3  0.0000000  0 27E27E10G02E29G32E33G10G28G03G26R04R21
                                E21S35R05G25S31G31S33E07E30E19R16R14
                                R20E12R15
 133906581.821 7                  25481567.503
        45.000
 140916454.756 5                  26815514.703
        35.200
 123362082.858 7  96126171.13044  23475021.191    23475020.4584   23475015.7964
        45.100          29.4004
 124584580.679 7                  23707652.280
        46.700
 112002101.981 8  87274360.56846  21313293.496    21313293.2064   21313294.8454
        48.000          40.1004
 134377864.247 6                  25571256.878
        39.400
 115941167.943 7  90343802.80147  22062874.115    22062873.5344   22062878.5924
        45.200          43.6004
 106579377.612 8  83048863.66047  20281359.138    20281358.9104   20281360.1864
        48.300          42.9004
 123820593.155 5  96483547.10643  23562279.239    23562279.1234   23562283.5584
        32.900          21.5004
 123777464.762 4  96449995.82743  23554079.033    23554078.7254   23554072.5094
        24.500          21.5004
                  87034909.188 6                  20896926.829    20896915.427
                        38.900
 121603319.480 6  94580422.616 6  22724492.389    22724489.840    22724499.948
        41.400          41.000
 140560899.817 5                  26747851.024
        33.300


 105870655.856 8  82343419.665 7  19805190.032    19805190.618    19805194.153
        52.600          47.700
 116335904.871 7  90651348.20346  22137989.231    22137988.3914   22137993.4144
        44.300          39.2004
 198902919.846 7                  37849975.641
        43.900
 108353925.309 7  84431641.55446  20619061.560    20619061.1044   20619060.0544
        46.800          40.2004
 202018981.543 7                  38442941.858
        46.100
 142365411.340 5                  27091238.347
        33.800


 125953577.108 7                  23968170.046
        43.500


                  86906839.573 6                                  20961639.220
                        36.300
                  94953343.268 6                  22830097.332    22830109.534
                        40.200
 136314182.295 6                  25939728.741
        40.000
 105052945.522 8  81707832.855 7  19659219.812    19659220.258    19659223.908
        51.900          45.000
 25  1  1 13  3 15.0000000  0 28E27E10G02E29G32E33G10G28G03G26R04R21
                                E21S35R05G25S31G31G21S33E07E30E19R16
                                R14R20E12R15
 133888577.355 7                  25478141.470
        46.000
 140899890.271 6                  26812360.191
        36.400
 123371652.733 7  96133628.17445  23476841.316    23476840.5214   23476838.2234
        46.800          31.2004
 124593544.515 7                  23709358.707
        45.000
 112018493.955 7  87287133.51246  21316412.303    21316412.0264   21316415.5104
        47.900          41.4004
 134416469.761 6                  25578602.785
        40.100
 115983708.494 7  90376951.26047  22070970.149    22070969.5464   22070974.7464
        43.700          43.7004
 106580775.414 7  83049952.81946  20281625.656    20281625.4244   20281626.0064
        46.500          41.2004
 123769048.115 5  96443382.10843  23552468.450    23552468.3704   23552475.2914
        33.200          22.1004


                  87055210.730 6                                  20901792.098
                        41.800
 121611635.699 7  94586890.680 6  22726047.164    22726047.633    22726053.734
        45.300          38.100
 140517253.366 5                  26739545.376
        35.300


 105855723.397 8  82331805.526 7  19802395.495    19802396.252    19802400.395
        52.700          47.500
 116343855.720 7  90657543.66846  22139502.172    22139501.3054   22139506.8494
        44.200          39.3004
 198902927.653 7                  37849973.025
        43.900
 108324951.229 7  84409064.31846  20613548.232    20613547.7944   20613547.4744
        46.100          41.1004
 123679470.457 5  96373616.60042  23535420.174    23535420.0944   23535421.8054
        35.300          12.2004
 202018999.793 7                  38442946.115
        45.900
 142394705.078 5                  27096812.627
        35.600


 125936987.642 7                  23965012.349
        44.300
 120695918.789 6                  22594488.092    22594493.436
        39.200
 111774386.907 6  86935493.274 5  20968550.372    20968550.010    20968547.971
        40.600          32.000
                  94991762.378 6                                  22839347.329
                        40.000
 136315406.975 6                  25939961.864
        40.000
 105027838.782 8  81688305.352 7  19654521.280    19654521.540    19654524.528
        51.800          44.800
 25  1  1 13  3 30.0000000  0 28E27E10G02E29G32E33G10G28G03G26R04R21
                                E21S35R05G25S31G31G21S33E07E30E19R16
                                R14R20E12R15
 133870668.636 7                  25474733.562
        46.300
 140883430.473 6                  26809226.034
        38.500
 123381338.300 7  96141175.38445  23478684.132    23478683.3014   23478682.0164
        46.600          30.7004
 124602536.069 7                  23711070.353
        46.600
 112034935.866 7  87299945.34846  21319542.819    21319542.5424   21319544.6364
        46.400          41.2004
 134455130.728 6                  25585960.113
        39.700
 116026340.634 7  90410171.06847  22079083.514    22079082.9024   22079087.5804
        43.800          43.2004
 106582294.054 7  83051136.13246  20281914.590    20281914.3494   20281913.8054
        47.200          39.7004
 123717536.301 6  96403242.94543  23542667.561    23542667.4994   23542674.5284
        37.900          21.4004
 123667497.320 6  96364248.23344  23533141.295    23533141.0004   23533135.5674
        37.800          29.1004
                  87075570.588 7                  20906682.823    20906680.771
                        42.100
 121620137.042 7  94593502.772 5  22727634.747    22727634.724    22727637.645
        44.700          31.800
 140473623.437 5                  26731242.544
        34.400


 105840860.197 8  82320245.320 7  19799613.699    19799614.250    19799619.998
        51.000          47.000
 116351964.772 7  90663862.36946  22141045.238    22141044.3584   22141049.3264
        45.900          38.3004
 198902936.966 7                  37849972.462
        43.100
 108296098.556 7  84386581.66546  20608057.716    20608057.3104   20608057.8594
        46.000          41.4004
 123704871.633 5  96393409.70342  23540253.972    23540253.4674   23540255.1644
        32.300          12.0004
 202019018.170 7                  38442946.039
        44.700
 142424005.305 6                  27102388.069
        39.000


 125920421.197 7                  23961859.852
        44.400
 120629697.296 5                  22582106.182    22582101.801
        33.800
 111811387.020 7  86964271.142 4  20975490.368    20975491.967    20975488.649
        42.600          28.400
                  95030245.133 6                                  22848599.175
                        39.300
 136316744.475 6                  25940216.384
        40.500
 105002922.661 8  81668926.126 7  19649858.269    19649858.854    19649862.133
        52.300          44.700
 25  1  1 13  3 45.0000000  0 28E27E10G02E29G32E33G10G28G03G26R04R21
                                E21S35R05G25S31G31G21S33E07E30E19R16
                                R14R20E12R15
 133852853.402 7                  25471343.033
        46.400
 140867073.006 6                  26806112.938
        38.200
 123391136.934 7  96148810.69644  23480549.229    23480548.3754   23480546.3344
        44.500          28.4004
 124611552.862 7                  23712785.923
        47.400
 112051425.340 7  87312794.27147  21322681.079    21322680.7804   21322682.0784
        47.300          42.2004
 134493844.404 6                  25593326.552
        37.200
 116069061.686 7  90443460.14447  22087212.865    22087212.2394   22087216.8374
        45.200          42.9004
 106583930.920 8  83052411.56846  20282225.050    20282224.7914   20282224.1984
        48.600          40.0004
 123666055.804 6  96363128.14343  23532871.068    23532870.9794   23532883.6194
        39.400          20.7004
 123612514.274 6  96321404.34144  23522667.619    23522667.2714   23522672.9724
        38.500          29.5004
 111980826.777 7  87095986.927 7  20911577.870    20911576.607    20911583.328
        43.000          43.300
 121628821.019 7  94600257.155 4  22729259.780    22729260.324    22729263.026
        47.200          29.900
 140430007.861 6                  26722942.611
        37.700


 105826064.169 8  82308737.309 7  19796846.519    19796846.182    19796852.797
        50.300          46.500
 116360229.590 7  90670302.42246  22142617.333    22142616.4574   22142621.4284
        46.600          36.5004
 198902944.853 7                  37849974.376
        43.200
 108267364.877 7  84364191.73046  20602589.850    20602589.4534   20602590.2954
        44.200          40.0004
 123730349.005 5  96413262.09941  23545102.051    23545101.2694   23545102.0904
        35.700          10.4004
 202019035.175 7                  38442948.476
        44.400
 142453309.529 6                  27107963.664
        37.700


 125903875.274 7                  23958711.336
        43.900
 120563520.082 5                  22569696.312
        33.000
 111848543.904 7                  20982462.505    20982461.035
        42.500
                  95068789.513 6                                  22857861.828
                        36.600
 136318192.191 6                  25940491.572
        40.900
 104978195.141 8  81649693.563 7  19645230.595    19645230.488    19645235.072
        51.100          44.900
 25  1  1 13  4  0.0000000  0 26E27E10G02E29G32E33G10G28G03G26R04R21
                                E21S35R05G25S31G31G21S33E07E30E19R16
                                E12R15
 133835134.192 7                  25467970.771
        46.000
 140850820.405 6                  26803020.944
        39.000
 123401051.013 7  96156535.97944  23482435.629    23482434.7444   23482431.8574
        43.600          25.7004
 124620597.371 7                  23714507.226
        47.200
 112067964.865 8  87325682.19947  21325828.095    21325827.7914   21325829.9084
        48.700          44.5004
 134532613.049 5                  25600704.161
        35.200
 116111874.012 7  90476820.32147  22095361.029    22095360.4484   22095362.7074
        44.100          43.0004
 106585688.422 8  83053781.01946  20282559.501    20282559.2654   20282558.3134
        50.700          41.3004
 123614609.265 6  96323039.76743  23523080.918    23523080.8784   23523099.6874
        39.000          19.4004
 123557551.442 6  96278576.16844  23512206.870    23512206.8574   23512212.6844
        36.200          28.4004
 112007151.730 7  87116461.780 7  20916494.581    20916493.483    20916499.135
        45.600          42.900
 121637689.730 7  94607155.003 5  22730919.742    22730917.391    22730918.712
        43.100          33.400
 140386409.330 6                  26714646.594
        39.700


 105811337.758 8  82297283.429 7  19794093.416    19794092.977    19794097.308
        52.500          45.600
 116368652.750 7  90676865.94045  22144220.574    22144219.6984   22144224.4824
        45.200          34.7004
 198902953.091 7                  37849974.072
        42.900
 108238752.884 7  84341896.59346  20597145.648    20597145.2644   20597145.0304
        45.600          39.2004
 123755905.131 5  96433175.92541  23549964.680    23549964.0054   23549965.0334
        32.600           8.3004
 202019053.031 7                  38442953.078
        45.200
 142482620.239 5                  27113539.583
        34.200


 125887352.569 7                  23955567.199
        43.700
 120497389.130 6                  22557333.596    22557330.894
        39.000
 136319752.662 6                  25940788.709
        41.800
 104953659.002 8  81630609.866 7  19640638.906    19640639.495    19640641.768
        51.600          43.500
 25  1  1 13  4 15.0000000  0 27E27E10G02E29G32E33G10G28G03G26R04R21
                                E21S35R05G25S31G31G21S33E07E30E19R16
                                R14E12R15
 133817510.835 7                  25464618.047
        44.600
 140834672.204 7                  26799949.230
        42.200
 123411079.977 7  96164350.76444  23484344.129    23484343.2624   23484340.1134
        44.000          24.0004
 124629669.229 7                  23716233.077
        45.500
 112084554.019 7  87338608.78447  21328983.733    21328983.4294   21328988.1574
        46.600          45.4004
 134571436.024 5                  25608092.336
        35.600
 116154776.980 7  90510251.11447  22103525.398    22103524.8264   22103525.7084
        46.100          43.6004
 106587565.959 8  83055244.01246  20282916.863    20282916.6274   20282915.8644
        50.900          41.6004
 123563196.884 6  96282978.11943  23513298.628    23513298.5974   23513317.3104
        41.000          19.2004
 123502608.676 5  96235763.61444  23501752.799    23501752.5274   23501756.5774
        34.800          27.6004
 112033551.515 7  87136994.841 7  20921423.885    20921423.970    20921429.068
        46.900          42.600
 121646742.708 6  94614196.218 6  22732611.871    22732607.320    22732613.528
        41.200          40.100
 140342827.702 6                  26706353.199
        39.800


 105796680.700 8  82285883.476 7  19791350.775    19791351.251    19791354.526
        52.500          43.300
 116377233.693 7  90683552.39245  22145853.146    22145852.2574   22145856.2984
        45.200          31.1004
 198902962.093 7                  37849976.898
        43.100
 108210262.138 7  84319695.93446  20591724.543    20591724.1724   20591722.3114
        45.800          39.2004
 123781539.346 5  96453150.68041  23554844.934    23554844.0714   23554842.6704
        32.600           8.5004
 202019071.978 7                  38442957.191
        44.800
 142511936.999 4                  27119117.101
        26.600
 144546393.915 5                  27506267.932
        32.900
 125870852.380 7                  23952427.331
        43.300
 120431305.070 6                  22544957.423    22544959.623
        37.500
 111923333.335 5  87051354.657 5  20996483.089    20996483.972    20996503.706
        33.300          33.300
 136321425.444 7                  25941106.930
        43.100
 104929314.036 8  81611674.884 7  19636083.037    19636084.003    19636086.477
        51.000          43.800
 25  1  1 13  4 30.0000000  0 28E27E10G02E29G32E33G10G28G03G26R04R21
                                E21S35R05G25S31G31G21S33E07E30E19R16
                                R14R20E12R15
 133799980.376 7                  25461282.026
        44.500
 140818625.706 7                  26796894.590
        42.400
 123421220.586 7  96172252.54943  23486273.447    23486272.5764   23486271.4244
        43.400          23.5004
 124638765.343 7                  23717963.964
        43.000
 112101189.815 7  87351571.70447  21332149.338    21332149.0574   21332154.8444
        45.800          44.7004
 134610309.933 6                  25615487.811
        36.300
 116197767.327 7  90543750.00947  22111704.929    22111704.3304   22111706.4924
        46.300          45.0004
 106589560.362 8  83056798.09246  20283296.828    20283296.5964   20283295.8044
        51.400          41.8004
 123511815.526 6  96242940.56143  23503521.368    23503521.2844   23503542.0894
        39.900          19.6004
 123447683.315 5  96192964.63744  23491300.037    23491299.6804   23491304.7054
        32.700          26.5004
 112060022.986 7  87157583.688 7  20926366.451    20926367.089    20926372.330
        47.200          43.100
 121655976.602 6  94621378.205 7  22734332.059    22734330.107    22734339.852
        40.600          42.500
 140299260.176 6                  26698061.792
        39.200


 105782090.106 8  82274535.243 7  19788621.837    19788621.294    19788623.961
        51.600          42.300
 116385969.369 7  90690359.45445  22147514.403    22147513.5004   22147517.2734
        43.100          30.0004
 198902968.379 7                  37849979.013
        43.400
 108181889.788 7  84297587.56246  20586325.968    20586325.5934   20586323.2384
        47.700          40.7004
 123807248.217 6  96473183.52941  23559737.258    23559736.4274   23559734.7864
        38.300          10.1004
 202019087.782 7                  38442961.368
        45.000
 142541256.914 4                  27124696.384
        27.300
 144565235.005 5                  27509853.955
        35.000
 125854371.669 7                  23949291.223
        43.600
 120365265.070 6                  22532591.380    22532588.812
        36.500
 111960961.393 5  87080620.960 5  21003548.079    21003544.812    21003565.234
        34.500          35.000
 122380385.617 5  95184795.328 6  22885748.077    22885751.236    22885754.888
        35.800          38.700
 136323207.541 7                  25941445.742
        42.700
 104905157.496 8  81592886.459 7  19631562.646    19631563.456    19631568.175
        49.700          45.600
 25  1  1 13  4 45.0000000  0 28E27E10G02E29G32E33G10G28G03G26R04R21
                                E21S35R05G25S31G31G21S33E07E30E19R16
                                R14R20E12R15
 133782543.335 7                  25457963.315
        44.000
 140802681.207 6                  26793860.192
        41.300
 123431473.108 7  96180241.54143  23488224.041    23488223.1704   23488223.5384
        43.500          23.0004
 124647886.102 7                  23719700.039
        42.200
 112117872.602 7  87364571.25147  21335323.899    21335323.5864   21335329.1954
        45.200          42.2004
 134649234.990 6                  25622895.846
        37.000
 116240845.291 7  90577317.20147  22119902.301    22119901.7024   22119905.0244
        43.900          45.3004
 106591671.885 8  83058443.43446  20283698.587    20283698.3554   20283697.8574
        51.400          41.7004
 123460466.125 6  96202927.93043  23493750.332    23493750.2254   23493766.3624
        37.900          20.1004
 123392776.119 5  96150179.88644  23480850.835    23480850.4554   23480857.1394
        32.400          26.0004
 112086566.803 8  87178228.717 7  20931325.262    20931325.685    20931328.632
        49.800          42.900
 121665391.847 7  94628701.122 6  22736096.197    22736097.010    22736097.267
        44.100          41.500
 140255707.390 6                  26689774.085
        38.600


 105767566.823 8  82263239.402 7  19785904.236    19785903.755    19785908.099
        51.000          43.100
 116394860.005 6  90697287.13644  22149206.749    22149205.8374   22149207.1584
        41.500          26.0004
 198902972.756 7                  37849983.055
        43.400
 108153636.433 8  84275571.95947  20580949.146    20580948.7664   20580947.6734
        49.000          42.5004
 123833031.836 5  96493274.63341  23564642.871    23564642.0004   23564641.1274
        35.400           9.1004
 202019101.724 7                  38442961.556
        45.200
 142570580.332 5                  27130279.430
        31.300
 144584169.373 5                  27513457.397
        35.500
 125837910.954 7                  23946158.210
        43.300
 120299270.545 6                  22520231.364    22520229.931
        37.400
 111998743.724 6  87110007.296 6  21010637.693    21010640.731    21010646.683
        40.100          38.300
 122430255.569 5  95223583.061 6  22895075.405    22895076.461    22895082.814
        35.800          39.600
 136325099.217 7                  25941806.099
        42.200
 104881189.978 8  81574245.019 7  19627077.137    19627078.075    19627083.603
        48.800          46.700
 25  1  1 13  5  0.0000000  0 28E27E10G02E29G32E33G10G28G03G26R04R21
                                E21S35R05G25S31G31G21S33E07E30E19R16
                                R14R20E12R15
 133765208.000 6                  25454664.490
        41.700
 140786846.935 7                  26790847.745
        42.300
 123441845.425 6  96188323.88743  23490197.348    23490196.4184   23490197.4204
        41.700          20.6004
 124657039.592 6                  23721442.115
        41.300
 112134610.488 7  87377613.70946  21338509.092    21338508.6814   21338512.7624
        43.200          40.7004
 134688219.016 6                  25630314.094
        37.600
 116284018.702 7  90610958.78347  22128117.873    22128117.2884   22128121.9404
        42.800          45.4004
 106593908.474 8  83060186.22747  20284124.278    20284124.0554   20284123.9184
        51.600          42.0004
 123409157.046 5  96162946.72543  23483985.170    23483985.0684   23483994.1894
        35.600          22.6004
 123337895.569 5  96107415.88344  23470406.385    23470406.0504   23470415.3554
        30.100          25.0004
 112113191.034 8  87198936.367 6  20936295.827    20936297.302    20936300.455
        50.100          41.900
 121674996.092 6  94636171.013 6  22737892.046    22737889.183    22737891.559
        41.200          41.100
 140212177.709 6                  26681489.858
        36.300


 105753119.084 8  82252002.297 7  19783201.527    19783201.477    19783205.388
        51.600          43.700
 116403913.913 6  90704342.12743  22150927.982    22150926.9944   22150927.2034
        38.700          22.7004
 198902982.931 7                  37849984.652
        43.800
 108125510.239 7  84253655.46547  20575596.887    20575596.5164   20575596.2864
        47.600          43.2004
 123858897.921 5  96513429.96541  23569565.461    23569564.5054   23569562.7204
        35.300           7.4004
 202019121.682 7                  38442967.020
        44.600
 142599915.292 5                  27135861.918
        33.800
 144603205.177 5                  27517076.875
        33.300
 125821478.202 7                  23943031.554
        42.300
 120233329.790 6  93514644.091 5  22507887.847    22507886.594    22507892.729
        41.200          35.400
 112036688.346 6  87139519.785 6  21017756.450    21017757.354    21017764.813
        40.200          41.400
 122480209.047 5  95262435.804 6  22904414.484    22904414.761    22904424.565
        33.000          39.000
 136327108.456 6                  25942188.317
        41.900
 104857419.636 7  81555756.976 7  19622628.005    19622627.961    19622633.900
        46.500          46.300
 25  1  1 13  5 15.0000000  0 28E27E10G02E29G32E33G10G28G03G26R04R21
                                E21S35R05G25S31G31G21S33E07E30E19R16
                                R14R20E12R15
 133747967.442 6                  25451383.868
        41.600
 140771116.102 6                  26787854.502
        41.600
 123452330.271 6  96196493.92543  23492191.982    23492190.9904   23492192.0904
        39.200          18.5004
 124666218.729 7                  23723189.118
        42.800
 112151396.334 7  87390693.55546  21341703.669    21341703.2494   21341705.5414
        44.300          40.8004
 134727254.608 6                  25637745.367
        37.100
 116327280.274 6  90644669.06747  22136350.052    22136349.4584   22136355.2124
        41.600          44.2004
 106596262.912 8  83062020.87346  20284572.142    20284571.9324   20284572.4304
        50.800          41.6004
 123357881.481 6  96122991.72844  23474228.054    23474227.9204   23474229.7934
        36.900          26.3004
 123283034.849 4  96064667.33543  23459967.114    23459966.9094   23459976.1514
        29.200          19.3004
 112139888.962 8  87219701.364 7  20941280.056    20941281.663    20941285.688
        48.800          42.100
 121684782.216 6  94643782.432 7  22739717.245    22739717.115    22739721.240
        40.700          42.400
 140168664.196 6                  26673210.419
        36.500


 105738739.970 8  82240818.533 7  19780512.042    19780511.483    19780515.814
        52.000          45.100
 116413123.719 6  90711518.67143  22152681.556    22152680.6804   22152677.4544
        36.200          19.9004
 198902992.075 7                  37849982.067
        42.600
 108097504.002 8  84231832.45147  20570268.032    20570267.6664   20570267.3994
        49.000          43.4004
 123884838.982 6  96533643.69342  23574503.105    23574502.1044   23574498.3584
        40.200          12.7004
 202019140.035 7                  38442971.134
        45.100
 142629254.776 5                  27141443.134
        35.300


 125805066.308 6                  23939908.953
        41.400
 120167436.084 6  93463393.470 6  22495558.410    22495554.109    22495559.556
        40.000          39.600
 112074787.577 5  87169152.516 6  21024898.747    21024898.191    21024910.524
        32.500          41.900
 122530238.387 5  95301347.371 6  22913773.310    22913772.606    22913777.474
        34.400          36.500
 136329228.239 6                  25942590.442
        39.900
 104833839.810 8  81537417.077 7  19618217.110    19618216.696    19618221.169
        48.000          45.700
 25  1  1 13  5 30.0000000  0 27E27E10G02E29G32E33G10G28G03G26R04R21
                                E21S35R05G25S31G31G21S33E07E19R16R14
                                R20E12R15
 133730822.334 7                  25448120.724
        42.300
 140755489.442 7                  26784881.414
        43.700
 123462928.015 7  96204751.92943  23494211.075    23494210.0604   23494208.0184
        42.200          21.3004
 124675424.012 7                  23724940.318
        43.200
 112168230.812 7  87403811.32246  21344906.737    21344906.3084   21344908.5284
        45.900          41.5004
 134766342.135 6                  25645182.719
        37.300
 116370630.360 7  90678448.33047  22144600.447    22144599.8754   22144604.5464
        42.300          43.1004
 106598735.630 8  83063947.69546  20285042.608    20285042.4074   20285042.9844
        49.900          40.9004
 123306640.155 6  96083063.39744  23464475.278    23464475.1044   23464476.0534
        37.200          26.9004
 123228194.965 5  96021934.96441  23449530.767    23449530.4504   23449540.5384
        30.100          11.8004
 112166660.715 7  87240523.822 6  20946279.214    20946279.591    20946284.470
        46.800          40.800
 121694750.608 7  94651535.561 7  22741583.425    22741584.322    22741584.051
        42.200          43.700
 140125167.732 5                  26664932.928
        35.900


 105724430.265 8  82229688.766 7  19777835.803    19777836.094    19777839.517
        52.800          46.000
 116422489.777 5  90718816.90442  22154463.312    22154462.4674   22154459.8034
        31.800          15.8004
 198903000.634 7                  37849984.969
        42.700
 108069618.556 8  84210103.57947  20564960.707    20564960.3324   20564961.3774
        48.800          42.9004
 123910855.650 6  96553916.36442  23579452.186    23579451.1584   23579449.5274
        40.300          17.6004
 202019158.090 7                  38442972.605
        44.400
 142658599.400 6                  27147030.014
        36.900
 125788675.860 7                  23936790.540
        42.500
 120101590.562 6  93412180.395 6  22483220.436    22483224.115    22483233.430
        38.000          41.300
 112113041.435 6  87198905.505 7  21032076.766    21032076.805    21032086.298
        40.200          42.100
 122580343.537 5  95340317.986 6  22923142.278    22923142.797    22923148.778
        33.500          37.800
 136331459.099 6                  25943015.306
        37.500
 104810451.111 8  81519225.787 7  19613840.629    19613840.731    19613844.694
        50.100          46.300
 25  1  1 13  5 45.0000000  0 28E27E10G02E29G32E33G10G28G03G26R04R21
                                E21S35R05G25S31G31G21S33E07E30E19R16
                                R14R20E12R15
 133713767.319 7                  25444874.743
        42.700
 140739961.324 7                  26781925.153
        42.300
 123473633.086 7  96213093.53844  23496248.892    23496247.8424   23496245.4234
        44.500          25.1004
 124684650.080 7                  23726696.008
        44.500
 112185108.362 7  87416962.63547  21348118.744    21348118.3244   21348119.8604
        46.400          42.5004
 134805475.752 6                  25652629.589
        38.200
 116414063.268 7  90712292.11247  22152865.586    22152865.0414   22152868.8784
        44.100          42.4004
 106601321.023 8  83065962.31546  20285535.009    20285534.8134   20285534.6214
        48.800          40.4004
 123255427.971 6  96043157.81544  23454729.846    23454729.7394   23454729.9374
        36.600          28.1004
 123173370.791 5  95979215.02341  23439099.133    23439098.6774   23439107.7374
        35.400           6.3004
 112193501.030 8  87261399.490 6  20951291.917    20951293.885    20951296.104
        48.300          41.000
