     2.11           OBSERVATION DATA    M (MIXED)           RINEX VERSION / TYPE
teqc  2019Feb25                         20260317 16:18:01UTCPGM / RUN BY / DATE
Linux 2.4.21-27.ELsmp|Opteron|gcc -static|Linux 64|=+       COMMENT
BIT 2 OF LLI FLAGS DATA COLLECTED UNDER A/S CONDITION       COMMENT
-Unknown-                                                   MARKER NAME
-Unknown-           -Unknown-                               OBSERVER / AGENCY
-Unknown-           -Unknown-           -Unknown-           REC # / TYPE / VERS
-Unknown-           -Unknown-                               ANT # / TYPE
        0.0000        0.0000        0.0000                  APPROX POSITION XYZ
        0.0000        0.0000        0.0000                  ANTENNA: DELTA H/E/N
     1     1                                                WAVELENGTH FACT L1/2
     7    L1    L2    C1    P1    P2    S1    S2            # / TYPES OF OBSERV
 SNR is mapped to RINEX snr flag value [0-9]                COMMENT
  L1 & L2: min(max(int(snr_dBHz/6), 0), 9)                  COMMENT
  2025     1     1    23     0    0.0000000     GPS         TIME OF FIRST OBS
    18                                                      LEAP SECONDS
                                                            END OF HEADER
 25  1  1 23  0  0.0000000  0 27E31G02G30G06G13G19E10G17E33E24G03E03
                                E25R12E12G14S35G24S31E05R13S33R11R21
                                R23E11R22
 130133471.399 7                  24763569.186
        42.400
 123009877.598 6  95851835.92842  23407997.888    23407997.6964   23407997.2974
        37.700          16.0004


 121239026.993 6  94471986.45344  23071018.442    23071018.4254   23071022.2364
        38.500          29.5004
 127265864.255 5  99168149.23141  24217896.825    24217896.7414   24217911.8344
        33.300           6.6004
 111003410.133 7  86496149.64545  21123221.970    21123220.6924   21123219.7674
        46.200          35.6004
 129980270.459 7                  24734397.047
        44.200
 107284829.967 8  83598591.39048  20415620.655    20415620.1954   20415622.8694
        51.500          53.3004
 133624424.324 5                  25427880.776
        35.900
 125072093.902 7                  23800426.594
        44.400




 138908665.986 6                  26433439.790
        39.500
 103423021.036 7  80440157.638 7  19361003.049    19361003.191    19361009.715
        45.700          45.200
 126923209.656 7                  24152672.578
        43.500
 105992380.579 8  82591467.51346  20169679.698    20169679.4444   20169679.1704
        50.700          40.6004


 126928533.793 4  98905328.76342  24153698.555    24153697.8714   24153691.5214
        29.300          12.6004
 198898014.518 7                  37849048.182
        42.000
 137159417.020 5                  26100579.835
        34.400
 118231457.295 5                  22140951.290    22140950.004
        32.400
 202056082.972 7                  38450004.267
        44.200
 111367563.452 7  86619203.089 7  20840930.677    20840930.626    20840938.998
        45.400          42.200
 114367583.055 7  88952196.387 7  21372226.986    21372225.985    21372234.675
        44.900          47.200
 114198611.460 7                  21348212.689    21348212.768
        45.700
 138836850.647 3                  26419791.076
        23.400
 102068088.302 8  79386152.019 8  19120747.559    19120747.765    19120752.422
        50.700          49.900
 25  1  1 23  0 15.0000000  0 27E31G02G30G06G13G19E10G17E33E24G03E03
                                E25R12E12G14S35G24S31E05R13S33R11R21
                                R23E11R22
 130154959.129 6                  24767658.298
        41.100
 123054031.967 5  95886241.91442  23416394.828    23416394.7124   23416399.0784
        31.600          14.0004


 121184549.786 6  94429536.83145  23060652.104    23060651.8724   23060656.5854
        39.300          30.9004
 127305098.947 6  99198721.48141  24225363.465    24225363.4214   24225377.7984
        36.400           9.2004
 110977118.137 7  86475662.41945  21118219.388    21118218.1014   21118216.3134
        46.400          34.8004
 129945043.929 7                  24727693.583
        46.300
 107290317.591 8  83602867.47748  20416665.279    20416664.8284   20416667.1494
        51.500          53.4004
 133650991.389 6                  25432936.002
        38.400
 125062069.090 7                  23798518.867
        44.300




 138875657.031 6                  26427157.994
        40.000
 103402710.998 7  80424360.955 7  19357200.149    19357202.611    19357208.482
        46.200          45.700
 126905388.728 7                  24149281.646
        43.100
 105999141.817 8  82596736.01146  20170966.125    20170965.8804   20170966.0854
        50.200          41.0004


 126886850.870 5  98872848.49941  24145766.335    24145765.2274   24145759.6544
        32.000           9.3004
 198898019.090 6                  37849041.756
        41.400
 137193620.483 6                  26107088.135
        36.500
 118176012.994 5                  22130569.989    22130568.448
        34.700
 202056082.336 7                  38450003.968
        45.100
 111408537.998 8  86651072.155 7  20848599.329    20848600.492    20848606.346
        48.000          43.000
 114420180.165 7  88993105.283 7  21382055.192    21382056.060    21382062.818
        45.100          46.300
 114146430.390 7                  21338458.160    21338458.992
        46.200


 102063743.445 8  79382772.704 8  19119933.871    19119934.788    19119938.140
        51.900          49.600
 25  1  1 23  0 30.0000000  0 26E31G30G06G13G19E10G17E33E24G03E03E25
                                R12E12G14S35G24S31E05R13S33R11R21R23
                                E11R22
 130176489.466 6                  24771755.208
        37.900
 117883772.522 5  91857585.67742  22432534.427    22432534.3074   22432560.7114
        35.600          16.5004
 121130124.335 5  94387127.53245  23050295.281    23050295.0534   23050300.8224
        35.900          31.5004
 127344375.027 6  99229326.03442  24232843.972    24232843.9014   24232851.5604
        39.900          12.6004
 110950898.671 7  86455231.71145  21113228.868    21113227.5404   21113227.3144
        46.700          34.9004
 129909891.870 7                  24721004.820
        47.500
 107295876.162 8  83607198.84848  20417722.888    20417722.4374   20417724.7594
        51.600          52.9004
 133677642.193 6                  25438007.616
        40.200
 125052084.648 7                  23796618.550
        43.700
 126113506.806 4  98270304.48941  23998601.142    23998601.6384   23998617.0674
        27.500           6.5004


 138842648.319 6                  26420876.634
        40.100
 103382533.469 7  80408667.321 7  19353426.741    19353426.966    19353431.106
        47.700          45.200
 126887670.777 7                  24145909.888
        43.700
 106005993.909 8  82602075.31046  20172270.022    20172269.7774   20172270.7934
        49.800          41.1004


 126845264.082 4  98840443.1894   24137850.888    24137849.7124   24137846.0724
        29.100           4.9004
 198898023.949 7                  37849049.591
        42.500
 137227853.383 5                  26113598.737
        35.000
 118120598.692 5                  22120197.348    22120193.086
        34.000
 202056082.007 7                  38450003.624
        44.700
 111449629.237 7  86683031.981 7  20856286.927    20856288.217    20856297.712
        45.600          46.100
 114472852.939 7  89034073.030 7  21391899.057    21391899.872    21391905.061
        45.500          44.800
 114094358.247 7                  21328725.288    21328726.720
        45.700


 102059578.580 8  79379533.385 8  19119153.059    19119154.244    19119158.038
        51.600          49.200
 25  1  1 23  0 45.0000000  0 26E31G30G06G13G19E10G17E33E24G03E03E25
                                R12E12G14S35G24S31E05R13S33R11R21R23
                                E11R22
 130198062.360 6                  24775860.799
        36.500
 117932979.791 4  91895928.5834   22441893.452    22441892.9384   22441919.0034
        28.500           5.1004
 121075750.671 5  94344758.58845  23039948.148    23039947.8314   23039955.0704
        35.000          30.8004
 127383692.070 5  99259962.59441  24240316.026    24240316.0134   24240333.1304
        30.900           9.7004
 110924751.675 7  86434857.45046  21108253.340    21108252.0264   21108252.9074
        47.100          36.1004
 129874814.343 7                  24714330.450
        47.800
 107301505.244 8  83611585.16248  20418794.262    20418793.8114   20418795.8024
        51.400          52.9004
 133704376.355 6                  25443095.249
        41.700
 125042140.570 7                  23794726.447
        42.100
 126080422.316 4  98244524.30641  23992303.762    23992304.1154   23992322.6594
        29.800           6.3004


 138809639.740 6                  26414592.540
        38.300
 103362488.511 7  80393076.799 7  19349672.588    19349673.530    19349678.436
        46.400          45.100
 126870055.667 7                  24142557.859
        43.300
 106012936.790 8  82607485.37646  20173591.146    20173590.8924   20173592.5784
        49.900          41.1004


 126803773.312 5  98808112.96041  24129944.003    24129942.9574   24129949.9114
        32.300           9.6004
 198898028.613 7                  37849053.615
        42.900
 137262115.284 5                  26120119.507
        34.200
 118065214.926 6                  22109824.718    22109822.422
        36.900
 202056080.630 7                  38450006.078
        43.600
 111490836.916 7  86715082.344 7  20864000.521    20864001.261    20864009.924
        47.500          46.800
 114525600.697 7  89075099.043 7  21401757.054    21401757.032    21401761.563
        46.900          44.300
 114042395.203 6                  21319004.189    21319004.626
        41.500


 102055593.511 8  79376433.896 8  19118406.289    19118406.732    19118411.380
        50.700          48.900
 25  1  1 23  1  0.0000000  0 26E31G02G06G13G19E10G17E33E24G03E03E25
                                R12E12G14S35G24S31E05R13S33R11R21R23
                                E11R22
 130219675.642 6                  24779974.955
        38.400
 123186965.775 5  95989836.04042  23441689.952    23441689.9304   23441692.6374
        34.300          14.0004
 121021427.280 6  94302428.79745  23029610.638    23029610.1514   23029617.9224
        36.400          31.0004
 127423047.661 4  99290629.17141  24247807.518    24247807.5894   24247822.3514
        28.700           7.8004
 110898675.085 7  86414538.04746  21103291.106    21103289.7924   21103291.6954
        46.500          36.9004
 129839809.419 7                  24707668.586
        47.200
 107307202.803 8  83616024.84148  20419878.559    20419878.1034   20419880.0144
        51.100          52.6004
 133731191.570 6                  25448198.032
        41.400
 125032234.820 7                  23792842.566
        42.500
 126047412.568 5  98218802.51843  23986024.538    23986024.9804   23986037.7934
        35.600          19.1004


 138776629.236 6                  26408312.987
        37.400
 103342574.434 7  80377588.076 7  19345942.853    19345944.461    19345951.106
        45.000          45.800
 126852541.470 7                  24139224.921
        43.100
 106019968.460 8  82612964.62646  20174929.212    20174928.9534   20174930.9614
        48.700          40.1004


 126762377.023 5  98775856.20842  24122068.725    24122067.6124   24122072.2894
        34.100          13.9004
 198898030.426 7                  37849049.832
        42.700
 137296403.889 5                  26126646.188
        34.100
 118009859.585 6                  22099457.663    22099456.079
        37.500
 202056076.906 7                  38450003.865
        43.700
 111532158.653 7  86747221.441 7  20871732.696    20871733.631    20871740.688
        46.200          45.500
 114578421.025 8  89116181.523 7  21411627.801    21411628.635    21411632.992
        48.500          44.200
 113990539.311 6                  21309315.751    21309312.232
        40.900


 102051785.994 8  79373472.534 8  19117693.447    19117693.517    19117698.367
        50.700          49.000
 25  1  1 23  1 15.0000000  0 26E31G02G06G13G19E10G17E33E24G03E03E25
                                R12E12G14S35G24S31E05R13S33R11R21R23
                                E11R22
 130241335.707 6                  24784101.860
        37.600
 123231379.340 6  96024443.98842  23450136.343    23450136.6964   23450138.6874
        37.100          16.8004
 120967160.498 6  94260143.11345  23019284.696    23019284.1824   23019292.3464
        38.700          33.0004
 127462447.518 5  99321330.13341  24255303.192    24255303.2274   24255320.1004
        32.900           9.0004
 110872675.108 8  86394278.34046  21098343.676    21098342.3754   21098344.3954
        48.100          37.3004
 129804883.569 7                  24701022.127
        45.600
 107312974.990 8  83620522.67148  20420976.594    20420976.1294   20420978.3124
        51.000          52.1004
 133758093.954 7                  25453318.033
        42.100
 125022373.800 7                  23790966.343
        42.800
 126014484.251 5  98193144.24643  23979756.658    23979757.2214   23979767.9524
        32.400          21.3004


 138743623.258 6                  26402031.383
        37.300
 103322797.907 7  80362206.302 7  19342241.485    19342242.145    19342248.857
        46.600          46.200
 126835134.474 7                  24135912.170
        42.500
 106027095.295 7  82618518.02046  20176285.698    20176285.4264   20176287.1064
        47.700          38.7004


 126721081.818 5  98743678.19742  24114208.772    24114207.6594   24114215.2104
        34.200          17.4004
 198898036.573 7                  37849050.337
        42.600
 137330725.190 6                  26133177.064
        36.100
 117954540.038 6                  22089096.454    22089095.893
        36.800
 202056077.424 7                  38450004.625
        44.400
 111573600.691 7  86779454.103 7  20879487.338    20879486.222    20879494.898
        45.000          43.400
 114631319.690 8  89157324.887 7  21421513.734    21421514.538    21421518.681
        49.900          44.500
 113938797.489 7                  21299644.412    21299641.946
        44.000


 102048162.265 8  79370654.089 8  19117015.171    19117014.805    19117018.801
        50.700          48.800
 25  1  1 23  1 30.0000000  0 26E31G02G06G13G19E10G17E33E24G03E03E25
                                R12E12G14S35G24S31E05R13S33R11R21R23
                                E11R22
 130263037.943 5                  24788222.380
        34.700
 123275855.850 6  96059100.97442  23458596.366    23458596.5584   23458600.7184
        36.700          16.3004
 120912946.244 6  94217898.34345  23008966.317    23008965.8484   23008976.4294
        40.300          33.8004
 127501886.628 5  99352061.72341  24262809.797    24262809.9174   24262825.1064
        33.800          11.6004
 110846747.129 8  86374074.75246  21093408.977    21093407.6584   21093410.1524
        48.400          37.7004
 129770032.371 7                  24694390.736
        44.000
 107318816.993 8  83625074.90848  20422088.444    20422087.9794   20422089.5064
        50.700          51.2004
 133785078.678 7                  25458453.052
        43.300
 125012553.006 7                  23789096.663
        43.300
 125981633.084 4  98167546.14743  23973502.481    23973503.0264   23973515.0864
        25.900          18.8004


 138710617.200 6                  26395750.874
        37.400
 103303154.587 7  80346928.150 7  19338563.805    19338563.717    19338571.404
        46.900          46.500
 126817830.286 6                  24132619.381
        41.200
 106034312.792 8  82624142.05046  20177659.812    20177659.5534   20177660.1444
        48.000          37.8004


 126679883.408 5  98711575.60443  24106368.717    24106367.7434   24106376.0714
        35.300          19.4004
 198898041.943 7                  37849049.188
        42.500
 137365074.273 6                  26139714.002
        37.900
 117899251.538 6                  22078743.730    22078742.848
        36.300
 202056076.368 7                  38450002.957
        44.600
 111615158.320 7  86811776.639 6  20887261.151    20887265.235    20887271.689
        44.600          41.400
 114684291.498 8  89198525.198 7  21431411.799    21431411.970    21431417.753
        48.100          45.000
 113887165.212 7                  21289990.761    21289991.013
        46.300


 102044717.534 8  79367974.898 8  19116369.727    19116369.456    19116373.586
        50.600          49.300
 25  1  1 23  1 45.0000000  0 27E31G02G30G06G13G19E10G17E33E24G03E03
                                E25R12E12G14S35G24S31E05R13S33R11R21
                                R23E11R22
 130284785.664 5                  24792363.267
        34.700
 123320398.349 5  96093809.38541  23467071.934    23467071.9964   23467075.3284
        32.700          11.3004
 118130463.505 6  92049820.85343  22479479.061    22479478.0824   22479507.0154
        38.900          18.0004
 120858788.045 6  94175697.25345  22998660.445    22998660.0254   22998669.6614
        40.700          32.6004
 127541367.884 6  99382826.25142  24270325.127    24270325.2034   24270338.0094
        37.600          15.2004
 110820894.465 7  86353929.87346  21088489.583    21088488.2914   21088489.7844
        47.300          37.5004
 129735259.222 7                  24687773.301
        44.100
 107324732.091 8  83629684.09648  20423214.155    20423213.6864   20423214.3694
        50.200          50.3004
 133812148.793 7                  25463604.068
        44.000
 125002775.777 7                  23787236.018
        42.500
 125948862.811 5  98142010.92842  23967269.553    23967269.9684   23967278.5764
        30.300          15.2004


 138677614.352 5                  26389470.163
        35.500
 103283648.167 8  80331756.482 7  19334914.191    19334913.720    19334919.613
        50.100          46.700
 126800632.096 6                  24129346.364
        38.700
 106041624.254 8  82629839.29646  20179050.289    20179050.0264   20179050.9624
        48.300          37.4004


 126638785.309 6  98679551.20843  24098549.362    24098548.4504   24098552.5614
        37.700          22.0004
 198898049.471 6                  37849052.833
        41.800
 137399454.178 6                  26146256.589
        40.200
 117843997.819 6                  22068395.915    22068395.598
        36.100
 202056079.181 7                  38450006.861
        45.100
 111656834.611 7  86844191.444 6  20895068.963    20895068.328    20895069.980
        44.400          39.800
 114737339.449 7  89239784.739 7  21441326.255    21441324.837    21441331.005
        46.800          45.100
 113835645.991 7                  21280359.285    21280360.072
        46.600


 102041454.978 8  79365437.384 8  19115758.304    19115758.239    19115762.901
        50.400          49.700
 25  1  1 23  2  0.0000000  0 27E31G02G30G06G13G19E10G17E33E24G03E03
                                E25R12E12G14S35G24S31E05R13S33R11R21
                                R23E11R22
 130306572.670 5                  24796509.583
        33.300
 123365000.286 5  96128564.06441  23475559.885    23475559.8454   23475562.0124
        32.300          10.7004
 118179996.737 6  92088418.15242  22488905.305    22488904.5454   22488936.6614
        38.200          17.9004
 120804679.935 6  94133535.17645  22988363.773    22988363.3494   22988372.2664
        39.300          31.6004
 127580884.711 5  99413618.47042  24277845.519    24277845.5024   24277857.1634
        34.600          14.2004
 110795110.864 8  86333838.81046  21083583.817    21083582.5434   21083582.6794
        48.100          37.5004
 129700558.038 7                  24681169.645
        44.700
 107330713.958 8  83634345.30248  20424352.801    20424352.3364   20424352.0844
        50.100          50.4004
 133839297.829 7                  25468769.641
        43.900
 124993035.942 7                  23785382.761
        42.400
 125916167.351 4  98116533.92041  23961045.014    23961045.3134   23961055.1914
        26.600           8.9004


 138644608.551 5                  26383191.824
        35.300
 103264272.561 8  80316686.566 7  19331287.025    19331286.684    19331292.617
        51.100          46.500
 126783533.689 6                  24126092.416
        38.300
 106049023.522 7  82635604.95946  20180458.334    20180458.0664   20180458.9964
        47.400          37.4004


 126597781.586 6  98647600.28744  24090746.263    24090745.3654   24090747.1964
        38.300          25.0004
 198898053.863 7                  37849058.181
        42.100
 137433858.399 6                  26152803.224
        41.500
 117788772.975 5                  22058051.824    22058051.305
        30.600
 202056077.593 7                  38450003.342
        45.200
 111698622.797 6  86876693.336 6  20902880.085    20902882.672    20902888.983
        41.100          39.200
 114790456.485 7  89281098.001 7  21451251.536    21451251.396    21451256.844
        47.000          44.500
 113784233.896 7                  21270748.702    21270747.984
        44.600


 102038368.130 8  79363036.538 8  19115179.141    19115179.701    19115184.202
        50.700          49.500
 25  1  1 23  2 15.0000000  0 27E31G02G30G06G13G19E10G17E33E24G03E03
                                E25R12E12G14S35G24S31E05R13S33R11R21
                                R23E11R22
 130328405.216 5                  24800665.162
        33.200
 123409667.501 5  96163369.70441  23484063.673    23484063.8424   23484061.3634
        33.600           6.8004
 118229596.739 6  92127067.55042  22498342.144    22498341.5684   22498373.6274
        36.800          14.8004
 120750628.563 6  94091417.38245  22978078.972    22978078.5664   22978084.5824
        40.200          31.1004
 127620442.909 6  99444442.98742  24285372.772    24285372.7464   24285384.0884
        37.500          13.7004
 110769402.625 7  86313806.45146  21078691.480    21078690.1974   21078690.5544
        47.900          37.8004
 129665935.289 7                  24674580.711
        45.400
 107336768.938 8  83639063.49548  20425505.370    20425504.9054   20425504.3724
        50.200          50.7004
 133866531.785 7                  25473952.609
        43.000
 124983339.860 7                  23783537.443
        43.600
 125883553.462 5  98091120.67741  23954842.528    23954842.9754   23954847.2294
        32.700           6.5004
 146481892.353 4                  27874580.483
        29.100
 138611606.120 5                  26376910.010
        31.100
 103245034.354 8  80301723.511 7  19327685.082    19327685.395    19327690.739
        51.200          45.800
 126766541.518 6                  24122857.474
        36.800
 106056516.975 8  82641444.01646  20181884.716    20181884.4624   20181884.7374
        48.000          37.0004


 126556878.882 5  98615728.05944  24082962.100    24082961.2114   24082962.5304
        34.400          24.7004
 198898059.940 7                  37849055.484
        42.500
 137468292.896 6                  26159356.320
        41.100
 117733583.630 5                  22047722.992    22047720.269
        31.100
 202056077.815 7                  38450001.965
        44.500
 111740529.281 6  86909287.229 6  20910723.946    20910725.885    20910732.254
        38.400          41.100
 114843648.680 7  89322469.719 7  21461190.749    21461191.939    21461197.834
        47.800          45.500
 113732935.560 7                  21261159.341    21261158.388
        44.800


 102035463.178 8  79360777.148 8  19114634.360    19114635.053    19114639.674
        51.000          49.300
 25  1  1 23  2 30.0000000  0 26E31G02G30G06G13G19E10G17E33E24G03E03
                                E25R12E12G14S35G24S31E05R13S33R11R21
                                R23R22
 130350279.428 6                  24804829.725
        39.500
 123454395.622 4  96198222.6624   23492574.737    23492574.9694   23492572.1584
        28.000           3.4004
 118279259.254 6  92165765.73843  22507794.146    22507793.7624   22507818.7354
        38.400          20.7004
 120696630.318 6  94049341.01245  22967802.885    22967802.4964   22967807.3724
        40.200          30.5004
 127660038.122 6  99475296.29342  24292906.300    24292906.2964   24292918.3924
        37.300          13.2004
 110743765.851 8  86293829.76946  21073812.900    21073811.6224   21073812.5154
        48.200          38.6004
 129631387.259 7                  24668006.608
        44.600
 107342892.355 8  83643835.01448  20426669.991    20426669.5264   20426670.2984
        50.900          50.5004
 133893846.683 6                  25479150.044
        41.200
 124973683.766 7                  23781699.489
        44.100
 125851017.668 5  98065768.47541  23948650.392    23948650.6824   23948653.9474
        32.900           9.5004


 138578603.291 5                  26370627.290
        32.400
 103225930.213 8  80286864.761 7  19324108.982    19324108.920    19324114.246
        52.000          45.500
 126749651.699 6                  24119643.313
        37.300
 106064100.781 7  82647353.47846  20183327.339    20183327.0804   20183327.7294
        46.500          37.0004


 126516073.508 5  98583931.66444  24075197.165    24075196.3704   24075196.8964
        32.900          24.5004
 198898065.192 7                  37849054.728
        43.200
 137502753.534 6                  26165913.963
        40.000
 117678426.655 6                  22037395.588    22037396.473
        37.000
 202056077.781 7                  38450003.328
        44.500
 111782549.899 6  86941969.947 7  20918593.249    20918590.306    20918596.840
        37.000          43.600
 114896911.516 7  89363896.376 7  21471144.149    21471146.441    21471150.736
        47.000          45.100
 113681747.330 7                  21251588.080    21251587.350
        42.300
 102032736.142 8  79358656.155 8  19114124.572    19114124.697    19114129.230
        51.300          49.800
 25  1  1 23  2 45.0000000  0 25E31G30G06G13G19E10G17E33E24G03E03E25
                                R12E12G14S35G24S31E05R13S33R11R21R23
                                R22
 130372197.588 7                  24808999.667
        44.100
 118328986.301 5  92204514.06944  22517256.802    22517256.4634   22517271.6614
        34.300          26.3004
 120642687.782 7  94007308.02445  22957536.774    22957536.3854   22957542.0654
        42.600          31.5004
 127699672.255 6  99506179.90641  24300447.688    24300447.8084   24300460.1774
        37.000          10.4004
 110718202.696 8  86273910.44846  21068948.943    21068947.6654   21068948.6464
        48.400          39.2004
 129596916.368 7                  24661447.131
        43.800
 107349086.106 8  83648661.34248  20427848.492    20427848.0144   20427849.5064
        50.700          50.4004
 133921244.511 6                  25484364.197
        40.600
 124964069.973 7                  23779870.417
        44.800
 125818562.605 4  98040479.00541  23942470.864    23942471.1414   23942476.5574
        29.100           9.5004


 138545602.298 5                  26364347.859
        35.300
 103206962.592 8  80272112.193 7  19320557.849    19320557.736    19320563.455
        52.500          46.000
 126732866.539 6                  24116450.049
        38.500
 106071777.253 7  82653335.14346  20184787.958    20184787.7394   20184789.3514
        45.700          37.1004


 126475368.108 5  98552213.18444  24067451.657    24067450.9114   24067451.2814
        33.800          25.4004
 198898071.651 7                  37849054.308
        43.000
 137537242.282 6                  26172476.581
        38.800
 117623304.047 6                  22027072.259    22027071.738
        40.300
 202056077.536 7                  38450004.384
        44.500
 111824686.892 7  86974743.144 7  20926475.621    20926479.317    20926484.152
        43.200          45.500
 114950246.701 7  89405379.300 7  21481112.565    21481114.837    21481117.235
        47.700          45.100
 113630671.992 7                  21242039.748    21242041.187
        43.800
 102030189.039 8  79356675.109 8  19113647.933    19113648.121    19113652.331
        52.000          50.700
 25  1  1 23  3  0.0000000  0 25E31G30G06G13G19E10G17E33E24G03E03E25
                                R12E12G14S35G24S31E05R13S33R11R21R23
                                R22
 130394159.644 7                  24813178.061
        44.800
 118378777.250 5  92243312.18344  22526732.641    22526732.4054   22526740.6174
        33.600          27.2004
 120588801.170 7  93965318.60745  22947282.519    22947282.1624   22947288.8044
        44.200          34.2004
 127739344.862 6  99537093.52241  24307997.550    24307997.5634   24308009.3054
        39.000           9.8004
 110692713.246 8  86254048.57346  21064098.183    21064096.9004   21064098.3934
        48.700          39.0004
 129562522.654 7                  24654902.162
        42.500
 107355350.331 8  83653542.57048  20429040.675    20429040.1884   20429041.3854
        50.400          50.0004
 133948724.992 6                  25489593.325
        38.700
 124954498.526 7                  23778048.994
        45.200
 125786188.471 4  98015252.62141  23936311.454    23936311.6064   23936314.5404
        28.600           7.8004
 146516821.647 5                  27881219.445
        35.300
 138512603.049 6                  26358068.945
        39.300
 103188131.615 8  80257465.891 7  19317032.700    19317032.533    19317038.578
        53.100          46.600
 126716186.078 6                  24113277.625
        40.100
 106079546.389 7  82659389.00746  20186266.048    20186265.8524   20186268.1524
        45.500          36.0004


 126434762.841 5  98520572.69344  24059723.652    24059722.8704   24059724.6844
        33.400          25.9004
 198898077.901 7                  37849057.818
        42.900
 137571758.781 6                  26179044.462
        38.500
 117568216.573 7                  22016756.032    22016755.365
        42.000
 202056078.716 7                  38450003.020
        44.200
 111866939.921 7  87007606.583 7  20934381.715    20934382.119    20934391.358
        43.100          46.900
 115003653.861 8  89446918.188 7  21491093.188    21491094.788    21491098.022
        48.400          45.000
 113579709.462 7                  21232514.292    21232515.267
        46.000
 102027821.715 8  79354833.881 8  19113203.829    19113204.058    19113209.118
        51.800          51.500
 25  1  1 23  3 15.0000000  0 25E31G30G06G13G19E10G17E33E24G03E03E25
                                R12E12G14S35G24S31E05R13S33R11R21R23
                                R22
 130416165.191 7                  24817364.696
        44.000
 118428631.523 5  92282159.59444  22536220.350    22536220.2484   22536224.9824
        35.200          24.5004
 120534970.450 7  93923372.73945  22937039.616    22937039.2864   22937046.6384
        44.000          35.7004
 127779055.074 6  99568036.30641  24315554.037    24315553.9704   24315565.5784
        38.300          11.8004
 110667296.982 8  86234243.72746  21059261.493    21059260.2154   21059261.3364
        48.300          38.5004
 129528205.883 7                  24648371.991
        43.000
 107361684.479 8  83658478.27448  20430246.094    20430245.6034   20430246.0144
        50.800          50.1004
 133976287.522 6                  25494838.529
        39.000
 124944969.077 7                  23776235.208
        45.000
 125753895.241 5  97990089.21442  23930166.397    23930166.5624   23930168.8094
        30.700          14.9004
 146528615.853 5                  27883455.922
        34.100
 138479605.256 6                  26351790.731
        41.300
 103169437.300 9  80242925.862 7  19313533.221    19313533.850    19313539.605
        54.100          47.100
 126699609.900 6                  24110123.219
        41.000
 106087407.845 7  82665514.82545  20187761.417    20187761.1984   20187763.4314
        44.900          35.1004


 126394257.632 5  98489010.18844  24052015.329    24052014.4984   24052017.5614
        33.500          26.9004
 198898085.015 7                  37849059.714
        43.100
 137606302.382 5                  26185618.428
        35.100
 117513163.832 6                  22006443.207    22006443.683
        39.900
 202056079.695 7                  38450003.284
        44.300
 111909308.374 7  87040559.804 7  20942312.565    20942313.632    20942320.363
        43.100          47.200
 115057131.939 7  89488512.234 7  21501087.013    21501085.837    21501092.439
        45.300          46.400
 113528859.791 7                  21223008.474    21223009.085
        46.500
 102025633.655 8  79353132.080 8  19112794.480    19112793.849    19112799.289
        51.100          51.500
 25  1  1 23  3 30.0000000  0 26E31G02G30G06G13G19E10G17E33E24G03E03
                                E25R12E12G14S35G24S31E05R13S33R11R21
                                R23R22
 130438210.961 7                  24821560.445
        42.700
 123633852.029 5                  23526737.591
        35.700
 118478545.364 6  92321053.41843  22545717.414    22545717.2494   22545722.3324
        39.200          20.6004
 120481192.647 7  93881468.11445  22926806.604    22926806.2914   22926814.3494
        42.600          34.8004
 127818799.280 6  99599005.66441  24323119.329    24323119.2094   24323128.4284
        36.100           9.0004
 110641950.410 8  86214493.19046  21054438.112    21054436.8384   21054437.3904
        48.100          37.8004
 129493962.927 7                  24641856.162
        44.500
 107368084.938 8  83663465.65548  20431464.172    20431463.6854   20431463.7304
        51.600          50.5004
 134003928.514 6                  25500098.232
        38.200
 124935478.427 7                  23774429.260
        44.600
 125721680.044 5  97964986.63442  23924037.847    23924038.0214   23924039.2074
        32.800          16.6004
 146540498.262 6                  27885714.388
        36.200
 138446605.689 7                  26345511.620
        42.500
 103150876.648 9  80228489.820 7  19310058.931    19310059.306    19310063.674
        54.100          46.300
 126683134.825 6                  24106988.767
        40.400
 106095358.404 7  82671710.08945  20189275.090    20189274.8544   20189275.6454
        45.600          35.6004


 126353849.488 5  98457523.32244  24044327.327    24044326.3884   24044328.8034
        31.600          26.6004
 198898089.611 7                  37849062.138
        43.100
 137640869.457 5                  26192197.024
        31.900
 117458143.004 5                  21996135.609    21996135.139
        34.200
 202056077.715 7                  38450003.695
        44.200
 111951788.658 6  87073599.991 7  20950269.069    20950264.571    20950267.970
        40.900          45.800
 115110677.133 7  89530158.494 7  21511094.320    21511092.501    21511098.910
        44.100          46.800
 113478119.691 7                  21213522.756    21213522.041
        45.600
 102023621.354 8  79351566.973 8  19112417.326    19112417.128    19112421.732
        51.900          51.100
 25  1  1 23  3 45.0000000  0 25E31G02G30G06G19E10G17E33E24G03E03E25
                                R12E12G14S35G24S31E05R13S33R11R21R23
                                R22
 130460303.159 6                  24825764.145
        40.700
 123678890.052 5                  23535306.933
        34.000
 118528524.628 6  92359998.10442  22555227.125    22555226.8754   22555230.3934
        36.700          14.5004
 120427474.217 6  93839609.76745  22916584.815    22916584.5524   22916591.5224
        41.100          32.8004
 110616679.993 7  86194801.97846  21049629.633    21049628.3464   21049628.3664
        46.600          37.0004
 129459800.152 7                  24635355.056
        45.600
 107374558.014 8  83668509.62548  20432695.722    20432695.2354   20432695.8144
        51.700          50.7004
 134031654.028 6                  25505374.795
        38.000
 124926032.891 7                  23772632.432
        44.400
 125689549.571 5  97939950.03942  23917923.502    23917923.6454   23917924.6884
        34.700          17.1004
 146552474.862 6                  27887991.774
        36.400
 138413610.602 7                  26339233.204
        42.700
 103132456.298 8  80214162.892 7  19306610.779    19306610.961    19306615.038
        53.800          46.000
 126666767.090 6                  24103874.540
        39.800
 106103404.352 7  82677979.68346  20190806.401    20190806.1694   20190806.9884
        45.900          36.5004


 126313544.973 4  98426117.16944  24036659.255    24036658.2854   24036659.3134
        28.800          24.6004
 198898096.658 7                  37849060.881
        42.700
 137675465.976 5                  26198780.546
        32.800
 117403160.774 5                  21985842.372    21985837.820
        33.900
 202056078.772 7                  38450003.749
        44.100
 111994386.736 5  87106731.967 7  20958231.656    20958227.878    20958239.036
        34.800          44.800
 115164295.382 6  89571861.595 7  21521112.674    21521110.161    21521118.551
        40.700          46.900
 113427496.107 7                  21204061.339    21204059.163
        44.900
 102021790.954 8  79350143.318 8  19112074.817    19112075.550    19112078.996
        52.700          50.700
 25  1  1 23  4  0.0000000  0 25E31G02G30G06G19E10G17E33E24G03E03E25
                                R12E12G14S35G24S31E05R13S33R11R21R23
                                R22
 130482436.821 6                  24829976.744
        41.200
 123723986.862 5                  23543889.964
        35.200
 118578563.946 5  92398989.55241  22564750.225    22564749.8904   22564748.4924
        33.200          10.0004
 120373810.532 6  93797794.03744  22906371.309    22906371.0954   22906376.9724
        37.400          27.3004
 110591480.748 7  86175166.21946  21044834.134    21044832.8384   21044833.5614
        46.000          36.8004
 129425712.722 7                  24628868.250
        46.400
 107381098.919 8  83673606.45148  20433940.675    20433940.1884   20433940.9064
        51.500          50.9004
 134059458.830 5                  25510666.356
        35.200
 124916627.514 7                  23770842.344
        45.100
 125657499.064 6  97914975.70542  23911826.061    23911826.1284   23911824.5774
        38.100          16.2004
 146564540.537 5                  27890287.116
        34.800
 138380615.069 6                  26332954.437
        41.900
 103114171.446 8  80199941.386 7  19303187.489    19303188.179    19303192.423
        53.400          45.900
 126650501.753 6                  24100779.144
        38.500
 106111540.727 7  82684319.72546  20192354.585    20192354.3754   20192356.3384
        46.300          37.4004




 198898102.729 7                  37849064.620
        42.700
 137710086.649 6                  26205369.029
        36.000
 117348212.482 6                  21975553.398    21975551.908
        39.300
 202056078.590 7                  38450003.856
        43.900
 112037097.734 6  87139951.595 7  20966222.908    20966223.725    20966232.249
        39.900          44.600
 115217981.095 7  89613617.163 7  21531142.763    21531141.472    21531150.918
        42.400          46.500
 113376983.947 7                  21194618.128    21194617.135
        45.700
 102020137.161 8  79348857.084 8  19111764.004    19111764.558    19111769.528
        52.100          50.700
 25  1  1 23  4 15.0000000  0 27E31G02G30G06G13G19E10G17E33E24G03E03
                                E25R12E12G14S35G24S31E05R13S33R11R21
                                R23E11R22
 130504610.164 6                  24834195.479
        41.800
 123769140.355 5  96443496.0274   23552495.017    23552494.3914   23552486.8164
        35.100           4.7004
 118628661.192 4  92438026.28741  22574282.881    22574282.5914   22574278.8214
        29.100           8.0004
 120320200.083 5  93756019.80143  22896168.298    22896167.9454   22896174.6034
        33.400          22.3004
 127938339.908 5  99692225.24441  24345851.287    24345850.9704   24345859.3144
        33.300           8.4004
 110566350.754 7  86155584.42246  21040051.648    21040050.3524   21040051.8864
        45.100          36.2004
 129391699.007 7                  24622395.408
        45.200
 107387705.021 8  83678754.07948  20435197.843    20435197.3654   20435198.2284
        51.500          50.9004
 134087340.983 5                  25515972.958
        33.700
 124907260.624 7                  23769060.175
        46.000
 125625527.145 5  97890062.64442  23905740.861    23905740.8694   23905741.1494
        35.900          17.7004
 146576693.327 5                  27892599.368
        32.600
 138347617.334 6                  26326674.551
        41.400
 103096020.702 8  80185824.153 7  19299790.063    19299790.314    19299794.607
        52.400          46.000
 126634337.124 6                  24097702.011
        36.400
 106119765.840 7  82690728.91346  20193920.155    20193919.9364   20193922.1664
        45.700          37.3004




 198898104.683 7                  37849063.064
        42.700
 137744729.375 5                  26211961.825
        35.200
 117293296.726 6                  21965268.751    21965267.766
        39.700
 202056074.583 7                  38450001.674
        44.000
 112079919.335 7  87173257.306 7  20974237.967    20974238.437    20974245.401
        42.100          43.400
 115271731.921 7  89655423.329 7  21541190.714    21541188.072    21541195.841
        43.600          45.600
 113326581.779 7                  21185195.678    21185196.580
        46.200


 102018658.086 8  79347706.709 8  19111487.394    19111487.710    19111492.735
        52.600          50.400
 25  1  1 23  4 30.0000000  0 26E31G30G06G13G19E10G17E33E24G03E03E25
                                R12E12G14S35G24S31E05R13S33R11R21R23
                                E11R22
 130526832.878 7                  24838424.538
        42.000
 118678825.562 4  92477115.35341  22583825.571    22583825.3574   22583822.5734
        27.700           6.6004
 120266652.844 5  93714294.86343  22885978.594    22885978.0004   22885986.4454
        32.100          18.8004
 127978231.721 5  99723309.60641  24353440.670    24353440.4254   24353451.1674
        34.700           9.9004
 110541299.694 7  86136064.13445  21035284.478    21035283.1954   21035284.9444
        44.700          35.3004
 129357768.831 7                  24615938.755
        44.900
 107394386.099 8  83683960.13348  20436468.923    20436468.4544   20436469.6544
        50.900          50.5004
 134115309.837 5                  25521295.695
        35.800
 124897941.986 7                  23767287.057
        47.000
 125593643.882 4  97865218.69442  23899672.512    23899672.5884   23899675.4204
        27.800          14.5004
 146588942.757 5                  27894929.062
        31.800
 138314627.122 6                  26320396.116
        40.800
 103078013.985 8  80171818.956 7  19296417.958    19296418.179    19296424.014
        50.000          46.400
 126618282.886 5                  24094645.972
        34.300
 106128089.428 7  82697214.83546  20195504.880    20195504.6664   20195506.2074
        45.200          36.8004


 126193191.724 5  98332383.13744  24013764.678    24013764.3834   24013768.7504
        34.500          26.6004
 198898112.506 7                  37849065.881
        42.800
 137779403.643 5                  26218559.715
        35.500
 117238423.446 6                  21954991.981    21954991.968
        39.600
 202056076.100 7                  38450002.286
        44.300
 112122861.352 7  87206656.595 7  20982273.806    20982273.577    20982280.325
        44.800          42.400
 115325557.068 6  89697287.397 7  21551242.400    21551246.491    21551254.412
        41.200          44.500
 113276299.746 7                  21175796.597    21175797.260
        46.300
 138003566.079 5                  26261202.202
        34.400
 102017363.344 8  79346699.696 8  19111244.767    19111245.004    19111249.805
        52.400          50.100
 25  1  1 23  4 45.0000000  0 26E31G30G06G13G19E10G17E33E24G03E03E25
                                R12E12G14S35G24S31E05R13S33R11R21R23
                                E11R22
 130549094.621 6                  24842660.152
        41.800
 118729046.429 4  92516248.48241  22593384.356    22593384.3254   22593377.7024
        26.800           7.5004
 120213158.911 5  93672611.40842  22875800.072    22875799.2504   22875808.0044
        30.500          17.1004
 128018154.087 5  99754417.7734   24361039.480    24361039.5204   24361047.8594
        31.900           3.2004
 110516317.385 7  86116597.42745  21030529.776    21030528.4754   21030530.9694
        46.000          35.4004
 129323911.953 7                  24609496.244
        44.900
 107401131.570 8  83689216.35848  20437752.309    20437751.8494   20437753.2204
        49.500          50.1004
 134143354.850 5                  25526632.714
        35.100
 124888661.322 8                  23765521.223
        48.200
 125561839.111 4  97840435.85042  23893621.513    23893621.6824   23893623.6914
        29.600          13.4004
 146601278.446 5                  27897277.053
        32.100
 138281634.107 6                  26314117.984
        41.100
 103060141.291 8  80157917.983 7  19293072.668    19293072.372    19293078.324
        48.000          46.300
 126602328.702 6                  24091610.717
        37.500
 106136501.182 7  82703769.46946  20197105.440    20197105.2304   20197107.1334
        46.600          37.0004


 126153288.021 5  98301289.32644  24006169.342    24006168.7434   24006171.3434
        34.300          28.4004
 198898116.147 7                  37849065.688
        42.900
 137814098.699 5                  26225161.460
        34.000
 117183582.610 6                  21944721.932    21944720.472
        38.700
 202056074.175 7                  38450002.698
        44.500
 112165913.013 7  87240141.118 6  20990332.785    20990332.818    20990336.208
        47.700          41.500
 115379445.769 7  89739200.856 7  21561317.972    21561320.234    21561325.029
        42.500          44.000
 113226127.674 7                  21166412.487    21166414.406
        42.600
 137957580.572 5                  26252450.856
        34.200
 102016242.225 8  79345827.753 8  19111034.329    19111034.695    19111040.135
        52.600          49.800
 25  1  1 23  5  0.0000000  0 26E31G30G06G13G19E10G17E33E24G03E03E25
                                R12E12G14S35G24S31E05R13S33R11R21R23
                                E11R22
 130571404.811 6                  24846905.709
        40.200
 118779333.101 4  92555432.73941  22602951.068    22602951.2284   22602945.4634
        29.700          10.9004


 128058116.383 5                  24368658.302
        31.800
 110491413.073 7  86097191.50145  21025790.161    21025788.8924   21025791.7694
        45.600          35.4004
 129290138.013 7                  24603067.895
        43.200
 107407950.498 8  83694529.83048  20439050.235    20439049.7884   20439050.7244
        49.100          49.1004
 134171485.147 5                  25531985.392
        34.600
 124879428.104 7                  23763763.627
        47.700


 146613709.550 5                  27899641.859
        31.000
 138248647.777 6                  26307839.853
        41.500
 103042412.301 7  80144128.766 7  19289752.584    19289752.608    19289759.928
        46.300          46.400
 126586484.060 6                  24088595.713
        41.200
 106145010.594 8  82710400.20146  20198724.373    20198724.1634   20198726.8584
        48.100          37.5004


 126113491.203 5  98270278.82444  23998593.070    23998592.4274   23998595.9724
        34.700          24.9004
 198898125.526 7                  37849067.289
        42.600
 137848823.848 5                  26231770.981
        35.700
 117128784.139 6                  21934456.957    21934457.316
        37.300
 202056076.376 7                  38450003.328
        44.500
 112209083.592 7  87273718.228 7  20998407.957    20998408.479    20998416.430
        46.200          42.300
 115433406.898 6  89781170.664 7  21571399.734    21571401.771    21571408.350
        40.700          42.500
 113176075.238 6                  21157058.348    21157056.203
        41.700
 137911634.135 5                  26243708.062
        34.300
 102015304.209 8  79345098.209 8  19110858.583    19110858.741    19110863.519
        52.000          49.400
 25  1  1 23  5 15.0000000  0 26E31G30G06G13G19E10G17E33E24G03E03E25
                                R12E12G14S35G24S31E05R13S33R11R21R23
                                E11R22
 130593753.731 6                  24851157.940
        39.300
 118829675.021 5  92594660.11241  22612534.443    22612534.6394   22612523.8714
        33.600          10.2004


 128098108.149 5                  24376268.626
        32.000
 110466576.925 7  86077838.69345  21021064.391    21021063.1484   21021065.5734
        45.100          34.7004
 129256437.359 6                  24596655.557
        41.700
 107414833.006 8  83699892.84648  20440359.780    20440359.3244   20440360.3144
        49.000          48.7004
 134199690.889 6                  25537353.288
        37.700
 124870232.659 7                  23762013.632
        47.200


 146626226.137 5                  27902026.037
        33.400
 138215658.429 7                  26301562.057
        42.500
 103024817.523 7  80130443.916 7  19286459.446    19286460.135    19286466.627
        46.900          46.300
 126570739.209 7                  24085599.802
        44.700
 106153607.961 8  82717099.45546  20200360.180    20200359.9704   20200362.8014
        49.600          37.4004


 126073792.017 4  98239344.36043  23991036.940    23991035.8364   23991040.3164
        27.300          18.8004
 198898129.569 7                  37849068.403
        42.500
 137883568.884 6                  26238381.504
        36.400
 117074018.529 5                  21924203.437    21924198.533
        34.200
 202056073.899 7                  38450004.460
        45.200
 112252363.043 8  87307379.960 6  21006509.367    21006509.829    21006515.040
        48.800          41.900
 115487430.151 6  89823188.756 6  21581497.692    21581494.026    21581501.554
        39.200          39.300
 113126132.851 7                  21147723.950    21147722.165
        43.600
 137865717.109 5                  26234970.630
        34.800
 102014539.180 8  79344503.200 8  19110715.563    19110715.417    19110721.246
        52.000          50.200
 25  1  1 23  5 30.0000000  0 26E31G30G06G13G19E10G17E33E24G03E03E25
                                R12E12G14S35G24S31E05R13S33R11R21R23
                                E11R22
 130616150.148 6                  24855419.760
        38.400
 118880080.850 5  92633937.31841  22622126.582    22622126.4534   22622114.4144
        31.200           9.3004


 128138137.442 5                  24383881.910
        35.400
 110441817.761 7  86058545.88745  21016353.666    21016352.4064   21016353.8564
        43.200          34.1004
 129222818.925 7                  24590257.830
        43.900
 107421787.811 8  83705312.20048  20441682.885    20441682.4254   20441683.8484
        48.900          48.9004
 134227980.536 6                  25542735.483
        37.500
 124861083.870 7                  23760272.056
        45.800


 146638836.936 5                  27904425.188
        34.100
 138182674.873 7                  26295285.416
        43.100
 103007366.172 7  80116870.647 7  19283191.863    19283192.707    19283198.967
        47.200          45.600
 126555103.020 7                  24082624.377
        46.700
 106162302.117 8  82723874.11846  20202014.090    20202013.8714   20202016.5814
        49.200          36.6004




 198898137.405 7                  37849071.412
        42.900
 137918342.395 6                  26244999.802
        38.100
 117019295.192 6                  21913957.617    21913953.263
        37.400
 202056076.371 7                  38450005.220
        44.700
 112295760.127 8  87341133.179 7  21014631.147    21014632.692    21014635.412
        50.300          42.000
 115541523.961 6  89865261.665 6  21591605.881    21591605.040    21591608.592
        41.600          36.900
 113076309.734 7                  21138411.034    21138410.503
        46.500
 137819838.543 6                  26226240.481
        36.300
 102013955.861 8  79344049.522 8  19110605.664    19110606.041    19110611.803
        51.900          50.400
 25  1  1 23  5 45.0000000  0 26E31G30G06G13G19E10G17E33E24G03E03E25
                                R12E12G14S35G24S31E05R13S33R11R21R23
                                E11R22
 130638587.881 6                  24859688.910
        38.200
 118930543.915 5  92673259.14041  22631733.135    22631733.0374   22631715.9054
        35.800           9.7004


 128178198.129 4                  24391506.878
        26.200
 110417129.283 7  86039308.15045  21011655.765    21011654.5184   21011655.7414
        44.900          34.4004
 129189276.651 7                  24583874.698
        45.100
 107428808.655 8  83710783.00548  20443018.445    20443017.9804   20443020.0894
        48.600          48.6004
 134256347.674 6                  25548134.363
        37.000
 124851975.614 7                  23758539.071
        45.600


 146651535.486 5                  27906842.266
        34.500
 138149690.967 7                  26289009.263
        44.400
 102990052.218 8  80103404.197 7  19279950.595    19279951.581    19279958.105
        48.500          45.300
 126539569.366 7                  24079668.690
        46.900
 106171086.926 8  82730719.40945  20203686.156    20203685.9464   20203687.4664
        48.400          35.0004




 198898143.871 7                  37849073.080
        42.900
 137953137.866 6                  26251621.363
        39.500
 116964608.257 6                  21903717.065    21903714.571
        39.100
 202056075.311 7                  38450000.154
        44.300
 112339268.277 8  87374972.825 7  21022772.973    21022774.368    21022779.324
        49.200          44.300
 115595681.545 7  89907384.199 6  21601725.829    21601727.161    21601730.602
        44.000          36.900
 113026599.712 7                  21129116.982    21129117.318
        46.100
 137773992.410 6                  26217516.596
        36.900
 102013547.811 8  79343732.149 8  19110529.722    19110529.469    19110535.173
        51.500          50.100
 25  1  1 23  6  0.0000000  0 26E31G30G06G13G19E10G17E33E24G03E03E25
                                R12E12G14S35G24S31E05R13S33R11R21R23
                                E11R22
 130661069.864 6                  24863968.505
        38.400
 118981066.957 6  92712627.65941  22641344.580    22641344.4734   22641328.8874
        39.200          11.3004


 128218292.317 5                  24399135.553
        32.300
 110392514.475 7  86020127.81345  21006971.666    21006970.4194   21006971.9534
        45.700          35.7004
 129155813.637 7                  24577507.760
        46.000
 107435898.383 7  83716307.47948  20444367.540    20444367.0844   20444369.2404
        47.800          48.4004
 134284794.881 4                  25553543.129
        29.500
 124842910.908 7                  23756814.105
        46.700


 146664324.659 5                  27909275.698
        35.100
 138116709.715 7                  26282733.058
        44.800
 102972879.013 8  80090047.239 7  19276737.578    19276737.222    19276743.192
        50.200          44.800
 126524141.165 7                  24076732.766
        46.700
 106179965.400 8  82737637.70245  20205375.384    20205375.1564   20205376.0134
        48.000          33.8004


 125955364.255 6  98147044.90843  23968492.003    23968491.8204   23968503.9784
        39.200          20.4004
 198898150.927 7                  37849072.450
        43.100
 137987958.014 6                  26258248.274
        40.300
 116909960.740 6                  21893483.237    21893481.746
        40.500
 202056075.352 7                  38450006.351
        44.500
 112382890.220 7  87408901.002 7  21030936.827    21030934.771    21030943.541
        43.100          45.200
 115649905.378 6  89949558.317 6  21611858.860    21611857.774    21611865.744
        40.900          37.500
 112977006.268 7                  21119843.957    21119845.878
        45.200
 137728181.808 5                  26208798.167
        34.700
 102013317.829 8  79343553.297 8  19110485.567    19110486.273    19110491.508
        51.300          48.900
 25  1  1 23  6 15.0000000  0 27E31G02G30G06G13G19E10G17E33E24G03E03
                                E25R12E12G14S35G24S31E05R13S33R11R21
                                R23E11R22
 130683594.459 6                  24868258.123
        41.900
 124132545.319 6  96726646.52142  23621635.985    23621636.0784   23621634.1774
        37.400          14.0004
 119031647.819 6  92752041.23141  22650971.025    22650970.8564   22650953.1964
        40.000          10.4004


 128258417.808 4                  24406782.700
        27.400
 110367971.689 7  86001003.61246  21002301.664    21002300.4484   21002301.8494
        46.800          36.2004
 129122428.362 7                  24571154.545
        45.300
 107443054.900 8  83721884.00148  20445729.289    20445728.8474   20445730.9344
        48.000          48.1004
 134313320.476 4                  25558972.137
        25.700
 124833888.154 7                  23755097.060
        47.800


 146677202.573 5                  27911726.521
        35.500
 138083729.484 7                  26276457.355
        44.500
 102955845.133 8  80076798.671 7  19273550.282    19273550.198    19273554.612
        52.100          44.700
 126508816.816 7                  24073816.191
        46.300
 106188935.920 8  82744627.73245  20207082.259    20207082.0454   20207082.7104
        48.100          33.7004


 125916078.613 6  98116432.70143  23961016.061    23961015.8254   23961023.5524
        38.800          23.3004
 198898156.199 7                  37849072.619
        43.300
 138022800.802 6                  26264878.459
        40.100
 116855351.588 6                  21883256.535    21883255.615
        41.400
 202056075.660 7                  38450005.645
        45.000
 112426624.079 6  87442916.269 7  21039114.994    21039115.474    21039127.223
        39.700          44.400
 115704193.175 6  89991782.268 6  21622004.181    21622001.677    21622013.327
        36.900          39.200
 112927528.059 6                  21110592.387    21110592.874
        41.700
 137682405.282 5                  26200087.202
        34.100
 102013264.047 8  79343511.478 7  19110476.758    19110477.102    19110480.803
        51.700          47.900
 25  1  1 23  6 30.0000000  0 27E31G02G30G06G13G19E10G17E33E24G03E03
                                E25R12E12G14S35G24S31E05R13S33R11R21
                                R23E11R22
 130706162.614 7                  24872552.025
        45.000
 124178230.967 6  96762245.69642  23630330.700    23630330.5714   23630327.9454
        37.900          13.5004
 119082287.095 6  92791500.30041  22660605.568    22660605.3274   22660588.6264
        37.100           9.6004
 119840318.858 6  93382129.08845  22804856.498    22804855.8814   22804868.4934
        36.800          30.2004
 128298575.591 5                  24414418.177
        33.400
 110343501.929 7  85981936.30446  20997644.436    20997643.2024   20997644.6994
        47.200          36.2004
 129089121.929 7                  24564816.847
        45.100
