     2.11           OBSERVATION DATA    M (MIXED)           RINEX VERSION / TYPE
teqc  2019Feb25                         20260317 16:18:01UTCPGM / RUN BY / DATE
Linux 2.4.21-27.ELsmp|Opteron|gcc -static|Linux 64|=+       COMMENT
BIT 2 OF LLI FLAGS DATA COLLECTED UNDER A/S CONDITION       COMMENT
-Unknown-                                                   MARKER NAME
-Unknown-           -Unknown-                               OBSERVER / AGENCY
-Unknown-           -Unknown-           -Unknown-           REC # / TYPE / VERS
-Unknown-           -Unknown-                               ANT # / TYPE
        0.0000        0.0000        0.0000                  APPROX POSITION XYZ
        0.0000        0.0000        0.0000                  ANTENNA: DELTA H/E/N
     1     1                                                WAVELENGTH FACT L1/2
     7    L1    L2    C1    P1    P2    S1    S2            # / TYPES OF OBSERV
 SNR is mapped to RINEX snr flag value [0-9]                COMMENT
  L1 & L2: min(max(int(snr_dBHz/6), 0), 9)                  COMMENT
  2025     1     1    12     0    0.0000000     GPS         TIME OF FIRST OBS
    18                                                      LEAP SECONDS
                                                            END OF HEADER
 25  1  1 12  0  0.0000000  0 28E27E10G23G02E29G32E33G10G28R19R04R21
                                E26S35R05G12G25S31G31G21S33E07E30E19
                                R14R20E12R15
 140954330.560 6                  26822717.058
        36.900


 122239389.289 6  95251482.48541  23261380.228    23261379.6744   23261382.7174
        37.200           9.0004
 124824851.710 6  97266109.51943  23753378.942    23753377.5524   23753376.2304
        41.500          23.8004
 123229292.123 7                  23449748.589
        46.100
 109444269.234 8  85281212.58447  20826523.618    20826523.3414   20826525.4394
        48.300          43.0004
 127018071.468 7                  24170729.608
        45.700
 108487481.028 8  84535742.01247  20644481.483    20644481.0274   20644484.5264
        49.100          47.3004
 110218380.277 8  85884451.56545  20973836.611    20973836.3304   20973836.0214
        48.300          35.3004
                  95210625.865 5                                  22883924.683
                        35.400
 107492494.057 7  83605545.689 7  20073479.688    20073479.635    20073482.511
        47.000          43.000
 125468176.473 6                  23446722.900    23446724.117
        39.900
 137272351.579 4                  26122063.390
        25.600


 111341464.678 8  86598491.943 7  20828618.940    20828620.734    20828623.370
        48.000          46.100
 126045913.234 5  98217604.1884   23985744.511    23985744.2344   23985739.2024
        34.200           5.9004
 119130386.480 5  92828877.33842  22669759.632    22669758.9844   22669762.8754
        34.800          16.1004
 198900956.433 7                  37849595.902
        43.800
 119038958.775 7  92757638.38046  22652359.847    22652359.5034   22652359.0444
        44.100          37.5004
 120374139.762 6  93798048.09044  22906435.836    22906434.7104   22906436.2804
        41.400          24.8004
 202015743.477 7                  38442323.916
        45.500
 135135934.180 7                  25715515.434
        42.400


 130895819.898 4                  24908644.761
        25.400
 108350691.085 8  84272751.276 7  20326309.212    20326308.986    20326313.405
        53.700          44.000
 113681649.173 5  88419079.614 7  21259040.074    21259039.364    21259047.371
        35.800          44.400
 139476137.483 6                  26541419.898
        39.400
 116403861.550 7  90536355.454 7  21783393.114    21783393.387    21783396.988
        47.300          42.600
 25  1  1 12  0 15.0000000  0 27E27E10G23G02E29G32E33G10G28R04R03R21
                                E26S35R05G25S31G31G21S33E07E30E19R14
                                R20E12R15
 140918820.493 6                  26815956.941
        38.300


 122286160.936 6  95287928.03742  23270279.618    23270278.9254   23270283.8754
        41.900          12.3004
 124803805.578 7  97249709.96344  23749373.867    23749372.4864   23749372.3314
        42.300          26.8004
 123230765.909 7                  23450029.187
        46.800
 109448035.306 8  85284147.19347  20827239.718    20827239.4324   20827242.3164
        48.800          45.0004
 127035841.242 7                  24174111.012
        44.400
 108503370.213 8  84548123.23247  20647505.210    20647504.7634   20647507.5624
        49.000          46.8004
 110188319.307 7  85861027.43845  20968116.284    20968116.0034   20968115.0944
        46.100          34.3004
 107502260.218 8  83613141.550 7  20075303.915    20075304.478    20075306.218
        49.000          42.300
 122074637.898 6  94946979.857 5  22804571.763    22804571.978    22804578.220
        36.200          35.900
 125430701.243 5  97557295.032 5  23439719.923    23439724.078    23439743.607
        34.100          32.900
 137317998.957 4                  26130775.985
        26.500


 111314496.836 8  86577516.989 7  20823574.295    20823575.554    20823578.298
        48.400          46.000
 119102368.259 5  92807044.95342  22664426.123    22664425.2834   22664431.1634
        30.400          16.5004
 198900965.542 7                  37849600.691
        44.600
 118985572.369 7  92716038.60646  22642201.665    22642201.3174   22642200.8364
        44.500          38.9004
 120373189.681 6  93797307.80443  22906255.060    22906253.9564   22906254.5044
        41.600          22.8004
 202015753.277 7                  38442325.338
        45.800
 135163988.559 7                  25720854.160
        44.800


 130872906.021 4                  24904310.635
        28.900
 108339163.760 8  84263785.485 7  20324145.728    20324145.616    20324151.129
        53.200          43.200
 113694133.415 6  88428789.556 7  21261375.929    21261375.496    21261382.233
        38.100          44.400
 139450878.013 6                  26536612.793
        38.500
 116344004.221 7  90489799.826 6  21772188.450    21772189.629    21772194.675
        44.600          40.300
 25  1  1 12  0 30.0000000  0 28E27E10G23G02E29G32E33G10G28R04R03R21
                                E26S35R05G12G25S31G31G21S33E07E30E19
                                R14R20E12R15
 140883348.357 5                  26809205.859
        35.500


 122332989.776 6  95324417.97842  23279192.291    23279191.5004   23279195.9534
        41.200          12.2004
 124782872.633 6  97233398.58544  23745390.548    23745389.1584   23745388.9784
        41.200          26.7004
 123232272.985 7                  23450316.309
        47.200
 109451853.393 8  85287122.31347  20827966.025    20827965.7534   20827968.4854
        50.100          45.1004
 127053713.700 7                  24177513.351
        43.000
 108519368.187 7  84560589.19447  20650549.470    20650549.0194   20650550.1074
        47.900          43.6004
 110158374.315 7  85837693.69445  20962418.925    20962418.6714   20962416.4994
        45.000          32.9004
 107512080.280 8  83620779.365 7  20077138.129    20077138.849    20077139.739
        50.200          42.800
 122111671.422 5  94975783.666 5  22811489.020    22811489.127    22811495.650
        34.100          35.700
 125393378.120 4  97528265.874 5  23432750.948                    23432757.806
        28.100          33.600
 137363675.606 4                  26139467.179
        28.300


 111287560.774 8  86556566.721 7  20818534.605    20818536.242    20818538.332
        49.200          44.400
 126043496.961 5                  23985272.480
        32.500
 119074460.064 5  92785298.28142  22659116.680    22659115.7554   22659119.8914
        32.700          17.8004
 198900972.634 7                  37849598.268
        43.600
 118932249.757 7  92674488.52846  22632055.059    22632054.7114   22632055.1054
        45.200          39.7004
 120372357.620 6  93796659.49843  22906096.106    22906095.0114   22906095.8914
        39.200          21.0004
 202015761.025 7                  38442328.191
        45.500
 135192047.762 7                  25726193.252
        45.400
 143056106.949 5                  27222675.028
        34.800
 130850019.609 4                  24899942.329
        28.400
 108327834.068 8  84254973.409 6  20322021.588    20322021.456    20322024.663
        53.600          41.800
 113706812.100 6  88438650.766 7  21263745.627    21263745.881    21263751.867
        37.100          42.800
 139425706.588 6                  26531823.241
        36.400
 116284219.204 7  90443300.417 6  21761001.412    21761000.539    21761006.957
        44.100          38.400
 25  1  1 12  0 45.0000000  0 28E27E10G23G02E29G32E33G10G28R04R03R21
                                E26S35R05G12G25S31G31G21S33E07E30E19
                                R14R20E12R15
 140847916.179 4                  26802463.625
        28.200


 122379877.361 6  95360953.70041  23288112.718    23288111.9274   23288118.3604
        37.800           6.1004
 124762054.797 7  97217176.94244  23741427.999    23741426.5514   23741427.2194
        42.100          26.1004
 123233815.039 8                  23450609.955
        48.100
 109455725.173 8  85290139.27747  20828702.421    20828702.1354   20828704.8274
        48.300          45.4004
 127071690.471 7                  24180933.701
        43.000
 108535476.750 8  84573141.30746  20653614.121    20653613.6654   20653614.0414
        50.200          40.7004
 110128547.166 7  85814451.77445  20956742.647    20956742.3884   20956740.6234
        44.600          32.1004
 107521956.314 8  83628460.750 7  20078982.736    20078982.750    20078985.916
        50.900          44.300
 122148733.871 5  95004609.942 5  22818415.970    22818419.735    22818420.150
        35.400          35.900
                  97499357.271 5                                  23425807.139
                        30.000
 137409383.218 4                  26148164.046
        26.200


 111260658.333 8  86535642.637 7  20813498.889    20813502.008    20813504.743
        48.100          42.900
 126042501.371 5  98214927.97742  23985085.808    23985085.5274   23985086.5114
        33.700          15.2004
 119046664.018 5  92763638.97643  22653826.523    22653825.4774   22653829.8054
        35.400          18.8004
 198900979.664 7                  37849599.314
        43.700
 118878992.923 7  92632989.65746  22621920.593    22621920.2674   22621921.1964
        45.900          40.1004
 120371645.046 6  93796104.27843  22905962.458    22905961.3584   22905958.7824
        38.200          18.7004
 202015769.242 7                  38442328.311
        45.200
 135220113.450 7                  25731533.598
        44.800
 143048866.015 6                  27221295.486
        39.700
 130827162.235 4                  24895590.975
        27.000
 108316703.817 8  84246316.479 7  20319933.351    20319933.352    20319937.068
        52.600          42.400
 113719686.722 5  88448664.372 7  21266151.793    21266151.685    21266160.238
        33.400          43.000
 139400625.149 6                  26527050.287
        37.100
 116224508.807 7  90396859.021 6  21749827.431    21749826.535    21749834.702
        44.000          39.100
 25  1  1 12  1  0.0000000  0 28E27E10G23G02E29G32E33G10G28R04R03R21
                                E26S35R05G12G25S31G31G21S33E07E30E19
                                R14R20E12R15
 140812523.595 4                  26795728.280
        24.200


 122426822.979 6  95397534.3724   23297049.057    23297048.4854   23297051.7774
        38.000           3.4004
 124741351.399 6  97201044.46943  23737486.892    23737485.3994   23737487.2234
        39.100          23.6004
 123235391.436 8                  23450910.060
        48.000
 109459650.079 7  85293197.65447  20829450.207    20829449.9394   20829451.3334
        47.700          45.1004
 127089770.891 7                  24184374.754
        42.500
 108551695.348 8  84585779.10046  20656699.727    20656699.2544   20656699.8904
        49.400          37.4004
 110098837.416 7  85791301.31545  20951088.860    20951088.6014   20951087.3304
        44.800          32.5004
 107531887.712 8  83636185.193 7  20080836.061    20080836.765    20080840.016
        51.000          44.400
 122185824.525 6  95033458.216 5  22825346.498    22825344.369    22825348.884
        37.300          33.700
 125319196.013 6                  23418892.437    23418892.604
        39.500




 111233789.014 7  86514744.276 6  20808471.537    20808472.716    20808477.481
        46.200          41.200
 126041647.052 6  98214262.45443  23984924.688    23984924.5994   23984924.1244
        38.500          21.0004
 119018979.912 6  92742066.92143  22648560.204    22648559.0874   22648560.9014
        37.400          19.1004
 198900986.478 7                  37849604.792
        44.200
 118825801.758 7  92591541.98546  22611798.549    22611798.2414   22611798.8164
        45.200          38.5004
 120371051.389 6  93795641.69543  22905849.965    22905848.8344   22905843.9374
        40.900          18.4004
 202015776.718 7                  38442331.607
        45.700
 135248185.037 7                  25736875.297
        42.900
 143041724.241 6                  27219936.044
        40.400
 130804333.404 5                  24891238.410
        30.800
 108305772.718 8  84237814.481 7  20317882.493    20317882.080    20317885.971
        52.100          42.300
 113732756.811 5  88458829.944 7  21268596.696    21268596.406    21268605.634
        33.200          43.500
 139375633.232 6                  26522294.684
        38.200
 116164872.861 7  90350475.574 6  21738667.989    21738666.859    21738671.430
        43.100          37.300
 25  1  1 12  1 15.0000000  0 28E27E10G23G02E29G32E33G10G28R04R03R21
                                E26S35R05G12G25S31G31G21S33E07E30E19
                                R14R20E12R15




 122473825.013 6  95434159.18641  23305993.710    23305993.0624   23305996.9544
        40.600          10.1004
 124720761.499 6  97185000.46743  23733569.853    23733568.3244   23733569.2104
        38.700          22.5004
 123237000.683 8                  23451216.456
        48.200
 109463626.591 8  85296296.24747  20830206.758    20830206.4814   20830207.3914
        49.800          45.6004
 127107953.394 7                  24187834.693
        44.000
 108568022.574 8  84598501.47746  20659807.079    20659806.6064   20659807.2924
        49.600          38.0004
 110069243.845 7  85768241.39145  20945457.745    20945457.4734   20945455.9654
        45.600          32.8004
 107541872.985 8  83643951.497 7  20082700.538    20082701.575    20082705.166
        51.000          44.600
 122222942.276 6  95062327.406 5  22832282.139    22832282.243    22832279.340
        38.100          31.500
 125282335.425 5                  23411994.098    23411995.207
        34.800




 111206951.387 7  86493870.561 6  20803453.762    20803452.962    20803458.219
        46.200          41.500
 126040932.233 6  98213705.37143  23984787.677    23984787.1774   23984786.5104
        37.300          18.1004
 118991406.667 5  92720581.26643  22643307.433    22643306.3074   22643312.3884
        32.700          18.5004
 198900990.973 7                  37849600.611
        43.400
 118772675.258 7  92550144.75345  22601688.718    22601688.4414   22601685.8614
        45.900          35.3004
 120370575.646 7  93795270.98643  22905758.508    22905757.3914   22905751.6254
        43.700          18.6004
 202015781.955 7                  38442330.431
        45.600
 135276261.056 6                  25742218.073
        41.400
 143034680.547 6                  27218596.096
        41.100
 130781531.677 5                  24886900.112
        35.300
 108295039.245 8  84229466.187 6  20315870.302    20315870.176    20315870.481
        53.400          41.200
 113746020.033 5  88469145.802 7  21271079.145    21271074.781    21271084.112
        30.000          42.900
 139350729.611 6                  26517554.925
        38.400
 116105310.734 7  90304149.546 6  21727522.277    21727521.559    21727524.632
        43.400          36.900
 25  1  1 12  1 30.0000000  0 28E27E10G23G02E29G32E33G10G28R04R03R21
                                E26S35R05G12G25S31G31G21S33E07E30E19
                                R14R20E12R15




 122520891.110 6  95470834.00441  23314950.323    23314949.6714   23314954.4054
        40.800          11.9004
 124700292.875 6  97169050.93143  23729676.362    23729674.7934   23729674.6544
        39.000          22.0004
 123238650.510 7                  23451530.145
        47.500
 109467662.426 8  85299441.05647  20830974.815    20830974.5074   20830975.3524
        50.800          47.0004
 127126245.639 7                  24191314.988
        46.100
 108584466.270 8  84611314.71447  20662936.588    20662936.1194   20662937.9374
        50.400          43.1004
 110039774.338 7  85745278.14945  20939849.643    20939849.3624   20939848.6984
        46.600          33.6004
 107551920.186 8  83651765.989 7  20084577.147    20084577.836    20084581.235
        51.600          44.300
 122260094.428 6  95091223.448 5  22839218.362    22839219.313    22839224.065
        36.100          34.900
 125245636.313 5                  23405140.601    23405136.230
        35.600




 111180153.138 8  86473027.448 7  20798441.869    20798441.570    20798446.330
        48.200          42.100
 126040365.226 5  98213263.53642  23984679.710    23984679.0804   23984678.4804
        35.300          12.4004
 118963952.248 4  92699188.19343  22638086.273    22638085.1114   22638089.1304
        25.500          19.7004
 198901001.983 7                  37849603.057
        43.500
 118719621.269 7  92508804.05045  22591592.387    22591592.0974   22591586.8314
        46.200          33.3004
 120370225.389 7  93794998.06643  22905691.811    22905690.6444   22905685.4144
        43.400          20.0004
 202015793.187 7                  38442331.661
        45.200
 135304349.227 6                  25747563.789
        39.300
 143027742.812 6                  27217276.297
        41.700
 130758764.673 6                  24882568.134
        38.300
 108284511.563 8  84221278.014 7  20313893.853    20313893.987    20313897.766
        52.200          42.800
 113759484.339 4  88479618.015 7  21273593.571    21273590.797    21273602.588
        29.100          42.300
 139325922.263 6                  26512834.363
        37.800
 116045830.589 7  90257887.249 6  21716392.609    21716392.656    21716395.228
        44.900          39.600
 25  1  1 12  1 45.0000000  0 28E27E10G23G02E29G32E33G10G28R04R03R21
                                E26S35R05G12G25S31G31G21S33E07E30E19
                                R14R20E12R15




 122568011.702 6  95507551.25041  23323918.197    23323917.5224   23323921.6144
        39.600           8.0004
 124679936.234 6  97153188.69843  23725802.860    23725801.3094   23725801.1834
        38.100          21.1004
 123240331.362 7                  23451849.295
        46.000
 109471748.082 8  85302624.67547  20831752.417    20831752.1004   20831753.2404
        51.400          47.9004
 127144638.074 7                  24194814.902
        47.000
 108601016.997 8  84624211.36647  20666085.971    20666085.5154   20666088.8574
        51.100          47.8004
 110010419.654 7  85722404.38745  20934263.290    20934263.0184   20934263.5254
        47.100          34.4004
 107562019.528 8  83659621.038 7  20086462.779    20086463.282    20086467.432
        50.500          44.600
 122297271.935 5  95120139.266 5  22846161.940    22846162.374    22846172.251
        34.900          35.400
 125209089.202 5                  23398323.555    23398323.351
        35.900




 111153385.120 8  86452207.878 7  20793433.524    20793434.028    20793440.635
        49.200          42.800
 126039936.527 5  98212929.4334   23984602.266    23984601.2604   23984597.9734
        31.100           3.4004


 198901008.488 7                  37849605.597
        43.800
 118666630.649 7  92467512.68345  22581507.378    22581507.0654   22581502.7684
        44.800          32.7004
 120369991.059 6  93794815.47743  22905647.507    22905646.3234   22905643.0014
        41.400          20.1004
 202015800.580 7                  38442333.552
        45.200
 135332440.079 6                  25752908.796
        39.900
 143020901.276 6                  27215973.957
        38.000
 130736023.037 6                  24878238.967
        37.100
 108274180.098 8  84213242.410 7  20311956.009    20311956.107    20311960.548
        51.900          45.100
 113773139.898 4  88490238.876 6  21276148.781    21276145.681    21276154.364
        29.100          39.800
 139301201.906 6                  26508131.017
        38.600
 115986423.657 7  90211681.914 7  21705272.620    21705273.511    21705279.070
        42.200          42.200
 25  1  1 12  2  0.0000000  0 28E27E10G23G02E29G32E33G10G28R19R04R03
                                R21E26S35R05G25S31G31G21S33E07E30E19
                                R14R20E12R15




 122615192.957 6  95544315.5884   23332898.469    23332897.7994   23332899.6534
        36.700           4.7004
 124659698.047 7  97137418.77443  23721952.837    23721951.3984   23721949.1404
        42.400          20.9004
 123242049.528 7                  23452175.986
        44.600
 109475889.843 8  85305852.00548  20832540.213    20832539.8834   20832541.5334
        50.600          48.2004
 127163136.869 7                  24198335.521
        46.800
 108617681.111 8  84637196.38148  20669257.280    20669256.8294   20669260.6334
        51.700          50.4004
 109981186.193 7  85699625.03845  20928701.092    20928700.8474   20928700.7874
        45.700          33.9004
                  95600183.810 6                                  22977573.780
                        36.400
 107572177.716 8  83667521.904 7  20088359.287    20088360.109    20088364.536
        49.500          44.700
 122334481.180 6  95149079.804 4  22853112.052    22853114.612    22853122.351
        37.000          29.300
 125172701.139 6                  23391502.296    23391513.101
        37.800




 111126653.519 8  86431416.632 6  20788431.838    20788432.353    20788439.340
        48.000          41.400
 118909379.827 5  92656670.25044  22627703.275    22627702.9134   22627705.3204
        35.100          26.5004
 198901017.664 7                  37849605.011
        43.000
 118613710.067 7  92426275.87545  22571437.721    22571437.4354   22571433.9624
        42.400          34.0004
 120369879.061 6  93794728.21843  22905625.924    22905624.7534   22905622.6374
        39.800          18.9004
 202015810.823 7                  38442334.737
        45.300
 135360539.894 6                  25758255.429
        41.200
 143014162.697 5                  27214690.721
        34.000
 130713312.704 6                  24873918.722
        36.400
 108264051.412 8  84205364.466 7  20310056.050    20310056.146    20310060.341
        51.600          45.800
 113786992.941 4  88501013.410 6  21278734.643    21278736.768    21278744.194
        28.900          37.200
 139276574.944 6                  26503443.447
        38.800
 115927096.681 6  90165538.757 7  21694170.707    21694170.874    21694176.782
        40.700          42.600
 25  1  1 12  2 15.0000000  0 28E27E10G23G02E29G32E33G10G28R19R04R03
                                R21E26S35R05G25S31G31G21S33E07E30E19
                                R14R20E12R15




 122662427.963 6  95581121.8954   23341890.666    23341890.0054   23341888.5534
        36.300           2.0004
 124639571.730 7  97121736.00943  23718121.138    23718119.7304   23718119.4104
        44.700          21.2004
 123243798.237 7                  23452508.541
        42.100
 109480080.910 8  85309117.73948  20833337.935    20833337.6144   20833338.9404
        51.200          48.3004
 127181735.249 7                  24201874.333
        46.600
 108634451.962 8  84650264.56648  20672449.582    20672449.1264   20672451.8564
        51.800          52.1004
 109952067.416 7  85676935.06345  20923160.197    20923159.9654   20923159.4854
        44.100          32.6004
                  95648994.079 6                                  22989307.188
                        37.600
 107582387.881 8  83675463.168 7  20090267.176    20090267.225    20090271.115
        48.600          45.100
 122371715.068 6                  22860082.189    22860079.709
        39.200
 125136465.707 6                  23384728.363    23384740.163
        36.100




 111099951.952 7  86410648.744 6  20783436.842    20783437.269    20783443.469
        47.500          40.100
 118882261.990 6  92635539.48444  22622543.771    22622543.4144   22622544.8354
        38.600          26.8004
 198901022.807 7                  37849608.074
        43.500
 118560853.261 7  92385088.75545  22561379.520    22561379.2924   22561378.0384
        42.500          35.2004
 120369882.628 6  93794730.97442  22905624.292    22905623.1304   22905623.8314
        37.700          17.7004
 202015816.946 7                  38442335.627
        45.000
 135388641.952 7                  25763603.110
        42.500
 143007520.448 5                  27213427.015
        34.000
 130690627.288 6                  24869601.379
        36.100
 108254118.983 8  84197639.202 7  20308193.067    20308192.584    20308197.284
        51.200          45.600
 113801036.111 4  88511935.926 6  21281359.302    21281361.458    21281370.172
        26.000          37.800
 139252034.851 6                  26498773.839
        37.100
 115867843.642 7  90119453.115 7  21683083.860    21683083.799    21683088.214
        42.200          42.400
 25  1  1 12  2 30.0000000  0 26E27E10G23G02E29G32E33G10G28R04R21E26
                                S35R05G25S31G31G21S33E07E30E19R14R20
                                E12R15




 122709724.520 6  95617975.9064   23350892.532    23350891.6924   23350888.6554
        38.600           2.8004
 124619565.377 7  97106146.67243  23714312.812    23714311.4224   23714312.2614
        43.000          21.0004
 123245585.448 6                  23452849.895
        39.400
 109484329.272 8  85312428.15448  20834146.050    20834145.7294   20834147.4094
        50.800          48.7004
 127200441.004 7                  24205433.837
        46.800
 108651337.548 8  84663422.16248  20675663.105    20675662.6404   20675664.3364
        52.700          52.8004
 109923071.414 7  85654340.79745  20917642.480    20917642.2304   20917641.7584
        44.000          31.5004
 107592658.231 8  83683451.198 7  20092184.315    20092185.510    20092187.872
        48.900          44.900






 111073288.191 7  86389910.314 6  20778448.198    20778448.217    20778453.934
        46.500          37.900
 118855262.615 6  92614500.99944  22617405.127    22617404.3584   22617408.8374
        37.400          27.5004
 198901031.647 7                  37849608.145
        43.300
 118508068.301 7  92343957.62645  22551333.906    22551333.6434   22551334.1214
        43.500          35.1004
 120370009.415 6  93794829.77143  22905650.247    22905649.0634   22905648.0314
        38.700          18.4004
 202015827.071 7                  38442336.892
        44.600
 135416754.121 7                  25768952.686
        42.700
 143000982.500 5                  27212181.918
        31.500
 130667974.452 5                  24865290.592
        34.800
 108244391.177 8  84190073.114 7  20306367.281    20306367.187    20306371.297
        50.400          45.600
                  88523012.814 6                                  21284036.086
                        39.400
 139227589.893 5                  26494122.364
        35.800
 115808672.929 7  90073431.494 6  21672013.205    21672014.271    21672014.732
        44.000          41.900
 25  1  1 12  2 45.0000000  0 28E27E10G23G02E29G32E33G10G28R19R04R03
                                R21E26S35R05G25S31G31G21S33E07E30E19
                                R14R20E12R15




 122757078.543 6  95654874.9354   23359909.581    23359908.8354   23359899.1134
        36.600           2.4004
 124599675.211 7  97090647.81043  23710528.588    23710527.2604   23710526.7474
        42.300          21.4004
 123247407.160 6                  23453197.030
        39.700
 109488630.980 8  85315780.14648  20834965.196    20834964.8664   20834966.3514
        50.300          49.1004
 127219250.194 7                  24209012.546
        47.100
 108668334.062 8  84676666.20448  20678896.972    20678896.4994   20678897.7314
        52.700          52.8004
 109894194.473 7  85631839.30145  20912147.203    20912146.9624   20912146.1784
        45.500          31.5004
 123102886.818 5  95746688.134 5  23012785.647                    23012779.182
        34.700          30.700
 107602984.807 7  83691483.017 7  20094112.839    20094113.048    20094117.368
        47.500          45.600
 122446278.021 6                  22874007.330    22874006.998
        37.700
 125064475.161 6                  23371280.230    23371275.870
        38.000




 111046658.408 7  86369198.337 5  20773468.338    20773468.301    20773469.801
        47.600          35.800
 118828378.099 5  92593552.01243  22612287.140    22612286.2774   22612295.5684
        32.400          23.2004
 198901040.759 7                  37849610.909
        43.400
 118455351.677 7  92302879.74946  22541303.088    22541302.8474   22541302.1484
        43.400          36.5004
 120370255.621 6  93795021.62043  22905696.336    22905695.1924   22905694.7874
        37.100          18.6004
 202015837.381 7                  38442341.082
        45.100
 135444872.594 7                  25774303.592
        42.800
 142994544.960 4                  27210958.992
        29.100
 130645350.504 5                  24860985.542
        31.800
 108234864.050 8  84182663.104 7  20304580.762    20304580.667    20304585.094
        51.400          46.200
                  88534240.806 6                                  21286736.647
                        40.300
 139203236.415 5                  26489489.113
        35.300
 115749581.296 7  90027471.441 6  21660959.982    21660962.052    21660955.815
        45.500          40.400
 25  1  1 12  3  0.0000000  0 29E27E10G23G02E29G32G12E33G10G28R19R04
                                R03R21E26S35R05G25S31G31G21S33E07E30
                                E19R14R20E12R15
 140530875.781 5                  26742136.331
        34.400




 124579902.238 7  97075240.29043  23706765.447    23706764.1604   23706763.9704
        42.300          21.8004
 123249264.218 6                  23453550.322
        40.400
 109492986.821 8  85319174.31748  20835794.366    20835794.0364   20835795.3724
        49.100          48.9004
 126039932.834 6  98212931.64442  23984599.642    23984599.6954   23984601.0014
        38.500          14.4004
 127238163.527 7                  24212611.067
        46.000
 108685442.383 8  84689997.35948  20682152.567    20682152.0944   20682152.7054
        52.200          52.0004
 109865437.610 7  85609431.38845  20906674.507    20906674.2714   20906672.5904
        47.000          31.7004
 123165733.244 5  95795568.516 5  23024532.891                    23024528.026
        34.200          30.000
 107613368.682 8  83699559.374 7  20096053.583    20096054.148    20096057.171
        50.800          45.600
 122483603.914 5                  22880976.811    22880973.853
        33.100
 125028717.401 6                  23364598.563    23364596.116
        39.100
 137822158.931 6                  26226684.042
        36.200


 111020064.070 8  86348513.932 6  20768494.860    20768493.960    20768497.160
        48.800          37.400
 118801609.823 5  92572693.60242  22607192.719    22607191.5794   22607200.0514
        34.100          17.1004
 198901050.253 7                  37849615.354
        44.100
 118402704.419 7  92261855.94646  22531285.461    22531285.2424   22531283.7464
        45.400          37.9004
 120370621.750 6  93795306.90743  22905768.050    22905766.9104   22905764.8354
        37.300          19.9004
 202015847.895 7                  38442340.215
        45.100
 135472998.155 7                  25779656.626
        42.000
 142988208.911 5                  27209752.503
        31.900
 130622756.282 5                  24856686.757
        31.900
 108225538.555 8  84175409.951 7  20302831.059    20302832.025    20302836.055
        51.300          47.100
                  88545619.961 6                                  21289469.622
                        40.100
 139178975.236 6                  26484872.467
        36.700
 115690570.114 7  89981573.941 6  21649921.042    21649921.652    21649912.388
        43.200          38.700
 25  1  1 12  3 15.0000000  0 28E27E10G23G02E29G32G12E33G10G28R19R04
                                R21E26S35R05G25S31G31G21S33E07E30E19
                                R14R20E12R15
 140495851.727 5                  26735488.617
        32.900


 122851896.411 6                  23377945.070
        36.100
 124560237.692 6  97059917.22743  23703023.124    23703021.8954   23703022.9444
        38.200          21.3004
 123251147.481 6                  23453908.635
        41.400
 109497387.733 8  85322603.61448  20836631.726    20836631.4004   20836632.9204
        48.300          48.0004
 126040353.411 5  98213259.29442  23984677.169    23984677.0624   23984679.8184
        34.400          17.3004
 127257171.820 7                  24216229.258
        45.700
 108702653.459 8  84703408.57348  20685427.104    20685426.6314   20685427.6464
        50.900          50.9004
 109836791.903 7  85587110.10745  20901223.979    20901223.7474   20901220.8424
        46.400          32.3004
 123228598.546 5  95844463.621 5  23036283.837                    23036291.282
        30.200          33.600
 107623800.609 8  83707673.055 7  20098002.448    20098003.628    20098005.252
        53.300          44.600


 137868157.866 6                  26235440.397
        36.700


 110993495.134 8  86327849.197 6  20763523.828    20763523.797    20763526.531
        48.200          38.600
 118774948.875 5  92551918.87542  22602121.252    22602120.1394   22602123.7674
        35.800          16.6004
 198901052.001 7                  37849614.204
        44.000
 118350117.833 7  92220879.41846  22521278.514    22521278.3224   22521277.1314
        46.600          38.4004
 120371099.188 6  93795678.92543  22905859.021    22905857.8544   22905856.2534
        39.000          21.5004
 202015850.800 7                  38442343.832
        45.500
 135501121.692 6                  25785009.202
        40.500
 142981965.327 4                  27208563.960
        28.100
 130600182.394 5                  24852390.506
        33.100
 108216405.683 8  84168306.599 7  20301117.683    20301117.565    20301122.797
        50.200          47.600
 113859183.725 5  88557143.205 6  21292234.931                    21292240.825
        34.000          39.600
 139154797.565 6                  26480271.772
        36.400
 115631630.806 5  89935732.300 6  21638890.932    21638885.750    21638883.689
        35.100          39.500
 25  1  1 12  3 30.0000000  0 28E27E10G23G02E29G32G12E33G10G28R19R04
                                R21E26S35R05G25S31G31G21S33E07E30E19
                                R14R20E12R15
 140460877.690 5                  26728833.084
        33.000


 122899421.850 6  95765775.98541  23386993.042    23386993.0164   23386984.5134
        38.600          10.2004
 124540696.920 5  97044690.60943  23699305.174    23699304.0744   23699305.3664
        33.400          19.1004
 123253072.240 7                  23454274.295
        43.500
 109501849.015 7  85326079.93347  20837480.795    20837480.4564   20837482.0144
        46.700          46.7004
 126040923.918 6  98213703.79743  23984788.313    23984788.7104   23984789.2204
        38.600          19.2004
 127276290.315 7                  24219867.334
        46.300
 108719982.690 8  84716911.83648  20688724.575    20688724.0974   20688725.4094
        50.400          50.1004
 109808272.827 7  85564887.49045  20895797.262    20895797.0344   20895794.5734
        47.400          33.8004
 123291497.896 4  95893385.456 5  23048036.465                    23048044.365
        26.500          35.200
 107634296.302 8  83715836.380 7  20099961.083    20099961.729    20099963.782
        52.100          42.600
 124957667.534 6                  23351322.054    23351320.848
        40.900
 137914192.434 6                  26244200.519
        36.000


 110966968.014 7  86307217.020 6  20758560.128    20758559.361    20758565.789
        44.400          40.600
 118748411.085 5  92531240.16643  22597071.494    22597070.3504   22597070.4364
        35.100          18.1004
 198901061.501 7                  37849614.781
        43.900
 118297607.644 7  92179962.41546  22511286.485    22511286.2574   22511286.1674
        45.100          38.2004
 120371703.239 6  93796149.59443  22905972.896    22905971.7034   22905971.4424
        37.400          21.8004
 202015860.643 7                  38442344.700
        45.500
 135529258.530 6                  25790362.876
        41.500
 142975829.717 4                  27207394.765
        28.300
 130577644.405 5                  24848099.063
        34.100
 108207480.967 8  84161365.108 7  20299443.043    20299442.589    20299448.465
        49.200          47.500
 113874199.817 6  88568822.374 6  21295045.685    21295045.021    21295047.913
        36.500          39.800
 139130719.062 5                  26475689.160
        35.200
 115572779.410 6  89889959.053 6  21627856.659    21627859.149    21627868.281
        36.200          37.300
 25  1  1 12  3 45.0000000  0 29E27E10G23G02E29G32G12E33G10G28R19R04
                                R03R21E26S35R05G25S31G31G21S33E07E30
                                E19R14R20E12R15




 122947003.651 6  95802852.60741  23396047.063    23396046.8444   23396042.8364
        39.200          11.9004
 124521272.294 6  97029554.54543  23695609.497    23695608.3484   23695608.9534
        39.600          18.1004
 123255030.702 7                  23454647.167
        44.600
 109506362.864 7  85329597.20647  20838339.445    20838339.0924   20838341.0844
        45.900          45.3004
 126041636.875 6  98214259.34742  23984923.418    23984923.2224   23984924.8544
        36.400          17.5004
 127295511.145 7                  24223525.022
        45.700
 108737422.329 8  84730501.12748  20692043.272    20692042.7854   20692044.3864
        51.100          50.0004
 109779872.788 7  85542757.62545  20890391.914    20890391.6914   20890391.0064
        47.300          34.3004
                  95942327.111 5                                  23059808.341
                        35.900
 107644847.947 8  83724043.173 6  20101932.180    20101932.382    20101931.913
        52.600          40.100
 122595745.694 6                  22901925.439    22901921.737
        36.300
 124922384.029 6                  23344725.950    23344725.473
        38.500
 137960254.587 5                  26252965.938
        35.200


 110940474.753 7  86286611.098 6  20753606.338    20753607.057    20753609.286
        46.100          41.500
 118721989.145 6  92510651.65643  22592045.250    22592044.2184   22592043.8624
        37.900          20.2004
 198901069.221 7                  37849617.970
        44.000
 118245166.289 6  92139099.02545  22501307.702    22501307.4794   22501308.6944
        41.600          34.5004
 120372426.045 6  93796712.77243  22906110.790    22906109.5704   22906109.0784
        38.500          20.0004
 202015869.659 7                  38442347.835
        45.300
 135557400.914 6                  25795717.206
        41.400
 142969794.330 5                  27206248.644
        33.300
 130555134.585 5                  24843815.394
        30.500
 108198757.064 8  84154579.786 7  20297808.181    20297808.341    20297810.658
        50.700          46.400
 113889408.715 6  88580651.532 6  21297890.214    21297890.860    21297892.433
        37.500          40.600
 139106731.949 5                  26471125.162
        32.800
 115514008.795 6  89844248.658 5  21616864.553    21616865.750    21616870.379
        39.800          34.900
 25  1  1 12  4  0.0000000  0 28E27E10G23G02E29G32G12E33G10G28R19R04
                                R03E26S35R05G25S31G31G21S33E07E30E19
                                R14R20E12R15
 140391060.897 5                  26715526.203
        33.500


 122994645.153 6  95839975.72142  23405112.861    23405112.5224   23405108.5904
        40.900          12.7004
 124501967.640 6  97014512.04242  23691934.890    23691933.6074   23691933.9194
        39.300          17.7004
 123257026.335 7                  23455026.554
        45.600
 109510932.742 7  85333158.11147  20839207.852    20839207.4864   20839210.7704
        46.700          44.3004
 126042495.486 5  98214928.40842  23985084.862    23985084.7464   23985087.9254
        33.500          16.4004
 127314837.726 7                  24227203.113
        44.900
 108754975.969 8  84744179.25048  20695383.608    20695383.1354   20695384.4604
        51.300          49.3004
 109751595.437 7  85520723.35345  20885010.421    20885010.2164   20885010.5844
        47.800          34.6004
 123417376.483 4  95991291.064 5  23071579.434                    23071573.896
        24.000          33.300
 107655459.183 8  83732296.327 7  20103912.179    20103912.180    20103915.851
        50.500          42.100
 122633189.657 6                  22908916.920    22908917.528
        39.900
 138006347.601 5                  26261737.908
        30.600


 110914018.855 7  86266034.303 6  20748658.524    20748659.180    20748659.164
        43.500          40.800
 118695686.740 6  92490156.33043  22587037.169    22587036.1014   22587042.2014
        39.300          22.7004
 198901080.375 7                  37849618.850
        43.900
 118192797.649 6  92098292.29944  22491342.498    22491342.1774   22491343.4594
        40.600          29.9004
 120373271.053 6  93797371.23343  22906269.297    22906267.9784   22906270.6164
        37.300          19.1004
 202015881.979 7                  38442350.276
        45.100
 135585552.339 6                  25801073.536
        40.000
 142963862.807 5                  27205119.222
        35.700
 130532656.462 4                  24839537.758
        28.900
 108190237.379 8  84147953.308 7  20296208.216    20296208.900    20296212.656
        49.000          46.500
 113904813.118 5  88592632.759 6  21300769.824    21300767.379    21300774.528
        34.200          41.900
 139082840.069 5                  26466579.260
        34.400
 115455323.060 6  89798604.257 5  21605882.848    21605882.828    21605887.131
        38.900          32.600
 25  1  1 12  4 15.0000000  0 27E27E10G23G02E29G32G12E33G10G28R19R04
                                E26S35R05G25S31G31G21S33E07E30E19R14
                                R20E12R15
 140356214.311 5                  26708899.401
        34.400
 147355632.496 5                  28040843.604
        34.000
 123042338.324 6  95877139.11242  23414188.447    23414187.8484   23414184.8664
        38.000          13.0004
 124482775.218 6  96999556.96443  23688282.926    23688281.6394   23688281.9584
        39.800          18.6004
 123259051.235 7                  23455411.988
        45.800
 109515550.762 7  85336756.52047  20840086.454    20840086.0794   20840089.6954
        44.800          43.8004
 126043492.038 6  98215704.90642  23985276.704    23985276.6514   23985278.0274
        36.700          17.6004
 127334262.111 7                  24230900.166
        45.300
 108772635.807 8  84757940.14948  20698743.679    20698743.2064   20698744.4114
        51.400          48.8004
 109723433.083 7  85498778.68345  20879651.887    20879651.6864   20879651.6494
        46.100          34.2004
 123480350.186 4  96040270.625 5  23083346.762                    23083346.770
        28.600          33.200
 107666121.995 8  83740589.628 7  20105904.029    20105903.845    20105909.439
        50.100          43.100
 138052463.409 4                  26270516.285
        27.300


 110887592.504 6  86245480.405 6  20743707.325    20743707.189    20743715.275
        40.200          40.500
 118669496.416 6  92469748.32743  22582052.388    22582051.2754   22582061.6054
        37.400          22.0004
 198901086.840 7                  37849620.228
        43.500
 118140493.965 6  92057536.26644  22481388.067    22481387.6474   22481386.6674
        37.800          26.5004
 120374230.118 5  93798118.54542  22906453.747    22906452.3434   22906453.5324
        32.500          17.2004
 202015890.055 7                  38442352.221
        45.300
 135613704.947 6                  25806429.310
        36.100
 142958027.411 6                  27204007.196
        36.600
 130510201.882 5                  24835266.876
        30.600
 108181914.344 7  84141479.797 7  20294646.147    20294645.357    20294652.203
        47.800          47.300
 113920405.005 6  88604759.767 6  21303683.395    21303684.062    21303688.684
        36.100          39.400
 139059035.696 5                  26462047.339
        33.400
 115396714.782 7  89753020.045 5  21594916.885    21594915.655    21594917.261
        43.400          30.800
 25  1  1 12  4 30.0000000  0 29E27E10G23G02E29G32G12E33G10G28R19R04
                                R03R21E26S35R05G25S31G31G21S33E07E30
                                E19R14R20E12R15
 140321410.746 6                  26702275.163
        37.400
 147319165.786 6                  28033904.002
        37.600
 123090087.115 5  95914345.96142  23423276.134    23423275.5404   23423271.6054
        33.600          13.2004
 124463699.044 6  96984692.45643  23684652.457    23684651.0944   23684653.1564
        41.400          20.0004
 123261109.418 7                  23455803.805
        46.300
 109520221.003 7  85340395.62547  20840975.641    20840975.2664   20840978.6004
        47.200          44.8004
 126044630.838 5  98216592.29542  23985491.529    23985491.4944   23985495.0084
        35.300          12.4004
 127353788.204 7                  24234615.361
        45.900
 108790405.947 8  84771787.00748  20702124.974    20702124.5144   20702125.8564
        51.000          48.4004
 109695389.928 7  85476926.88645  20874316.899    20874316.7034   20874315.4204
        46.600          34.5004
 123543347.811 5  96089268.703 4  23095126.540                    23095121.295
        32.300          29.100
 107676840.652 8  83748926.407 7  20107905.567    20107906.761    20107910.034
        51.200          43.800
 122708154.443 5                  22922918.804    22922918.701
        30.100
 124817489.216 7                  23325123.299    23325124.326
        42.300
 138098606.009 4                  26279312.213
        29.600


 110861199.985 7  86224952.921 6  20738775.692    20738774.376    20738778.488
        43.200          40.600
 118643422.613 6  92449431.09743  22577093.039    22577091.9264   22577101.1804
        40.600          20.0004
 198901091.787 7                  37849619.669
        43.500
 118088259.844 6  92016834.46044  22471447.301    22471446.9214   22471441.2294
        38.600          24.3004
 120375307.463 6  93798958.06842  22906661.342    22906660.0504   22906658.3724
        36.300          17.9004
 202015896.127 7                  38442352.972
        45.700
 135641862.815 4                  25811788.011
        29.900
 142952292.298 6                  27202917.094
        37.800
 130487775.078 5                  24830998.385
        33.000
 108173791.977 8  84135162.381 7  20293123.322    20293122.935    20293128.234
        49.200          46.800
 113936188.275 5  88617035.645 6  21306634.499    21306635.669    21306639.101
        34.800          38.100
 139035323.125 5                  26457534.692
        30.200
 115338188.573 7  89707499.833 5  21583964.688    21583965.899    21583966.258
        44.600          32.000
 25  1  1 12  4 45.0000000  0 29E27E10G23G02E29G32G12E33G10G28R19R04
                                R03R21E26S35R05G25S31G31G21S33E07E30
                                E19R14R20E12R15
 140286652.551 6                  26695661.488
        40.200
 147282761.792 6                  28026976.407
        38.900


 124444741.584 6  96969920.43943  23681044.095    23681042.6874   23681046.7794
        39.300          19.4004
 123263203.004 7                  23456202.427
        47.300
 109524945.514 8  85344077.02847  20841874.632    20841874.2214   20841877.3514
        49.300          45.6004
 126045913.757 5  98217591.94941  23985734.987    23985735.1344   23985739.6954
        34.400           6.8004
 127373418.061 7                  24238350.226
        45.500
 108808288.565 8  84785721.53047  20705527.651    20705527.1954   20705529.0964
        49.400          47.5004
 109667468.275 8  85455169.77145  20869003.043    20869002.8294   20869001.9524
        48.300          34.8004
 123606370.711 5  96138286.347 4  23106909.565                    23106904.208
        32.300          29.200
 107687617.551 8  83757308.439 7  20109921.402    20109922.005    20109922.421
        51.800          44.300
 122745681.875 6                  22929932.001    22929929.951
        36.200
 124782843.875 6                  23318645.914    23318647.328
        38.100
 138144776.903 4                  26288086.838
        27.300


 110834843.276 7  86204453.259 6  20733843.586    20733843.961    20733849.002
        45.200          41.500
 118617467.829 7  92429206.65243  22572156.027    22572154.8654   22572160.0284
        43.300          20.4004
 198901098.728 7                  37849623.921
        44.100
 118036097.507 6  91976188.54643  22461522.341    22461521.9884   22461514.5844
        41.300          21.8004
 120376505.357 5  93799891.48842  22906888.900    22906887.5994   22906885.7374
        34.500          17.8004
 202015904.420 7                  38442352.405
        44.700
 135670027.984 4                  25817150.152
        28.300
 142946659.623 6                  27201846.266
        38.300
 130465378.188 5                  24826735.361
        35.800
 108165872.688 8  84129002.901 7  20291637.871    20291637.855    20291642.242
        50.800          46.500
 113952164.948 5  88629461.969 6  21309624.124    21309624.103    21309629.477
        35.500          39.900
 139011704.651 4                  26453039.564
        26.000
 115279747.067 7  89662045.336 5  21573031.104    21573031.324    21573030.829
        46.500          33.100
 25  1  1 12  5  0.0000000  0 29E27E10G23G02E29G32G12E33G10G28R19R04
                                R03R21E26S35R05G25S31G31G21S33E07E30
                                E19R14R20E12R15
 140251941.628 6                  26689055.731
        40.300
 147246422.224 6                  28020060.011
        37.800


 124425904.600 6  96955242.28743  23677460.267    23677458.8504   23677462.7514
        39.400          19.3004
 123265333.494 7                  23456607.663
        47.800
 109529725.878 8  85347801.97947  20842784.746    20842784.3444   20842786.4104
        50.400          46.6004
 126047342.855 5  98218705.63441  23986006.919    23986006.9154   23986011.7004
        34.700           6.6004
 127393153.145 7                  24242104.896
        42.800
 108826285.274 8  84799744.95347  20708954.083    20708953.6184   20708953.7294
        49.600          47.5004
 109639669.812 8  85433508.63945  20863712.649    20863712.4264   20863712.2644
        48.500          35.0004
 123669420.275 4  96187324.721 5  23118689.084                    23118693.811
        29.800          30.100
 107698454.417 8  83765737.151 7  20111942.329    20111942.575    20111945.405
        48.900          43.700
 122783241.599 5  95498111.902 5  22936945.326    22936947.245    22936956.161
        33.300          35.800
 124748362.522 6                  23312207.537    23312209.126
        40.300




 110808524.325 7  86183982.956 6  20728920.126    20728919.542    20728924.610
        44.300          41.200
 118591633.922 6  92409076.36543  22567237.955    22567236.7394   22567243.3234
        39.900          18.9004
 198901108.185 7                  37849625.683
        44.200
 117984008.976 7  91935600.13143  22451608.519    22451608.0634   22451606.9134
        42.200          22.4004
 120377825.193 6  93800919.94542  22907140.427    22907139.1584   22907136.3044
        36.500          17.2004
 202015915.445 7                  38442356.572
        45.000
 135698201.961 5                  25822513.885
        31.500
 142941130.856 6                  27200794.449
        38.600
 130443012.771 6                  24822480.553
        36.700
 108158158.339 8  84123002.853 7  20290190.018    20290190.101    20290196.236
        50.200          47.100
 113968336.489 5  88642039.877 6  21312649.803    21312648.892    21312656.121
        33.700          41.400
 138988182.083 4                  26448563.045
        25.600
 115221392.687 7  89616658.627 5  21562106.673    21562110.003    21562109.642
        45.800          33.200
 25  1  1 12  5 15.0000000  0 29E27E10G23G02E29G32G12E33G10G28R19R04
                                R03R21E26S35R05G25S31G31G21S33E07E30
                                E19R14R20E12R15
 140217273.444 6                  26682458.780
        39.100
 147210142.386 6                  28013156.156
        37.200


 124407183.329 6  96940654.27743  23673898.344    23673896.9634   23673900.6974
        41.000          19.9004
 123267496.106 8                  23457019.589
        48.000
 109534557.236 8  85351566.68847  20843704.091    20843703.6944   20843705.3234
        51.300          46.9004
 126048912.815 6  98219928.88842  23986306.867    23986306.9204   23986310.4714
        36.400          13.4004
 127412988.495 6                  24245880.179
        39.500
 108844391.323 8  84813853.57548  20712399.757    20712399.2794   20712398.9674
        51.500          49.3004
 109611989.872 7  85411939.85845  20858445.139    20858444.9114   20858445.6054
        47.400          34.6004
 123732490.605 4  96236379.456 5  23130476.653                    23130486.396
        27.300          32.600
 107709346.112 7  83774208.497 7  20113976.625    20113975.933    20113978.845
        46.300          43.200
 122820828.923 6  95527346.355 5  22943978.169    22943978.081    22943977.333
        37.700          34.800
 124714040.221 6  96999806.287 6  23305793.726    23305794.552    23305797.237
        40.200          36.000




 110782238.367 7  86163538.278 6  20724003.457    20724003.458    20724007.310
        45.100          41.100
 118565916.452 6  92389036.81943  22562344.841    22562343.6394   22562350.2774
        38.300          18.9004
 198901116.013 7                  37849625.406
        43.500
 117931989.760 6  91895065.69443  22441709.949    22441709.4534   22441712.7954
        41.000          22.2004
 120379262.123 6  93802039.68243  22907411.640    22907410.3084   22907408.5234
        38.100          18.1004
 202015924.148 7                  38442357.314
        45.000
 135726380.153 5                  25827875.790
        33.100
 142935701.683 5                  27199760.790
        35.500
 130420673.823 6                  24818229.067
        37.000
 108150643.955 8  84117158.281 7  20288781.217    20288780.824    20288785.435
        51.100          46.200
 113984697.639 4  88654765.331 6  21315704.700    21315703.771    21315715.221
        28.700          40.800
 138964750.715 5                  26444106.897
        30.200
 115163120.961 7  89571336.226 6  21551202.126    21551203.197    21551206.256
        45.900          37.000
 25  1  1 12  5 30.0000000  0 29E27E10G23G02E29G32G12E33G10G28R19R04
                                R03R21E26S35R05G25S31G31G21S33E07E30
                                E19R14R20E12R15
 140182651.401 5                  26675869.170
        33.400
 147173926.095 6                  28006264.786
        37.700


 124388580.863 7  96926158.81243  23670359.203    23670357.8404   23670360.3444
        42.900          20.7004
 123269693.845 7                  23457437.594
        47.500
 109539442.636 8  85355373.50247  20844633.884    20844633.4914   20844634.8934
        50.900          47.0004
 126050627.475 5  98221264.90242  23986632.736    23986632.7444   23986636.3944
        32.700          14.9004
 127432927.102 6                  24249674.924
        39.400
 108862609.827 9  84828049.82548  20715866.419    20715865.9374   20715865.9234
        54.200          51.0004
 109584431.733 7  85390465.99145  20853200.490    20853200.2944   20853201.9884
        46.300          32.8004
 123795584.222 4  96285452.418 5  23142263.135                    23142279.912
        24.000          32.400
 107720296.078 7  83782725.165 7  20116019.172    20116017.761    20116022.993
        43.600          42.000
 122858446.768 6  95556604.539 5  22951000.334    22951006.729    22951003.848
        38.500          33.500
 124679880.759 6  96973237.781 5  23299409.243    23299410.819    23299412.873
        37.700          35.400
 138283464.915 5                  26314468.717
        34.000


 110755988.561 7  86143121.748 6  20719092.702    20719093.831    20719097.920
        46.500          41.600
 118540318.889 6  92369090.68543  22557475.229    22557474.0494   22557482.0264
        40.600          22.0004
 198901124.986 7                  37849629.220
        43.700
 117880043.281 7  91854587.90043  22431825.506    22431825.0594   22431829.0434
        43.000          22.2004
 120380819.116 6  93803252.94842  22907708.014    22907706.7044   22907703.0514
        36.400          17.1004
 202015935.125 7                  38442358.826
        45.600
 135754565.499 6                  25833237.807
        36.600
 142930375.483 5                  27198745.403
        33.900
 130398364.458 6                  24813984.468
        36.800
 108143332.797 8  84111471.739 7  20287409.064    20287408.868    20287413.840
        50.100          46.100
 114001251.440 5  88667640.456 5  21318801.390    21318803.669    21318806.127
        33.000          34.500
 138941413.804 5                  26439664.330
        33.700
 115104935.683 7  89526081.094 6  21540314.362    21540314.644    21540318.222
        47.000          38.700
 25  1  1 12  5 45.0000000  0 29E27E10G23G02E29G32G12E33G10G28R19R04
                                R03R21E26S35R05G25S31G31G21S33E07E30
                                E19R14R20E12R15
 140148071.468 4                  26669287.455
        26.800
 147137769.225 6                  27999384.122
        38.200
 123329802.973 5  96101140.61542  23468880.153    23468879.4564   23468880.0454
        35.800          12.8004
 124370093.143 7  96911752.69843  23666840.787    23666839.4594   23666840.5284
        42.000          20.4004
 123271922.363 7                  23457861.593
        45.900
 109544377.716 8  85359219.05147  20845573.257    20845572.8644   20845574.0104
        51.700          47.0004
 126052482.360 5  98222710.24041  23986987.701    23986987.8084   23986989.0624
        30.200          11.1004
 127452964.553 6                  24253488.789
        39.500
 108880936.549 9  84842330.39748  20719353.535    20719353.0394   20719353.8914
        55.100          52.7004
 109556991.206 7  85369083.75345  20847977.669    20847977.4504   20847980.2554
        43.600          30.2004
 123858696.638 4  96334539.759 5  23154068.397                    23154078.024
        25.600          32.500
 107731300.038 7  83791283.791 7  20118075.216    20118073.782    20118078.307
        44.500          42.600
                  95585883.292 5                                  22958038.082
