     2.11           OBSERVATION DATA    M (MIXED)           RINEX VERSION / TYPE
teqc  2019Feb25                         20260317 16:18:01UTCPGM / RUN BY / DATE
Linux 2.4.21-27.ELsmp|Opteron|gcc -static|Linux 64|=+       COMMENT
BIT 2 OF LLI FLAGS DATA COLLECTED UNDER A/S CONDITION       COMMENT
-Unknown-                                                   MARKER NAME
-Unknown-           -Unknown-                               OBSERVER / AGENCY
-Unknown-           -Unknown-           -Unknown-           REC # / TYPE / VERS
-Unknown-           -Unknown-                               ANT # / TYPE
        0.0000        0.0000        0.0000                  APPROX POSITION XYZ
        0.0000        0.0000        0.0000                  ANTENNA: DELTA H/E/N
     1     1                                                WAVELENGTH FACT L1/2
     7    L1    L2    C1    P1    P2    S1    S2            # / TYPES OF OBSERV
 SNR is mapped to RINEX snr flag value [0-9]                COMMENT
  L1 & L2: min(max(int(snr_dBHz/6), 0), 9)                  COMMENT
  2025     1     1    18     0    0.0000000     GPS         TIME OF FIRST OBS
    18                                                      LEAP SECONDS
                                                            END OF HEADER
 25  1  1 18  0  0.0000000  0 22E31G07G30G08G16G27G04R18R10E09G09E04
                                R07R09E21S35S31E06S33R08R11E19
 129604334.566 6                  24662883.991
        41.000
 117130515.042 7  91270472.80746  22289186.687    22289186.0934   22289187.6804
        43.700          37.7004
 131085068.358 5 102144228.09442  24944658.488    24944658.9084   24944661.2124
        35.100          16.0004
 110771005.568 7  86315110.69247  21079020.083    21079019.4494   21079027.2824
        47.400          47.9004
 114964064.031 6  89582419.98441  21876931.772    21876931.3484   21876936.8914
        39.500           7.9004
 109875768.348 8  85617482.02847  20908660.714    20908660.1154   20908662.9224
        49.400          43.0004
 107621692.305 7  83861051.45345  20479720.764    20479720.5104   20479727.1094
        46.100          33.3004
 122565633.599 5                  22960674.070
        35.800
 107762635.818 6                  20215995.666    20215995.278
        39.200
 134678384.616 7                  25628448.373
        42.900
 106087143.631 8  82665299.84748  20187720.899    20187720.3674   20187723.5294
        49.100          49.7004
 122616137.946 8                  23333060.080
        48.500
 106790243.042 8  83059100.756 7  19949324.216    19949324.260    19949331.601
        48.600          44.300
 106950278.117 8  83183561.396 7  20028343.542    20028344.226    20028346.023
        50.700          46.300
 139249912.021 5                  26498375.416
        35.600


 198903258.572 7                  37850056.095
        42.100
 125779622.869 7                  23935070.499
        45.100
 202043530.654 7                  38447630.144
        45.500
 109410488.896 7  85097057.894 7  20431637.459    20431636.379    20431642.640
        44.500          47.200
                  98331632.742 5                                  23658957.668
                        33.600
 134438444.720 6                  25582786.345
        36.800
 25  1  1 18  0 15.0000000  0 24E31G07G26G30G08G16G27G04R19R18R10E09
                                G09E04R07R09E21S35S31E06S33R08R11E19
 129578574.509 7                  24657981.430
        43.800
 117099345.021 7  91246184.52046  22283255.435    22283254.8504   22283256.0234
        43.800          38.7004


 131042520.235 4 102111073.81941  24936556.877    24936556.9844   24936561.9454
        29.300          10.7004
 110734151.406 8  86286393.29547  21072006.743    21072006.1174   21072013.5244
        48.000          44.5004
 115009102.783 6  89617514.98341  21885502.541    21885501.9114   21885505.5404
        37.600          11.0004
 109870916.729 8  85613701.58947  20907737.199    20907736.6144   20907740.4764
        48.300          43.5004
 107649182.715 7  83882472.52245  20484952.791    20484952.5234   20484957.4234
        43.900          31.7004


 122572706.494 6  95334324.498 5  22961990.772    22961990.869    22962001.822
        40.400          34.200
 107748230.419 6                  20213293.606    20213293.224
        36.900
 134646088.259 6                  25622302.380
        38.900
 106087861.415 8  82665859.14948  20187857.206    20187856.6524   20187860.3294
        49.900          49.6004
 122620668.819 8                  23333922.224
        48.300
 106826944.504 7  83087646.206 7  19956181.182    19956181.976    19956187.971
        47.600          46.400
 106971894.135 8  83200373.882 7  20032391.290    20032392.283    20032392.569
        51.300          45.300
 139286459.474 6                  26505331.399
        37.400


 198903251.155 6                  37850055.317
        40.300
 125762917.895 8                  23931892.226
        48.700
 202043543.184 6                  38447627.054
        41.800
 109386344.029 7  85078278.547 7  20427128.398    20427127.772    20427133.407
        46.000          46.200


 134479601.293 6                  25590618.480
        36.900
 25  1  1 18  0 30.0000000  0 23E31G07G30G08G16G27G04R19R18R10E09G09
                                E04R07R09E21S35S31E06S33R08R11E19
 129552874.904 7                  24653090.599
        42.000
 117068193.988 7  91221911.03446  22277327.052    22277326.4894   22277328.1544
        45.300          38.0004


 110697417.967 8  86257770.01046  21065015.885    21065015.2464   21065021.7664
        49.600          41.9004
 115054195.788 5  89652652.52942  21894086.096    21894085.4394   21894086.0924
        34.800          12.7004
 109866233.645 7  85610052.55747  20906846.232    20906845.6204   20906849.8134
        47.500          45.1004
 107676803.813 6  83903995.39045  20490209.867    20490209.6044   20490212.8634
        40.800          30.2004


 122579967.971 4  95339972.403 5  22963350.948    22963349.531    22963356.983
        28.600          30.600
 107733906.074 6                  20210607.598    20210606.874
        41.100
 134613849.049 7                  25616166.442
        42.600
 106088730.704 8  82666536.50448  20188022.648    20188022.1034   20188025.9894
        50.100          51.1004
 122625297.587 8                  23334803.287
        48.700
 106863819.911 7  83116327.008 7  19963067.803    19963069.169    19963077.074
        47.900          47.100
 106993566.825 8  83217230.411 7  20036448.403    20036450.142    20036452.207
        50.800          44.700
 139323018.428 5                  26512291.758
        31.300


 198903245.341 7                  37850058.559
        42.600
 125746298.327 7                  23928729.715
        47.100
 202043556.803 6                  38447629.259
        41.700
 109362389.311 7  85059647.174 7  20422655.193    20422653.154    20422661.775
        46.300          47.900
                  98265950.976 5                                  23643171.637
                        34.100
 134520804.559 6                  25598459.256
        37.500
 25  1  1 18  0 45.0000000  0 23E31G07G26G30G08G16G27G04R10E09G09E04
                                R07R09E21S35S31E06S33R08R11E19R16
 129527227.804 7                  24648210.820
        45.400
 117037054.001 7  91197646.14246  22271402.025    22271401.4894   22271401.5334
        46.600          39.3004




 110660797.611 8  86229234.77946  21058046.813    21058046.1654   21058050.6994
        50.800          41.7004
 115099334.570 5  89687825.54942  21902671.437    21902670.7004   21902675.2964
        32.300          12.7004
 109861711.231 8  85606528.66047  20905985.969    20905985.3524   20905990.5464
        49.600          45.6004
 107704547.650 7  83925613.90445  20495489.258    20495488.9864   20495493.4154
        43.700          32.6004
 107719654.304 7                  20207936.160    20207936.895
        44.000
 134581659.339 6                  25610041.018
        40.300
 106089743.652 8  82667325.75848  20188215.346    20188214.8014   20188218.7344
        48.900          48.9004
 122630016.387 8                  23335701.307
        48.200
 106900861.035 7  83145136.699 7  19969988.118    19969989.998    19969996.244
        47.500          45.300
 107015288.097 7  83234124.756 7  20040514.919    20040515.482    20040520.284
        46.800          47.600
 139359581.119 5                  26519243.707
        32.500


 198903233.093 7                  37850058.728
        43.900
 125729756.413 8                  23925582.279
        48.800
 202043563.294 6                  38447619.815
        40.700
 109338617.344 7  85041157.843 7  20418218.160    20418215.077    20418220.234
        43.500          45.800


 134562046.321 6                  25606306.605
        36.800
 127055947.890 5                  23785144.377
        31.600
 25  1  1 18  1  0.0000000  0 23E31G07G26G30G08G27G04R18R10E09G09E04
                                R07R09E21S35S31E06S33R08R11E19R16
 129501646.590 7                  24643342.515
        42.900
 117005938.530 7  91173400.34546  22265480.960    22265480.4104   22265479.1774
        44.600          37.8004


 130914808.278 5 102011571.72541  24912258.932    24912258.7134   24912268.8454
        33.800           7.4004
 110624304.081 8  86200798.33647  21051102.764    21051102.0984   21051105.8444
        48.700          42.3004
 109857362.914 8  85603140.40947  20905158.983    20905158.3804   20905163.7934
        49.100          47.3004
 107732427.390 7  83947338.29345  20500794.080    20500793.7724   20500799.2284
        45.200          33.1004
 122595048.159 6                  22966180.882    22966176.294
        37.000
 107705488.297 7                  20205275.439    20205276.186
        43.100
 134549532.668 6                  25603927.157
        41.500
 106090913.729 8  82668237.47048  20188438.032    20188437.4694   20188441.0994
        50.200          48.4004
 122634838.627 8                  23336619.538
        49.300
 106938080.619 7  83174085.205 7  19976938.014    19976940.750    19976949.791
        44.000          46.500
 107037071.252 7  83251067.260 7  20044594.418    20044593.932    20044599.597
        45.800          46.500
 139396160.440 5                  26526206.075
        33.200


 198903227.531 7                  37850056.783
        42.500
 125713305.696 7                  23922450.840
        47.200
 202043577.979 7                  38447633.400
        42.500
 109315041.946 7  85022821.482 7  20413814.882    20413812.971    20413817.420
        44.000          44.400
 126257694.578 4  98200455.617 6  23627403.321                    23627415.366
        28.400          40.000
 134603340.137 5                  25614162.656
        31.600
 127101934.935 4                  23793743.903
        27.200
 25  1  1 18  1 15.0000000  0 23E31G07G26G30G08G16G27G04R18R10E09G09
                                E04R07R09E21S35S31E06S33R08R11E19
 129476124.612 7                  24638485.572
        44.200
 116974841.078 7  91149168.57046  22259564.047    22259563.4894   22259561.2844
        45.600          39.4004




 110587930.996 7  86172455.74547  21044181.240    21044180.5654   21044186.2904
        47.700          45.7004
 115189753.271 6  89758269.24742  21919884.468    21919884.4014   21919884.1214
        38.700          13.0004
 109853182.020 8  85599882.61248  20904363.472    20904362.8694   20904368.2964
        50.400          48.0004
 107760436.147 7  83969163.24945  20506123.808    20506123.5184   20506129.0404
        47.000          34.4004
 122602872.856 4                  22967643.890    22967644.086
        28.100
 107691401.486 7                  20202633.655    20202633.775
        43.200
 134517462.459 7                  25597824.480
        45.000
 106092234.191 8  82669266.38647  20188689.536    20188688.9694   20188691.4834
        50.200          47.8004
 122639757.667 8                  23337555.127
        50.000
 106975471.621 7  83203167.032 7  19983927.958    19983928.081    19983933.965
        43.400          45.800
 107058909.164 7  83268052.206 7  20048683.118    20048682.878    20048689.482
        46.200          47.300
 139432749.419 5                  26533168.274
        35.900


 198903222.455 7                  37850057.418
        43.200
 125696939.557 8                  23919337.086
        49.300
 202043592.617 7                  38447639.150
        44.500
 109291656.423 7  85004632.764 7  20409446.268    20409446.655    20409450.353
        47.900          45.400


 134644678.548 5                  25622031.146
        34.700
 25  1  1 18  1 30.0000000  0 23E31G07G26G30G08G16G27G04R18R10E09G09
                                E04R07R09E21S35S31E06S33R08R11E19
 129450662.044 8                  24633640.124
        48.200
 116943761.928 7  91124951.08846  22253648.875    22253648.2814   22253648.1804
        44.200          38.9004




 110551678.844 8  86144207.43747  21037283.155    21037282.4944   21037289.5554
        48.200          46.3004
 115235055.122 5  89793569.41642  21928504.274    21928503.8454   21928503.6114
        35.300          13.5004
 109849168.800 8  85596755.49847  20903599.339    20903598.7454   20903604.6504
        50.200          47.3004
 107788573.985 7  83991088.74745  20511477.568    20511477.2824   20511483.5264
        46.900          34.2004
                  95364013.059 5                                  22969148.285
                        33.100
 107677393.869 7                  20200006.491    20200006.227
        46.500
 134485449.127 7                  25591732.731
        46.200
 106093705.327 8  82670412.71048  20188969.188    20188968.6254   20188971.3894
        50.400          48.3004
 122644773.733 8                  23338509.574
        49.400
 107013034.101 7  83232382.196 7  19990942.720    19990942.496    19990951.899
        44.900          46.900
 107080802.058 7  83285079.886 8  20052783.904    20052784.273    20052790.921
        45.200          48.900
 139469348.338 5                  26540131.878
        33.400


 198903217.773 7                  37850051.328
        43.200
 125680658.408 8                  23916238.805
        49.100
 202043606.987 7                  38447643.586
        43.100
 109268461.422 7  84986592.165 7  20405114.719    20405114.498    20405118.715
        46.600          44.600
                  98135082.369 6                                  23611683.460
                        39.700
 134686062.031 5                  25629907.174
        30.400
 25  1  1 18  1 45.0000000  0 24E31G07G26G30G08G16G27G04R19R18R10E09
                                G09E04R07R09E21S35S31E06S33R08R11E19
 129425258.560 7                  24628805.726
        47.100
 116912700.683 7  91100747.51146  22247737.663    22247737.0874   22247738.1134
        44.900          40.1004


 130787057.800 5 101912016.73242  24887947.583    24887947.4584   24887954.7504
        35.300          15.7004
 110515547.703 7  86116053.39247  21030407.010    21030406.3534   21030414.9724
        46.300          46.5004
 115280408.220 5  89828909.55042  21937135.015    21937134.6354   21937134.6394
        33.300          12.2004
 109845323.020 7  85593758.85847  20902866.739    20902866.1494   20902872.2974
        47.400          44.7004
 107816840.334 7  84013114.43145  20516857.057    20516856.7944   20516862.6514
        46.600          34.0004
 121240490.164 5  94298216.517 5  22664630.957                    22664645.027
        34.400          31.600
 122619086.335 5  95370391.050 5  22970671.349                    22970687.753
        33.900          31.900
 107663464.759 7                  20197391.921    20197391.468
        45.100
 134453492.602 7                  25585651.765
        45.900
 106095326.757 8  82671676.18348  20189277.777    20189277.2234   20189280.4274
        49.600          48.2004
 122649886.458 8                  23339482.621
        48.900
 107050766.942 7  83261729.896 7  19997990.580    19997991.920    19997999.248
        46.000          45.900
 107102749.727 8  83302150.296 8  20056895.276    20056895.429    20056900.969
        48.300          48.900
 139505956.704 5                  26547100.284
        30.900


 198903212.944 6                  37850041.839
        39.700
 125664462.035 8                  23913156.948
        50.100
 202043622.010 7                  38447645.258
        45.500
 109245456.832 7  84968699.752 7  20400819.686    20400817.546    20400823.784
        44.900          46.300
 126131759.141 6  98102439.596 6  23603837.017                    23603829.502
        37.400          39.400
 134727490.003 6                  25637792.276
        36.400
 25  1  1 18  2  0.0000000  0 25E31G07G26G30G08G16G27G04R19R18R06R10
                                E09G09E04R07R09E21S35S31E06S33R08R11
                                E19
 129399914.457 8                  24623983.251
        48.300
 116881657.921 7  91076558.35846  22241829.550    22241829.0054   22241830.7734
        44.600          39.4004


 130744458.587 5 101878822.65242  24879842.579    24879842.5034   24879848.0074
        33.900          17.4004
 110479538.129 7  86087994.06947  21023554.763    21023554.1244   21023562.9844
        46.600          46.7004
 115325812.940 5  89864289.82842  21945775.454    21945775.3164   21945775.9474
        34.400          17.4004
 109841644.968 8  85590892.95847  20902167.811    20902167.2124   20902171.5314
        48.400          43.1004
 107845235.353 7  84035240.33645  20522260.532    20522260.2824   20522266.3214
        47.200          33.5004
 121207755.811 5                  22658507.433    22658509.935
        30.700
 122627474.201 5  95376914.848 6  22972250.085    22972252.424    22972269.021
        34.500          36.300
 124068847.247 5                  23250449.599
        30.700
 107649614.729 7                  20194795.283    20194794.291
        46.100
 134421593.462 7                  25579582.055
        46.000
 106097098.910 8  82673057.06948  20189614.800    20189614.2504   20189618.0534
        49.900          48.3004
 122655096.246 8                  23340474.092
        49.100
 107088670.337 7  83291210.212 7  20005070.221    20005071.232    20005081.064
        43.600          46.400
 107124752.119 8  83319263.289 8  20061015.154    20061015.850    20061021.269
        48.800          48.100




 198903208.743 7                  37850047.876
        42.600
 125648350.901 8                  23910090.915
        50.700
 202043637.461 7                  38447653.661
        45.400
 109222643.288 7  84950955.882 7  20396559.483    20396556.823    20396563.522
        45.100          47.300
 126089826.875 5  98069826.213 6  23595968.338    23595967.677    23595982.345
        35.000          37.800
 134768962.794 5                  25645683.351
        35.700
 25  1  1 18  2 15.0000000  0 24E31G07G26G30G08G16G27G04R19R06R10E09
                                G09E04R07R09E21S35S31E06S33R08R11E19
 129374623.749 8                  24619171.095
        50.300
 116850627.649 7  91052378.91746  22235926.269    22235925.7734   22235925.8934
        45.100          39.5004


 130701846.388 5 101845618.41443  24871730.878    24871730.6244   24871738.8404
        31.600          20.5004
 110443644.402 7  86060025.04147  21016723.126    21016722.4874   21016732.0444
        44.500          43.5004
 115371263.080 4  89899705.54041  21954419.941    21954419.7004   21954425.1294
        25.200          11.9004
 109838128.716 7  85588153.10747  20901498.441    20901497.8424   20901501.8874
        46.700          44.4004
 107873752.897 8  84057461.71945  20527687.508    20527687.2634   20527692.9844
        48.300          33.5004
 121175158.824 5  94247402.922 5  22652416.586    22652417.108    22652429.064
        32.200          30.900
 124137019.507 5                  23263213.815
        30.500
 107635837.438 7                  20192209.859    20192209.904
        46.000
 134389745.696 7                  25573520.930
        45.500
 106099015.787 8  82674550.67048  20189979.366    20189978.8164   20189983.2144
        50.900          49.5004
 122660397.096 7                  23341482.594
        47.700
 107126737.744 7  83320818.165 7  20012183.940    20012182.672    20012192.353
        45.100          46.300
 107146802.872 8  83336413.880 7  20065144.340    20065146.109    20065151.175
        49.800          47.500
 139579187.068 4                  26561034.756
        29.000


 198903198.956 6                  37850050.040
        41.200
 125632319.085 8                  23907039.643
        48.500
 202043646.565 7                  38447648.755
        43.000
 109200015.034 7  84933356.102 7  20392331.617    20392331.654    20392337.794
        44.900          47.500
 126047814.163 5  98037237.235 5  23588127.917    23588128.847    23588142.066
        32.900          30.400
 134810474.141 5                  25653581.045
        34.200
 25  1  1 18  2 30.0000000  0 22E31G07G26G30G08G27G04R19R10E09G09E04
                                R07R09E21S35S31E06S33R08R11E19
 129349394.854 7                  24614369.518
        47.800
 116819618.502 7  91028215.94546  22230024.585    22230024.0984   22230024.8004
        45.200          40.4004


 130659229.357 5 101812410.33743  24863623.446    24863623.3174   24863627.9074
        34.300          21.8004
 110407875.511 7  86032153.26047  21009918.006    21009917.3764   21009924.0974
        46.000          42.9004
 109834782.872 8  85585546.06347  20900862.398    20900861.8174   20900865.6874
        48.100          44.3004
 107902401.264 7  84079785.10945  20533139.410    20533139.1564   20533143.5834
        46.000          30.4004
 121142708.985 5  94222164.751 5  22646347.270    22646344.461    22646366.845
        30.500          35.900
 107622141.514 7                  20189641.388    20189641.131
        46.700
 134357958.081 7                  25567472.362
        45.900
 106101085.844 8  82676163.73748  20190373.070    20190372.5344   20190377.4914
        50.000          48.9004
 122665797.562 8                  23342510.453
        48.400
 107164977.117 7  83350559.828 7  20019328.061    20019329.108    20019336.503
        46.700          47.300
 107168910.291 8  83353608.534 7  20069283.706    20069284.157    20069289.760
        49.200          46.800
 139615820.350 5                  26568008.580
        31.600


 198903191.739 7                  37850045.810
        42.700
 125616375.241 8                  23904006.248
        50.200
 202043659.951 7                  38447650.419
        43.600
 109177580.786 7  84915907.299 8  20388143.959    20388142.982    20388149.574
        46.600          48.600
 126005953.041 4  98004679.673 5  23580305.551                    23580305.919
        28.000          35.400
 134852032.147 5                  25661491.053
        33.700
 25  1  1 18  2 45.0000000  0 23E31G07G30G08G16G27G04R19R18R10E09G09
                                E04R07R09E21S35S31E06S33R08R11E19
 129324227.083 8                  24609580.936
        48.500
 116788629.739 7  91004068.92546  22224129.005    22224128.5274   22224127.6914
        46.500          40.6004


 110372230.901 7  86004378.31047  21003133.529    21003132.8864   21003140.3864
        46.100          42.0004
 115462324.064 5  89970672.09741  21971751.719    21971751.2284   21971756.4944
        34.500          11.5004
 109831606.642 8  85583071.13647  20900257.251    20900256.6704   20900261.5264
        48.500          44.5004
 107931179.473 7  84102209.55744  20538615.573    20538615.3194   20538617.1984
        46.100          26.7004
 121110405.549 4  94197040.270 6  22640306.911    22640308.616    22640327.852
        29.600          37.400
 122653676.619 5                  22977180.355    22977184.235
        35.600
 107608526.209 7                  20187088.001    20187087.835
        46.800
 134326230.186 7                  25561435.677
        42.600
 106103308.496 8  82677895.65548  20190796.128    20190795.6054   20190800.7124
        48.600          48.8004
 122671296.870 7                  23343556.996
        47.600
 107203387.608 8  83380434.565 7  20026503.439    20026504.568    20026512.062
        49.000          47.300
 107191073.811 8  83370846.894 7  20073436.438    20073436.828    20073439.551
        52.300          46.200




 198903187.015 7                  37850041.182
        42.300
 125600518.859 8                  23900988.992
        49.200
 202043673.859 6                  38447651.125
        41.400
 109155340.381 8  84898609.183 7  20383991.131    20383991.027    20383995.204
        48.100          46.600
                  97972152.951 5                                  23572481.558
                        34.400
 134893636.049 5                  25669406.195
        32.400
 25  1  1 18  3  0.0000000  0 20E31G07G30G08G27G04R19R10E09G09E04R07
                                R09S35S31E06S33R08R11E19
 129299115.309 7                  24604801.759
        47.900
 116757656.452 7  90979933.92646  22218233.377    22218232.8684   22218233.2704
        47.500          40.2004


 110336705.721 7  85976696.47146  20996373.170    20996372.5044   20996379.2974
        46.700          41.5004
 109828594.873 7  85580724.36447  20899682.834    20899682.2674   20899689.3654
        47.200          45.3004
 107960082.307 7  84124731.17744  20544115.874    20544115.6244   20544115.6754
        45.800          26.7004
 121078243.492 4  94172025.670 5  22634295.242    22634292.056    22634314.249
        28.300          32.100
 107594985.782 7                  20184545.790    20184544.675
        43.500
 134294556.999 7                  25555407.856
        44.000
 106105678.532 7  82679742.42348  20191247.112    20191246.5984   20191251.5644
        47.500          48.6004
 122676889.983 8                  23344621.620
        48.900
 107241963.433 8  83410437.903 7  20033710.262    20033711.652    20033718.306
        48.800          46.700
 107213287.850 8  83388124.583 7  20077594.659    20077595.705    20077598.634
        51.800          45.900


 198903178.711 6                  37850035.221
        41.700
 125584744.878 8                  23897987.553
        50.300
 202043685.363 7                  38447659.044
        43.100
 109133288.660 7  84881457.853 8  20379874.500    20379875.162    20379877.864
        47.900          48.600
 125922357.096 6                  23564653.357    23564653.432
        40.300
 134935280.654 5                  25677331.651
        35.000
 25  1  1 18  3 15.0000000  0 22E31G07G30G08G16G27G04R19R18R10E09G09
                                E04R07R09S35S31E06S33R08R11E19
 129274063.511 7                  24600034.119
        47.000
 116726702.708 7  90955814.16246  22212343.497    22212343.0104   22212342.7164
        46.500          40.1004


 110301304.346 7  85949111.08047  20989636.967    20989636.2884   20989641.9484
        46.100          43.3004
 115553584.152 5  90041780.42841  21989114.345    21989113.8274   21989122.5774
        34.000          11.3004
 109825751.744 7  85578508.96647  20899142.014    20899141.4294   20899149.2824
        46.100          43.6004
 107989113.489 7  84147352.80744  20549640.880    20549640.6304   20549640.2494
        45.400          27.7004
 121046228.167 4  94147125.283 5  22628311.769    22628309.813    22628332.505
        29.200          30.100
 122672131.752 6                  22980629.287    22980627.429
        40.500
 107581524.430 7                  20182021.837    20182020.413
        42.900
 134262942.705 7                  25549390.785
        42.600
 106108200.016 7  82681707.20047  20191727.385    20191726.8764   20191731.0474
        47.300          47.2004
 122682580.856 8                  23345704.597
        49.400
 107280708.037 7  83440572.464 7  20040946.829    20040947.511    20040955.381
        47.900          46.700
 107235556.415 8  83405444.675 7  20081763.520    20081764.174    20081770.000
        49.500          47.400


 198903171.953 7                  37850037.980
        42.800
 125569057.474 8                  23895002.782
        51.300
 202043697.906 7                  38447660.462
        46.000
 109111429.936 8  84864456.567 8  20375791.292    20375792.902    20375796.314
        48.200          48.800
                  97907193.381 5                                  23556853.461
                        30.900
 134976969.706 5                  25685265.266
        32.400
 25  1  1 18  3 30.0000000  0 21E31G07G30G08G27G04R19R18R10E09G09E04
                                R07R09S35S31E06S33R08R11E19
 129249069.005 7                  24595277.398
        45.300
 116695765.959 7  90931707.62846  22206456.312    22206455.8304   22206456.6444
        47.200          40.6004


 110266024.349 8  85921620.28047  20982924.089    20982923.4194   20982928.7464
        48.300          45.9004
 109823074.512 6  85576422.87446  20898634.352    20898633.7804   20898638.4934
        41.900          38.8004
 108018270.196 7  84170072.24945  20555189.403    20555189.1264   20555191.5534
        46.900          31.2004
 121014356.475 4                  22622361.329    22622353.830
        26.500
 122681638.781 6                  22982407.616    22982409.541
        37.800
 107568139.524 7                  20179509.046    20179509.302
        42.600
 134231384.766 7                  25543386.297
        44.600
 106110870.256 7  82683787.86447  20192235.461    20192234.9614   20192238.8314
        46.800          47.4004
 122688366.912 8                  23346805.070
        48.200
 107319618.422 7  83470836.064 7  20048217.414    20048215.029    20048224.415
        46.100          46.900
 107257876.299 8  83422804.606 7  20085945.545    20085946.166    20085950.203
        50.800          46.200


 198903163.148 7                  37850044.987
        42.600
 125553454.097 8                  23892033.197
        49.900
 202043708.389 7                  38447663.436
        46.100
 109089761.771 7  84847603.565 7  20371743.942    20371743.624    20371749.156
        45.400          47.400
 125838896.368 6                  23549039.932    23549039.680
        38.000
 135018700.377 5                  25693207.625
        33.000
 25  1  1 18  3 45.0000000  0 21E31G07G26G30G08G16G27G04R10E09G09E04
                                R07R09S35S31E06S33R08R11E19
 129224141.245 7                  24590534.674
        47.500
 116664855.656 7  90907621.67246  22200574.820    22200574.3244   22200575.0294
        46.700          41.4004


 130446030.233 5 101646253.92942  24823051.172    24823051.0524   24823052.7664
        33.500          16.4004
 110230875.610 7  85894231.74847  20976234.679    20976233.9914   20976241.1354
        47.200          46.2004
 115645039.349 5  90113040.28541  22006517.740    22006517.4454   22006524.6074
        35.000          10.6004
 109820572.703 7  85574473.45046  20898157.460    20898156.8844   20898160.2804
        43.300          38.0004
 108047561.696 7  84192896.70245  20560762.863    20560762.5774   20560767.9754
        46.800          33.5004
 107554840.362 7                  20177015.770    20177015.040
        43.600
 134199892.958 7                  25537392.589
        43.800
 106113698.806 8  82685991.92447  20192773.379    20192772.8654   20192776.9954
        49.700          47.6004
 122694257.634 8                  23347926.464
        48.200
 107358703.964 8  83501235.800 7  20055517.140    20055516.684    20055526.324
        48.200          47.100
 107280257.123 8  83440211.930 7  20090136.195    20090137.180    20090142.291
        50.700          47.900


 198903162.057 7                  37850036.733
        42.000
 125537944.340 8                  23889081.518
        49.500
 202043726.980 7                  38447667.939
        45.100
 109068294.201 7  84830906.556 7  20367735.637    20367735.275    20367739.810
        44.900          46.700
 125797229.140 6                  23541248.025    23541250.104
        38.100
 135060482.133 5                  25701159.327
        35.200
 25  1  1 18  4  0.0000000  0 22E31G07G26G30G08G16G27G04R18R10E09G09
                                E04R07R09S35S31E06S33R08R11E19
 129199267.111 7                  24585801.014
        47.100
 116633958.662 8  90883546.08247  22194695.099    22194694.6034   22194696.0174
        49.700          44.5004


 130403370.179 5 101613012.40642  24814934.729    24814934.2204   24814933.9684
        33.600          16.7004
 110195845.211 7  85866935.41747  20969569.045    20969568.4024   20969576.0974
        46.600          46.9004
 115690838.310 5  90148705.80941  22015234.139    22015233.9034   22015235.6684
        33.200           9.9004
 109818233.181 7  85572650.47346  20897712.134    20897711.5444   20897714.0394
        44.300          36.7004
 108076974.643 8  84215815.81946  20566359.864    20566359.6104   20566366.0984
        48.500          36.1004
 122701224.158 6                  22986078.625    22986076.580
        36.300
 107541613.168 7                  20174534.528    20174534.309
        43.600
 134168454.244 7                  25531410.337
        45.500
 106116672.494 8  82688309.05547  20193339.046    20193338.5414   20193343.2234
        48.400          47.4004
 122700239.805 7                  23349064.933
        47.700
 107397950.503 8  83531760.822 7  20062851.139    20062850.842    20062857.795
        48.200          46.700
 107302685.314 8  83457656.163 8  20094334.693    20094335.582    20094341.475
        49.900          48.400


 198903155.620 7                  37850036.214
        43.100
 125522515.178 7                  23886145.431
        46.700
 202043740.045 7                  38447672.826
        45.100
 109047014.086 7  84814355.313 7  20363762.988    20363763.276    20363766.393
        46.200          47.300


 135102301.432 5                  25709115.111
        33.100
 25  1  1 18  4 15.0000000  0 21E31G07G26G30G08G16G27G04R10E09G09E04
                                R07R09S35S31E06S33R08R11E19
 129174449.878 8                  24581078.342
        48.300
 116603078.568 8  90859483.66847  22188818.504    22188818.0044   22188819.6744
        49.700          46.2004


 130360700.991 5 101579763.77142  24806816.135    24806815.7914   24806813.1354
        32.700          16.5004
 110160936.776 7  85839734.12448  20962925.287    20962924.6394   20962934.0604
        47.600          48.8004
 115736683.711 6  90184429.60041  22023957.348    22023957.3884   22023962.9784
        37.500          10.5004
 109816059.268 7  85570956.53646  20897298.825    20897298.2084   20897298.1874
        45.500          36.3004
 108106512.189 8  84238831.98945  20571980.140    20571979.8954   20571987.3394
        48.600          35.7004
 107528461.775 7                  20172066.138    20172065.504
        43.700
 134137072.150 7                  25525438.318
        45.000
 106119794.634 8  82690741.84447  20193933.189    20193932.6804   20193937.8554
        48.400          47.7004
 122706316.811 7                  23350221.038
        47.400
 107437361.472 8  83562413.676 7  20070211.748    20070212.564    20070220.550
        48.000          47.200
 107325164.282 8  83475139.879 8  20098545.707    20098545.883    20098550.623
        51.100          48.000


 198903147.246 7                  37850035.619
        42.100
 125507170.062 7                  23883225.201
        47.300
 202043751.257 7                  38447666.020
        45.700
 109025925.155 7  84797952.848 7  20359820.431    20359822.914    20359827.444
        47.300          46.300
 125713914.542 6                  23525653.974    23525651.940
        38.000
 135144161.625 5                  25717080.927
        32.700
 25  1  1 18  4 30.0000000  0 22E31G07G30G08G16G27G04R19R18R10E09G09
                                E04R07R09S35S31E06S33R08R11E19
 129149694.988 8                  24576367.311
        48.400
 116572220.817 8  90835438.68147  22182946.649    22182946.1714   22182947.2624
        51.400          46.4004
 130318028.086 6 101546512.22943  24798696.163    24798695.8154   24798693.8224
        36.400          19.0004
 110126156.062 7  85812632.33047  20956305.717    20956305.0474   20956315.5854
        44.000          45.8004
 115782580.006 4  90220192.8704   22032690.121    22032690.1524   22032696.9114
        27.300           5.9004
 109814056.481 7  85569395.92146  20896917.535    20896916.9014   20896918.2694
        45.500          40.6004
 108136179.544 8  84261949.29445  20577626.043    20577625.7894   20577631.8284
        48.100          33.6004
                  94024316.818 5                                  22598809.512
                        32.600
 122721599.178 5                  22989891.545    22989892.958
        32.000
 107515391.024 6                  20169614.571    20169613.091
        41.700
 134105752.268 7                  25519478.167
        46.000
 106123070.647 7  82693294.56247  20194557.014    20194556.5094   20194561.6114
        47.800          46.8004
 122712494.116 8                  23351396.561
        48.200
 107476941.370 7  83593197.975 7  20077604.629    20077604.451    20077613.765
        46.800          46.600
 107347699.258 8  83492667.093 7  20102765.728    20102766.397    20102769.889
        52.400          46.600


 198903141.925 6                  37850026.309
        39.800
 125491914.592 7                  23880322.121
        46.700
 202043764.950 7                  38447669.079
        45.100
 109005033.099 7  84781703.472 7  20355918.828    20355920.158    20355926.329
        46.500          46.600
 125672354.985 7                  23517877.810    23517877.474
        43.500
 135186067.707 6                  25725057.893
        36.800
 25  1  1 18  4 45.0000000  0 21E31G07G30G08G27G04R19R18R10E09G09E04
                                R07R09S35S31E06S33R08R11E19
 129125000.209 7                  24571667.938
        47.500
 116541383.159 8  90811409.37047  22177078.255    22177077.7864   22177078.8844
        51.100          46.6004
 130275349.282 5 101513256.08243  24790572.215    24790571.8004   24790573.5744
        34.100          20.1004
 110091501.203 7  85785628.64647  20949712.564    20949711.8984   20949720.6304
        47.800          46.3004
 109812222.475 7  85567966.82846  20896568.653    20896568.0144   20896571.1554
        44.400          40.8004
 108165974.362 7  84285166.05145  20583295.427    20583295.1954   20583302.1544
        47.300          33.4004
                  94000104.198 5                                  22592989.977
                        34.300
                                                  22991853.988

 107502399.088 7                  20167178.679    20167177.739
        43.300
 134074492.549 7                  25513529.536
        45.300
 106126498.385 7  82695965.50547  20195209.330    20195208.8254   20195214.0434
        46.500          46.0004
 122718769.524 8                  23352590.734
        48.400
 107516688.099 7  83624112.048 7  20085030.232    20085028.096    20085039.820
        43.300          46.300
 107370287.512 8  83510235.751 7  20106995.264    20106995.515    20107000.120
        52.200          47.300


 198903137.595 6                  37850037.886
        39.800
 125476746.664 7                  23877436.038
        44.900
 202043780.086 7                  38447677.096
        43.800
 108984335.739 7  84765605.535 7  20352055.238    20352056.063    20352061.421
        46.800          47.100
 125630833.718 6  97713034.447 6  23510103.842    23510103.371    23510119.072
        40.800          36.900
 135228017.459 6                  25733038.946
        36.800
 25  1  1 18  5  0.0000000  0 20E31G07G30G08G27G04R19R10E09G09E04R07
                                R09S35S31E06S33R08R11E19
 129100364.776 7                  24566979.935
        46.000
 116510564.770 8  90787395.05347  22171214.071    22171213.5984   22171214.5654
        50.400          47.2004
 130232663.771 6 101479994.65744  24782450.897    24782450.5444   24782453.7164
        38.200          26.3004
 110056971.688 7  85758722.65147  20943140.637    20943139.9584   20943149.0044
        46.100          44.1004
 109810556.704 7  85566668.87547  20896251.727    20896251.0934   20896255.0164
        47.400          44.4004
 108195895.639 7  84308481.31945  20588989.539    20588989.3034   20588996.5104
        47.800          34.8004
                  93976007.053 5                                  22587197.178
                        32.300
 107489484.735 7                  20164755.789    20164754.472
        43.900
 134043292.479 7                  25507592.481
        45.500
 106130077.104 8  82698754.09547  20195890.814    20195890.3184   20195894.9774
        49.400          47.7004
 122725142.305 8                  23353803.005
        48.600
 107556600.145 7  83655154.610 7  20092486.186    20092487.411    20092494.891
        47.900          46.100
 107392928.517 8  83527845.461 8  20111236.436    20111237.140    20111241.325
        52.500          48.200


 198903133.494 6                  37850027.946
        41.500
 125461665.707 7                  23874566.444
        45.700
 202043795.786 7                  38447673.224
        44.700
 108963832.619 7  84749658.726 7  20348226.142    20348225.645    20348233.426
        45.500          47.300
 125589350.265 6  97680769.928 5  23502343.331    23502341.908    23502356.925
        40.500          35.000
 135270009.988 5                  25741028.997
        35.400
 25  1  1 18  5 15.0000000  0 20E31G07G30G08G27G04R19R10E09G09E04R07
                                R09S35S31E06S33R08R11E19
 129075789.383 7                  24562303.338
        46.600
 116479766.976 8  90763396.77847  22165353.348    22165352.8664   22165353.9944
        48.600          45.7004
 130189972.546 6 101446728.77244  24774326.880    24774326.4914   24774332.6594
        37.700          28.4004
 110022568.653 7  85731915.20747  20936593.657    20936592.9554   20936601.6374
        45.700          44.4004
 109809059.802 8  85565502.49347  20895965.578    20895964.9354   20895971.0594
        48.400          46.0004
 108225943.968 8  84331895.61145  20594708.266    20594708.0254   20594714.9384
        48.700          34.5004
                  93952026.773 5                                  22581434.674
                        33.100
 107476648.615 7                  20162346.812    20162346.325
        43.600
 134012153.031 7                  25501666.808
        45.400
 106133807.541 8  82701660.93247  20196600.718    20196600.2494   20196604.0694
        48.500          47.8004
 122731613.201 8                  23355035.495
        50.000
 107596677.939 7  83686326.169 7  20099971.768    20099972.147    20099981.617
        47.500          45.700
 107415622.740 8  83545496.577 7  20115484.973    20115486.125    20115491.351
        51.500          47.500


 198903130.502 7                  37850034.264
        42.500
 125446672.537 7                  23871712.620
        46.600
 202043812.058 7                  38447683.531
        45.500
 108943525.003 7  84733863.877 7  20344436.266    20344434.666    20344440.743
        47.000          46.400
                                                  23494589.582

 135312045.921 6                  25749029.497
        36.500
 25  1  1 18  5 30.0000000  0 24G20E31G07G26G30G08G16G27G04R19R10E09
                                G09E04R07R09E21S35S31E06S33R08R11E19
 132817223.556 5                  25274276.615
        32.900
 129051268.673 7                  24557637.097
        47.100
 116448984.127 7  90739410.16547  22159495.284    22159494.7754   22159494.9974
        47.900          43.2004


 130147270.204 5 101413454.16844  24766202.029    24766201.5824   24766208.3384
        35.400          29.1004
 109988286.919 7  85705202.27147  20930069.771    20930069.0784   20930077.1554
        47.400          43.1004
 115966653.708 6                  22067717.683
        36.300
 109807726.443 8  85564463.52447  20895712.934    20895712.2914   20895717.2994
        48.200          46.7004
 108256113.731 8  84355404.44745  20600449.360    20600449.1064   20600455.3034
        48.100          32.8004
                  93928158.768 5                                  22575699.894
                        34.400
 107463885.229 7                  20159952.859    20159952.728
        44.300
 133981069.002 7                  25495752.268
        45.200
 106137684.285 8  82704681.74447  20197338.375    20197337.9154   20197341.0024
        48.200          46.3004
 122738176.870 8                  23356284.264
        49.800
 107636915.420 7  83717621.875 7  20107488.646    20107490.206    20107499.349
        47.900          45.700
 107438364.574 8  83563184.701 7  20119743.940    20119744.844    20119750.389
        50.700          47.600
 140056124.552 5                  26651790.879
        31.900


 198903122.880 7                  37850022.101
        42.000
 125431761.952 7                  23868874.882
        47.600
 202043824.167 7                  38447684.135
        45.300
 108923407.465 8  84718216.870 7  20340680.899    20340679.325    20340684.146
        48.500          46.200
 125506493.223 7  97616326.469 5  23486839.749    23486842.308    23486852.661
        42.600          32.700
 135354119.626 5                  25757036.909
        35.100
 25  1  1 18  5 45.0000000  0 24G20E31G07G26G30G08G16G27G04R19R10E09
                                G09E04R07R09E21S35S31E06S33R08R11E19
 132814659.673 5                  25273787.680
        32.400
 129026809.002 7                  24552982.429
        47.000
 116418222.968 7  90715440.43947  22153640.918    22153640.4044   22153640.0164
        47.800          42.3004


 130104563.092 6 101380175.87744  24758076.214    24758075.7764   24758082.5994
        37.100          29.4004
 109954133.164 7  85678589.04447  20923570.610    20923569.9134   20923577.0884
        46.700          42.8004
 116012785.481 6  90399599.50741  22076496.754    22076496.8034   22076502.5094
        39.900           8.7004
 109806563.008 8  85563556.96847  20895491.679    20895491.0584   20895495.6324
        48.000          47.1004
 108286411.094 8  84379012.65745  20606215.259    20606215.0094   20606218.2764
        48.400          30.7004
                  93904408.931 5                                  22569991.564
                        33.200
 107451201.335 7                  20157571.749    20157571.830
        43.500
 133950046.886 7                  25489849.368
        46.300
 106141713.756 7  82707821.55847  20198105.262    20198104.8064   20198107.4744
        47.600          45.3004
 122744839.693 8                  23357551.933
        49.100
 107677318.624 8  83749046.475 7  20115039.670    20115039.955    20115047.654
        49.300          46.200
 107461160.142 8  83580914.562 7  20124011.795    20124013.169    20124019.353
        50.000          47.600
 140092864.283 4                  26658783.305
        29.300


 198903117.738 7                  37850028.509
        43.900
 125416940.396 8                  23866054.823
        49.200
 202043838.123 7                  38447688.003
        46.100
 108903486.851 8  84702723.036 7  20336959.190    20336960.004    20336963.385
        50.600          45.600
 125465120.572 6  97584148.015 5  23479101.455    23479101.719    23479105.440
        37.800          32.400
 135396237.267 5                  25765051.891
        34.200
 25  1  1 18  6  0.0000000  0 22G20E31G07G30G08G16G27G04R10E09G09E04
                                R07R09E21S35S31E06S33R08R11E19
 132812215.687 5                  25273329.808
        32.800
 129002405.933 7                  24548339.270
        47.400
 116387478.976 8  90691484.09647  22147790.631    22147790.1174   22147789.5824
        48.200          42.9004
 130061846.832 6 101346890.48544  24749945.767    24749945.2314   24749953.1804
        37.700          28.3004
 109920103.283 7  85652072.35947  20917095.822    20917095.1034   20917101.6294
        44.400          43.3004
 116058961.036 6  90435580.35841  22085281.614    22085281.7484   22085284.6914
        37.100           8.5004
 109805565.000 8  85562779.32148  20895301.630    20895301.0044   20895305.3464
        49.200          48.0004
 108316831.448 7  84402716.70945  20612003.498    20612003.2484   20612005.5754
        46.700          30.3004
 107438591.848 7                  20155207.285    20155206.829
        44.400
 133919082.455 7                  25483956.932
        45.800
 106145891.455 7  82711076.90047  20198900.157    20198899.6574   20198902.6584
        47.500          46.0004
 122751597.216 7                  23358837.656
        47.600
 107717882.790 8  83780596.298 7  20122616.227    20122616.824    20122623.745
        50.100          46.000
 107484005.017 8  83598682.778 7  20128291.176    20128291.009    20128296.925
        50.600          46.800
 140129608.518 4                  26665772.851
        24.700


 198903109.861 7                  37850025.925
        43.100
 125402203.568 8                  23863250.572
        49.600
 202043850.062 7                  38447689.478
        46.100
 108883758.701 8  84687378.949 7  20333275.192    20333274.998    20333278.348
        49.400          43.100
                  97551996.638 5                                  23471368.863
                        32.800
 135438394.231 4                  25773073.247
        27.400
 25  1  1 18  6 15.0000000  0 24G20E31G07G26G30G08G16G27G04R18R10E09
                                G09E04R07R09E21S35S31E06S33R08R11E19
 132809896.699 4                  25272886.804
        25.200
 128978064.713 8                  24543707.621
        48.000
 116356757.571 8  90667545.38447  22141944.852    22141944.3474   22141944.1604
        49.500          44.5004
 130762169.239 4                  24883211.421
        29.900
 130019126.776 6 101313602.17644  24741815.330    24741814.7454   24741822.2014
        39.000          26.9004
 109886202.925 7  85625656.60647  20910644.808    20910644.0844   20910651.5594
        45.100          43.7004
 116105185.268 5  90471599.16241  22094077.378    22094076.9894   22094080.0154
        33.600           6.0004
 109804737.882 8  85562134.84048  20895143.471    20895142.8454   20895148.0574
        48.800          48.1004
 108347379.898 7  84426520.63445  20617817.881    20617817.6584   20617820.4514
        46.200          31.6004
 122798569.337 4                  23004316.747    23004313.351
        29.300
 107426062.050 7                  20152857.068    20152857.059
        44.700
 133888181.262 7                  25478076.843
        46.400
 106150222.780 8  82714451.94847  20199724.399    20199723.9304   20199727.9004
        48.500          46.8004
 122758454.843 7                  23360142.098
        46.400
 107758612.505 8  83812274.863 7  20130225.472    20130225.724    20130233.396
        50.800          46.600
 107506904.109 8  83616493.126 7  20132579.916    20132580.458    20132583.713
        50.600          45.100




 198903105.002 7                  37850028.487
        43.600
 125387556.981 8                  23860463.757
        50.200
 202043864.309 7                  38447689.608
        46.500
 108864229.077 8  84672189.246 7  20329627.670    20329626.919    20329630.662
        48.100          42.100
 125382485.261 5  97519876.658 5  23463633.396    23463635.865    23463647.457
        35.300          35.800
 135480595.712 5                  25781106.560
        30.300
 25  1  1 18  6 30.0000000  0 23E31G07G26G30G08G16G27G04R18R10E09G09
                                E04R07R09E21S35S31E06S33R08R11E19
 128953780.272 8                  24539085.710
        48.200
 116326053.787 8  90643620.34847  22136102.233    22136101.7284   22136102.1644
        49.000          44.8004
 130812320.269 4                  24892754.634
        27.700
 129976397.932 6 101280307.02444  24733685.660    24733685.0844   24733688.7184
        38.800          28.3004
 109852427.222 7  85599337.93547  20904218.100    20904217.3584   20904225.2074
        45.800          45.5004
 116151452.835 5  90507651.78241  22102884.787    22102884.4074   22102883.6024
        31.500           9.5004
 109804076.437 8  85561619.44247  20895017.805    20895017.2024   20895022.7854
        48.200          47.4004
 108378051.040 8  84450420.21145  20623653.313    20623653.0904   20623657.8504
        48.200          31.1004
 122810318.737 4  95519230.297 5  23006516.625    23006511.350    23006530.380
        29.500          31.300
 107413606.720 7                  20150520.221    20150520.422
        44.300
 133857338.372 7                  25472207.362
        46.500
 106154702.564 7  82717942.68447  20200575.976    20200575.5204   20200580.4294
        46.400          46.4004
 122765407.320 7                  23361465.558
        44.600
 107799502.345 8  83844077.923 7  20137862.649    20137864.114    20137871.795
        49.500          46.500
 107529852.297 8  83634341.624 7  20136876.684    20136877.821    20136882.230
        51.100          45.500
 140203121.563 5                  26679767.348
        33.900
 200832898.952 5                  38217219.257
        33.200
 198903097.546 7                  37850033.365
        45.100
 125372995.634 8                  23857692.429
        49.300
 202043876.826 6                  38447674.507
        38.000
 108844892.805 7  84657149.949 7  20326017.199    20326016.097    20326019.845
        47.800          42.500
 125341222.575 5  97487784.038 5  23455906.646    23455905.745    23455920.811
        34.700          33.900
 135522836.460 4                  25789143.601
        27.800
 25  1  1 18  6 45.0000000  0 23E31G07G30G08G16G27G04R19R18R10E09G09
                                E04R07R09E21S35S31E06S33R08R11E19
 128929557.676 8                  24534476.229
        48.000
 116295372.727 8  90619713.06047  22130263.561    22130263.0794   22130264.0904
        50.700          45.2004
 129933665.391 6 101247008.95744  24725552.718    24725552.1284   24725555.7314
        37.700          25.4004
 109818781.548 7  85573120.63747  20897815.175    20897814.4424   20897823.0114
        46.700          44.6004
 116197768.687 5  90543741.98742  22111697.114    22111696.5874   22111697.5374
        35.500          13.9004
 109803585.724 8  85561237.07547  20894924.813    20894924.2104   20894928.9214
        48.100          46.2004
 108408849.870 7  84474419.24745  20629513.937    20629513.7234   20629519.2934
        46.100          30.1004


 122822256.794 5  95528514.560 5  23008754.333    23008751.472    23008768.181
        30.500          35.700
 107401230.938 7                  20148197.680    20148197.932
        44.000
 133826559.033 7                  25466350.453
        47.400
 106159335.894 7  82721553.05047  20201458.861    20201458.3924   20201462.1304
        47.300          46.1004
 122772459.857 7                  23362807.520
        43.900
 107840557.261 8  83876009.444 8  20145531.979    20145533.590    20145542.533
        48.900          48.000
 107552854.439 8  83652232.094 7  20141185.271    20141185.514    20141188.519
        51.000          44.400
 140239865.050 5                  26686762.652
        34.600


 198903093.327 7                  37850033.607
        43.600
 125358524.664 8                  23854938.713
        50.000
 202043891.384 6                  38447690.663
        40.900
 108825755.101 7  84642265.036 7  20322443.211    20322442.649    20322447.457
        46.600          42.000
 125300000.387 6  97455722.656 6  23448193.563    23448196.252    23448209.212
        37.400          36.200


 25  1  1 18  7  0.0000000  0 22E31G07G30G08G16G27G04R18R10E09G09E04
                                R07R09E21S35S31E06S33R08R11E19
 128905394.419 8                  24529878.521
        48.400
 116264712.041 8  90595821.61147  22124428.886    22124428.4214   22124430.0044
        49.100          46.3004
 129890926.715 5 101213706.16043  24717420.666    24717420.0724   24717420.7494
        33.800          23.4004
 109785263.789 7  85547003.01147  20891436.359    20891435.6174   20891445.2834
        47.100          44.1004
 116244129.799 5  90579867.48941  22120518.546    22120518.0054   22120520.0174
        31.400          10.1004
 109803263.385 7  85560985.93047  20894862.620    20894862.0084   20894867.1634
        46.500          45.7004
 108439773.691 7  84498515.65444  20635397.355    20635397.1454   20635403.7524
        44.300          29.7004
 122834381.290 6  95537944.804 5  23011030.638    23011030.721    23011033.456
        40.800          33.100
 107388932.194 7                  20145890.867    20145889.757
        42.500
 133795840.957 7                  25460504.798
        47.700
 106164120.343 7  82725281.17147  20202369.625    20202369.1524   20202372.1454
        47.600          46.2004
 122779610.003 7                  23364168.422
        46.000
 107881774.006 7  83908066.834 8  20153231.302    20153231.386    20153242.618
        46.400          48.600
 107575907.973 8  83670162.584 7  20145502.051    20145502.790    20145505.750
        50.800          44.500
 140276640.508 6                  26693760.678
        36.000


 198903089.357 7                  37850030.423
        44.000
 125344141.815 8                  23852201.572
        49.900
 202043906.643 7                  38447700.626
        44.900
 108806813.827 8  84627532.984 7  20318905.602    20318905.954    20318911.714
        48.000          43.900
 125258815.972 6  97423690.665 5  23440486.037    23440486.150    23440510.540
        39.200          33.100


 25  1  1 18  7 15.0000000  0 22E31G07G30G08G16G27G04R18R10E09G09E04
                                R07R09E21S35S31E06S33R08R11E19
 128881287.445 8                  24525290.908
        48.400
 116234068.760 8  90571943.77847  22118597.936    22118597.4894   22118599.0494
        50.300          46.3004
 129848178.835 5 101180396.13743  24709284.988    24709284.3624   24709286.7114
        35.500          21.6004
 109751871.123 7  85520982.82547  20885081.192    20885080.4644   20885090.1424
        46.200          43.0004
 116290533.167 4  90616025.88742  22129348.136    22129347.6854   22129350.6444
        28.700          12.8004
 109803106.283 7  85560863.54747  20894831.807    20894831.1904   20894837.4144
        46.200          45.3004
 108470819.174 7  84522706.89544  20641305.548    20641305.3164   20641310.9894
        44.300          26.2004
 122846688.998 5  95547517.532 5  23013331.111    23013332.086    23013341.238
        33.200          31.300
 107376707.062 6                  20143596.630    20143595.694
        40.200
 133765181.290 7                  25454670.526
        46.400
 106169052.814 7  82729124.63947  20203307.933    20203307.4464   20203311.3074
        45.800          46.3004
 122786854.671 8                  23365546.841
        48.000
 107923149.122 8  83940247.395 8  20160962.407    20160962.191    20160972.622
        48.000          48.800
 107599009.641 8  83688130.468 7  20149827.848    20149828.656    20149834.271
        51.000          45.100
 140313419.606 6                  26700758.449
        39.000


 198903082.278 7                  37850024.588
        42.100
 125329844.143 8                  23849481.133
        49.400
 202043919.592 7                  38447702.902
        46.000
 108788066.114 7  84612951.393 7  20315403.423    20315403.927    20315410.228
        46.900          42.500
 125217666.159 5                  23432786.202    23432783.365
        32.800


 25  1  1 18  7 30.0000000  0 22G20E31G07G30G08G16G27G04R10E09G09E04
