     2.11           OBSERVATION DATA    M (MIXED)           RINEX VERSION / TYPE
teqc  2019Feb25                         20260317 16:18:01UTCPGM / RUN BY / DATE
Linux 2.4.21-27.ELsmp|Opteron|gcc -static|Linux 64|=+       COMMENT
BIT 2 OF LLI FLAGS DATA COLLECTED UNDER A/S CONDITION       COMMENT
-Unknown-                                                   MARKER NAME
-Unknown-           -Unknown-                               OBSERVER / AGENCY
-Unknown-           -Unknown-           -Unknown-           REC # / TYPE / VERS
-Unknown-           -Unknown-                               ANT # / TYPE
        0.0000        0.0000        0.0000                  APPROX POSITION XYZ
        0.0000        0.0000        0.0000                  ANTENNA: DELTA H/E/N
     1     1                                                WAVELENGTH FACT L1/2
     7    L1    L2    C1    P1    P2    S1    S2            # / TYPES OF OBSERV
 SNR is mapped to RINEX snr flag value [0-9]                COMMENT
  L1 & L2: min(max(int(snr_dBHz/6), 0), 9)                  COMMENT
  2025     1     1    17     0    0.0000000     GPS         TIME OF FIRST OBS
    18                                                      LEAP SECONDS
                                                            END OF HEADER
 25  1  1 17  0  0.0000000  0 27R17E31G07G26E29G08G16G27G04G03R18R06
                                R10E09G09E04R07R09E21S35S31G31E06S33
                                R08E19R16
 128320577.466 5                  23979744.624
        32.300
 137412773.028 5                  26148782.744
        33.800
 124956870.119 6  97369004.69542  23778495.776    23778495.9364   23778494.5604
        38.800          15.8004
 117657845.095 6  91681451.05543  22389542.615    22389542.9104   22389555.4214
        37.600          19.6004


 122191327.063 6  95214045.20944  23252215.964    23252215.4324   23252230.6264
        40.300          27.3004
 106421442.181 6  82925619.65344  20251271.364    20251270.6094   20251271.7054
        40.300          29.7004
 115468899.167 6  89975807.99145  21973001.357    21973001.0004   21973010.2594
        39.200          34.6004
 104952564.217 8  81781222.64747  19971795.059    19971794.7204   19971797.3784
        52.400          44.4004
 122894739.750 7  95762170.01643  23386113.711    23386113.7154   23386126.8084
        43.200          23.9004
 125990370.147 5  97992592.543 5  23602239.742                    23602254.875
        34.200          30.400
 109025479.050 5                  20431326.911    20431326.601
        32.400
 113689647.486 6                  21327874.850    21327873.682
        37.800


 109944925.934 7  85671368.55046  20921828.581    20921828.1434   20921831.7124
        46.300          41.9004
 124128499.074 8                  23620849.080
        48.100
 103564943.693 8  80550547.202 8  19346802.198    19346801.923    19346806.305
        53.400          48.300
 103802553.704 8  80735335.123 8  19438870.999    19438871.028    19438876.635
        52.200          50.100
 131123917.218 5                  24952059.585
        32.300


 198904618.901 7                  37850302.110
        42.900
 124110005.188 4  96709143.30242  23617351.863    23617352.1174   23617362.3314
        28.200          15.3004
 131814038.066 7                  25083381.026
        44.500
 202040052.341 7                  38446964.315
        44.000
 119717943.836 5  93113963.717 6  22356485.152    22356487.501    22356483.634
        35.700          38.800
 126157570.663 7                  24006992.806
        42.100
 115655806.792 7  89954508.261 6  21650986.301    21650987.364    21650992.386
        44.300          40.600
 25  1  1 17  0 15.0000000  0 26E31G07G26E29G08G16G27G04G03R18R06R10
                                E09G09E04R07R09E21S35S31G31E06S33R08
                                E19R16
 137374076.692 5                  26141415.933
        32.400
 124923239.923 5  97342799.36842  23772096.509    23772096.7684   23772094.8674
        35.800          12.9004
 117704095.158 6  91717490.12343  22398343.072    22398343.2774   22398358.5834
        37.200          20.9004


 122136887.445 6  95171624.96544  23241855.312    23241854.7494   23241871.1784
        41.300          27.9004
 106444584.389 7  82943652.56245  20255675.036    20255674.2584   20255675.7084
        42.600          30.3004
 115429847.915 6  89945378.51645  21965571.630    21965571.3314   21965579.8454
        37.100          34.3004
 104947447.638 8  81777235.69047  19970821.233    19970820.8894   19970823.6514
        51.400          43.8004
 122945435.033 7  95801672.67244  23395760.205    23395760.2054   23395773.0734
        42.500          28.9004
 125957470.273 5                  23596079.116    23596077.738
        34.100
 109073714.464 5                  20440363.505    20440366.514
        31.300
 113654273.108 6                  21321240.429    21321238.541
        37.900
 143534183.701 4                  27313633.493
        28.500
 109914134.143 7  85647374.97546  20915968.668    20915968.1994   20915970.9584
        47.800          41.2004
 124112533.628 8                  23617810.839
        48.200
 103554346.563 8  80542305.003 7  19344821.018    19344821.755    19344826.029
        52.800          47.800
 103805282.110 8  80737457.213 8  19439381.773    19439382.005    19439387.245
        52.500          49.700
 131153496.751 5                  24957689.636
        32.600


 198904613.782 7                  37850303.380
        42.400
 124150875.428 6  96740990.06443  23625129.544    23625130.1384   23625139.1714
        38.000          19.8004
 131782264.434 7                  25077335.262
        44.600
 202040067.350 7                  38446963.949
        45.000
 119660830.421 5  93069542.191 6  22345809.769    22345814.346    22345817.678
        35.200          36.200
 126184525.821 7                  24012122.867
        43.000
 115702150.727 7  89990553.353 6  21659663.287    21659662.093    21659667.799
        44.300          39.100
 25  1  1 17  0 30.0000000  0 26E31G07G26E29G08G16G27G04G03R18R06R10
                                E09G09E04R07R09E21S35S31G31E06S33R08
                                E19R16
 137335424.072 4                  26134062.255
        29.500
 124889615.489 6  97316598.42842  23765701.091    23765701.3414   23765696.2714
        39.900          15.4004
 117750390.295 6  91753564.31043  22407151.448    22407151.5824   22407166.4954
        36.800          19.1004


 122082471.984 6  95129223.54444  23231500.341    23231499.7964   23231514.7484
        38.400          26.3004
 106467854.430 6  82961785.01945  20260104.574    20260103.7524   20260104.2424
        39.600          30.3004
 115390899.810 6  89915029.40044  21958159.446    21958159.0754   21958166.8834
        36.400          29.5004
 104942459.511 8  81773348.81147  19969872.657    19969872.3134   19969874.2954
        51.100          43.8004
 122996156.583 6  95841195.63844  23405411.788    23405411.7754   23405424.1354
        40.300          27.1004
 125924694.653 5                  23589932.981    23589934.046
        34.100
 109122086.661 4                  20449429.217    20449429.809
        29.900
 113618988.196 6                  21314618.790    21314618.908
        36.700
 143494212.398 4                  27306027.063
        26.100
 109883443.803 7  85623460.40046  20910129.097    20910128.6554   20910130.1294
        47.700          41.1004
 124096636.782 8                  23614786.173
        49.200
 103543944.661 9  80534214.619 8  19342878.367    19342879.407    19342884.111
        54.100          48.300
 103808112.823 8  80739658.896 8  19439912.145    19439912.009    19439917.383
        51.100          49.400
 131183125.050 5                  24963319.546
        35.800


 198904607.575 7                  37850310.530
        43.900
 124191760.472 5  96772848.48942  23632903.878    23632904.0924   23632917.6884
        34.600          17.7004
 131750530.399 7                  25071295.298
        44.900
 202040081.882 7                  38446971.206
        46.000
 119603794.536 6  93025180.988 6  22335168.190    22335169.564    22335169.403
        40.000          39.200
 126211548.372 7                  24017264.792
        43.500
 115748514.662 7  90026614.096 6  21668341.225    21668340.104    21668348.452
        43.600          38.600
 25  1  1 17  0 45.0000000  0 24E31G07G26G08G16G27G04G03R18R10E09G09
                                E04R07R09E21S35S31G31E06S33R08E19R16
 137296819.962 5                  26126719.476
        35.200
 124856001.375 6  97290405.72741  23759302.461    23759302.6394   23759300.4154
        38.300          10.9004
 117796735.106 6  91789677.09143  22415969.189    22415969.2424   22415983.6984
        36.900          19.6004
 122028085.710 6  95086844.90143  23221151.425    23221150.9474   23221163.2994
        37.100          23.6004
 106491256.802 6  82980020.63845  20264558.035    20264557.2044   20264558.1974
        40.500          30.7004


 104937604.702 8  81769565.81647  19968948.976    19968948.6374   19968950.1224
        50.900          43.1004
 123046908.632 6  95880742.41944  23415068.381    23415068.3504   23415083.1134
        38.500          27.8004
 125892048.699 5                  23583822.202    23583821.695
        35.800
 113583797.127 6                  21308015.233    21308013.346
        38.000
 143454255.158 5                  27298430.037
        31.500
 109852860.081 8  85599628.94847  20904309.064    20904308.6354   20904311.0454
        48.100          42.4004
 124080813.466 8                  23611775.101
        49.100
 103533742.735 8  80526279.792 8  19340971.700    19340972.421    19340977.813
        52.800          48.100
 103811050.116 8  80741943.446 8  19440461.986    19440461.844    19440466.704
        50.700          49.000
 131212806.582 6                  24968969.198
        37.000


 198904604.772 7                  37850310.356
        45.000
 124232664.740 6  96804721.81342  23640688.779    23640689.0154   23640700.9194
        37.800          16.3004
 131718840.725 7                  25065264.676
        45.400
 202040098.857 7                  38446970.039
        44.400
                  92980884.098 7                                  22324535.742
                        43.200
 126238643.199 7                  24022420.771
        44.400
 115794902.643 7  90062693.602 6  21677025.229    21677025.596    21677033.689
        46.000          40.300
 25  1  1 17  1  0.0000000  0 23E31G07G26G08G16G27G04G03R10E09G09E04
                                R07R09E21S35S31G31E06S33R08E19R16
 137258259.206 6                  26119379.106
        39.700
 124822393.380 5  97264168.91742  23752907.726    23752907.7574   23752903.3924
        32.200          15.8004
 117843123.820 5  91825824.01843  22424798.095    22424798.1174   22424810.1584
        34.800          20.8004
 121973723.845 6  95044485.26843  23210806.610    23210806.2134   23210815.6434
        38.600          21.2004
 106514785.604 7  82998354.72544  20269033.668    20269032.8414   20269035.8034
        42.300          29.7004
 115313315.668 5  89854562.54144  21943396.773    21943396.7204   21943402.2114
        34.600          25.4004
 104932878.088 8  81765882.72846  19968049.198    19968048.8594   19968050.2534
        50.100          41.2004
 123097685.452 6  95920308.48643  23424729.927    23424729.8834   23424746.7194
        37.100          22.7004
 113548694.727 6                  21301432.079    21301431.038
        40.500
 143414307.137 4                  27290832.512
        29.200
 109822377.823 8  85575876.54447  20898508.893    20898508.4694   20898510.4344
        48.500          42.7004
 124065058.406 8                  23608776.402
        48.600
 103523735.720 8  80518496.537 7  19339102.425    19339103.176    19339108.125
        52.200          47.200
 103814088.732 8  80744306.822 8  19441031.062    19441031.296    19441036.425
        51.500          49.100
 131242535.773 4                  24974631.513
        28.700


 198904599.502 6                  37850311.621
        41.200
 124273583.400 6  96836606.41342  23648477.960    23648478.2554   23648485.6564
        40.600          16.4004
 131687190.417 7                  25059241.997
        44.500
 202040114.386 7                  38446971.474
        43.700
 119489968.006 6  92936647.974 7  22313915.776    22313915.065    22313914.789
        37.000          42.000
 126265805.033 7                  24027589.101
        43.800
 115841309.692 8  90098787.849 6  21685715.754    21685716.243    21685721.582
        49.000          41.600
 25  1  1 17  1 15.0000000  0 26E31G07G26E29G08G16G27G04G03R18R06R10
                                E09G09E04R07R09E21S35S31G31E06S33R08
                                E19R16
 137219743.489 6                  26112049.754
        38.700
 124788790.821 6  97237985.26041  23746513.751    23746513.4384   23746505.1174
        37.200          11.7004
 117889557.586 6  91862006.19843  22433634.845    22433634.8534   22433643.1824
        40.000          22.3004


 121919388.201 5  95002145.99543  23200461.860    23200461.4404   23200475.6954
        34.400          18.0004
 106538441.988 6  83016788.27544  20273536.035    20273535.2224   20273537.3634
        41.500          29.1004
 115274685.494 6  89824486.38644  21936043.003    21936043.0164   21936054.6784
        37.000          27.1004
 104928281.165 8  81762300.71646  19967174.111    19967173.7724   19967175.2864
        51.200          40.9004
 123148487.272 5  95959893.90643  23434398.855    23434398.7534   23434414.7964
        35.100          18.9004
 125827132.611 4                  23571653.004    23571654.388
        29.700
 109268046.612 5                  20476778.378    20476782.496
        30.800
 113513682.340 7                  21294865.422    21294864.437
        42.700
 143374369.921 5                  27283226.989
        30.000
 109791998.809 8  85552204.60647  20892728.298    20892727.8874   20892729.2934
        48.900          44.5004
 124049373.295 8                  23605791.417
        49.100
 103513925.453 8  80510866.340 7  19337269.310    19337269.931    19337275.547
        53.300          46.900
 103817229.683 8  80746749.757 8  19441620.340    19441620.656    19441624.081
        50.600          49.300
 131272357.682 5                  24980295.850
        31.900


 198904594.675 6                  37850311.500
        41.200
 124314517.529 6  96868502.96642  23656267.490    23656267.7714   23656273.1704
        36.300          17.2004
 131655581.017 7                  25053226.936
        45.700
 202040129.483 7                  38446974.533
        42.500
 119433173.254 7  92892474.172 6  22303309.386    22303311.838    22303308.060
        42.700          39.700
 126293035.102 7                  24032770.610
        43.300
 115887736.450 7  90134897.554 6  21694406.457    21694406.627    21694411.743
        47.000          39.400
 25  1  1 17  1 30.0000000  0 24E31G07G26G08G16G27G04G03R18R06R10E09
                                G09E04R07R09E21S35S31G31E06S33E19R16
 137181274.478 6                  26104729.641
        37.900
 124755196.228 6  97211807.69343  23740122.508    23740122.2894   23740119.6364
        40.900          21.3004


 121865079.660 6  94959735.77143  23190132.099    23190131.4064   23190140.2964
        36.100          18.5004
 106562227.435 7  83035322.39945  20278062.908    20278062.1084   20278062.2474
        46.400          31.3004


 104923815.850 8  81758821.22846  19966324.482    19966324.1474   19966326.2594
        50.100          41.5004
 123199437.156 6  95999636.22743  23444071.127    23444070.9444   23444089.8804
        36.700          18.2004
 125794866.673 5                  23565611.019    23565610.293
        30.500
 109316970.322 4                  20485953.464    20485951.545
        27.100
 113478761.895 6                  21288312.865    21288313.358
        40.000
 143334444.235 5                  27275641.247
        30.800
 109761725.034 8  85528614.64347  20886967.156    20886966.7324   20886969.5124
        48.600          47.4004
 124033759.957 8                  23602820.936
        49.200
 103504313.665 8  80503390.497 8  19335473.449    19335473.059    19335481.080
        50.300          49.000
 103820474.735 8  80749273.723 8  19442227.483    19442227.929    19442232.020
        51.800          49.200
 131302186.986 6                  24985966.829
        37.200


 198904590.744 7                  37850298.689
        42.500
 124355468.944 6  96900412.97043  23664059.183    23664059.4374   23664063.2064
        40.500          18.0004
 131624014.449 7                  25047220.500
        46.300
 202040145.583 7                  38446981.674
        43.500
 126320335.221 6                  24037965.579
        41.800
 115934185.024 7  90171024.362 6  21703099.628    21703100.052    21703107.076
        46.300          38.800
 25  1  1 17  1 45.0000000  0 24E31G07G26G08G16G27G04G03R18R10E09G09
                                E04R07R09E21S35S31G31E06S33R08E19R16
 137142850.735 6                  26097418.380
        41.500
 124721608.240 7  97185635.29743  23733728.766    23733728.8824   23733736.0644
        43.800          22.9004


 121810799.312 5  94917439.57743  23179800.461    23179799.9744   23179814.3984
        34.000          21.2004
 106586140.359 7  83053955.82944  20282612.196    20282611.3834   20282611.1444
        43.600          27.1004


 104919480.733 8  81755443.18246  19965499.143    19965498.8224   19965501.6564
        50.500          41.8004
 123250292.274 6  96039263.36743  23453750.174    23453750.4734   23453763.2164
        36.500          20.0004
                                                  23559586.355

 113443931.868 6                  21281776.807    21281777.519
        38.000
 143294529.892 5                  27268030.677
        30.800
 109731555.255 7  85505105.70447  20881225.576    20881225.1704   20881229.0404
        47.500          46.9004
 124018217.015 8                  23599862.906
        48.600
 103494898.936 8  80496067.955 8  19333715.430    19333715.381    19333722.315
        50.800          48.700
 103823821.859 8  80751877.054 8  19442853.046    19442853.567    19442858.785
        50.600          48.100
 131332065.383 5                  24991651.700
        35.700
 200842601.655 6                  38219077.614
        37.800
 198904586.587 6                  37850302.548
        39.900
 124396435.850 6  96932335.06042  23671855.207    23671855.4124   23671858.6124
        37.000          15.7004
 131592489.362 7                  25041221.299
        46.000
 202040162.141 7                  38446991.082
        42.200
                  92804317.524 6                                  22282138.871
                        38.000
 126347703.602 6                  24043173.604
        38.600
 115980652.728 7  90207165.962 6  21711800.666    21711798.990    21711807.065
        45.200          39.500
 25  1  1 17  2  0.0000000  0 24E31G07G26G08G16G27G04G03R18R10E09G09
                                E04R07R09E21S35S31G31E06S33R08E19R16
 137104471.073 6                  26090113.905
        40.600
 124688025.833 7  97159467.14744  23727337.486    23727337.6694   23727349.5184
        42.400          25.2004


 121756545.091 6  94875163.82443  23169478.413    23169478.0834   23169491.7694
        36.400          21.5004
 106610178.900 7  83072687.16144  20287188.039    20287187.2124   20287185.7934
        43.800          27.2004


 104915274.671 8  81752165.69646  19964698.646    19964698.3164   19964701.2134
        50.600          40.9004
 123301171.029 6  96078908.87642  23463436.758    23463436.6384   23463443.7964
        36.700          15.8004
 125730716.974 5  97790588.292 5  23553597.501    23553596.863    23553607.132
        33.000          31.300
 113409190.517 6                  21275259.921    21275260.017
        37.600


 109701488.450 7  85481677.00147  20875504.224    20875503.8224   20875507.7514
        47.600          47.8004
 124002743.315 8                  23596918.493
        49.400
 103485680.494 8  80488898.014 8  19331993.182    19331993.730    19332000.379
        51.000          48.700
 103827269.601 8  80754558.608 8  19443500.508    19443500.629    19443504.492
        52.400          49.000
 131361991.261 6                  24997347.385
        37.300
 200842562.847 6                  38219079.836
        37.700
 198904580.930 7                  37850304.279
        44.300
 124437417.029 5  96964268.26341  23679653.403    23679653.4294   23679656.3624
        33.100          11.7004
 131561004.617 7                  25035230.534
        46.800
 202040176.486 7                  38446995.250
        44.900
 119263303.205 5  92760333.168 6  22271578.465    22271581.481    22271580.699
        32.800          40.500
 126375139.034 6                  24048394.944
        37.800
 116027138.025 7  90243320.957 6  21720499.823    21720499.927    21720506.875
        42.200          37.100
 25  1  1 17  2 15.0000000  0 24E31G07G26G08G16G27G04G03R18R10E09G09
                                E04R07R09E21S35S31G31E06S33R08E19R16
 137066135.449 6                  26082818.359
        39.800
 124654448.623 7  97133302.86042  23720948.440    23720948.5924   23720956.0324
        42.300          17.7004
 118075741.548 4  92007104.51042  22469063.287    22469063.2914   22469070.1174
        29.100          13.8004
 121702317.478 6  94832908.74743  23159158.627    23159158.0694   23159171.2874
        38.600          19.1004
 106634342.606 7  83091515.97343  20291785.538    20291784.7204   20291784.5614
        44.600          23.6004


 104911197.556 8  81748988.69946  19963923.414    19963923.0844   19963925.0744
        50.400          41.8004
 123352072.578 5  96118572.12342  23473118.165    23473118.0894   23473129.4874
        30.300          14.4004
 125698833.651 5                  23547620.523    23547617.789
        31.300
 113374538.359 5                  21268760.712    21268758.086
        35.100
 143214698.268 5                  27252849.562
        31.800
 109671524.690 8  85458328.57947  20869802.714    20869802.3084   20869805.2024
        48.600          46.6004
 123987338.805 8                  23593986.961
        48.500
 103476658.014 8  80481880.494 7  19330308.209    19330308.751    19330313.906
        51.500          47.900
 103830817.485 8  80757318.096 8  19444162.639    19444162.921    19444169.396
        49.700          48.600
 131391964.230 5                  25003046.318
        31.600


 198904573.227 6                  37850295.555
        40.500
 124478412.425 6  96996212.63842  23687453.942    23687453.9914   23687457.4964
        39.200          13.2004
 131529560.175 8                  25029246.683
        48.000
 202040189.500 7                  38446986.776
        45.400
 119206833.347 5  92716411.334 6  22261046.013    22261027.298    22261033.675
        34.300          39.300
 126402641.362 6                  24053628.397
        41.200
 116073640.733 6  90279489.627 6  21729207.364    21729204.968    21729212.570
        40.400          38.500
 25  1  1 17  2 30.0000000  0 24E31G07G26G08G16G27G04G03R18R10E09G09
                                E04R07R09E21S35S31G31E06S33R08E19R16
 137027848.683 6                  26075532.814
        39.500
 124620881.291 6  97107146.47144  23714560.181    23714560.2434   23714564.0804
        37.600          24.5004
 118122407.553 6  92043461.44842  22477943.341    22477943.2074   22477953.2914
        39.100          14.2004
 121648121.380 6  94790678.18843  23148844.647    23148843.9954   23148857.0824
        38.900          18.2004
 106658636.031 7  83110445.89443  20296407.892    20296407.0794   20296408.4024
        43.500          22.2004
 115083129.322 6  89675210.57645  21899598.087    21899597.6904   21899601.3134
        40.500          32.0004
 104907254.302 8  81745916.02546  19963173.123    19963172.8024   19963174.4814
        50.600          41.1004


 125667081.658 5                  23541685.048
        32.100
 113339980.056 6                  21262277.651    21262279.889
        41.700


 109641669.111 7  85435064.52147  20864121.173    20864120.7894   20864123.7964
        47.600          47.4004
 123972008.403 8                  23591069.294
        49.400
 103467836.669 8  80475019.452 7  19328661.437    19328661.660    19328666.668
        52.700          47.700
 103834470.331 8  80760159.199 8  19444846.606    19444847.021    19444852.928
        50.900          48.900
 131421988.902 5                  25008760.551
        31.900


 198904568.846 7                  37850303.854
        42.900
 124519434.468 5  97028150.44542  23695260.170    23695260.0774   23695265.2764
        32.400          12.7004
 131498160.944 7                  25023271.738
        46.700
 202040205.571 6                  38446985.779
        39.900
 119150448.656 6  92672556.705 6  22250504.549    22250502.914    22250504.923
        38.400          41.100
 126430215.121 6                  24058875.148
        41.700
 116120166.244 5  90315676.314 6  21737914.607    21737912.022    21737919.968
        34.700          36.200
 25  1  1 17  2 45.0000000  0 24E31G07G26G08G16G27G04G03R06R10E09G09
                                E04R07R09E21S35S31G31E06S33R08E19R16
 136989606.204 6                  26068255.484
        37.800
 124587319.086 4  97080994.08143  23708171.713    23708171.7534   23708176.8954
        28.600          22.2004
 118169107.539 6  92079851.05042  22486830.104    22486829.9794   22486838.2884
        38.000          14.7004
 121593952.608 6  94748469.20242  23138536.203    23138535.6584   23138549.1204
        37.600          16.1004
 106683054.149 7  83129473.03643  20301054.633    20301053.7974   20301056.3504
        44.600          23.3004
 115045139.335 7  89645608.07745  21892364.009    21892363.4284   21892372.3414
        42.300          34.7004
 104903440.495 8  81742944.20446  19962447.182    19962446.8564   19962448.6834
        49.500          40.3004
 123453957.762 5                  23492509.379
        33.200
 109563603.679 5                  20532170.301
        33.500
 113305510.476 6                  21255811.332    21255812.470
        40.200


 109611917.294 7  85411881.27347  20858460.347    20858459.9634   20858462.5434
        46.600          46.6004
 123956747.652 8                  23588166.255
        50.000
 103459211.934 8  80468311.310 8  19327049.885    19327050.181    19327055.618
        51.400          48.500
 103838223.064 8  80763078.011 8  19445550.636    19445550.506    19445554.736
        50.800          48.200
 131452060.186 5                  25014485.674
        35.700
 200842466.225 6                  38219043.706
        38.700
 198904562.793 6                  37850300.111
        41.900
 124560507.456 5                  23703074.876
        33.800
 131466802.607 7                  25017305.150
        47.300
 202040219.715 7                  38446983.257
        42.900
 119094145.933 6  92628765.638 6  22239989.930    22239985.846    22239991.481
        39.800          40.300
 126457855.754 6                  24064135.932
        40.200
 116166708.105 6  90351875.312 6  21746631.338    21746630.211    21746639.064
        39.600          41.300
 25  1  1 17  3  0.0000000  0 23E31G07G26G08G16G27G04G03R06R10E09G09
                                E04R07R09E21S35S31E06S33R08E19R16
 136951415.863 5                  26060987.087
        35.600
 124553769.229 5  97054869.16343  23701791.445    23701791.5524   23701791.5394
        35.400          23.1004
 118215857.198 5  92116279.46942  22495725.647    22495725.3524   22495736.3664
        35.400          14.4004
 121539819.367 4  94706287.57041  23128233.722    23128233.1194   23128247.1864
        28.600           8.2004
 106707604.572 7  83148603.18843  20305726.564    20305725.7194   20305729.2764
        45.100          22.9004
 115007263.991 6  89616094.94845  21885155.730    21885155.2344   21885164.2194
        38.300          33.2004
 104899764.012 8  81740079.41646  19961747.795    19961747.4564   19961748.7894
        49.700          40.2004


 109613342.521 4                  20541491.374    20541490.210
        26.600
 113271137.923 6                  21249360.786    21249359.167
        36.300
 143095049.979 5                  27230084.606
        33.800
 109582277.354 7  85388785.18747  20852818.963    20852818.5614   20852822.6104
        46.800          46.7004
 123941564.589 8                  23585276.690
        48.600
 103450792.132 8  80461762.577 7  19325475.775    19325475.898    19325482.528
        50.000          47.100
 103842083.609 8  80766080.656 8  19446274.043    19446273.912    19446278.195
        52.300          48.000
 131482186.003 4                  25020213.959
        26.400
 200842411.984 6                  38219036.220
        39.100
 198904562.842 7                  37850294.508
        44.100
 131435493.124 7                  25011346.931
        46.900
 202040240.011 7                  38446996.632
        43.400
 119037933.254 7  92585044.815 5  22229490.974    22229491.395    22229492.750
        45.900          35.900
 126485570.832 6                  24069409.585
        41.600
 116213275.003 6  90388094.032 6  21755345.941    21755347.746    21755355.017
        40.200          39.400
 25  1  1 17  3 15.0000000  0 23E31G07G26G08G16G27G04G03R06R10E09G09
                                E04R07R09E21S35S31E06S33R08E19R16
 136913264.477 6                  26053729.535
        39.300
 124520219.828 5  97028726.79744  23695404.889    23695404.8634   23695409.0044
        34.200          25.3004
 118262642.819 6  92152735.37042  22504628.432    22504628.1114   22504638.1634
        39.900          15.3004
 121485709.609 5  94664134.57541  23117936.072    23117935.8854   23117947.2954
        35.300          11.1004
 106732273.377 7  83167825.62643  20310420.161    20310419.2944   20310423.0624
        43.800          19.0004
 114969490.113 6  89586660.86045  21877969.410    21877968.9774   21877974.5304
        39.200          35.2004
 104896211.506 8  81737311.21746  19961071.811    19961071.4634   19961072.7654
        50.400          40.8004
 123555992.204 6  96277412.10643  23511914.881    23511915.3464   23511926.5954
        36.500          20.7004
 109663207.829 5                  20550843.184    20550843.137
        34.100
 113236848.743 6                  21242928.714    21242928.625
        41.800
 143055203.107 5                  27222501.199
        35.600
 109552736.072 7  85365765.98047  20847197.933    20847197.5184   20847201.0884
        47.300          46.9004
 123926445.716 8                  23582399.665
        49.000
 103442563.345 8  80455362.347 7  19323938.098    19323938.540    19323944.599
        53.200          47.300
 103846037.990 8  80769156.282 8  19447014.767    19447015.244    19447018.347
        53.200          48.200
 131512352.645 6                  25025959.273
        37.600
 200842371.453 5                  38219030.644
        30.000
 198904555.627 7                  37850303.371
        44.400
 131404219.042 7                  25005395.639
        47.500
 202040252.968 6                  38447004.055
        40.700
 118981797.692 7  92541383.844 6  22219006.037    22219006.509    22219012.076
        42.900          38.400
 126513347.013 7                  24074695.932
        42.300
 116259852.513 6  90424320.902 6  21764065.195    21764064.544    21764075.396
        39.300          41.600
 25  1  1 17  3 30.0000000  0 22E31G07G26G16G27G04G03R18R10E09G09E04
                                R07R09E21S35S31E06S33R08E19R16
 136875159.637 5                  26046475.602
        34.300


 118309471.608 6  92189225.40943  22513539.779    22513539.3284   22513547.5854
        40.700          20.5004
 106757068.078 6  83187146.15442  20315137.241    20315136.3704   20315139.1934
        41.000          16.2004
 114931825.857 6  89557312.25245  21870802.178    21870801.7544   21870806.3584
        41.100          34.7004
 104892790.749 8  81734645.69446  19960420.712    19960420.3644   19960422.1084
        50.100          40.7004
 123607012.058 4  96317167.55342  23521625.596    23521626.2134   23521635.4404
        26.300          16.2004
                  97643360.850 5                                  23518133.237
                        32.500
 113202650.654 7                  21236514.545    21236514.713
        42.600
 143015368.736 5                  27214925.723
        33.800
 109523301.428 7  85342829.86347  20841595.557    20841595.1424   20841599.8174
        47.600          46.8004
 123911398.931 8                  23579536.656
        50.200
 103434533.749 8  80449117.107 7  19322438.316    19322439.501    19322444.848
        52.700          46.800
 103850093.554 8  80772310.623 7  19447773.594    19447774.079    19447777.803
        52.200          47.000
 131542567.403 6                  25031708.045
        39.800


 198904548.783 7                  37850297.151
        43.200
 131372988.365 7                  24999452.358
        46.000
 202040266.375 7                  38447006.358
        43.800
 118925747.094 7  92497789.024 6  22208541.349    22208541.669    22208546.217
        43.700          37.800
 126541191.743 7                  24079994.127
        42.400
 116306448.522 6  90460562.021 6  21772789.267    21772789.646    21772797.184
        38.600          41.300
 25  1  1 17  3 45.0000000  0 24E31G07G26G08G16G27G04G03R18R10E09G09
                                E04R07R09E21S35S31G31E06S33R08E19R16
 136837102.734 6                  26039235.330
        37.100


 118356344.629 7  92225749.69443  22522459.705    22522459.2094   22522465.4004
        43.100          21.3004


 106781989.708 6  83206565.70442  20319878.919    20319877.9804   20319880.4104
        39.100          14.3004
 114894272.712 6  89528050.15545  21863654.361    21863653.9374   21863660.2814
        41.200          35.5004
 104889503.066 8  81732083.87946  19959795.226    19959794.8914   19959796.3044
        49.800          40.7004
 123658055.446 6  96356940.22743  23531335.134    23531335.7514   23531350.2684
        38.300          18.8004
 125510239.161 6  97619172.849 5  23512305.545    23512305.874    23512308.018
        38.600          34.100
 113168544.797 6                  21230117.192    21230116.059
        41.000


 109493974.917 8  85319978.00247  20836015.405    20836014.9944   20836018.6734
        48.500          47.3004
 123896425.533 8                  23576686.970
        49.200
 103426704.770 8  80443027.943 7  19320976.409    19320976.824    19320980.374
        52.300          44.600
 103854251.377 8  80775544.427 8  19448551.845    19448552.096    19448556.764
        51.000          48.800
 131572831.425 6                  25037466.977
        40.500


 198904543.373 6                  37850285.614
        40.600
 124724763.298 6  97188143.10542  23734333.485    23734333.2844   23734336.7984
        36.400          15.4004
 131341802.403 7                  24993517.799
        43.700
 202040280.657 7                  38447006.264
        42.400
 118869783.465 7  92454261.825 6  22198093.250    22198092.976    22198094.747
        43.400          40.300
 126569106.336 7                  24085306.749
        44.500
 116353064.172 6  90496818.601 6  21781517.604    21781516.464    21781524.164
        38.100          41.200
 25  1  1 17  4  0.0000000  0 26R17E31G07G26G08G16G27G04G03R18R06R10
                                E09G09E04R07R09E21S35S31G31E06S33R08
                                E19R16
 128417908.066 6                  23997954.639
        36.000
 136799092.198 7                  26032001.311
        42.300


 118403260.179 6  92262307.31643  22531388.172    22531387.6904   22531391.5814
        41.600          18.9004


 106807036.166 6  83226082.30441  20324646.934    20324646.0674   20324645.5324
        40.500          11.6004
 114856829.667 7  89498873.89046  21856531.642    21856531.2314   21856536.3554
        42.300          37.1004
 104886347.126 8  81729624.72846  19959194.966    19959194.6274   19959196.0204
        49.600          41.3004
 123709120.979 5  96396731.31843  23541051.316    23541052.1204   23541070.1174
        34.100          22.2004
 125479272.343 5  97595087.625 5  23506499.587    23506502.271    23506506.258
        32.500          32.400
 109813600.011 5                  20579023.588
        34.100
 113134529.698 7                  21223735.745    21223734.915
        42.500


 109464755.269 8  85297209.42247  20830455.214    20830454.8304   20830458.5414
        48.700          46.6004
 123881524.262 8                  23573851.307
        49.800
 103419074.897 8  80437093.576 7  19319550.317    19319550.685    19319556.256
        51.600          45.800
 103858510.002 8  80778856.722 8  19449349.377    19449349.449    19449354.537
        50.600          49.000
 131603143.141 6                  25043235.060
        37.100


 198904537.945 7                  37850295.666
        42.500
 124765870.009 5  97220174.09742  23742151.591    23742151.3234   23742152.0724
        32.000          15.1004
 131310659.792 7                  24987591.489
        42.800
 202040295.775 7                  38447005.056
        45.400
 118813906.152 7  92410801.781 6  22187656.172    22187655.981    22187660.744
        42.000          40.500
 126597089.151 7                  24090631.137
        42.600
 116399697.262 5  90533088.900 6  21790248.040    21790243.529    21790252.485
        34.100          38.700
 25  1  1 17  4 15.0000000  0 26R17E31G07G26G08G16G27G04G03R18R06R10
                                E09G09E04R07R09E21S35S31G31E06S33R08
                                E19R16
 128425500.009 5                  23999368.807    23999367.140
        31.600
 136761128.977 7                  26024777.628
        42.200
 124386017.624 5  96924216.96343  23669880.547    23669880.6994   23669883.6104
        35.300          21.0004
 118450218.519 6  92298898.14743  22540323.760    22540323.3004   22540327.8374
        40.900          23.7004
 121269469.125 5  94495732.05143  23076809.495    23076809.3124   23076823.2674
        30.300          20.8004
 106832208.022 6  83245696.65443  20329436.026    20329435.2084   20329434.9174
        36.500          18.0004
 114819497.639 7  89469784.10246  21849427.033    21849426.5684   21849433.4564
        42.900          37.6004
 104883323.723 8  81727268.81046  19958619.814    19958619.4794   19958620.8044
        49.200          41.2004
 123760208.718 5  96436539.74943  23550774.463    23550775.5274   23550791.0894
        35.100          23.5004
                  97571106.167 5                  23500727.005    23500725.523
                        30.600
 109863998.321 6                  20588468.772    20588470.271
        36.700
 113100606.407 7                  21217372.714    21217372.261
        42.200


 109435643.477 8  85274524.91047  20824915.546    20824915.1934   20824918.5144
        50.400          45.0004
 123866695.857 8                  23571029.688
        49.800
 103411645.275 8  80431314.942 7  19318164.033    19318164.540    19318168.188
        53.000          45.500
 103862869.666 8  80782247.593 8  19450166.464    19450166.652    19450170.376
        52.300          48.800
 131633502.892 6                  25049010.939
        41.200


 198904533.204 6                  37850288.807
        41.800
 124806992.978 5  97252205.83642  23749976.473    23749976.2634   23749981.4224
        31.600          12.3004
 131279561.421 7                  24981673.967
        45.500
 202040311.261 7                  38447009.626
        44.700
 118758115.705 5  92367409.226 6  22177235.848    22177235.643    22177242.109
        35.500          38.900
 126625140.778 7                  24095968.999
        42.500
 116446348.642 6  90569373.196 5  21798982.130    21798980.431    21798982.809
        41.500          32.900
 25  1  1 17  4 30.0000000  0 23E31G07G26G08G16G27G04G03R06R10E09G09
                                E04R07R09E21S35S31E06S33R08E19R16
 136723211.673 7                  26017561.821
        42.000
 124352501.891 6  96898110.18744  23663506.728    23663507.0184   23663508.0824
        38.800          24.6004
 118497217.972 7  92335521.12744  22549268.468    22549268.0304   22549271.2884
        42.000          24.3004
 121215515.052 5  94453690.14443  23066541.159    23066541.4854   23066556.3234
        35.300          22.0004
 106857503.498 5  83265407.41642  20334248.981    20334248.1544   20334248.7804
        30.700          12.7004
 114782275.729 7  89440780.10646  21842343.380    21842342.9074   21842350.1244
        45.000          38.8004
 104880431.593 8  81725015.19346  19958069.151    19958068.8214   19958070.3974
        50.000          41.3004


 109914527.432 6                  20597938.434    20597938.972
        37.300
 113066772.917 6                  21211025.290    21211023.831
        41.200


 109406638.392 8  85251923.52847  20819396.236    20819395.8794   20819398.5334
        50.100          46.4004
 123851939.097 8                  23568221.523
        50.000
 103404414.388 8  80425690.907 7  19316812.797    19316813.815    19316818.836
        52.400          47.600
 103867328.830 8  80785715.839 8  19451001.399    19451001.857    19451005.523
        52.600          48.000
 131663908.922 6                  25054797.047
        40.700


 198904527.867 6                  37850295.009
        40.700
 131248506.070 7                  24975763.845
        47.500
 202040325.255 7                  38447017.671
        44.700
 118702424.722 5  92324083.817 6  22166833.404    22166828.903    22166838.155
        32.000          36.900
 126653259.731 6                  24101319.188
        39.700
 116493015.935 6                  21807716.923    21807712.691
        38.100
 25  1  1 17  4 45.0000000  0 23E31G07G26G08G16G27G04G03R18R06R10E09
                                G09E04R07R09E21S35S31E06S33E19R16
 136685340.149 6                  26010354.742
        41.900
 124318994.995 6  96872000.84243  23657130.298    23657130.4324   23657131.8484
        37.000          23.7004
 118544258.015 6  92372175.76044  22558218.565    22558218.1814   22558218.8984
        40.400          24.2004
 121161592.391 4  94411672.69342  23056280.325    23056280.2854   23056294.0174
        28.000          16.7004
 106882921.950 6  83285213.99342  20339087.990    20339087.0474   20339086.3384
        36.400          16.9004
 114745164.076 7  89411862.04546  21835279.792    21835279.3194   21835286.6374
        43.400          37.8004
 104877670.642 8  81722863.79547  19957543.663    19957543.3244   19957545.1554
        50.600          42.0004




 109965186.677 6                  20607431.588    20607431.310
        36.500
 113033029.659 6                  21204693.423    21204692.810
        41.200
 142816453.089 4                  27177066.868
        27.200
 109377740.094 8  85229405.39247  20813897.126    20813896.7734   20813899.3004
        49.800          45.9004
 123837253.907 8                  23565427.103
        49.800
 103397382.186 8  80420221.410 8  19315499.192    19315499.713    19315504.729
        52.500          48.200
 103871886.969 8  80789261.058 8  19451854.854    19451855.543    19451859.581
        51.800          49.000
 131694361.008 7                  25060593.284
        42.800


 198904521.791 6                  37850283.490
        40.800
 131217493.756 7                  24969862.716
        47.700
 202040339.714 6                  38447014.567
        41.400
 126681445.879 6                  24106683.812
        40.100
 116539699.295 6  90641979.214 6  21816453.628    21816453.417    21816459.636
        41.500          38.000
 25  1  1 17  5  0.0000000  0 23E31G07G26G08G16G27G04G03R06R10E09G09
                                E04R07R09E21S35S31E06S33R08E19R16
 136647516.687 6                  26003159.291
        38.400


 118591340.584 6  92408863.45843  22567174.599    22567174.2334   22567181.7334
        39.300          23.8004
 121107703.401 5  94369681.49243  23046025.052    23046024.7484   23046038.4444
        33.100          19.5004
 106908465.466 6  83305118.02043  20343947.593    20343946.5964   20343947.8414
        38.900          20.2004
 114708165.130 7  89383031.81545  21828240.069    21828239.6004   21828245.3124
        43.200          34.2004
 104875043.054 8  81720816.27147  19957043.325    19957042.9684   19957045.9664
        49.700          42.5004
 123913614.676 5  96556147.22142  23579977.079    23579977.0174   23579994.7734
        33.000          15.8004
 110015977.835 5                  20616949.640    20616949.418
        35.700
 112999378.059 6                  21198382.320    21198380.734
        40.900
 142776650.939 5                  27169496.434
        33.100
 109348950.992 8  85206972.33247  20808418.788    20808418.4354   20808420.0924
        48.000          43.8004
 123822642.577 8                  23562646.669
        49.300
 103390551.219 8  80414908.409 8  19314223.692    19314223.543    19314227.826
        52.300          48.000
 103876546.127 8  80792884.868 8  19452726.248    19452726.794    19452732.848
        50.500          50.000
 131724860.974 6                  25066395.439
        39.900
 200842166.289 6                  38218995.166
        38.400
 198904516.215 6                  37850286.745
        40.900
 131186526.710 8                  24963970.523
        48.500
 202040354.543 7                  38447021.981
        45.400
 118591342.746 5  92237636.730 6  22146092.073                    22146080.803
        34.100          36.700
 126709701.138 6                  24112059.827
        40.200
 116586400.212 6  90678302.100 6  21825192.155    21825194.464    21825203.827
        40.300          40.300
 25  1  1 17  5 15.0000000  0 24E31G07G26G08G16G27G04G03R06R10E09G09
                                E04R07R09E21S35S31G31E06S33R08E19R16
 136609742.317 6                  25995970.019
        39.600
 124252130.852 6  96819863.35542  23644390.881    23644390.3674   23644397.5614
        38.200          17.2004
 118638466.155 6  92445584.64044  22576146.433    22576146.0944   22576151.8794
        40.300          24.2004
 121053849.460 6  94327717.59343  23035777.895    23035777.8784   23035789.0344
        36.400          18.4004
 106934134.571 6  83325119.93543  20348832.398    20348831.4644   20348832.6334
        39.500          22.9004
 114671280.327 6  89354290.51345  21821221.648    21821221.1664   21821224.8874
        40.100          34.3004
 104872549.958 8  81718873.60247  19956569.275    19956568.9184   19956571.8714
        49.500          43.0004


 110066901.308 4                  20626489.999    20626489.093
        28.500
 112965819.464 7                  21192085.728    21192084.609
        42.000


 109320272.345 8  85184625.34347  20802961.500    20802961.1344   20802962.7804
        48.500          45.0004
 123808106.172 8                  23559880.295
        49.500
 103383922.548 8  80409752.781 8  19312984.309    19312984.313    19312990.743
        51.500          49.500
 103881307.255 8  80796587.972 8  19453618.611    19453618.892    19453624.253
        51.800          50.100
 131755409.663 6                  25072209.775
        40.200


 198904513.545 6                  37850278.781
        38.700
 124971689.102 4  97380517.96641  23781313.410    23781313.0624   23781315.5444
        27.800           9.1004
 131155606.014 8                  24958086.915
        48.800
 202040372.246 6                  38447022.513
        41.900
 118535884.667 4  92194518.443 6  22135739.496    22135736.692    22135731.071
        28.900          40.200
 126738026.413 6                  24117451.045
        41.000
 116633119.660 7  90714639.365 7  21833945.600    21833946.444    21833950.938
        42.900          44.000
 25  1  1 17  5 30.0000000  0 24E31G07G26G08G16G27G04G03R06R10E09G09
                                E04R07R09E21S35S31G31E06S33R08E19R16
 136572013.004 6                  25988790.794
        40.500
 124218646.705 6  96793771.57841  23638008.431    23638007.8014   23638025.4054
        38.000           9.4004
 118685630.412 6  92482336.09844  22585116.495    22585116.0984   22585128.0224
        36.400          24.9004
 121000030.915 5  94285789.22042  23025539.543    23025539.1594   23025551.7014
        35.600          17.5004
 106959924.733 7  83345216.14444  20353740.669    20353739.6954   20353741.3924
        42.300          26.1004
 114634505.965 6  89325635.26745  21814223.109    21814222.6094   21814226.6194
        37.600          33.3004
 104870187.407 8  81717032.59647  19956119.456    19956119.1034   19956122.1334
        50.700          44.3004


 110117952.637 4                  20636055.317    20636055.029
        29.500
 112932349.750 6                  21185807.456    21185806.411
        41.300


 109291700.299 8  85162361.45647  20797524.019    20797523.6354   20797526.1824
        48.100          44.7004
 123793640.801 8                  23557127.650
        50.400
 103377492.101 8  80404751.295 8  19311784.699    19311784.483    19311789.356
        53.000          49.600
 103886165.528 8  80800366.615 8  19454529.232    19454528.957    19454533.302
        51.500          50.300
 131786002.822 6                  25078030.118
        37.600
 200842010.073 6                  38218977.915
        39.200
 198904508.567 7                  37850283.705
        42.800
 125012888.482 5  97412621.15441  23789151.766    23789151.5164   23789154.1604
        33.100           9.3004
 131124727.865 7                  24952211.156
        46.400
 202040387.001 7                  38447028.170
        43.200
 118480534.064 5  92151468.005 6  22125409.954    22125405.947    22125394.486
        30.500          39.800
 126766417.738 6                  24122853.263
        41.900
 116679853.333 7  90750987.830 7  21842690.984    21842693.041    21842700.593
        43.300          44.200
 25  1  1 17  5 45.0000000  0 24E31G07G26G08G16G27G04G03R06R10E09G09
                                E04R07R09E21S35S31G31E06S33R08E19R16
 136534332.329 6                  25981619.873
        39.900
 124185170.729 5  96767686.95842  23631641.398    23631640.9254   23631651.9124
        30.900          17.5004
 118732836.724 6  92519120.22044  22594103.229    22594102.8454   22594111.1814
        38.300          25.4004
 120946243.644 6  94243877.33143  23015300.271    23015299.7844   23015311.6594
        37.900          19.2004
 106985839.335 6  83365409.37744  20358672.259    20358671.2674   20358672.9434
        40.500          26.4004
 114597845.747 6  89297068.96746  21807248.398    21807247.9924   21807251.6574
        39.900          38.3004
 104867958.953 8  81715296.13747  19955695.265    19955694.9264   19955697.6064
        50.900          44.1004
 124067144.789 5  96675778.70642  23609192.157    23609192.2154   23609212.2574
        33.700          17.5004
 110169135.139 5                  20645648.411    20645650.179
        32.400
 112898972.780 7                  21179544.288    21179544.740
        42.100
 142657475.387 4                  27146816.373
        28.400
 109263238.606 8  85140183.50747  20792107.633    20792107.2534   20792111.4144
        49.200          45.8004
 123779250.002 8                  23554389.145
        49.700
 103371263.486 8  80399906.779 8  19310620.633    19310620.699    19310625.460
        53.300          48.600
 103891124.515 8  80804223.652 8  19455457.722    19455458.178    19455462.913
        53.200          51.000
 131816643.525 6                  25083861.700
        36.900
 200841973.489 5                  38218969.432
        35.000
 198904505.179 7                  37850284.818
        42.100
 125054104.765 5  97444737.42942  23796993.683    23796993.3534   23796998.6244
        33.300          14.9004
 131093895.890 7                  24946343.210
        46.300
 202040403.702 6                  38447027.039
        39.600
 118425274.290 5  92108488.150 6  22115079.647                    22115073.865
        32.800          41.000
 126794878.314 7                  24128269.631
        42.600
 116726604.496 7  90787349.863 7  21851445.401    21851446.765    21851451.921
        44.600          44.800
 25  1  1 17  6  0.0000000  0 24E31G07G26G08G16G27G04G03R06R10E09G09
                                E04R07R09E21S35S31G31E06S33R08E19R16
 136496698.644 6                  25974457.418
        39.800
 124151676.809 6  96741598.18743  23625270.697    23625270.3404   23625282.1444
        39.900          20.9004
 118780082.795 6  92555935.38444  22603094.194    22603093.7474   22603101.1014
        38.300          24.6004
 120892490.394 5  94201991.88343  23005071.654    23005071.1674   23005079.8444
        35.900          20.5004
 107011876.149 5  83385697.85244  20363625.317    20363624.3164   20363626.9834
        34.400          24.7004
 114561298.347 7  89268590.59546  21800291.684    21800291.2784   21800298.7224
        42.400          41.5004
 104865862.986 8  81713662.90847  19955296.213    19955295.8744   19955298.7914
        51.500          44.1004


 110220446.169 5                  20655263.827    20655265.692
        34.100
 112865686.048 6                  21173299.562    21173299.618
        38.800


 109234885.836 7  85118090.44947  20786712.820    20786712.4314   20786716.1554
        47.100          44.1004
 123764932.247 8                  23551664.918
        50.200
 103365235.160 8  80395218.093 8  19309493.868    19309494.579    19309499.336
        53.700          48.700
 103896181.976 8  80808157.227 8  19456404.526    19456404.820    19456409.975
        51.000          51.100
 131847330.266 4                  25089704.987
        29.900
 200841936.432 6                  38218949.717
        40.200
 198904500.545 6                  37850277.588
        40.300


 131063108.476 7                  24940485.235
        46.300
 202040420.542 7                  38447034.412
        45.600
                  92065578.161 6                  22104766.851    22104772.329
                        40.600
 126823406.490 7                  24133698.006
        42.300
 116773371.150 7  90823723.903 7  21860201.994    21860201.773    21860206.298
        44.000          43.600
 25  1  1 17  6 15.0000000  0 24E31G07G26G08G16G27G04G03R06R10E09G09
                                E04R07R09E21S35S31G31E06S33R08E19R16
 136459108.664 6                  25967304.483
        40.000
 124118210.959 6  96715520.87843  23618901.791    23618901.8844   23618909.7294
        37.900          23.1004
 118827365.197 6  92592778.69643  22612090.958    22612090.4134   22612097.0854
        36.000          21.9004
 120838768.070 6  94160130.53943  22994846.790    22994846.5494   22994855.4304
        38.600          21.6004
 107038031.622 5  83406078.71543  20368601.133    20368600.1994   20368604.3644
        35.100          22.3004
 114524860.791 6  89240197.78446  21793358.689    21793358.3054   21793365.5344
        40.700          40.3004
 104863896.239 8  81712130.36047  19954922.766    19954922.4224   19954924.6374
        53.400          45.3004
 124169697.143 5  96755642.85942  23628698.046    23628698.0814   23628714.1884
        35.700          12.8004
 110271881.946 5                  20664901.820    20664903.041
        34.800
 112832486.801 6                  21167069.803    21167069.351
        38.800
 142578092.894 4                  27131704.946
        27.400
 109206638.884 7  85096079.85147  20781337.942    20781337.5764   20781340.4424
        46.200          43.8004
 123750684.253 8                  23548953.441
        50.600
 103359403.825 8  80390682.611 8  19308404.418    19308405.224    19308409.557
        52.700          48.800
 103901334.609 8  80812164.801 8  19457369.342    19457369.872    19457374.567
        50.300          51.200
 131878058.866 5                  25095548.166
        35.300


 198904493.481 7                  37850281.317
        42.100


 131032362.371 7                  24934633.279
        46.400
 202040432.809 7                  38447032.168
        44.700
 118315021.089 6  92022735.855 6  22094477.856    22094477.791    22094483.953
        39.200          39.600
 126851998.619 7                  24139138.640
        42.300
 116820149.007 7  90860106.707 7  21868956.586    21868958.180    21868962.799
        43.300          43.500
 25  1  1 17  6 30.0000000  0 24E31G07G26G08G16G27G04G03R06R10E09G09
                                E04R07R09E21S35S31G31E06S33R08E19R16
 136421570.136 6                  25960160.757
        41.500
 124084755.996 4  96689452.06043  23612533.080    23612533.3254   23612541.8394
        27.600          23.4004
 118874691.207 6  92629656.06344  22621098.940    22621098.3994   22621103.0624
        41.000          24.5004


 107064312.936 6  83426557.72844  20373606.162    20373605.3224   20373605.3104
        39.700          25.5004
 114488541.212 7  89211896.91546  21786447.009    21786446.6034   21786454.4584
        42.300          39.2004
 104862066.525 8  81710704.59847  19954574.308    19954573.9694   19954576.2534
        52.900          45.3004
 124220961.973 5  96795589.55141  23638446.393    23638446.3314   23638469.3504
        34.900           6.8004
 110323449.989 5                  20674569.982    20674567.867
        34.200
 112799382.493 7                  21160863.596    21160861.997
        44.400
 142538423.167 5                  27124157.998
        31.700
 109178505.704 8  85074157.87847  20775984.370    20775983.9954   20775986.3094
        48.300          44.2004
 123736513.893 8                  23546256.851
        49.900
 103353777.550 8  80386306.623 8  19307353.197    19307353.655    19307359.253
        51.400          48.900
 103906590.038 8  80816252.415 8  19458353.672    19458353.710    19458358.033
        50.500          50.600
 131908837.206 6                  25101407.919
        38.300


 198904489.897 6                  37850284.778
        40.800
 125177815.064 5  97541159.41641  23820541.249    23820541.2624   23820547.4544
        30.300           9.5004
 131001665.559 7                  24928792.201
        47.200
 202040449.241 7                  38447043.821
        42.400
 118260032.873 5  91979967.229 6  22084211.106    22084208.204    22084215.328
        34.200          38.700
 126880662.578 7                  24144593.780
        43.200
 116866946.249 6  90896504.445 6  21877715.619    21877715.276    21877722.681
        40.100          41.000
 25  1  1 17  6 45.0000000  0 24E31G07G26G08G16G27G04G03R18R06R10E09
                                G09E04R07R09E21S35S31E06S33R08E19R16
 136384078.851 7                  25953027.380
        42.300
 124051308.329 6  96663341.87444  23606172.578    23606173.1454   23606174.4894
        39.000          26.2004
 118922056.245 6  92666563.81543  22630111.141    22630110.5514   22630115.9394
        38.900          20.7004
 120731391.458 5  94076450.90843  22974420.804    22974421.1794   22974430.3824
        33.300          23.3004
 107090715.520 6  83447131.26244  20378629.635    20378628.7994   20378629.7864
        41.800          28.5004
 114452335.512 7  89183684.79446  21779556.164    21779555.7174   21779564.0184
        42.600          37.7004
 104860369.615 8  81709382.31647  19954251.657    19954251.3274   19954253.1654
        52.900          45.4004


                  97336983.631 5                                  23444353.450
                        32.200
 110375145.336 5                  20684253.691    20684255.807
        32.100
