     2.11           OBSERVATION DATA    M (MIXED)           RINEX VERSION / TYPE
teqc  2019Feb25                         20260317 16:20:09UTCPGM / RUN BY / DATE
Linux 2.4.21-27.ELsmp|Opteron|gcc -static|Linux 64|=+       COMMENT
BIT 2 OF LLI FLAGS DATA COLLECTED UNDER A/S CONDITION       COMMENT
-Unknown-                                                   MARKER NAME
-Unknown-           -Unknown-                               OBSERVER / AGENCY
-Unknown-           -Unknown-           -Unknown-           REC # / TYPE / VERS
-Unknown-           -Unknown-                               ANT # / TYPE
        0.0000        0.0000        0.0000                  APPROX POSITION XYZ
        0.0000        0.0000        0.0000                  ANTENNA: DELTA H/E/N
     1     1                                                WAVELENGTH FACT L1/2
     7    L1    L2    C1    P1    P2    S1    S2            # / TYPES OF OBSERV
 SNR is mapped to RINEX snr flag value [0-9]                COMMENT
  L1 & L2: min(max(int(snr_dBHz/6), 0), 9)                  COMMENT
  2025     1     1    10     0    0.0000000     GPS         TIME OF FIRST OBS
    18                                                      LEAP SECONDS
                                                            END OF HEADER
 25  1  1 10  0  0.0000000  0 32G10G24E19E08R04S31S35G21R12E13S48S33
                                R02R13E29G23R19G18E07G15E33R20E26R14
                                G08G27R05G32R18G28R17R03
 111512164.698 8  86892615.93048  21220052.947    21220052.3394   21220053.7934
        51.100          50.5004
 113367081.451 7  88338027.23347  21573026.980    21573026.5744   21573028.3014
        45.900          45.1004
 145717246.277 5                  27729068.508
        32.800
 142855608.578 6                  27184509.935
        40.500
 109310273.647 8  85019155.300 7  20412919.769    20412919.922    20412925.078
        51.100          47.500
 198974336.228 7                  37863550.213
        45.800
 200954119.905 7                  38240292.896
        44.000
 133016023.218 6 103648855.75642  25312105.014    25312103.8034   25312105.2544
        36.000          13.7004
 122909065.063 7  95595976.441 7  23008828.241    23008827.911    23008834.699
        47.300          42.400
 137021958.095 6                  26074393.456
        41.700
 412717640.010 5                  78537701.732
        32.200
 202092822.292 7                  38456952.422
        45.100
 125268032.520 7  97430735.219 7  23475170.105    23475171.126    23475176.651
        45.800          43.100
 119894704.266 6                  22452412.405    22452412.465
        39.700
 127903692.761 7                  24339256.494
        47.300
 108243200.350 7  84345362.92946  20597988.634    20597988.2324   20597988.1994
        47.800          38.6004
 106357466.976 7  82722503.109 7  19882395.065    19882394.847    19882400.096
        42.900          45.900
 117249214.435 7  91363026.65045  22311779.467    22311779.1374   22311779.9314
        46.400          33.9004
 123845972.846 8                  23567096.713
        48.800
 127458034.195 6  99317968.43445  24254448.102    24254447.6514   24254448.5494
        39.200          32.2004
 130729588.170 7                  24877006.784
        45.600
 128770412.363 5 100154805.976 6  24080714.336    24080714.956    24080723.763
        34.000          39.000
 122792997.600 8                  23366725.469
        48.600
 129678705.383 7 100861251.414 6  24327395.572    24327395.523    24327403.720
        43.600          38.900
 127632164.592 6  99453652.60345  24287588.037    24287587.2644   24287590.2554
        38.600          32.0004
 124975715.707 6  97383691.67046  23782083.958    23782083.2394   23782086.1084
        41.800          37.2004
 128051842.537 7  99595887.770 6  23954740.409    23954741.107    23954746.694
        42.600          40.600
 115098867.525 8  89687442.65848  21902579.648    21902579.1754   21902581.3004
        49.300          48.8004
 107511283.315 8  83619929.574 8  20140478.458    20140478.755    20140484.673
        51.500          48.500
 133827747.463 5 104281362.35242  25466574.169    25466573.8484   25466575.3364
        34.700          16.0004
 125368412.347 7  97508803.016 6  23428085.548    23428085.357    23428091.310
        44.100          40.300
 107624944.722 8  83708328.544 8  20105236.728    20105236.801    20105241.652
        52.200          48.200
 25  1  1 10  0 15.0000000  0 32G10G24E19E08R04S31S35G21R12E13S48S33
                                R02R13E29G23R19G18E07G15E33R20E26R14
                                G08G27R05G32R18G28R17R03
 111490027.699 8  86875366.31948  21215840.224    21215839.6214   21215841.2744
        51.200          50.4004
 113387357.199 7  88353826.51447  21576885.691    21576885.2854   21576886.6494
        45.600          44.9004
 145678896.454 5                  27721770.707
        33.800
 142893905.140 6                  27191797.747
        41.500
 109291409.113 8  85004482.896 7  20409397.111    20409397.200    20409402.200
        51.100          47.500
 198974333.399 7                  37863549.511
        46.000
 200954113.431 7                  38240294.305
        44.200
 132971835.725 5 103614424.16242  25303695.345    25303694.0674   25303696.5824
        35.600          14.7004
 122915144.741 7  95600704.990 7  23009965.882    23009965.577    23009972.750
        46.600          42.800
 137063789.392 7                  26082353.829
        42.000
 412717492.119 5                  78537681.422
        32.500
 202092804.396 7                  38456949.292
        45.100
 125313415.754 7  97466033.284 7  23483675.761    23483675.875    23483681.538
        46.500          43.300
 119859684.379 6                  22445855.152    22445854.866
        40.500
 127880778.549 7                  24334896.056
        47.400
 108254301.595 7  84354013.25146  20600101.415    20600101.0094   20600100.7144
        47.700          38.4004
 106347086.604 7  82714429.486 7  19880454.193    19880454.511    19880459.541
        42.500          45.700
 117297331.112 7  91400520.14045  22320935.686    22320935.3564   22320936.2804
        46.000          33.6004
 123861197.326 8                  23569993.887
        49.200
 127509876.098 6  99358364.72445  24264313.754    24264313.2894   24264313.8384
        39.400          32.2004
 130700241.188 7                  24871422.629
        45.800
 128708233.794 5 100106445.109 6  24069085.251    24069086.783    24069096.427
        33.500          37.600
 122802521.645 8                  23368537.812
        49.000
 129621331.182 7 100816627.097 6  24316631.653    24316631.836    24316641.182
        43.500          39.100
 127637554.247 6  99457852.37845  24288613.719    24288612.9284   24288616.1664
        38.900          32.1004
 125004479.134 7  97406104.72546  23787557.514    23787556.7994   23787559.4764
        42.000          37.0004
 128008923.766 6  99562506.494 6  23946711.139    23946711.267    23946716.872
        41.200          39.700
 115069798.748 8  89664791.64848  21897048.107    21897047.6294   21897049.7644
        49.100          48.7004
 107553712.083 8  83652929.719 8  20148426.454    20148426.974    20148432.991
        51.000          48.500
 133771078.619 5 104237204.80742  25455791.446    25455791.1024   25455791.6604
        35.100          14.6004
 125437476.015 7  97562519.202 6  23440990.158    23440991.269    23440998.000
        43.700          40.300
 107646462.036 8  83725064.238 8  20109256.075    20109256.280    20109261.064
        52.100          48.000
 25  1  1 10  0 30.0000000  0 32G10G24E19E08R04S31S35G21R12E13S48S33
                                R02R13E29G23R19G18E07G15E33R20E26R14
                                G08G27R05G32R18G28R17R03
 111467941.594 8  86858156.36748  21211637.408    21211636.7964   21211638.4414
        50.700          50.7004
 113407797.302 7  88369753.86547  21580775.478    21580775.0854   21580776.2684
        45.200          45.1004
 145640581.986 5                  27714479.353
        33.600
 142932211.776 6                  27199086.791
        41.200
 109272630.566 8  84989877.351 7  20405890.383    20405890.648    20405895.375
        52.000          47.300
 198974339.951 7                  37863551.121
        46.000
 200954116.729 7                  38240294.672
        44.300
 132927693.938 5 103580028.09842  25295296.151    25295294.8284   25295296.4514
        34.600          14.1004
 122921416.785 7  95605583.137 7  23011140.343    23011140.675    23011147.069
        47.400          42.500
 137105675.758 7                  26090324.178
        42.300
 412717353.418 5                  78537664.134
        33.100
 202092796.713 7                  38456948.746
        45.400
 125358795.117 7  97501328.353 7  23492179.552    23492180.275    23492185.849
        46.200          42.800
 119824806.540 6                  22439324.128    22439322.894
        41.000
 127857935.157 7                  24330549.155
        47.300
 108265482.896 7  84362725.95346  20602229.222    20602228.8204   20602228.4204
        47.000          38.7004
 106336922.692 7  82706524.238 7  19878554.502    19878554.278    19878559.352
        42.600          45.800
 117345538.446 7  91438084.27445  22330109.390    22330109.0824   22330109.7874
        46.000          33.9004
 123876487.382 8                  23572903.490
        49.300
 127561726.085 6  99398767.29545  24274180.436    24274179.9854   24274180.2634
        39.700          32.3004
 130670967.872 7                  24865851.936
        46.200
 128646118.647 5 100058133.591 6  24057472.408    24057470.728    24057480.359
        34.500          39.100
 122812152.465 8                  23370370.505
        48.900
 129563936.638 7 100771986.971 6  24305864.115    24305864.566    24305873.675
        43.200          38.600
 127643077.321 6  99462156.09445  24289664.041    24289663.2544   24289667.0194
        39.200          32.4004
 125033342.833 6  97428595.92746  23793050.135    23793049.4294   23793051.8724
        41.600          37.3004
 127966051.161 7  99529161.152 6  23938691.510    23938691.416    23938697.227
        42.500          40.000
 115040815.944 8  89642207.64648  21891532.949    21891532.4894   21891534.5454
        48.900          49.0004
 107596307.698 8  83686059.615 8  20156406.529    20156406.379    20156412.441
        51.300          48.500
 133714401.470 5 104193040.76942  25445006.755    25445006.3714   25445006.6074
        35.000          15.0004
 125506563.486 7  97616253.944 6  23453901.991    23453901.939    23453908.447
        44.000          40.100
 107668043.281 8  83741849.651 8  20113287.329    20113287.336    20113292.531
        51.900          48.200
 25  1  1 10  0 45.0000000  0 32G10G24E19E08R04S31S35G21R12E13S48S33
                                R02R13E29G23R19G18E07G15E33R20E26R14
                                G08G27R05G32R18G28R17R03
 111445891.830 8  86840974.73548  21207441.704    21207441.0964   21207442.5214
        51.000          50.9004
 113428386.833 7  88385797.65647  21584693.205    21584692.8034   21584694.3394
        45.800          45.2004
 145602288.148 5                  27707192.096
        33.300
 142970513.764 6                  27206375.551
        40.700
 109253923.140 8  84975327.141 7  20402396.567    20402396.902    20402402.009
        51.400          47.300
 198974340.667 7                  37863551.080
        46.000
 200954113.824 7                  38240294.515
        44.400
 132883582.803 5 103545655.74242  25286902.950    25286901.5964   25286902.3624
        34.900          14.1004
 122927866.176 7  95610599.159 7  23012346.773    23012347.660    23012354.850
        47.200          42.900
 137147602.340 6                  26098302.507
        41.700
 412717209.883 5                  78537646.704
        32.800
 202092781.747 7                  38456942.146
        45.200
 125404155.495 7  97536608.652 7  23500680.420    23500680.356    23500685.952
        47.200          42.900
 119790056.372 6                  22432816.463    22432815.221
        40.500
 127835147.847 7                  24326212.881
        47.100
 108276729.762 8  84371489.74346  20604369.354    20604368.9704   20604368.6234
        48.000          38.9004
 106326960.826 7  82698776.103 7  19876691.934    19876692.160    19876697.038
        42.500          45.500
 117393821.483 7  91475707.39745  22339297.487    22339297.1794   22339297.8004
        45.800          34.0004
 123891828.155 8                  23575822.782
        49.000
 127613569.244 6  99439164.50245  24284045.852    24284045.4144   24284045.7454
        39.000          32.4004
 130641753.779 7                  24860292.735
        45.900
 128584052.098 5 100009859.730 6  24045862.075    24045862.642    24045874.468
        33.000          40.000
 122821875.393 8                  23372220.740
        48.600
 129506507.755 7 100727320.109 6  24295091.110    24295090.983    24295099.507
        43.000          38.600
 127648718.975 6  99466552.21745  24290737.734    24290736.9434   24290740.0614
        39.100          32.4004
 125062291.715 7  97451153.49746  23798558.667    23798557.9484   23798560.6294
        42.200          37.5004
 127923209.210 7  99495839.620 6  23930676.801    23930677.830    23930683.073
        42.600          40.100
 115011904.365 8  89619679.14548  21886030.994    21886030.5214   21886032.8264
        49.500          49.2004
 107639054.731 8  83719307.283 8  20164414.788    20164414.760    20164420.442
        51.500          48.400
 133657701.651 5 104148859.06042  25434217.128    25434216.7484   25434217.0294
        35.300          17.5004
 125575659.390 7  97669995.187 6  23466814.590    23466813.789    23466821.285
        44.100          40.800
 107689673.190 8  83758672.899 8  20117327.922    20117328.207    20117333.251
        51.800          48.000
 25  1  1 10  1  0.0000000  0 32G10G24E19E08R04S31S35G21R12E13S48S33
                                R02R13E29G23R19G18E07G15E33R20E26R14
                                G08G27R05G32R18G28R17R03
 111423885.859 8  86823827.23248  21203253.977    21203253.3744   21203254.9354
        51.200          50.7004
 113449132.944 7  88401963.45047  21588641.357    21588640.9514   21588642.1834
        45.700          45.0004
 145564022.443 5                  27699910.820
        33.400
 143008818.290 6                  27213664.399
        40.200
 109235294.133 8  84960837.916 7  20398917.669    20398918.011    20398922.644
        51.300          47.400
 198974342.897 7                  37863551.389
        45.800
 200954113.081 7                  38240296.554
        44.300
 132839510.578 5 103511313.70642  25278515.226    25278513.9074   25278515.4944
        35.700          14.1004
 122934500.765 7  95615759.332 7  23013589.584    23013589.921    23013596.526
        47.600          42.600
 137189576.321 6                  26106290.077
        41.700
 412717067.717 5                  78537634.349
        33.100
 202092769.636 7                  38456941.806
        45.100
 125449504.746 7  97571880.291 7  23509178.747    23509178.630    23509184.150
        46.300          42.700
 119755441.581 6                  22426333.685    22426333.917
        40.700
 127812423.980 7                  24321888.512
        46.800
 108288049.594 7  84380310.39346  20606523.212    20606522.8194   20606522.7114
        47.800          38.7004
 106317208.222 7  82691190.753 7  19874868.619    19874868.892    19874873.832
        42.400          45.600
 117442187.245 7  91513394.97245  22348500.973    22348500.6694   22348501.5984
        46.200          33.8004
 123907226.850 8                  23578752.951
        48.700
 127665412.957 6  99479562.15745  24293911.782    24293911.3354   24293911.3694
        39.900          32.2004
 130612606.456 7                  24854746.092
        45.800
 128522042.483 5  99961630.075 6  24034269.757    24034268.776    24034277.963
        33.400          39.100
 122831697.772 8                  23374089.814
        48.300
 129449052.037 7 100682632.387 6  24284312.911    24284312.589    24284321.635
        43.000          38.600
 127654486.407 6  99471046.33845  24291835.407    24291834.6204   24291837.8094
        39.100          32.4004
 125091332.814 6  97473782.91246  23804084.831    23804084.1124   23804087.2064
        41.600          37.2004
 127880405.788 7  99462548.061 6  23922669.245    23922669.592    23922675.461
        42.600          39.800
 114983071.415 8  89597211.91548  21880544.296    21880543.8234   21880546.0564
        49.100          49.0004
 107681960.217 8  83752678.210 8  20172452.173    20172452.399    20172458.179
        51.200          48.600
 133600986.719 5 104104665.61342  25423423.751    25423423.4164   25423424.4334
        35.700          16.7004
 125644770.754 7  97723748.478 6  23479728.246    23479728.761    23479735.407
        43.800          39.900
 107711359.232 8  83775539.803 8  20121379.686    20121379.488    20121384.527
        52.500          48.100
 25  1  1 10  1 15.0000000  0 32G10G24E19E08R04S31S35G21R12E13S48S33
                                R02R13E29G23R19G18E07G15E33R20E26R14
                                G08G27R05G32R18G28R17R03
 111401919.660 8  86806710.70348  21199073.857    21199073.2544   21199074.8944
        50.900          50.8004
 113470031.304 7  88418247.89047  21592617.438    21592617.0234   21592618.9984
        45.600          45.1004
 145525780.835 5                  27692633.546
        32.700
 143047121.122 6                  27220953.459
        40.600
 109216739.190 8  84946406.302 7  20395452.714    20395453.384    20395458.482
        52.000          47.500
 198974342.580 7                  37863551.805
        45.900
 200954109.191 7                  38240291.649
        44.100
 132795473.675 5 103476999.17142  25270135.596    25270134.3094   25270135.4544
        35.700          14.2004
 122941316.045 7  95621060.030 7  23014864.573    23014865.394    23014872.105
        47.700          42.000
 137231593.391 6                  26114285.761
        41.800
 412716922.467 5                  78537610.676
        33.300
 202092755.234 7                  38456938.193
        45.000
 125494838.083 7  97607139.544 7  23517674.265    23517674.534    23517679.826
        46.400          42.400
 119720958.825 6                  22419877.124    22419876.000
        41.000
 127789759.391 7                  24317575.481
        46.800
 108299438.295 7  84389184.71046  20608690.527    20608690.1344   20608689.8884
        47.400          38.7004
 106307660.824 7  82683765.007 7  19873084.420    19873084.383    19873089.060
        42.700          45.800
 117490631.302 7  91551143.54145  22357719.717    22357719.4134   22357720.1834
        46.500          33.9004
 123922679.167 8                  23581693.412
        48.500
 127717252.840 6  99519956.85645  24303776.557    24303776.0974   24303776.1184
        39.400          32.3004
 130583522.017 7                  24849211.662
        45.400
 128460085.243 5  99913441.036 6  24022680.804    24022680.825    24022691.082
        32.200          40.500
 122841615.492 8                  23375977.075
        48.100
 129391566.016 7 100637921.102 6  24273528.187    24273528.399    24273537.504
        43.300          38.800
 127660375.405 6  99475635.21345  24292956.794    24292956.0304   24292958.4564
        37.600          32.0004
 125120461.628 7  97496480.68946  23809627.951    23809627.2234   23809630.3594
        42.100          37.3004
 127837636.531 7  99429283.093 6  23914668.162    23914669.095    23914674.155
        42.500          40.200
 114954312.974 8  89574802.74148  21875071.819    21875071.3594   21875073.5014
        49.200          49.1004
 107725019.601 8  83786168.849 8  20180518.266    20180518.826    20180524.686
        51.200          48.600
 133544252.870 6 104060457.39842  25412627.466    25412627.1534   25412628.1744
        36.600          16.0004
 125713892.771 7  97777510.076 6  23492645.549    23492645.485    23492653.138
        43.800          40.100
 107733096.559 8  83792446.627 8  20125439.846    20125440.330    20125444.980
        52.000          48.000
 25  1  1 10  1 30.0000000  0 32G10G24E19E08R04S31S35G21R12E13S48S33
                                R02R13E29G23R19G18E07G15E33R20E26R14
                                G08G27R05G32R18G28R17R03
 111379999.162 8  86789629.79948  21194902.627    21194902.0194   21194903.5594
        50.700          50.7004
 113491087.511 7  88434655.32447  21596624.404    21596623.9844   21596625.8814
        45.200          44.9004
 145487568.947 5                  27685362.227
        32.300
 143085427.873 6                  27228243.186
        39.600
 109198264.080 8  84932036.767 7  20392002.888    20392003.183    20392008.420
        52.100          47.600
 198974345.956 7                  37863551.595
        45.800
 200954109.532 7                  38240291.461
        44.000
 132751478.310 6 103442717.14042  25261762.980    25261761.6354   25261763.4054
        36.200          14.8004
 122948317.843 7  95626505.685 7  23016176.533    23016176.478    23016183.579
        46.900          42.300
 137273659.204 6                  26122290.544
        41.400
 412716782.028 5                  78537601.340
        32.700
 202092743.421 7                  38456937.008
        45.100
 125540161.654 7  97642391.183 7  23526167.249    23526167.978    23526173.234
        46.400          42.500
 119686614.126 6                  22413444.017    22413444.001
        40.300
 127767159.896 7                  24313275.046
        46.700
 108310901.721 7  84398117.26246  20610871.824    20610871.4354   20610871.2974
        47.600          38.6004
 106298324.969 7  82676503.781 7  19871339.295    19871338.921    19871343.835
        42.400          46.000
 117539159.221 7  91588957.46545  22366954.203    22366953.8904   22366954.7144
        46.100          33.7004
 123938190.771 8                  23584645.158
        48.500
 127769094.395 6  99560352.82045  24313641.544    24313641.0624   24313641.2554
        39.500          31.9004
 130554506.330 7                  24843689.786
        45.400
 128398187.156 5  99865297.585 6  24011106.976    24011107.108    24011116.336
        34.700          39.700
 122851634.358 8                  23377883.573
        48.300
 129334056.209 7 100593191.275 6  24262739.545    24262739.894    24262748.596
        43.700          40.000
 127666391.539 6  99480323.14245  24294100.487    24294099.7054   24294103.2634
        39.200          32.2004
 125149683.619 6  97519251.07146  23815188.815    23815188.0964   23815191.1664
        41.000          37.2004
 127794907.315 7  99396049.258 6  23906674.381    23906675.372    23906681.147
        42.800          40.600
 114925634.847 8  89552456.15548  21869614.304    21869613.8354   21869616.2254
        49.200          49.0004
 107768238.112 8  83819783.235 8  20188614.271    20188614.913    20188620.836
        50.700          48.400
 133487506.150 6 104016239.16942  25401828.918    25401828.5974   25401829.6044
        36.000          16.5004
 125783030.964 7  97831284.181 6  23505567.313    23505566.856    23505573.837
        44.500          40.600
 107754891.533 8  83809398.261 7  20129511.259    20129511.702    20129516.504
        52.200          47.900
 25  1  1 10  1 45.0000000  0 32G10G24E19E08R04S31S35G21R12E13S48S33
                                R02R13E29G23R19G18E07G15E33R20E26R14
                                G08G27R05G32R18G28R17R03
 111358121.477 8  86772582.25748  21190739.395    21190738.8014   21190740.3664
        50.900          50.8004
 113512298.300 7  88451183.20947  21600661.002    21600660.5874   21600662.1824
        45.200          45.0004
 145449384.032 5                  27678096.027
        33.700
 143123735.433 6                  27235532.846
        40.300
 109179865.761 8  84917726.983 7  20388567.006    20388567.189    20388572.573
        51.600          47.700
 198974349.388 7                  37863553.093
        45.800
 200954109.113 7                  38240292.217
        44.200
 132707521.669 5 103408465.35842  25253398.625    25253397.2574   25253398.8374
        34.500          14.1004
 122955503.279 7  95632094.309 7  23017521.774    23017521.551    23017528.205
        46.700          42.200
 137315770.600 6                  26130303.554
        41.700
 412716641.586 5                  78537574.514
        32.800
 202092732.547 7                  38456935.940
        45.200
 125585472.101 7  97677632.629 7  23534658.826    23534659.518    23534664.707
        46.500          42.600
 119652405.138 6                  22407038.193    22407037.717
        40.600
 127744622.418 7                  24308986.367
        47.100
 108322436.875 7  84407105.70146  20613067.026    20613066.6334   20613066.3364
        47.700          38.7004
 106289197.455 7  82669404.611 7  19869633.118    19869632.805    19869637.719
        42.600          46.100
 117587767.645 7  91626834.13345  22376204.181    22376203.8464   22376204.6374
        46.600          33.7004
 123953758.468 8                  23587607.740
        48.600
 127820934.529 6  99600747.65645  24323506.816    24323506.3024   24323506.2134
        39.400          32.2004
 130525556.664 7                  24838181.240
        45.900
 128336346.321 5  99817198.880 6  23999541.925    23999541.735    23999552.751
        32.100          38.600
 122861751.365 8                  23379808.946
        48.500
 129276519.555 7 100548440.633 6  24251946.501    24251946.090    24251954.605
        43.600          38.300
 127672531.653 6  99485107.68045  24295269.381    24295268.6084   24295272.0424
        39.700          32.6004
 125178995.386 7  97542091.39946  23820767.019    23820766.3004   23820769.1624
        42.100          37.2004
 127752215.339 7  99362844.406 6  23898688.828    23898689.372    23898694.713
        42.500          40.100
 114897034.024 8  89530169.80448  21864171.855    21864171.3824   21864173.6804
        49.200          49.1004
 107811612.500 8  83853518.882 8  20196740.127    20196740.294    20196746.405
        50.800          48.400
 133430743.844 5 103972008.77042  25391027.779    25391027.4224   25391028.1224
        35.500          16.3004
 125852181.756 7  97885068.117 6  23518488.680    23518489.644    23518495.467
        45.100          40.000
 107776740.407 8  83826391.819 8  20133593.049    20133593.413    20133598.107
        52.500          48.100
 25  1  1 10  2  0.0000000  0 32G10G24E19E08R04S31S35G21R12E13S48S33
                                R02R13E29G23R19G18E07G15E33R20E26R14
                                G08G27R05G32R18G28R17R03
 111336283.265 8  86755565.47148  21186583.707    21186583.1174   21186584.7044
        50.700          50.9004
 113533660.035 7  88467828.70647  21604726.071    21604725.6474   21604727.1694
        45.800          45.2004
 145411222.719 5                  27670833.812
        34.000
 143162040.175 6                  27242821.756
        40.800
 109161540.512 8  84903474.004 7  20385145.119    20385145.302    20385150.234
        51.700          47.600
 198974349.539 7                  37863552.730
        45.900
 200954106.131 7                  38240292.167
        44.100
 132663600.323 6 103374241.22942  25245041.033    25245039.6964   25245040.8024
        36.800          15.0004
 122962868.827 7  95637823.096 7  23018900.559    23018900.926    23018907.374
        47.500          42.100
 137357923.902 6                  26138325.278
        41.900
 412716498.784 5                  78537561.014
        32.900
 202092718.233 7                  38456931.902
        45.100
 125630765.925 7  97712861.182 7  23543146.948    23543146.765    23543152.227
        45.900          42.400
 119618328.763 6                  22400656.654    22400656.041
        40.500
 127722143.546 7                  24304708.467
        47.200
 108334040.357 7  84416147.38146  20615275.113    20615274.7204   20615274.4064
        47.900          38.8004
 106280274.912 7  82662464.844 7  19867964.513    19867964.792    19867969.638
        42.500          46.000
 117636452.835 7  91664770.61045  22385468.579    22385468.2354   22385469.0924
        46.000          33.7004
 123969378.669 8                  23590580.217
        48.700
 127872769.667 6  99641138.59145  24333370.520    24333370.0024   24333370.1474
        40.100          32.2004
 130496669.787 7                  24832683.888
        46.100
 128274560.140 5  99769142.812 6  23987989.057    23987988.851    23987997.967
        33.100          38.800
 122871963.039 8                  23381752.113
        48.500
 129218953.374 7 100503666.973 6  24241146.500    24241147.041    24241155.220
        44.000          38.900
 127678792.188 6  99489986.03745  24296460.556    24296459.7924   24296463.0594
        38.600          32.3004
 125208393.108 6  97564998.69946  23826360.815    23826360.0964   23826363.2114
        41.500          36.9004
 127709556.860 7  99329665.595 6  23890707.988    23890708.648    23890714.593
        42.300          40.500
 114868507.061 8  89507941.00848  21858743.614    21858743.1454   21858745.1974
        49.100          49.2004
 107855138.728 8  83887372.620 8  20204894.491    20204894.441    20204900.346
        51.600          48.500
 133373962.817 6 103927763.82543  25380223.551    25380223.1944   25380223.2334
        36.500          18.1004
 125921341.132 7  97938858.742 6  23531413.072    23531413.160    23531419.896
        43.700          39.400
 107798639.689 8  83843424.588 7  20137683.800    20137684.451    20137689.101
        52.300          47.900
 25  1  1 10  2 15.0000000  0 32G10G24E19E08R04S31S35G21R12E13S48S33
                                R02R13E29G23R19G18E07G15E33R20E26R14
                                G08G27R05G32R18G28R17R03
 111314490.982 8  86738584.47948  21182436.750    21182436.1564   21182437.7754
        51.400          51.1004
 113555178.836 7  88484596.59747  21608820.802    21608820.3694   21608822.0934
        45.600          45.2004
 145373091.337 5                  27663576.473
        33.200
 143200348.361 6                  27250111.557
        40.700
 109143294.821 8  84889282.914 7  20381737.952    20381737.706    20381742.863
        51.600          47.700
 198974353.243 7                  37863552.976
        45.800
 200954105.805 7                  38240291.881
        44.000
 132619720.552 5 103340049.38642  25236690.299    25236688.9454   25236690.3294
        34.600          14.0004
 122970420.533 7  95643696.566 6  23020314.136    23020314.035    23020320.894
        46.800          41.700
 137400125.335 7                  26146356.301
        42.100
 412716359.750 5                  78537543.504
        32.300
 202092707.316 7                  38456928.606
        45.100
 125676049.544 7  97748081.789 7  23551633.359    23551632.948    23551638.307
        44.900          42.100
 119584391.956 6                  22394300.833    22394301.293
        40.100
 127699729.555 7                  24300443.515
        47.000
 108345718.584 7  84425247.30146  20617497.082    20617496.6804   20617496.6864
        47.700          38.9004
 106271563.911 7  82655689.634 7  19866336.412    19866336.289    19866341.301
        42.500          46.000
 117685220.819 7  91702771.60245  22394748.782    22394748.4434   22394749.3234
        46.300          33.7004
 123985057.558 8                  23593563.766
        48.700
 127924606.113 6  99681530.57545  24343234.811    24343234.2844   24343234.5154
        39.000          32.2004
 130467852.204 7                  24827200.112
        46.100
 128212835.381 5  99721134.670 6  23976445.712    23976444.838    23976455.184
        31.500          38.700
 122882275.760 8                  23383714.586
        48.600
 129161364.572 7 100458875.699 6  24230342.872    24230343.020    24230351.078
        43.500          38.500
 127685179.293 6  99494963.04345  24297675.606    24297674.8554   24297678.2584
        40.100          32.7004
 125237882.820 6  97587977.68746  23831972.689    23831971.9434   23831974.6554
        41.200          36.8004
 127666938.337 6  99296517.851 6  23882735.951    23882735.427    23882741.184
        41.900          40.100
 114840060.366 8  89485774.77848  21853330.203    21853329.7344   21853331.9454
        49.200          49.3004
 107898822.677 8  83921349.030 8  20213077.749    20213077.600    20213083.590
        51.000          48.600
 133317169.693 6 103883509.44243  25369415.076    25369414.6964   25369416.3014
        37.100          18.5004
 125990515.067 7  97992660.682 6  23544340.038    23544340.286    23544347.134
        44.400          40.400
 107820595.417 8  83860501.257 8  20141785.870    20141785.765    20141790.625
        52.500          48.000
 25  1  1 10  2 30.0000000  0 32G10G24E19E08R04S31S35G21R12E13S48S33
                                R02R13E29G23R19G18E07G15E33R20E26R14
                                G08G27R05G32R18G28R17R03
 111292737.613 8  86721633.80248  21178297.085    21178296.4824   21178298.2334
        51.100          50.8004
 113576847.330 7  88501481.13547  21612944.190    21612943.7664   21612945.4884
        45.300          45.0004
 145334982.673 5                  27656326.368
        33.900
 143238652.718 6                  27257400.693
        40.900
 109125121.186 8  84875147.860 7  20378344.143    20378344.111    20378348.905
        52.000          47.600
 198974352.937 7                  37863552.216
        45.900
 200954102.131 7                  38240290.039
        44.100
 132575875.587 5 103305884.62942  25228347.250    25228345.8784   25228346.8094
        35.000          14.9004
 122978151.320 8  95649709.300 7  23021761.542    23021761.785    23021768.528
        48.200          42.100
 137442367.593 6                  26154394.608
        41.300
 412716215.915 5                  78537517.649
        32.700
 202092692.438 7                  38456926.692
        45.300
 125721315.359 7  97783288.548 7  23560116.196    23560116.000    23560121.238
        45.200          42.400
 119550587.776 6                  22387971.305    22387969.739
        39.400
 127677373.331 7                  24296189.025
        47.100
 108357464.481 7  84434399.94946  20619732.575    20619732.1734   20619731.8584
        47.500          38.6004
 106263057.695 7  82649073.683 7  19864746.037    19864746.042    19864751.134
        42.500          46.200
 117734064.185 7  91740831.33245  22404043.544    22404043.2094   22404043.9844
        46.100          33.3004
 124000787.807 8                  23596557.044
        48.600
 127976436.573 6  99721917.93445  24353097.774    24353097.2604   24353097.5824
        39.500          32.0004
 130439096.978 7                  24821728.352
        46.100
 128151165.111 5  99673169.099 6  23964913.611    23964912.367    23964923.250
        32.900          39.000
 122892682.368 8                  23385694.857
        48.500
 129103746.040 7 100414061.303 6  24219534.325    24219534.594    24219542.165
        44.500          38.500
 127691685.697 6  99500033.01545  24298914.513    24298913.7674   24298916.5984
        40.100          32.7004
 125267456.994 6  97611022.49746  23837599.937    23837599.1914   23837602.4654
        40.500          36.5004
 127624352.636 7  99263395.627 6  23874770.327    23874769.652    23874775.092
        42.600          40.400
 114811686.793 8  89463665.53848  21847930.763    21847930.2984   21847932.5594
        49.100          49.0004
 107942656.688 8  83955442.151 8  20221289.188    20221289.529    20221295.394
        51.400          48.400
 133260357.550 6 103839240.23542  25358603.754    25358603.3434   25358605.1294
        36.300          16.6004
 126059695.908 7  98046467.982 6  23557267.514    23557267.523    23557274.849
        44.200          40.200
 107842600.627 8  83877616.413 7  20145896.507    20145896.456    20145901.540
        52.400          47.900
 25  1  1 10  2 45.0000000  0 32G10G24E19E08R04S31S35G21R12E13S48S33
                                R02R13E29G23R19G18E07G15E33R20E26R14
                                G08G27R05G32R18G28R17R03
 111271030.185 8  86704718.92348  21174166.327    21174165.7194   21174167.4734
        51.000          50.8004
 113598672.301 7  88518487.59147  21617097.555    21617097.1314   21617098.6374
        45.200          45.0004
 145296903.893 5                  27649079.777
        32.800
 143276960.039 6                  27264689.792
        40.500
 109107026.557 8  84861074.271 7  20374964.681    20374965.224    20374970.206
        51.800          47.800
 198974355.235 7                  37863553.661
        45.900
 200954100.780 7                  38240291.385
        44.100
 132532072.176 6 103271752.10042  25220011.630    25220010.2624   25220011.3424
        36.500          16.1004
 122986067.972 7  95655866.520 7  23023243.174    23023243.203    23023251.068
        47.300          42.000
 137484657.455 6                  26162442.043
        41.900
 412716074.983 5                  78537505.258
        32.700
 202092680.071 7                  38456925.337
        45.100
 125766570.743 7  97818487.226 7  23568596.552    23568596.911    23568601.872
        45.700          42.100
 119516923.838 6                  22381666.290    22381666.361
        41.100
 127655081.786 7                  24291947.113
        47.200
 108369285.025 7  84443610.76446  20621981.793    20621981.3964   20621981.2054
        47.800          38.7004
 106254763.101 7  82642622.351 7  19863195.271    19863195.382    19863200.434
        42.500          46.100
 117782989.545 7  91778954.95145  22413353.648    22413353.3094   22413354.1354
        46.000          33.4004
 124016576.219 8                  23599561.568
        48.600
 128028267.669 6  99762305.79045  24362960.645    24362960.1634   24362960.5064
        38.700          31.9004
 130410411.286 7                  24816269.665
        46.100
 128089556.428 5  99625251.509 6  23953390.963    23953389.515    23953400.804
        32.500          38.900
 122903189.821 8                  23387694.430
        48.600
 129046105.802 7 100369230.102 6  24208720.908    24208721.137    24208730.130
        44.900          40.000
 127698318.156 6  99505201.18845  24300175.878    24300175.1324   24300178.6464
        40.100          32.9004
 125297122.189 6  97634138.22346  23843246.241    23843245.5084   23843247.6114
        40.500          36.5004
 127581806.538 7  99230304.217 6  23866810.381    23866810.830    23866815.818
        42.400          40.100
 114783393.235 8  89441618.64848  21842546.749    21842546.2844   21842548.3674
        49.300          49.0004
 107986647.381 8  83989657.142 8  20229530.260    20229530.497    20229536.308
        51.600          48.400
 133203533.587 5 103794961.80542  25347790.872    25347790.5154   25347791.8114
        34.900          15.8004
 126128890.150 7  98100285.748 6  23570198.163    23570198.816    23570204.801
        43.600          39.800
 107864661.566 8  83894774.926 8  20150017.377    20150017.991    20150022.573
        52.300          48.100
 25  1  1 10  3  0.0000000  0 32G10G24E19E08R04S31S35G21R12E13S48S33
                                R02R13E29G23R19G18E07G15E33R20E26R14
                                G08G27R05G32R18G28R17R03
 111249364.879 8  86687836.87648  21170043.572    21170042.9694   21170044.7134
        51.100          50.8004
 113620649.453 7  88535612.64047  21621279.101    21621278.6904   21621280.7764
        45.200          44.8004
 145258851.002 5                  27641838.347
        32.400
 143315266.178 6                  27271979.813
        40.500
 109089006.967 8  84847059.019 7  20371599.674    20371600.122    20371605.216
        51.800          47.800
 198974356.600 7                  37863554.376
        45.800
 200954098.618 7                  38240292.194
        44.000
 132488307.403 5 103237649.70342  25211683.239    25211681.8944   25211683.1604
        35.700          14.7004
 122994166.851 7  95662165.545 6  23024759.576    23024760.339    23024766.318
        47.300          41.100
 137526990.723 7                  26170498.176
        42.100
 412715933.835 5                  78537488.775
        32.700
 202092667.023 7                  38456921.997
        45.000
 125811811.360 7  97853674.416 7  23577074.286    23577074.700    23577080.238
        45.400          42.400
 119483396.648 6                  22375387.554    22375387.940
        40.900
 127632850.885 7                  24287716.713
        47.300
 108381176.250 7  84452876.65246  20624244.800    20624244.4034   20624244.0474
        47.600          38.6004
 106246676.692 7  82636332.913 7  19861683.757    19861683.745    19861688.900
        42.100          46.100
 117831992.638 7  91817139.14745  22422679.083    22422678.7624   22422679.0464
        46.100          33.1004
 124032418.602 8                  23602576.067
        48.600
 128080095.195 6  99802690.85145  24372823.495    24372822.9904   24372823.0324
        40.100          32.2004
 130381791.284 7                  24810823.210
        46.100
 128028006.061 5  99577379.172 6  23941881.047    23941880.524    23941890.883
        32.300          38.800
 122913794.101 8                  23389712.289
        48.600
 128988439.942 7 100324378.995 6  24197902.369    24197902.565    24197910.861
        43.500          38.900
 127705072.456 6  99510464.28445  24301461.280    24301460.5524   24301463.7994
        39.800          32.6004
 125326874.074 6  97657321.51246  23848907.467    23848906.7484   23848909.1014
        41.100          36.4004
 127539296.249 7  99197240.643 6  23858858.476    23858858.372    23858864.258
        42.600          41.100
 114755175.717 8  89419631.00948  21837177.126    21837176.6574   21837178.6604
        49.500          48.9004
 108030790.170 8  84023990.409 8  20237799.446    20237799.685    20237805.890
        51.300          48.500
 133146694.129 6 103750671.32442  25336975.830    25336975.4594   25336975.4844
        37.100          17.7004
 126198093.181 7  98154110.319 6  23583130.274    23583130.480    23583137.663
        44.600          40.000
 107886774.155 8  83911973.588 8  20154148.196    20154148.482    20154153.360
        52.300          48.000
 25  1  1 10  3 15.0000000  0 32G10G24E19E08R04S31S35G21R12E13S48S33
                                R02R13E29G23R19G18E07G15E33R20E26R14
                                G08G27R05G32R18G28R17R03
 111227745.038 8  86670990.24748  21165929.560    21165928.9524   21165930.5844
        51.300          51.0004
 113642781.876 7  88552858.68847  21625491.088    21625490.6734   21625492.4454
        45.900          45.1004
 145220827.348 5                  27634603.111
        33.500
 143353574.317 6                  27279269.541
        41.400
 109071065.464 8  84833104.534 8  20368249.807    20368249.656    20368254.638
        51.400          48.000
 198974360.425 7                  37863554.872
        45.700
 200954098.262 7                  38240292.472
        44.000
 132444583.689 6 103203579.09742  25203362.844    25203361.5074   25203362.5524
        36.300          15.1004
 123002451.213 7  95668608.950 6  23026310.407    23026310.441    23026317.546
        47.300          41.100
 137569370.541 7                  26178562.475
        42.300
 412715795.366 5                  78537462.138
        32.700
 202092656.462 7                  38456918.527
        44.900
 125857040.447 7  97888852.669 7  23585550.984    23585550.768    23585555.778
        45.900          42.400
 119450009.752 6                  22369137.265    22369135.967
        41.600
 127610683.879 7                  24283498.441
        47.400
 108393141.509 7  84462200.23146  20626521.581    20626521.1754   20626520.9704
        47.900          38.8004
 106238801.611 6  82630207.869 7  19860212.433    19860211.517    19860216.722
        41.700          46.200
 117881076.395 7  91855386.19045  22432019.190    22432018.8864   22432019.4254
        45.800          33.1004
 124048318.096 8                  23605601.727
        48.800
 128131922.127 6  99843075.39445  24382685.444    24382684.9484   24382685.6254
        40.500          32.3004
 130353240.435 7                  24805390.322
        46.000
 127966517.780 5  99529555.190 6  23930381.067    23930381.823    23930392.043
        32.700          39.500
 122924498.489 8                  23391749.307
        48.600
 128930752.112 7 100279510.847 6  24187080.977    24187081.194    24187088.613
        45.000          38.700
 127711951.841 6  99515824.88245  24302770.532    24302769.8174   24302772.9794
        40.500          33.3004
 125356715.518 6  97680574.57246  23854585.373    23854584.6314   23854587.7754
        40.900          36.6004
 127496825.075 7  99164207.528 6  23850912.293    23850912.973    23850917.970
        42.800          40.600
 114727037.509 8  89397705.16848  21831822.481    21831822.0124   21831824.0974
        49.300          49.1004
 108075088.095 8  84058444.353 8  20246098.173    20246098.395    20246104.032
        51.500          48.300
 133089842.880 6 103706371.64942  25326156.295    25326155.9654   25326156.9344
        38.100          17.8004
 126267308.062 7  98207944.130 6  23596064.536    23596064.984    23596071.604
        43.600          39.200
 107908941.799 8  83929215.103 8  20158289.655    20158289.799    20158294.525
        52.800          48.000
 25  1  1 10  3 30.0000000  0 32G10G24E19E08R04S31S35G21R12E13S48S33
                                R02R13E29G23R19G18E07G15E33R20E26R14
                                G08G27R05G32R18G28R17R03
 111206164.943 8  86654174.58048  21161823.027    21161822.4284   21161824.0384
        51.400          51.1004
 113665063.478 7  88570220.96847  21629731.163    21629730.7434   21629732.5134
        45.700          45.2004
 145182827.114 5                  27627371.474
        32.600
 143391878.499 6                  27286558.317
        41.100
 109053196.061 8  84819206.121 7  20364912.020    20364912.453    20364917.582
        51.600          47.800
 198974360.561 7                  37863554.931
        45.900
 200954094.695 7                  38240291.237
        44.100
 132400896.591 5 103169537.10442  25195048.428    25195047.0514   25195049.3274
        35.900          14.2004
 123010914.904 7  95675191.822 6  23027894.322    23027894.356    23027902.115
        46.600          41.300
 137611790.860 7                  26186634.920
        42.100
 412715652.726 5                  78537448.133
        32.400
 202092641.816 7                  38456915.795
        45.100
 125902251.811 7  97924017.146 7  23594022.242    23594022.682    23594028.779
        44.800          42.500
 119416757.878 6                  22362908.596    22362908.263
        39.500
 127588574.936 7                  24279291.082
        47.600
 108405175.006 7  84471576.98346  20628811.521    20628811.1154   20628810.8394
        47.900          38.8004
 106231131.794 7  82624242.437 7  19858778.506    19858777.844    19858782.882
        42.500          46.200
 117930234.686 7  91893691.32345  22441373.971    22441373.6764   22441373.9704
        46.200          33.2004
 124064268.716 8                  23608637.190
        48.800
 128183742.648 6  99883454.95845  24392546.789    24392546.2714   24392546.7734
        40.100          31.9004
 130324753.115 7                  24799969.351
        46.500
 127905085.337 5  99481774.378 6  23918895.240    23918893.428    23918903.528
        34.400          39.500
 122935297.133 8                  23393804.273
        48.700
 128873037.362 7 100234621.712 6  24176253.386    24176253.531    24176261.661
        44.100          39.100
 127718950.183 6  99521278.13545  24304102.677    24304101.9494   24304104.6774
        39.300          32.5004
 125386640.356 6  97703892.61946  23860280.788    23860280.0644   23860282.5524
        41.100          36.6004
 127454387.155 7  99131200.263 6  23842974.026    23842974.140    23842979.637
        42.600          40.400
 114698972.790 8  89375836.58548  21826482.058    21826481.5854   21826483.5544
        49.400          49.2004
 108119534.535 8  84093013.796 8  20254424.294    20254424.655    20254430.350
        51.200          48.200
 133032974.140 6 103662058.31943  25315333.826    25315333.5004   25315335.7554
        37.400          18.2004
 126336528.154 7  98261781.984 6  23609000.212    23609000.382    23609007.355
        44.100          39.500
 107931158.188 8  83946494.502 8  20162439.854    20162439.957    20162444.571
        52.100          48.000
 25  1  1 10  3 45.0000000  0 32G10G24E19E08R04S31S35G21R12E13S48S33
                                R02R13E29G23R19G18E07G15E33R20E26R14
                                G08G27R05G32R18G28R17R03
 111184628.205 8  86637392.69648  21157724.609    21157724.0014   21157725.7244
        51.500          51.1004
 113687497.567 7  88587702.07047  21633999.961    21633999.5464   21634001.5674
        45.600          45.3004
 145144853.902 5                  27620145.195
        33.100
 143430182.044 6                  27293847.391
        40.800
 109035402.117 8  84805366.387 7  20361589.518    20361589.787    20361594.661
        51.700          47.800
 198974360.139 7                  37863556.223
        46.000
 200954091.092 7                  38240286.882
        44.300
 132357249.872 5 103135526.81242  25186743.706    25186742.3204   25186743.6824
        35.600          13.9004
 123019561.475 8  95681916.950 6  23029513.671    23029514.255    23029520.726
        48.000          41.400
 137654255.044 7                  26194715.466
        42.500
 412715509.299 5                  78537431.570
        33.000
 202092627.160 7                  38456915.039
        45.300
 125947448.830 7  97959170.347 6  23602492.911    23602493.612    23602498.233
        45.300          41.900
 119383645.081 6                  22356707.085    22356706.672
        39.900
 127566527.522 7                  24275095.632
        47.500
 108417280.272 7  84481009.65846  20631115.098    20631114.6964   20631114.4004
        47.800          38.9004
 106223671.078 7  82618439.654 7  19857384.411    19857383.364    19857388.295
        42.400          46.200
 117979470.704 7  91932057.00045  22450742.822    22450742.5234   22450743.4234
        46.500          33.0004
 124080273.780 8                  23611682.642
        49.000
 128235560.054 6  99923832.10745  24402407.100    24402406.5824   24402407.2294
        39.300          31.8004
 130296332.995 7                  24794560.989
        46.700
 127843713.430 5  99434040.694 6  23907416.332    23907416.526    23907427.113
        32.900          39.800
 122946193.540 8                  23395877.528
        48.800
 128815299.084 7 100189714.310 6  24165422.241    24165422.689    24165430.313
        45.000          39.400
 127726070.904 6  99526826.76845  24305457.537    24305456.7914   24305459.1504
        39.700          32.2004
 125416651.719 6  97727278.10246  23865990.795    23865990.0894   23865993.5434
        41.900          36.8004
 127411985.720 7  99098221.347 6  23835043.345    23835043.002    23835047.297
        43.000          40.100
 114670985.048 8  89354027.98848  21821155.967    21821155.4894   21821157.6324
        49.700          49.2004
 108164132.638 8  84127701.210 8  20262779.260    20262779.367    20262785.438
        51.100          48.200
 132976091.721 6 103617734.37942  25304509.832    25304509.4844   25304511.5944
        37.100          17.8004
 126405756.570 7  98315626.295 6  23621937.631    23621937.671    23621944.801
        44.000          40.300
 107953426.722 8  83963814.475 8  20166599.624    20166599.952    20166604.696
        52.200          48.000
 25  1  1 10  4  0.0000000  0 32G10G24E19E08R04S31S35G21R12E13S48S33
                                R02R13E29G23R19G18E07G15E33R20E26R14
                                G08G27R05G32R18G28R17R03
 111163139.576 8  86620648.31148  21153635.614    21153634.9974   21153636.6044
        51.300          51.5004
 113710088.465 7  88605305.36147  21638299.071    21638298.6604   21638300.4964
        45.600          45.5004
 145106912.336 5                  27612925.451
        34.000
 143468489.455 6                  27301136.941
        41.000
 109017688.254 8  84791588.940 7  20358281.552    20358281.936    20358286.908
        51.900          47.800
 198974364.789 7                  37863552.945
        45.600
 200954091.362 7                  38240290.102
        44.100
 132313647.896 5 103101551.38142  25178446.495    25178445.1274   25178446.7524
        35.100          16.0004
 123028395.358 7  95688787.751 6  23031167.577    23031167.879    23031174.493
        47.700          41.700
 137696767.478 6                  26202805.619
        41.900
 412715371.594 5                  78537412.266
        32.400
 202092617.207 7                  38456911.069
        44.900
 125992636.460 7  97994316.242 7  23610960.725    23610960.696    23610966.721
        44.500          42.500
 119350676.406 6                  22350533.679    22350532.658
        39.600
 127544546.188 7                  24270912.679
        47.300
 108429461.982 7  84490501.90146  20633433.293    20633432.8914   20633432.4894
        47.800          39.1004
 106216424.171 7  82612803.186 7  19856028.528    19856028.659    19856033.546
        42.500          46.300
 118028788.767 7  91970486.62845  22460127.950    22460127.6334   22460128.1614
        46.100          33.3004
 124096337.708 8                  23614739.604
        48.900
 128287378.776 6  99964210.24245  24412268.447    24412267.9334   24412268.0194
        39.600          31.9004
 130267984.851 7                  24789166.626
        46.600
 127782407.478 5  99386358.409 6  23895953.664    23895953.182    23895961.194
        34.500          39.300
 122957192.283 8                  23397970.608
        48.700
 128757542.478 7 100144792.642 6  24154587.694    24154587.733    24154595.398
        45.600          39.900
 127733318.429 6  99532474.22045  24306836.619    24306835.8824   24306838.1004
        40.000          32.7004
 125446753.829 6  97750734.28446  23871719.457    23871718.7514   23871721.7454
        40.500          36.9004
 127369625.726 7  99065274.672 6  23827117.920    23827118.817    23827123.291
        43.800          40.500
 114643078.905 8  89332282.97748  21815845.630    21815845.1614   21815847.2144
        49.000          49.5004
 108208886.676 8  84162509.885 8  20271163.245    20271163.177    20271168.872
        51.000          48.300
 132919200.465 6 103573403.51442  25293684.223    25293683.8434   25293684.9144
        37.200          17.6004
 126474997.691 7  98369480.486 6  23634875.703    23634876.173    23634884.107
        43.000          39.400
 107975751.646 8  83981178.301 8  20170770.190    20170770.505    20170775.115
        52.400          48.000
 25  1  1 10  4 15.0000000  0 32G10G24E19E08R04S31S35G21R12E13S48S33
                                R02R13E29G23R19G18E07G15E33R20E26R14
                                G08G27R05G32R18G28R17R03
 111141691.249 8  86603935.32048  21149554.005    21149553.3884   21149555.1494
        51.500          51.5004
 113732828.090 7  88623024.54347  21642626.336    21642625.9254   21642627.7394
        45.900          45.6004
 145068994.486 5                  27605709.366
        32.800
 143506792.695 6                  27308426.046
        40.600
 109000046.341 8  84777867.450 7  20354987.561    20354987.347    20354992.284
        52.200          47.800
 198974365.256 7                  37863555.315
        45.700
 200954088.385 7                  38240289.695
        44.100
 132270082.748 5 103067604.44542  25170157.266    25170155.9384   25170156.8784
        35.900          14.6004
 123037409.089 7  95695798.632 6  23032854.111    23032854.334    23032861.560
        47.000          41.300
 137739320.149 7                  26210903.173
        42.400
 412715230.851 5                  78537395.318
        32.500
 202092603.307 7                  38456911.042
        45.100
 126037806.423 7  98029448.418 7  23619425.903    23619425.621    23619431.369
        45.400          42.300
 119317844.200 6                  22344384.580    22344384.866
        40.000
 127522623.054 7                  24266740.905
        47.600
 108441712.268 8  84500047.57746  20635764.349    20635763.9434   20635763.6534
        48.200          39.2004
 106209383.441 7  82607327.060 7  19854712.835    19854712.473    19854717.212
        42.600          46.200
 118078180.672 7  92008973.79345  22469527.012    22469526.6914   22469527.1364
        46.200          33.1004
 124112452.485 8                  23617806.162
        48.900
 128339190.837 6 100004583.19445  24422127.639    24422127.1164   24422127.7194
        38.700          31.6004
 130239700.980 7                  24783784.261
        46.600
 127721159.866 5  99338721.515 6  23884497.449    23884498.186    23884508.219
        33.700          39.100
 122968285.475 8                  23400081.694
        49.000
 128699760.205 7 100099850.955 6  24143745.932    24143746.677    24143755.916
        44.900          39.900
 127740684.710 6  99538214.21745  24308238.104    24308237.3624   24308239.7924
        39.600          32.8004
 125476938.369 6  97774254.70846  23877463.704    23877463.0074   23877465.5184
        41.600          36.9004
 127327298.704 7  99032353.678 6  23819200.151    23819199.793    23819204.481
        42.300          40.000
 114615246.468 8  89310595.40548  21810549.544    21810549.0714   21810550.8184
        49.600          49.5004
 108253788.090 8  84197433.193 8  20279574.829    20279574.974    20279580.821
        51.500          48.200
 132862292.821 6 103529059.86542  25282854.410    25282854.0534   25282855.0114
        36.000          17.2004
 126544242.812 7  98423337.795 6  23647817.871    23647817.795    23647824.638
        43.700          39.600
 107998125.125 8  83998579.893 7  20174949.644    20174949.867    20174954.691
        52.300          47.900
 25  1  1 10  4 30.0000000  0 32G10G24E19E08R04S31S35G21R12E13S48S33
                                R02R13E29G23R19G18E07G15E33R20E26R14
                                G08G27R05G32R18G28R17R03
 111120287.254 8  86587256.86448  21145480.925    21145480.2994   21145482.1184
        51.400          51.2004
 113755720.122 7  88640862.48847  21646982.602    21646982.1874   21646983.9754
        45.900          45.3004
 145031104.370 5                  27598499.631
        33.800
 143545095.598 6                  27315714.995
        41.100
 108982480.306 8  84764204.979 7  20351706.665    20351707.054    20351711.848
        52.000          47.700
 198974366.287 7                  37863556.138
        45.600
 200954085.587 7                  38240288.174
        44.000
 132226559.439 5 103033690.32142  25161874.435    25161873.0764   25161874.4584
        35.100          15.6004
 123046605.860 7  95702951.765 6  23034575.328    23034575.515    23034583.296
        46.900          41.300
 137781916.804 7                  26219008.929
        42.700
 412716689.910 5                  78537377.758
        32.800
 202092590.414 7                  38456907.344
        44.900
 126082962.717 7  98064569.953 7  23627887.401    23627888.229    23627893.432
        45.400          42.500
 119285152.963 6                  22338264.053    22338263.183
        41.000
 127500761.991 7                  24262580.966
        47.800
 108454035.120 7  84509649.79946  20638109.447    20638109.0324   20638108.6084
        47.600          38.8004
