     2.11           OBSERVATION DATA    M (MIXED)           RINEX VERSION / TYPE
teqc  2019Feb25                         20260317 16:20:09UTCPGM / RUN BY / DATE
Linux 2.4.21-27.ELsmp|Opteron|gcc -static|Linux 64|=+       COMMENT
BIT 2 OF LLI FLAGS DATA COLLECTED UNDER A/S CONDITION       COMMENT
-Unknown-                                                   MARKER NAME
-Unknown-           -Unknown-                               OBSERVER / AGENCY
-Unknown-           -Unknown-           -Unknown-           REC # / TYPE / VERS
-Unknown-           -Unknown-                               ANT # / TYPE
        0.0000        0.0000        0.0000                  APPROX POSITION XYZ
        0.0000        0.0000        0.0000                  ANTENNA: DELTA H/E/N
     1     1                                                WAVELENGTH FACT L1/2
     7    L1    L2    C1    P1    P2    S1    S2            # / TYPES OF OBSERV
 SNR is mapped to RINEX snr flag value [0-9]                COMMENT
  L1 & L2: min(max(int(snr_dBHz/6), 0), 9)                  COMMENT
  2025     1     1    15     0    0.0000000     GPS         TIME OF FIRST OBS
    18                                                      LEAP SECONDS
                                                            END OF HEADER
 25  1  1 15  0  0.0000000  0 28G09G26E19E10S31S35G03R06S48S33E27E11
                                E29E04G16E21G04R15E06R07R23R05G32R16
                                E12G29G28G31
 131328075.190 6 102333573.75844  24990902.639    24990902.0314   24990905.8134
        36.800          28.6004
 106370998.048 8  82886520.61448  20241723.545    20241722.8704   20241727.0074
        50.300          50.8004
 121014379.129 7                  23028269.923
        44.100
 144723990.206 6                  27540060.345
        39.300
 198981219.568 7                  37864865.550
        45.200
 200935524.565 7                  38236763.682
        43.300
 108758524.275 8  84746916.52348  20696055.788    20696055.5024   20696058.6274
        49.100          50.2004
 105458027.928 6                  19762789.676    19762788.912
        41.000
 412730707.854 5                  78539819.211
        32.200
 202105148.761 7                  38459307.147
        44.900
 136831154.198 7                  26038099.983
        44.000
 144902102.958 5                  27573954.103
        35.700
 132121119.862 7                  25141814.331
        45.200
 136986052.535 7                  26067580.936
        42.700
 112646844.736 7  87776824.84445  21435963.108    21435962.1344   21435965.1774
        46.000          34.1004
 125914544.735 8                  23960733.629
        49.000
 118359287.415 7  92228019.35244  22523024.313    22523023.9114   22523025.9604
        43.400          29.5004
 113601092.621 8  88356452.639 7  21258891.554    21258891.961    21258897.927
        51.300          46.100
 149042005.156 6                  28361752.892
        36.900
 124249127.694 7  96638233.325 6  23210776.835    23210777.507    23210783.673
        46.200          40.300
 131434283.414 6                  24570254.410    24570254.330
        40.100
 109762615.813 8  85370924.456 7  20533369.251    20533369.337    20533376.762
        51.500          47.000
 125405114.423 6  97718247.89146  23863820.607    23863820.0754   23863831.2714
        41.800          36.1004
 102064774.090 8  79383758.481 8  19106733.697    19106733.775    19106740.379
        52.300          49.200
 147124787.182 6                  27996929.774
        36.300
 132205496.202 6 103017401.66845  25157821.152    25157820.5314   25157824.4094
        38.800          30.1004
 117250389.104 7  91363940.29545  22312008.357    22312007.9464   22312009.3044
        45.200          33.8004
 107850277.380 8  84039177.48748  20523225.955    20523225.4824   20523225.3664
        50.100          49.2004
 25  1  1 15  0 15.0000000  0 28G09G26E19E10S31S35G03R06S48S33E27E11
                                E29E04G16E21G04R15E06R07R23R05G32R16
                                E12G29G28G31
 131279573.777 6 102295780.46844  24981673.071    24981672.4594   24981676.5234
        36.800          28.4004
 106362735.828 8  82880082.52848  20240151.205    20240150.5264   20240154.7584
        50.200          50.8004
 121011363.255 7                  23027696.226
        43.700
 144753199.510 6                  27545618.788
        39.100
 198981220.070 7                  37864868.832
        45.300
 200935491.999 7                  38236760.780
        43.700
 108755998.054 8  84744948.01548  20695574.924    20695574.6384   20695577.9094
        49.100          50.2004
 105427177.839 6                  19757008.515    19757007.882
        41.200
 412731151.899 5                  78539847.029
        32.600
 202105171.992 7                  38459314.414
        44.900
 136859832.091 7                  26043557.247
        43.600
 144916146.283 5                  27576626.316
        35.300
 132145266.821 7                  25146409.561
        44.900
 136954206.741 7                  26061521.205
        42.800
 112600441.187 7  87740666.30745  21427132.787    21427131.8084   21427134.7604
        46.600          34.2004
 125902491.078 8                  23958439.918
        48.900
 118318153.829 7  92195967.20244  22515196.921    22515196.5154   22515198.6534
        43.500          29.5004
 113652635.844 8  88396541.740 7  21268537.100    21268537.385    21268543.687
        51.400          46.200
 149006674.323 6                  28355029.672
        36.200
 124190831.252 7  96592891.645 6  23199886.571    23199887.134    23199892.531
        46.100          39.300
 131439616.512 6                  24571251.515    24571251.162
        40.300
 109798933.071 8  85399171.160 7  20540162.677    20540163.096    20540170.847
        51.200          47.200
 125445936.751 6  97750057.18746  23871589.255    23871588.7194   23871599.6964
        41.500          36.1004
 102062041.325 8  79381633.005 8  19106221.848    19106222.190    19106228.812
        52.200          49.000
 147162243.726 6                  28004057.408
        36.600
 132193713.395 6 103008220.34045  25155579.227    25155578.6154   25155582.5834
        39.600          30.8004
 117286895.673 7  91392386.93245  22318955.378    22318954.9814   22318956.3494
        45.100          33.7004
 107872860.609 8  84056774.81148  20527523.251    20527522.7734   20527522.8144
        49.900          49.3004
 25  1  1 15  0 30.0000000  0 28G09G26E19E10S31S35G03R06S48S33E27E11
                                E29E04G16E21G04R15E06R07R23R05G32R16
                                E12G29G28G31
 131231064.395 6 102257980.91944  24972441.826    24972441.2324   24972444.9434
        36.800          27.5004
 106354632.900 8  82873768.58348  20238609.566    20238608.8874   20238612.7914
        50.300          50.9004
 121008396.414 7                  23027131.607
        44.000
 144782475.253 6                  27551190.184
        39.400
 198981224.517 7                  37864867.790
        45.500
 200935463.124 7                  38236758.079
        44.100
 108753633.949 8  84743105.83848  20695125.104    20695124.8184   20695128.0644
        49.300          50.2004
 105396450.280 6                  19751249.671    19751249.519
        41.000
 412730000.667 5                  78539863.431
        33.000
 202105199.012 7                  38459315.961
        45.100
 136888590.587 7                  26049029.840
        43.900
 144930288.717 5                  27579317.886
        34.500
 132169458.678 7                  25151013.071
        45.300
 136922369.534 7                  26055462.140
        42.900
 112554144.716 7  87704591.19845  21418322.904    21418321.9214   21418324.7244
        46.400          34.3004
 125890545.393 8                  23956166.477
        49.100
 118277045.694 7  92163934.88344  22507374.269    22507373.8674   22507376.0144
        43.900          29.9004
 113704260.271 8  88436694.021 7  21278197.469    21278198.223    21278204.578
        51.000          46.200
 148971334.588 6                  28348304.636
        36.700
 124132539.271 7  96547553.452 6  23188997.412    23188997.369    23189003.799
        46.100          39.800
 131445123.232 6                  24572280.683    24572281.853
        40.600
 109835379.283 8  85427518.158 7  20546980.690    20546980.948    20546989.021
        50.900          47.200
 125486812.732 7  97781908.28546  23879368.157    23879367.6164   23879378.3564
        42.400          36.1004
 102059489.362 8  79379648.158 8  19105744.127    19105744.536    19105750.961
        52.500          49.100
 147199727.482 6                  28011190.273
        36.000
 132182050.216 6 102999132.21345  25153359.168    25153358.5784   25153363.0804
        39.800          31.0004
 117323436.509 7  91420860.27945  22325909.127    22325908.7474   22325909.9064
        45.400          33.9004
 107895522.369 8  84074433.31448  20531835.816    20531835.3474   20531835.2024
        49.800          49.3004
 25  1  1 15  0 45.0000000  0 28G09G26E19E10S31S35G03R06S48S33E27E11
                                E29E04G16E21G04R15E06R07R23R05G32R16
                                E12G29G28G31
 131182539.536 5 102220169.31844  24963208.293    24963207.6854   24963210.5824
        35.800          27.5004
 106346681.564 8  82867572.77248  20237096.340    20237095.6654   20237099.6874
        50.300          51.1004
 121005471.133 7                  23026574.909
        44.000
 144811809.522 6                  27556772.047
        39.600
 198981226.244 7                  37864868.067
        45.300
 200935432.062 7                  38236748.997
        43.700
 108751424.344 8  84741384.06348  20694704.707    20694704.4214   20694707.6024
        49.500          50.4004
 105365837.641 6                  19745512.590    19745512.432
        41.000
 412730446.262 5                  78539896.798
        32.600
 202105223.359 7                  38459320.893
        44.700
 136917421.789 7                  26054516.065
        43.800
 144944522.331 5                  27582026.226
        35.100
 132193687.815 7                  25155624.007
        45.200
 136890533.364 7                  26049404.591
        43.100
 112507948.256 7  87668594.00845  21409531.787    21409530.8044   21409533.8854
        46.000          34.4004
 125878700.106 8                  23953912.585
        49.100
 118235955.514 7  92131916.53545  22499555.272    22499554.8614   22499556.7164
        43.800          30.0004
 113755957.454 8  88476902.887 7  21287872.317    21287872.650    21287879.023
        51.100          46.100
 148935978.359 6                  28341576.338
        37.400
 124074244.082 7  96502212.699 6  23178107.052    23178107.452    23178114.334
        46.200          39.800
 131450799.867 6                  24573342.449    24573342.428
        40.200
 109871946.691 8  85455959.404 7  20553821.794    20553821.998    20553829.781
        51.300          47.100
 125527734.689 7  97813795.20946  23887155.374    23887154.8384   23887165.8614
        42.500          36.0004
 102057110.087 8  79377797.608 8  19105298.696    19105299.100    19105305.664
        52.400          49.100
 147237230.420 6                  28018326.920
        36.200
 132170499.361 6 102990131.61045  25151161.042    25151160.4394   25151164.9604
        38.900          30.9004
 117360003.786 7  91449354.22045  22332867.466    22332867.0864   22332868.4524
        45.800          33.8004
 107918254.779 8  84092146.86948  20536161.729    20536161.2604   20536161.0414
        50.200          49.5004
 25  1  1 15  1  0.0000000  0 28G09G26E19E10S31S35G03R06S48S33E27E11
                                E29E04G16E21G04R15E06R07R23R05G32R16
                                E12G29G28G31
 131134004.109 5 102182349.53244  24953972.502    24953971.9034   24953975.1074
        35.500          28.2004
 106338886.536 8  82861498.71948  20235613.015    20235612.3404   20235616.3344
        50.100          51.1004
 121002592.209 7                  23026027.156
        44.000
 144841206.774 6                  27562365.945
        39.100
 198981229.257 7                  37864864.995
        45.400
 200935401.926 7                  38236740.282
        43.600
 108749373.985 8  84739786.36948  20694314.228    20694313.9334   20694317.4404
        48.900          50.4004
 105335345.149 6                  19739798.592    19739798.566
        41.100
 412730893.685 5                  78539917.493
        32.700
 202105249.241 7                  38459323.987
        44.900
 136946329.947 7                  26060017.393
        43.600
 144958851.881 5                  27584752.869
        35.500
 132217958.965 7                  25160242.589
        45.000
 136858703.020 7                  26043347.339
        43.400
 112461856.872 7  87632678.70745  21400761.143    21400760.1694   21400762.9454
        46.400          34.4004
 125866959.851 8                  23951678.397
        48.900
 118194888.227 7  92099916.04145  22491740.170    22491739.7554   22491742.0414
        43.900          30.1004
 113807731.985 8  88517171.979 7  21297561.291    21297561.547    21297567.817
        51.200          46.200
 148900610.453 6                  28334846.629
        37.300
 124015950.698 7  96456873.352 6  23167217.739    23167218.054    23167224.055
        46.000          39.800
 131456652.884 6                  24574435.402    24574435.574
        40.300
 109908639.788 8  85484498.422 7  20560685.285    20560685.898    20560693.958
        50.600          47.100
 125568707.266 6  97845721.57545  23894952.318    23894951.7514   23894963.0434
        41.900          35.9004
 102054908.178 8  79376085.010 8  19104886.647    19104886.896    19104893.371
        52.300          49.100
 147274757.087 5                  28025468.347
        35.800
 132159065.585 6 102981222.21545  25148985.288    25148984.7034   25148988.8944
        38.900          30.5004
 117396602.093 7  91477872.33045  22339831.862    22339831.4734   22339832.9294
        45.500          33.7004
 107941062.302 8  84109918.93348  20540501.764    20540501.2954   20540501.2074
        49.700          49.4004
 25  1  1 15  1 15.0000000  0 28G09G26E19E10S31S35G03R06S48S33E27E11
                                E29E04G16E21G04R15E06R07R23R05G32R16
                                E12G29G28G31
 131085455.541 6 102144519.52244  24944734.115    24944733.5304   24944736.6154
        36.400          28.3004
 106331245.332 8  82855544.52648  20234158.865    20234158.1954   20234162.2654
        50.100          51.1004
 120999757.132 7                  23025487.650
        44.200
 144870664.216 6                  27567971.773
        39.100
 198981231.466 7                  37864863.631
        45.500
 200935370.951 7                  38236739.352
        44.100
 108747480.371 8  84738310.83048  20693954.287    20693954.0064   20693957.0764
        49.100          50.4004
 105304970.866 6                  19734106.560    19734106.338
        41.100
 412731340.131 5                  78539936.975
        32.700
 202105273.317 7                  38459332.376
        45.400
 136975312.548 7                  26065532.658
        43.900
 144973274.596 5                  27587497.406
        35.900
 132242269.583 7                  25164868.912
        45.300
 136826876.045 7                  26037290.484
        43.300
 112415868.348 7  87596843.54345  21392009.443    21392008.4514   21392011.5914
        46.400          34.3004
 125855321.988 8                  23949463.775
        48.900
 118153841.372 7  92067931.43244  22483929.024    22483928.6134   22483931.1364
        43.300          29.9004
 113859580.644 8  88557498.719 7  21307263.858    21307264.096    21307270.679
        50.800          46.100
 148865228.251 6                  28328113.787
        37.300
 123957656.995 7  96411533.840 6  23156327.826    23156328.209    23156333.476
        45.400          40.100
 131462676.379 6                  24575561.709    24575561.524
        39.900
 109945456.015 8  85513133.207 7  20567573.818    20567573.610    20567581.210
        51.300          47.100
 125609727.865 6  97877685.37446  23902758.339    23902757.7814   23902769.3384
        41.900          36.1004
 102052881.038 8  79374508.360 8  19104507.061    19104507.394    19104513.927
        52.600          49.100
 147312304.589 6                  28032613.963
        36.900
 132147746.678 6 102972402.33745  25146831.816    25146831.2354   25146835.0474
        38.500          30.8004
 117433228.680 7  91506412.47145  22346801.520    22346801.1234   22346802.7664
        45.100          33.7004
 107963942.312 8  84127747.50848  20544855.821    20544855.3524   20544855.1684
        49.700          49.4004
 25  1  1 15  1 30.0000000  0 28G09G26E19E10S31S35G03R06S48S33E27E11
                                E29E04G16E21G04R15E06R07R23R05G32R16
                                E12G29G28G31
 131036894.391 6 102106679.61144  24935492.611    24935492.0174   24935495.2644
        36.500          28.4004
 106323758.473 8  82849710.62148  20232734.113    20232733.4434   20232737.5754
        50.100          51.2004
 120996966.537 7                  23024956.530
        44.000
 144900182.012 6                  27573588.362
        39.000
 198981232.922 7                  37864869.114
        45.500
 200935339.103 7                  38236730.587
        43.700
 108745743.917 8  84736957.72748  20693624.091    20693623.8054   20693626.6464
        49.300          50.4004
 105274715.256 6                  19728436.665    19728436.477
        41.300
 412731786.605 5                  78539969.685
        32.800
 202105297.958 7                  38459334.049
        44.900
 137004369.901 7                  26071062.070
        43.800
 144987790.751 5                  27590259.766
        34.300
 132266620.178 7                  25169502.427
        45.200
 136795052.929 7                  26031235.019
        43.300
 112369983.621 7  87561089.26345  21383278.339    21383277.3474   21383279.9074
        46.300          34.5004
 125843787.226 8                  23947268.885
        49.100
 118112815.670 7  92035963.34745  22476122.634    22476122.2234   22476124.1884
        43.900          30.2004
 113911503.389 8  88597883.080 7  21316980.494    21316980.940    21316987.417
        50.800          46.200
 148829832.343 6                  28321378.019
        37.400
 123899363.781 7  96366194.608 6  23145437.247    23145438.033    23145444.002
        46.100          39.300
 131468870.923 6                  24576719.349    24576720.305
        41.300
 109982395.608 8  85541863.934 7  20574483.278    20574483.743    20574491.664
        51.200          47.100
 125650796.827 7  97909686.83246  23910573.815    23910573.2614   23910584.9344
        42.100          36.2004
 102051029.008 8  79373067.877 8  19104160.646    19104160.620    19104167.269
        52.400          48.900
 147349873.142 6                  28039762.327
        36.100
 132136543.062 6 102963672.25245  25144699.370    25144698.7854   25144703.4254
        38.400          30.9004
 117469883.880 7  91534974.89145  22353777.256    22353776.8634   22353778.0864
        45.300          33.7004
 107986894.990 8  84145632.69948  20549223.413    20549222.9444   20549222.9324
        49.900          49.5004
 25  1  1 15  1 45.0000000  0 28G09G26E19E10S31S35G03R06S48S33E27E11
                                E29E04G16E21G04R15E06R07R23R05G32R16
                                E12G29G28G31
 130988322.501 6 102068831.39344  24926249.660    24926249.0704   24926252.4834
        36.000          29.0004
 106316427.503 8  82843998.17948  20231339.130    20231338.4604   20231342.5364
        50.400          51.1004
 120994222.043 7                  23024434.230
        43.900
 144929761.464 6                  27579217.559
        39.000
 198981235.496 7                  37864871.524
        45.500
 200935308.144 7                  38236729.398
        43.900
 108744166.340 8  84735728.43648  20693323.659    20693323.3824   20693326.4614
        48.700          50.4004
 105244580.560 6                  19722789.510    19722789.113
        41.300
 412730635.346 5                  78539988.887
        32.800
 202105322.699 7                  38459341.847
        45.000
 137033503.147 7                  26076606.045
        43.500
 145002401.802 5                  27593039.809
        35.000
 132291012.355 7                  25174144.133
        45.000
 136763235.340 7                  26025180.388
        42.700
 112324204.663 7  87525417.38445  21374566.714    21374565.7084   21374568.3414
        46.400          34.6004
 125832357.136 8                  23945093.570
        48.800
 118071812.859 7  92004013.09745  22468319.574    22468319.1594   22468321.5914
        43.800          30.1004
 113963501.403 8  88638326.005 7  21326711.310    21326711.491    21326717.904
        50.500          45.900
 148794424.328 6                  28314640.071
        37.300
 123841073.038 7  96320857.349 6  23134549.320    23134549.538    23134555.583
        45.400          40.200
 131475238.594 6                  24577908.644    24577908.961
        39.700
 110019460.046 8  85570691.750 7  20581417.151    20581417.669    20581425.434
        51.300          47.000
 125691915.673 6  97941727.17146  23918399.152    23918398.6114   23918409.9744
        41.500          36.1004
 102049353.449 8  79371764.665 8  19103846.797    19103846.918    19103853.554
        52.700          49.200
 147387464.018 5                  28046915.855
        35.800
 132125456.634 6 102955033.47645  25142590.461    25142589.8714   25142593.6464
        38.500          30.5004
 117506569.176 7  91563560.76345  22360758.289    22360757.9054   22360759.2234
        45.500          33.7004
 108009921.714 8  84163575.60448  20553605.220    20553604.7554   20553604.7924
        49.800          49.4004
 25  1  1 15  2  0.0000000  0 28G09G26E19E10S31S35G03R06S48S33E27E11
                                E29E04G16E21G04R15E06R07R23R05G32R16
                                E12G29G28G31
 130939740.069 6 102030974.96644  24917004.221    24917003.6404   24917008.0384
        36.200          28.4004
 106309252.688 8  82838407.42348  20229973.635    20229972.9654   20229977.2024
        50.200          51.1004
 120991523.879 7                  23023921.093
        44.100
 144959402.504 6                  27584858.234
        38.700
 198981238.400 7                  37864870.343
        45.800
 200935278.246 7                  38236722.789
        43.900
 108742747.785 8  84734623.06248  20693053.877    20693053.6144   20693056.5274
        49.200          50.3004
 105214567.351 6                  19717164.840    19717164.545
        41.100
 412731086.307 5                  78540019.853
        33.400
 202105348.625 7                  38459348.693
        45.200
 137062712.401 7                  26082164.612
        43.600
 145017107.743 5                  27595838.899
        35.500
 132315446.321 7                  25178793.996
        44.700
 136731423.605 7                  26019126.818
        42.900
 112278532.025 7  87489828.36245  21365875.440    21365874.4434   21365877.1174
        46.200          34.5004
 125821031.898 8                  23942938.732
        48.900
 118030833.285 7  91972080.95545  22460521.858    22460521.4564   22460523.3554
        43.800          30.1004
 114015574.556 8  88678827.437 7  21336456.364    21336456.467    21336462.822
        50.800          46.000
 148759004.332 6                  28307899.483
        36.800
 123782785.203 7  96275522.350 6  23123660.461    23123659.858    23123665.872
        44.900          39.600
 131481777.472 6                  24579131.355    24579131.869
        38.700
 110056649.558 8  85599616.858 7  20588374.237    20588374.574    20588382.554
        51.300          46.900
 125733084.556 7  97973806.47946  23926232.973    23926232.4324   23926244.3994
        42.100          36.1004
 102047854.485 8  79370598.807 8  19103565.982    19103566.342    19103572.933
        52.400          49.100
 147425077.140 5                  28054073.964
        35.300
 132114487.871 6 102946486.44045  25140502.191    25140501.6064   25140506.0204
        39.000          30.7004
 117543284.618 7  91592170.13445  22367744.743    22367744.3544   22367745.9554
        45.300          33.4004
 108033022.569 8  84181576.27248  20558001.128    20558000.6594   20558000.7634
        49.700          49.3004
 25  1  1 15  2 15.0000000  0 28G09G26E19E10S31S35G03R06S48S33E27E11
                                E29E04G16E21G04R15E06R07R23R05G32R16
                                E12G29G28G31
 130891143.613 6 101993107.58144  24907756.611    24907756.0574   24907760.4504
        36.500          28.2004
 106302230.462 8  82832935.56948  20228637.506    20228636.8314   20228640.9254
        50.300          50.8004
 120988868.837 7                  23023415.454
        43.500
 144989101.355 6                  27590509.068
        38.600
 198981239.673 7                  37864869.033
        45.600
 200935246.318 7                  38236715.080
        44.000
 108741484.770 8  84733638.88448  20692813.355    20692813.0964   20692816.1874
        49.400          50.1004
 105184672.403 6                  19711563.327    19711562.353
        41.500
 412731534.152 5                  78540042.627
        32.800
 202105373.051 7                  38459353.862
        45.300
 137091993.781 7                  26087736.584
        43.400
 145031904.882 6                  27598654.158
        36.000
 132339918.528 7                  25183450.738
        44.800
 136699614.185 7                  26013073.714
        43.100
 112232962.411 7  87454319.61545  21357203.810    21357202.8004   21357205.5324
        46.300          34.3004
 125809808.063 8                  23940802.867
        48.800
 117989873.551 7  91940164.27344  22452727.480    22452727.0834   22452728.9724
        43.600          29.9004
 114067718.528 8  88719383.847 7  21346213.905    21346214.204    21346220.417
        50.300          46.000
 148723568.993 6                  28301156.048
        36.500
 123724496.801 7  96230186.855 6  23112771.878    23112772.401    23112777.493
        45.700          39.200
 131488484.864 6                  24580385.473    24580385.667
        40.500
 110093960.358 8  85628636.288 7  20595353.825    20595354.451    20595362.529
        50.500          47.100
 125774299.838 7  98005921.94045  23934076.497    23934075.9394   23934087.7774
        42.400          35.9004
 102046528.209 8  79369567.262 8  19103317.846    19103318.050    19103324.615
        52.500          49.300
 147462708.741 5                  28061235.245
        35.100
 132103633.470 6 102938028.43944  25138436.858    25138436.2684   25138440.5114
        38.400          29.8004
 117580026.519 7  91620800.15145  22374736.385    22374735.9964   22374737.7304
        45.100          33.2004
 108056193.795 8  84199631.78448  20562410.482    20562410.0094   20562410.1104
        49.800          49.1004
 25  1  1 15  2 30.0000000  0 28G09G26E19E10S31S35G03R06S48S33E27E11
                                E29E04G16E21G04R15E06R07R23R05G32R16
                                E12G29G28G31
 130842535.693 6 101955231.27644  24898506.794    24898506.2274   24898510.4294
        36.100          28.3004
 106295363.162 8  82827584.43748  20227330.542    20227329.8674   20227334.1164
        50.400          51.0004
 120986259.104 7                  23022919.136
        43.500
 145018860.060 6                  27596172.671
        38.600
 198981240.869 7                  37864873.245
        45.600
 200935213.716 7                  38236709.392
        44.200
 108740379.580 8  84732777.68848  20692603.077    20692602.8184   20692605.8644
        49.300          50.3004
 105154898.348 6                  19705982.851    19705982.784
        41.300
 412731981.944 5                  78540059.552
        33.100
 202105396.011 7                  38459358.236
        45.200
 137121349.461 7                  26093322.855
        43.300
 145046795.368 5                  27601487.421
        35.700
 132364431.308 7                  25188115.434
        45.000
 136667809.453 7                  26007021.103
        42.700
 112187498.492 7  87418893.22045  21348552.188    21348551.1874   21348553.9484
        46.600          34.4004
 125798687.992 8                  23938686.822
        48.700
 117948936.149 7  91908265.01345  22444937.321    22444936.9284   22444938.8474
        44.500          30.2004
 114119935.261 8  88759996.833 7  21355985.883    21355985.679    21355992.504
        50.300          46.000
 148688120.568 6                  28294411.175
        36.800
 123666211.008 7  96184853.574 6  23101883.143    23101883.012    23101889.803
        45.400          40.400
 131495364.731 6                  24581670.752    24581671.881
        40.800
 110131394.599 8  85657751.731 7  20602357.067    20602357.504    20602365.501
        50.900          47.300
 125815563.764 7  98038075.30146  23941928.789    23941928.2264   23941940.3544
        42.200          36.0004
 102045376.916 8  79368671.802 8  19103102.286    19103102.514    19103109.082
        52.700          49.500
 147500360.750 6                  28068399.507
        36.200
 132092895.951 6 102929661.54445  25136394.079    25136393.4944   25136397.4094
        39.900          31.0004
 117616797.032 7  91649452.47345  22381734.026    22381733.6514   22381734.9744
        45.000          33.4004
 108079437.454 8  84217743.73648  20566833.594    20566833.1214   20566833.2284
        49.500          49.2004
 25  1  1 15  2 45.0000000  0 29G09G26E19E10S31S35G03R06S48S33E27E11
                                E29E04G16E21G04R15E06R07G06R23R05G32
                                R16E12G29G28G31
 130793916.589 5 101917346.28444  24889255.143    24889254.5674   24889258.6384
        35.700          28.5004
 106288650.976 8  82822354.17248  20226053.518    20226052.8344   20226056.8194
        50.700          51.0004
 120983695.031 7                  23022430.895
        43.900
 145048678.548 6                  27601846.870
        38.500
 198981241.731 7                  37864871.027
        45.500
 200935181.779 7                  38236702.183
        43.700
 108739432.489 8  84732039.68648  20692422.871    20692422.6174   20692425.6494
        49.500          50.3004
 105125245.967 6                  19700426.184    19700425.621
        41.000
 412732429.560 5                  78540088.143
        33.200
 202105419.872 7                  38459360.610
        44.800
 137150779.820 7                  26098923.485
        43.900
 145061779.256 5                  27604339.127
        35.000
 132388984.876 7                  25192787.919
        44.800
 136636009.628 7                  26000970.010
        42.700
 112142140.836 7  87383549.63245  21339921.243    21339920.2424   21339922.5954
        46.400          34.5004
 125787671.900 8                  23936590.205
        48.900
 117908021.387 7  91876383.38145  22437151.163    22437150.7794   22437152.9384
        44.400          30.3004
 114172224.445 8  88800666.175 7  21365771.363    21365771.382    21365777.380
        50.900          46.100
 148652659.223 6                  28287663.044
        36.700
 123607927.958 7  96139522.334 6  23090995.180    23090995.290    23091001.832
        46.000          39.900
 136098449.709 6                  25898673.826
        38.000
 131502415.688 6                  24582990.402    24582989.793
        41.900
 110168952.516 8  85686963.365 7  20609383.053    20609383.259    20609391.596
        50.800          47.300
 125856876.457 6  98070266.66245  23949790.608    23949790.0364   23949802.4724
        41.700          35.9004
 102044400.651 8  79367912.474 8  19102919.589    19102919.803    19102926.336
        52.500          49.300
 147538033.203 5                  28075569.085
        35.600
 132082275.518 6 102921385.89345  25134372.694    25134372.1094   25134376.6154
        38.400          30.8004
 117653596.160 7  91678127.08645  22388736.572    22388736.1974   22388737.7104
        45.500          33.3004
 108102753.550 8  84235912.13048  20571270.550    20571270.0684   20571270.1334
        49.800          49.2004
 25  1  1 15  3  0.0000000  0 29G09G26E19E10S31S35G03R06S48S33E27E11
                                E29E04G16E21G04R15E06R07G06R23R05G32
                                R16E12G29G28G31
 130745289.040 6 101879454.69444  24880002.265    24880001.7114   24880004.5974
        36.200          28.7004
 106282096.653 8  82817246.94448  20224806.026    20224805.3334   20224809.5674
        50.400          51.2004
 120981179.320 7                  23021952.283
        43.900
 145078559.324 6                  27607533.153
        38.400
 198981245.721 7                  37864874.345
        45.600
 200935152.511 7                  38236698.181
        43.900
 108738646.158 8  84731426.96448  20692273.249    20692272.9954   20692276.0014
        49.300          50.4004
 105095718.450 6                  19694892.684    19694892.476
        41.400
 412731280.269 5                  78540114.942
        33.100
 202105447.084 7                  38459363.767
        44.900
 137180287.092 7                  26104538.685
        43.500
 145076859.081 5                  27607209.112
        35.500
 132413581.940 7                  25197468.840
        44.900
 136604217.496 7                  25994919.995
        42.700
 112096892.472 7  87348291.20745  21331310.647    21331309.6464   21331312.0744
        46.800          34.6004
 125776762.432 8                  23934514.528
        48.700
 117867132.169 7  91844521.65345  22429370.219    22429369.8304   22429372.0024
        44.400          30.5004
 114224588.379 8  88841393.591 7  21375570.327    21375570.858    21375576.619
        50.700          46.100
 148617187.785 6                  28280913.338
        36.100
 123549650.635 7  96094195.515 6  23080108.355    23080108.772    23080114.070
        45.100          39.200
 136090395.143 6 106044473.81344  25897140.466    25897140.4664   25897143.6494
        37.700          28.7004
 131509640.528 6                  24584340.116    24584340.617
        41.400
 110206636.311 8  85716272.904 7  20616432.698    20616432.973    20616441.056
        50.700          47.000
 125898240.517 7  98102498.04246  23957662.155    23957661.5834   23957673.9864
        42.200          36.0004
 102043601.826 8  79367291.167 8  19102769.659    19102770.228    19102776.720
        52.100          49.200
 147575728.426 5                  28082742.077
        35.700
 132071775.164 6 102913203.81745  25132374.792    25132374.2164   25132378.2124
        38.100          30.5004
 117690426.461 7  91706825.98945  22395745.277    22395744.8974   22395746.3074
        45.200          33.6004
 108126144.466 8  84254138.79948  20575721.673    20575721.1864   20575721.3074
        50.000          49.4004
 25  1  1 15  3 15.0000000  0 29G09G26E19E10S31S35G03R06S48S33E27E11
                                E29E04G16E21G04R15E06R07G06R23R05G32
                                R16E12G29G28G31
 130696648.104 6 101841552.65544  24870746.422    24870745.8724   24870748.5264
        36.900          29.1004
 106275695.019 8  82812258.65748  20223587.758    20223587.0704   20223591.3414
        50.400          51.3004
 120978706.961 7                  23021481.996
        43.700
 145108496.999 6                  27613230.367
        38.400
 198981247.031 7                  37864872.660
        45.600
 200935120.549 7                  38236689.949
        43.500
 108738015.527 8  84730935.54348  20692153.389    20692153.1354   20692156.0014
        49.700          50.4004
 105066310.978 6                  19689382.064    19689381.438
        41.400
 412731728.991 5                  78540135.059
        32.900
 202105471.131 7                  38459372.428
        44.900
 137209865.958 7                  26110167.233
        43.300
 145092029.580 5                  27610095.982
        34.100
 132438217.444 7                  25202156.910
        44.800
 136572428.116 7                  25988870.991
        42.800
 112051748.750 7  87313114.33245  21322719.641    21322718.6314   21322721.4164
        46.600          34.7004
 125765954.560 8                  23932457.950
        48.700
 117826263.544 7  91812675.97045  22421593.409    22421593.0204   22421595.1174
        44.300          30.6004
 114277021.687 8  88882175.061 7  21385382.744    21385382.877    21385389.246
        51.200          46.400
 148581701.168 6                  28274160.949
        37.400
 123491374.459 7  96048869.557 6  23069222.823    23069222.401    23069228.629
        45.900          40.500
 136082463.142 5 106038293.11844  25895630.951    25895630.7324   25895634.5624
        35.900          28.0004
 131517034.517 7                  24585721.693    24585722.446
        42.200
 110244441.021 8  85745676.484 7  20623505.099    20623505.421    20623513.369
        50.400          47.300
 125939650.833 6  98134765.46346  23965542.609    23965542.0554   23965554.1834
        41.700          36.1004
 102042975.501 8  79366804.016 8  19102652.683    19102652.995    19102659.492
        52.600          49.300
 147613441.113 5                  28089918.873
        35.100
 132061389.915 6 102905111.42845  25130399.006    25130398.4164   25130401.9604
        37.800          30.1004
 117727282.700 7  91735545.09745  22402758.367    22402757.9874   22402759.8284
        45.700          33.5004
 108149605.001 8  84272419.71748  20580186.165    20580185.6744   20580185.7394
        49.900          49.4004
 25  1  1 15  3 30.0000000  0 28G09G26E19E10S31S35G03R06S48S33E27E11
                                E29E04G16E21G04R15E06R07R23R05G32R16
                                E12G29G28G31
 130647997.393 6 101803643.01644  24861487.920    24861487.3704   24861491.2214
        36.800          29.8004
 106269449.674 8  82807392.16248  20222399.364    20222398.6714   20222402.8874
        50.700          51.3004
 120976281.587 7                  23021020.399
        43.500
 145138494.784 6                  27618938.742
        37.800
 198981249.485 7                  37864872.168
        45.700
 200935089.903 7                  38236687.373
        44.000
 108737544.149 8  84730568.22848  20692063.655    20692063.4054   20692066.3094
        49.400          50.5004
 105037027.264 6                  19683893.771    19683893.559
        41.200
 412732179.036 5                  78540160.610
        33.100
 202105496.467 7                  38459376.869
        45.200
 137239519.588 7                  26115810.239
        43.200
 145107294.105 5                  27613000.932
        34.500
 132462894.923 7                  25206852.630
        44.600
 136540644.931 7                  25982822.764
        42.500
 112006713.456 7  87278021.93145  21314149.721    21314148.7064   21314151.4184
        46.700          34.8004
 125755251.905 8                  23930421.164
        48.500
 117785419.210 7  91780849.22345  22413821.074    22413820.6854   22413822.5244
        44.000          30.5004
 114329527.230 8  88923012.648 7  21395207.747    21395208.539    21395214.648
        50.700          46.200
 148546202.848 6                  28267404.785
        36.800
 123433102.942 7  96003547.300 6  23058336.047    23058336.330    23058342.849
        45.700          40.100
 131524599.774 6                  24587137.381    24587136.964
        41.400
 110282369.931 8  85775176.671 7  20630600.478    20630600.612    20630609.052
        50.800          47.400
 125981110.784 7  98167071.55446  23973432.469    23973431.9284   23973444.3924
        42.000          36.3004
 102042524.678 8  79366453.379 8  19102568.191    19102568.611    19102575.108
        52.200          49.400
 147651174.430 5                  28097099.289
        35.300
 132051123.438 6 102897111.59545  25128445.101    25128444.5074   25128448.3804
        38.100          30.2004
 117764168.272 7  91764287.07545  22409777.682    22409777.3024   22409778.9164
        45.200          33.5004
 108173138.411 8  84290757.42148  20584664.437    20584663.9374   20584664.0294
        50.000          49.4004
 25  1  1 15  3 45.0000000  0 28G09G26E19E10S31S35G03R06S48S33E27E11
                                E29E04G16E21G04R15E06R07R23R05G32R16
                                E12G29G28G31
 130599335.414 6 101765724.58745  24852227.817    24852227.2674   24852231.2024
        37.500          30.0004
 106263358.887 8  82802646.10548  20221240.329    20221239.6324   20221243.8424
        50.500          51.3004
 120973901.534 7                  23020567.287
        43.700
 145168550.810 6                  27624658.397
        38.200
 198981251.948 7                  37864873.084
        45.900
 200935059.346 7                  38236682.119
        44.300
 108737230.301 8  84730323.65948  20692003.697    20692003.4434   20692006.6044
        49.900          50.4004
 105007866.181 6                  19678428.890    19678429.003
        41.300
 412732629.545 5                  78540186.595
        33.200
 202105521.321 7                  38459381.153
        45.200
 137269246.362 7                  26121467.473
        43.200
 145122650.786 5                  27615922.622
        34.400
 132487612.667 7                  25211556.556
        44.900
 136508866.504 7                  25976775.154
        42.800
 111961785.253 7  87243012.96845  21305600.428    21305599.4094   21305601.8594
        46.700          34.8004
 125744652.720 8                  23928403.981
        48.700
 117744597.774 7  91749040.36245  22406052.693    22406052.2914   22406054.4894
        44.700          30.5004
 114382102.761 8  88963904.657 7  21405047.040    21405047.146    21405053.273
        50.500          45.600
 148510691.250 6                  28260647.487
        36.900
 123374835.036 7  95958227.862 6  23047451.828    23047452.311    23047458.039
        45.600          40.800
 131532335.812 6                  24588581.917    24588582.528
        41.000
 110320421.093 8  85804771.933 7  20637719.032    20637719.064    20637727.271
        51.100          47.300
 126022618.675 6  98199415.00046  23981331.800    23981331.2684   23981343.6704
        41.500          36.1004
 102042247.731 8  79366237.955 8  19102516.592    19102516.857    19102523.358
        52.300          49.400
 147688926.456 5                  28104283.192
        35.000
 132040974.234 6 102889203.13345  25126513.692    25126513.0934   25126517.2784
        38.900          30.9004
 117801081.306 7  91793050.45545  22416801.998    22416801.6144   22416803.3124
        45.400          33.5004
 108196742.767 8  84309150.41248  20589156.074    20589155.5694   20589155.8324
        49.600          49.4004
 25  1  1 15  4  0.0000000  0 28G09G26E19E10S31S35G03R06S48S33E27E11
                                E29E04G16E21G04R15E06R07R23R05G32R16
                                E12G29G28G31
 130550663.533 6 101727798.46444  24842966.384    24842965.8484   24842969.4034
        36.600          29.7004
 106257423.974 8  82798021.50948  20220111.049    20220110.3564   20220114.4674
        50.600          51.2004
 120971568.316 7                  23020123.570
        43.700
 145198666.092 6                  27630388.856
        38.100
 198981254.755 7                  37864873.997
        45.900
 200935028.871 7                  38236676.883
        44.500
 108737075.269 8  84730202.82448  20691974.208    20691973.9454   20691977.1144
        49.800          50.3004
 104978829.361 6                  19672987.655    19672987.307
        41.200
 412733082.057 5                  78540210.701
        33.500
 202105547.198 7                  38459386.340
        45.600
 137299047.274 7                  26127138.407
        43.100
 145138100.756 5                  27618862.936
        34.800
 132512372.023 7                  25216268.072
        44.800
 136477094.008 7                  25970729.549
        42.600
 111916966.000 7  87208088.90545  21297071.551    21297070.5324   21297072.9584
        46.900          34.8004
 125734158.387 8                  23926407.012
        48.600
 117703800.453 7  91717250.26445  22398289.519    22398289.1264   22398290.9834
        43.700          30.5004
 114434749.343 8  89004852.022 7  21414898.811    21414899.320    21414905.899
        50.500          46.200
 148475167.569 6                  28253887.630
        36.100
 123316572.414 7  95912912.494 6  23036567.771    23036568.905    23036574.337
        46.600          40.700
 131540243.674 6                  24590061.261    24590061.181
        41.900
 110358595.797 8  85834463.294 7  20644859.491    20644860.303    20644868.654
        50.600          47.300
 126064175.653 7  98231796.69446  23989239.766    23989239.2084   23989251.9494
        42.400          36.2004
 102042145.586 8  79366158.519 8  19102497.231    19102497.602    19102504.157
        52.300          49.300
 147726698.162 5                  28111471.500
        35.100
 132030943.765 6 102881387.15645  25124604.660    25124604.0664   25124608.4144
        38.600          30.8004
 117838022.922 7  91821836.09345  22423832.063    22423831.6744   22423833.1104
        45.600          33.5004
 108220419.231 8  84327599.59948  20593661.804    20593661.2994   20593661.3414
        50.000          49.4004
 25  1  1 15  4 15.0000000  0 28G09G26E19E10S31S35G03R06S48S33E27E11
                                E29E04G16E21G04R15E06R07R23R05G32R16
                                E12G29G28G31
 130501978.141 6 101689861.81544  24833701.027    24833700.4954   24833704.9654
        37.100          29.3004
 106251641.207 8  82793515.44448  20219010.551    20219009.8494   20219014.0324
        50.900          51.2004
 120969278.283 7                  23019687.553
        43.400
 145228836.636 6                  27636129.697
        37.800
 198981254.902 7                  37864870.111
        45.500
 200934995.706 7                  38236667.184
        43.900
 108737075.466 8  84730202.97248  20691974.744    20691974.4764   20691977.1674
        50.300          50.3004
 104949913.731 6                  19667569.687    19667568.961
        41.200
 412731931.614 5                  78540231.977
        33.000
 202105570.366 7                  38459389.971
        45.200
 137328918.533 7                  26132822.480
        43.000
 145153640.221 5                  27621820.082
        34.800
 132537169.309 7                  25220986.897
        44.600
 136445323.997 7                  25964683.955
        42.200
 111872252.157 7  87173246.96945  21288562.700    21288561.6814   21288564.2394
        47.000          34.7004
 125723765.198 8                  23924429.282
        48.400
 117663023.814 7  91685476.26345  22390529.642    22390529.2454   22390531.4394
        44.800          30.6004
 114487462.521 8  89045851.075 7  21424763.512    21424763.987    21424769.909
        50.100          45.700
 148439628.214 5                  28247124.622
        35.300
 123258311.143 7  95867598.139 6  23025684.326    23025683.724    23025690.292
        45.800          40.300
 131548318.342 7                  24591570.268    24591570.296
        42.000
 110396890.351 8  85864247.856 7  20652024.027    20652024.276    20652032.547
        50.800          47.400
 126105777.965 7  98264213.70746  23997156.995    23997156.4324   23997168.8274
        42.100          36.1004
 102042214.543 8  79366212.155 8  19102510.599    19102510.601    19102517.147
        52.500          49.300
 147764485.615 5                  28118662.231
        35.700
 132021028.554 6 102873661.01145  25122718.295    25122717.6834   25122721.7704
        37.800          30.3004
 117874989.287 7  91850641.00445  22430866.283    22430865.8864   22430867.5354
        45.900          33.4004
 108244163.986 8  84346101.99948  20598179.925    20598179.4164   20598179.8394
        49.700          49.3004
 25  1  1 15  4 30.0000000  0 28G09G26E19E10S31S35G03R06S48S33E27E11
                                E29E04G16E21G04R15E06R07R23R05G32R16
                                E12G29G28G31
 130453283.503 6 101651917.92544  24824435.003    24824434.4454   24824438.1804
        36.200          28.5004
 106246014.786 8  82789131.21948  20217939.989    20217939.2874   20217943.3564
        50.200          51.1004
 120967035.696 7                  23019260.881
        43.500
 145259066.343 6                  27641882.644
        38.800
 198981256.191 7                  37864871.949
        45.600
 200934963.374 7                  38236657.722
        43.800
 108737234.987 8  84730327.25848  20692004.625    20692004.3484   20692007.5304
        49.600          50.2004
 104921123.534 6                  19662174.046    19662173.381
        41.100
 412732383.573 5                  78540250.029
        33.200
 202105594.596 7                  38459395.006
        45.400
 137358863.978 7                  26138520.556
        42.900
 145169273.049 5                  27624794.721
        34.400
 132562008.680 7                  25225713.743
        44.700
 136413560.604 7                  25958639.512
        42.600
 111827648.132 7  87138490.59745  21280074.949    21280073.9254   21280076.3174
        46.700          34.8004
 125713477.350 8                  23922471.671
        48.500
 117622272.256 7  91653721.83345  22382775.030    22382774.6414   22382776.8184
        44.500          30.6004
 114540246.323 8  89086905.100 7  21434641.260    21434641.793    21434648.457
        50.500          46.200
 148404077.387 5                  28240359.852
        35.800
 123200055.715 7  95822288.358 6  23014801.218    23014801.386    23014808.724
        45.900          41.500
 131556564.623 6                  24593112.378    24593112.594
        41.700
 110435308.702 8  85894128.717 7  20659210.667    20659211.229    20659219.875
        50.300          47.500
 126147429.747 6  98296669.26945  24005083.237    24005082.6834   24005095.3284
        41.300          35.8004
 102042458.380 8  79366401.819 8  19102555.809    19102556.171    19102562.731
        52.400          49.300
 147802292.596 5                  28125856.467
        34.000
 132011233.073 6 102866028.18245  25120853.805    25120853.1844   25120857.7344
        39.900          30.9004
 117911984.412 7  91879468.31845  22437906.230    22437905.8244   22437907.5514
        45.500          33.3004
 108267980.869 8  84364660.58848  20602712.349    20602711.8444   20602712.0524
        49.600          49.2004
 25  1  1 15  4 45.0000000  0 28G09G26E19E10S31S35G03R06S48S33E27E11
                                E29E04G16E21G04R15E06R07R23R05G32R16
                                E12G29G28G31
 130404579.116 6 101613966.43044  24815166.918    24815166.3734   24815169.9154
        36.100          29.1004
 106240544.029 8  82784868.30248  20216899.097    20216898.4004   20216902.3084
        50.500          51.3004
 120964839.874 7                  23018843.153
        43.700
 145289354.217 6                  27647646.372
        38.600
 198981257.990 7                  37864873.379
        45.700
 200934932.253 7                  38236656.689
        44.000
 108737553.145 8  84730575.16348  20692065.374    20692065.0934   20692068.0854
        49.600          50.3004
 104892458.481 6                  19656801.342    19656801.679
        41.300
 412732837.253 5                  78540283.240
        33.500
 202105618.834 7                  38459400.667
        45.100
 137388882.671 7                  26144233.088
        42.900
 145184998.490 5                  27627787.600
        34.500
 132586889.447 7                  25230448.668
        44.600
 136381803.198 7                  25952595.978
        42.600
 111783153.693 7  87103819.62645  21271607.631    21271606.6074   21271609.2734
        46.800          35.0004
 125703294.239 8                  23920533.922
        48.700
 117581545.196 7  91621986.48145  22375024.852    22375024.4774   22375026.7814
        44.500          30.7004
 114593099.218 8  89128012.843 7  21444532.169    21444532.709    21444538.881
        50.500          46.100
 148368514.468 6                  28233592.284
        37.100
 123141806.252 7  95776983.224 6  23003919.418    23003920.243    23003926.529
        46.300          40.800
 131564980.986 6                  24594685.943    24594685.465
        40.300
 110473850.164 8  85924105.321 7  20666421.201    20666421.050    20666429.436
        50.500          47.200
 126189130.170 6  98329162.72346  24013019.047    24013018.5204   24013030.9254
        41.900          36.0004
 102042876.344 8  79366726.908 8  19102634.181    19102634.546    19102641.043
        52.500          49.100
 147840118.299 5                  28133054.652
        35.500
 132001556.833 6 102858488.31545  25119012.598    25119011.9774   25119016.6194
        38.800          30.9004
 117949007.532 7  91908317.45045  22444951.895    22444951.4984   22444952.8164
        45.100          33.4004
 108291868.998 8  84383274.69948  20607258.163    20607257.6544   20607257.8464
        50.000          49.4004
 25  1  1 15  5  0.0000000  0 28G09G26E19E10S31S35G03R06S48S33E27E11
                                E29E04G16E21G04R15E06R07R23R05G32R16
                                E12G29G28G31
 130355861.752 6 101576004.85845  24805896.444    24805895.8994   24805899.8264
        36.900          30.5004
 106235225.601 8  82780724.06148  20215886.674    20215885.9814   20215890.2334
        50.300          51.2004
 120962687.684 7                  23018433.640
        43.300
 145319696.863 6                  27653419.897
        38.000
 198981256.952 7                  37864874.292
        45.600
 200934897.649 7                  38236647.089
        44.100
 108738026.616 8  84730944.06548  20692155.332    20692155.0554   20692158.2014
        49.300          50.2004
 104863915.865 6                  19651452.101    19651452.890
        41.100
 412733288.505 5                  78540311.917
        33.300
 202105640.324 7                  38459405.675
        45.000
 137418970.940 7                  26149958.585
        43.300
 145200813.058 5                  27630796.633
        34.800
 132611808.336 7                  25235190.668
        44.600
 136350048.513 7                  25946553.397
        42.600
 111738765.975 7  87069231.81545  21263161.044    21263160.0254   21263162.5214
        46.400          34.9004
 125693212.577 8                  23918615.497
        48.500
 117540839.490 7  91590267.76245  22367278.982    22367278.6074   22367280.6164
        44.000          30.6004
 114646017.594 8  89169171.502 7  21454434.841    21454435.479    21454442.018
        50.200          46.100
 148332936.134 6                  28226821.555
        36.400
 123083559.629 7  95731680.288 6  22993038.590    22993038.929    22993045.842
        45.600          41.100
 131573565.491 6                  24596290.756    24596290.648
        41.400
 110512510.928 8  85954174.693 7  20673653.322    20673653.394    20673662.009
        50.500          47.300
 126230875.889 7  98361691.48346  24020963.295    24020962.7724   24020975.1654
        42.700          36.1004
 102043465.187 8  79367184.878 8  19102744.142    19102744.650    19102751.210
        52.600          49.100
 147877959.004 5                  28140255.412
        34.100
 131991996.662 6 102851038.94245  25117193.491    25117192.8574   25117196.8884
        37.900          30.1004
 117986055.183 7  91937185.71745  22452001.899    22452001.5064   22452002.8344
        45.800          33.3004
 108315824.914 8  84401941.62348  20611816.532    20611816.0234   20611816.5264
        49.700          49.3004
 25  1  1 15  5 15.0000000  0 28G09G26E19E10S31S35G03R06S48S33E27E11
                                E29E04G16E21G04R15E06R07R23R05G32R16
                                E12G29G28G31
 130307136.841 6 101538037.39644  24796624.211    24796623.6754   24796627.6934
        37.200          29.9004
 106230064.864 8  82776702.73248  20214904.897    20214904.2094   20214908.1844
        50.300          51.3004
 120960584.561 7                  23018033.101
        43.300
 145350099.178 6                  27659205.085
        38.200
 198981258.421 7                  37864872.476
        45.600
 200934865.845 7                  38236647.665
        44.200
 108738660.803 8  84731438.22048  20692276.070    20692275.8074   20692278.9044
        49.300          50.3004
 104835501.434 6                  19646128.526    19646127.880
        41.300
 412733742.189 5                  78540331.498
        32.700
 202105665.445 7                  38459407.969
        45.100
 137449133.952 7                  26155698.412
        43.200
 145216721.824 5                  27633823.841
        35.100
 132636770.728 7                  25239940.553
        44.500
 136318302.008 7                  25940512.468
        42.600
 111694490.476 7  87034731.44145  21254735.920    21254734.9144   21254737.1434
        46.700          35.1004
 125683237.504 8                  23916717.254
        48.400
 117500160.617 7  91558569.93245  22359537.684    22359537.3134   22359539.5534
        44.300          30.8004
 114699006.486 8  89210385.005 7  21464351.780    21464351.736    21464358.114
        50.400          46.100
 148297347.785 6                  28220049.650
        36.600
 123025321.624 7  95686384.085 6  22982159.035    22982159.266    22982167.095
        46.200          41.800
 131582322.401 6                  24597927.587    24597927.240
        40.800
 110551296.325 8  85984341.029 7  20680909.171    20680909.501    20680917.641
        50.800          47.200
 126272672.106 6  98394259.57446  24028917.048    24028916.5214   24028929.5194
        41.400          36.2004
 102044229.830 8  79367779.625 8  19102887.679    19102887.796    19102894.280
        52.600          49.200
 147915819.808 5                  28147460.402
        34.000
 131982557.813 6 102843684.10445  25115397.212    25115396.5734   25115400.5074
        38.000          30.3004
 118023132.447 7  91966077.04145  22459057.163    22459056.7614   22459058.4864
        45.200          33.3004
 108339853.687 8  84420665.32648  20616389.355    20616388.8414   20616389.0604
        49.700          49.4004
 25  1  1 15  5 30.0000000  0 28G09G26E19E10S31S35G03R06S48S33E27E11
                                E29E04G16E21G04R15E06R07R23R05G32R16
                                E12G29G28G31
 130258405.601 6 101500065.01845  24787351.378    24787350.8464   24787354.4334
        37.300          30.0004
 106225062.716 8  82772804.96248  20213952.961    20213952.2734   20213956.2964
        50.200          51.2004
 120958531.530 7                  23017642.524
        43.400
 145380561.968 6                  27665002.292
        37.300
 198981263.505 7                  37864873.268
        45.600
 200934837.815 7                  38236635.252
        43.800
 108739456.617 8  84732058.31348  20692427.527    20692427.2594   20692430.3674
        49.800          50.2004
 104807216.396 6                  19640828.068    19640827.205
        41.300
 412732599.447 5                  78540353.078
        32.600
 202105693.820 7                  38459411.600
        45.200
 137479372.520 7                  26161452.831
        42.500
 145232725.672 5                  27636869.502
        34.800
 132661777.535 7                  25244699.339
        44.500
 136286564.681 7                  25934472.809
        42.300
 111650328.587 7  87000319.60345  21246332.069    21246331.0634   21246333.3904
        47.100          35.0004
 125673370.320 8                  23914839.658
