     2.11           OBSERVATION DATA    M (MIXED)           RINEX VERSION / TYPE
teqc  2019Feb25                         20260317 16:20:09UTCPGM / RUN BY / DATE
Linux 2.4.21-27.ELsmp|Opteron|gcc -static|Linux 64|=+       COMMENT
BIT 2 OF LLI FLAGS DATA COLLECTED UNDER A/S CONDITION       COMMENT
-Unknown-                                                   MARKER NAME
-Unknown-           -Unknown-                               OBSERVER / AGENCY
-Unknown-           -Unknown-           -Unknown-           REC # / TYPE / VERS
-Unknown-           -Unknown-                               ANT # / TYPE
        0.0000        0.0000        0.0000                  APPROX POSITION XYZ
        0.0000        0.0000        0.0000                  ANTENNA: DELTA H/E/N
     1     1                                                WAVELENGTH FACT L1/2
     7    L1    L2    C1    P1    P2    S1    S2            # / TYPES OF OBSERV
 SNR is mapped to RINEX snr flag value [0-9]                COMMENT
  L1 & L2: min(max(int(snr_dBHz/6), 0), 9)                  COMMENT
  2025     1     1    22     0    0.0000000     GPS         TIME OF FIRST OBS
    18                                                      LEAP SECONDS
                                                            END OF HEADER
 25  1  1 22  0  0.0000000  0 36E03E05G17G08S31S35G07G15E33E25S48S33
                                R03G30E11E31R13E12R23E06E10R20R10E26
                                R11G21E24R21E09R02G13G14G02R12G19R22
 146748608.340 6                  27925323.205
        38.200
 130467900.072 6                  24827224.095
        41.600
 108427168.523 8  84488885.91948  20632926.550    20632925.9424   20632927.6424
        48.900          49.5004
 132517312.633 5 103260365.37544  25217167.609    25217166.8494   25217176.9334
        34.800          28.2004
 198973119.321 7                  37863336.952
        44.900
 200890891.984 7                  38228280.432
        43.100
 117920351.404 7  91886011.85846  22439495.371    22439494.7594   22439501.1824
        43.500          38.5004
 129286131.124 6 100742450.79844  24602331.679    24602331.2594   24602333.7674
        38.300          28.6004
 130130294.141 7                  24762903.452
        45.500
 146812691.649 6                  27937516.288
        36.500
 412994205.673 5                  78589984.261
        32.200
 202131052.191 7                  38464244.641
        44.200
 128540497.199 7  99975996.925 6  24012442.361    24012442.637    24012450.636
        43.200          37.700
 108730706.135 8  84725255.77648  20690760.920    20690760.0354   20690765.1164
        49.900          50.8004
 150453022.685 5                  28630252.850
        31.200
 126192598.141 7                  24013601.341
        46.800
 131755391.260 6                  24673552.193    24673552.569
        37.100
 133957635.176 6                  25491222.636
        40.100
 129118967.120 6                  24137419.236    24137417.840
        37.400
 148265837.607 6                  28214101.336
        36.600
 140190447.022 6                  26677308.144
        40.100
 124671195.572 5  96966658.940 7  23314082.419    23314082.613    23314093.706
        35.500          42.000
 123474065.131 6                  23163396.940    23163396.781
        38.900
 146103896.471 6                  27802573.488
        38.200
 105188023.578 8  81813068.304 8  19684454.588    19684454.665    19684461.186
        52.000          48.800
 120487923.211 6  93886855.29944  22928027.209    22928025.8994   22928028.5884
        40.300          26.9004
 128517137.467 8                  24455935.014
        48.000
 105144325.488 8  81779138.150 7  19648666.152    19648666.188    19648673.245
        52.300          47.700
 143694101.557 6                  27344108.053
        40.500
 127188412.155 7  98924406.503 6  23835041.275    23835041.982    23835052.121
        44.000          39.200
 120026182.148 7  93526900.72244  22840225.975    22840225.4344   22840228.2534
        43.300          26.0004
 106828742.428 7  83243337.37146  20328771.310    20328770.8904   20328772.7564
        47.900          40.9004
 115087449.368 7  89678691.87246  21900346.750    21900345.5304   21900346.2254
        47.200          37.4004
 111359890.848 8  86613298.216 7  20846795.705    20846795.870    20846803.722
        50.300          46.600
 119408696.168 7  93045910.05945  22722646.468    22722645.0784   22722648.1784
        44.900          31.9004
 108338976.737 8  84263853.198 8  20295475.054    20295475.734    20295482.668
        52.000          48.100
 25  1  1 22  0 15.0000000  0 36E03E05G17G08S31S35G07G15E33E25S48S33
                                R03G30E11E31R13E12R23E06E10R20R10E26
                                R11G21E24R21E09R02G13G14G02R12G19R22
 146735359.242 6                  27922802.132
        38.200
 130487894.221 6                  24831028.654
        41.900
 108411746.483 8  84476868.76948  20629992.014    20629991.4114   20629992.9344
        48.700          49.2004
 132568348.447 6 103300133.50944  25226880.340    25226879.6074   25226889.0704
        36.000          28.7004
 198973121.244 7                  37863331.439
        44.900
 200890898.658 7                  38228280.875
        42.900
 117968143.585 7  91923252.41346  22448589.463    22448588.8424   22448595.8284
        43.000          38.2004
 129294682.728 6 100749114.37044  24603959.253    24603958.8384   24603961.7554
        36.800          28.2004
 130132394.670 7                  24763302.826
        45.800
 146780723.127 6                  27931433.560
        36.500
 412994590.689 5                  78590000.519
        32.300
 202131061.572 7                  38464242.683
        44.000
 128541178.152 7  99976526.589 6  24012568.975    24012569.693    24012578.305
        44.300          38.200
 108755263.133 8  84744391.07448  20695434.058    20695433.1734   20695438.1764
        49.600          50.6004
 150405499.346 5                  28621208.569
        30.800
 126205050.519 7                  24015970.844
        47.200
 131701250.155 5                  24663414.341    24663413.571
        32.300
 133919189.240 6                  25483906.563
        40.400
 129051237.543 6                  24124755.507    24124757.335
        39.500
 148307496.186 6                  28222029.336
        37.100
 140143421.021 6                  26668359.101
        40.400
 124733493.711 5  97015113.064 6  23325731.859    23325731.042    23325743.530
        35.500          41.600
 123521523.413 6                  23172301.288    23172300.082
        39.600
 146138423.987 6                  27809143.616
        38.100
 105199215.609 8  81821773.216 8  19686549.015    19686549.343    19686555.698
        52.000          48.900
 120528771.603 6  93918685.22644  22935800.733    22935799.4414   22935801.5464
        40.700          26.8004
 128499849.523 8                  24452645.205
        48.300
 105164911.624 8  81795149.580 7  19652512.687    19652513.129    19652520.437
        52.500          47.600
 143735922.948 6                  27352066.809
        40.200
 127226833.426 7  98954289.609 6  23842240.329    23842240.749    23842252.569
        42.400          39.000
 120044561.225 7  93541222.04244  22843723.194    22843722.6624   22843725.7774
        42.900          25.8004
 106816838.109 8  83234061.28146  20326506.102    20326505.6784   20326507.4414
        48.000          40.6004
 115107315.153 7  89694171.70046  21904126.931    21904125.7024   21904126.5614
        47.300          37.2004
 111318276.869 8  86580931.787 7  20839005.770    20839005.937    20839013.570
        51.100          46.900
 119366234.929 7  93012823.48145  22714565.834    22714564.4264   22714568.0864
        44.400          31.6004
 108293378.244 8  84228387.766 8  20286932.711    20286932.874    20286940.362
        50.900          48.000
 25  1  1 22  0 30.0000000  0 36E03E05G17G08S31S35G07G15E33E25S48S33
                                R03G30E11E31R13E12R23E06E10R20R10E26
                                R11G21E24R21E09R02G13G14G02R12G19R22
 146722208.392 6                  27920299.614
        38.100
 130507973.315 6                  24834850.113
        41.800
 108396422.921 8  84464928.35548  20627075.924    20627075.3214   20627076.9494
        48.700          49.3004
 132619366.523 5 103339887.81844  25236588.764    25236588.0184   25236597.5304
        35.900          28.2004
 198973122.137 7                  37863336.304
        45.100
 200890905.465 7                  38228279.748
        42.900
 118016010.480 7  91960551.18146  22457698.949    22457698.3324   22457704.6084
        43.100          38.1004
 129303362.782 6 100755878.02244  24605610.748    24605610.3514   24605613.8774
        38.200          28.4004
 130134607.651 7                  24763724.471
        45.700
 146748747.808 6                  27925348.391
        37.200
 412993373.286 5                  78590015.227
        32.200
 202131070.788 7                  38464247.736
        44.200
 128542032.486 7  99977191.049 6  24012729.529    24012729.035    24012737.678
        42.500          37.700
 108779949.269 8  84763626.99948  20700131.754    20700130.8784   20700135.8124
        49.800          50.5004
 150357953.989 5                  28612161.424
        30.500
 126217534.662 7                  24018346.557
        47.000
 131647077.272 6                  24653269.416    24653268.962
        37.400
 133880805.601 6                  25476602.117
        40.300
 128983524.698 6                  24112098.934    24112098.498
        38.000
 148349122.974 6                  28229949.993
        36.300
 140096415.943 6                  26659414.416
        40.600
 124795842.461 6  97063606.543 6  23337391.719    23337392.757    23337402.839
        36.200          41.800
 123569042.319 6                  23181215.392    23181214.422
        38.800
 146173017.304 6                  27815726.736
        38.000
 105210526.757 8  81830570.774 8  19688665.941    19688665.999    19688672.363
        52.100          48.900
 120569720.845 6  93950593.73044  22943592.801    22943591.5184   22943594.1724
        40.700          26.5004
 128482583.400 8                  24449359.631
        48.200
 105185681.866 8  81811304.214 7  19656394.063    19656394.529    19656401.882
        52.300          47.400
 143777748.737 6                  27360025.988
        40.500
 127265353.575 7  98984249.628 6  23849460.570    23849460.832    23849470.873
        42.900          38.700
 120063066.094 7  93555641.39344  22847244.658    22847244.1444   22847246.9754
        42.900          25.7004
 106804996.949 8  83224834.40546  20324252.665    20324252.2504   20324254.1324
        48.000          40.7004
 115127312.488 7  89709754.03646  21907932.400    21907931.1714   21907931.9754
        47.500          37.1004
 111276709.206 8  86548601.406 7  20831224.069    20831224.236    20831231.972
        50.800          46.900
 119323831.070 7  92979781.61245  22706496.929    22706495.5254   22706498.8694
        44.500          31.8004
 108247923.007 8  84193033.763 8  20278417.789    20278418.131    20278424.970
        51.800          48.200
 25  1  1 22  0 45.0000000  0 36E03E05G17G08S31S35G07G15E33E25S48S33
                                R03G30E11E31R13E12R23E06E10R20R10E26
                                R11G21E24R21E09R02G13G14G02R12G19R22
 146709156.115 6                  27917815.894
        38.300
 130528137.444 6                  24838686.959
        41.700
 108381198.002 8  84453064.80748  20624178.638    20624178.0394   20624179.7404
        49.000          49.4004
 132670367.004 5 103379628.41544  25246293.899    25246293.1574   25246302.5074
        35.000          27.9004
 198973122.671 7                  37863336.796
        45.300
 200890911.993 7                  38228285.928
        43.400
 118063951.909 7  91997908.03946  22466821.823    22466821.2064   22466827.7334
        43.700          38.2004
 129312171.200 6 100762741.68844  24607286.746    24607286.3574   24607290.3644
        37.800          29.0004
 130136933.322 7                  24764166.652
        45.600
 146716765.927 6                  27919262.737
        36.600
 412993755.122 5                  78590031.713
        32.300
 202131078.528 7                  38464248.505
        44.500
 128543060.606 7  99977990.667 6  24012921.610    24012922.263    24012929.157
        44.000          37.700
 108804764.702 8  84782963.67048  20704853.830    20704852.9544   20704858.0604
        49.600          50.6004
 150310387.075 5                  28603109.461
        30.500
 126230050.850 7                  24020728.352
        47.000
 131592872.900 6                  24643118.441    24643117.847
        36.100
 133842484.776 6                  25469309.848
        40.800
 128915829.107 6                  24099443.658    24099443.323
        37.600
 148390717.942 6                  28237865.848
        37.200
 140049432.271 6                  26650473.347
        40.400
 124858241.401 6  97112139.067 6  23349059.941    23349060.316    23349071.779
        36.100          41.800
 123616621.852 6                  23190141.787    23190140.487
        39.200
 146207676.576 6                  27822321.786
        37.600
 105221957.505 8  81839461.340 8  19690804.670    19690805.223    19690811.534
        51.700          48.900
 120610770.719 6  93982580.64744  22951404.331    22951403.0354   22951405.6674
        41.000          26.7004
 128465339.398 8                  24446078.318
        48.100
 105206636.325 8  81827602.119 7  19660309.910    19660310.347    19660317.816
        52.100          47.400
 143819578.902 6                  27367986.111
        40.600
 127303972.164 6  99014286.197 6  23856697.146    23856696.150    23856708.153
        41.000          38.400
 120081696.844 7  93570158.83044  22850790.174    22850789.6694   22850792.2334
        42.900          26.0004
 106793219.330 8  83215657.04246  20322011.466    20322011.0464   20322012.9014
        48.100          40.6004
 115147441.603 7  89725439.05246  21911762.748    21911761.5144   21911762.4074
        47.100          37.2004
 111235188.358 8  86516307.402 7  20823451.235    20823451.563    20823458.660
        51.100          46.500
 119281484.997 7  92946784.76945  22698438.467    22698437.0504   22698440.5264
        44.600          31.8004
 108202611.683 8  84157791.699 8  20269928.815    20269929.207    20269936.704
        50.800          48.300
 25  1  1 22  1  0.0000000  0 36E03E05G17G08S31S35G07G15E33E25S48S33
                                R03G30E11E31R13E12R23E06E10R20R10E26
                                R11G21E24R21E09R02G13G14G02R12G19R22
 146696201.859 6                  27915351.052
        38.500
 130548385.776 6                  24842539.959
        41.600
 108366071.039 8  84441277.59148  20621300.022    20621299.4234   20621301.1734
        48.900          49.7004
 132721349.023 5 103419354.61944  25255995.238    25255994.4834   25256004.0464
        35.300          28.3004
 198973122.982 7                  37863335.043
        45.400
 200890917.352 7                  38228282.512
        43.700
 118111967.027 7  92035322.31246  22475958.560    22475957.9264   22475964.8364
        42.100          38.2004
 129321107.215 6 100769704.79644  24608987.248    24608986.8684   24608990.7704
        36.800          28.5004
 130139370.986 7                  24764630.749
        45.500
 146684776.823 6                  27913175.029
        37.400
 412994136.565 5                  78590044.627
        33.200
 202131086.002 7                  38464248.697
        44.600
 128544261.669 7  99978924.852 6  24013145.789    24013145.379    24013154.796
        43.000          37.900
 108829708.628 8  84802400.47048  20709600.663    20709599.7964   20709604.7824
        49.400          50.6004
 150262798.085 5                  28594053.691
        30.000
 126242598.473 7                  24023116.034
        47.000
 131538636.446 5                  24632961.274    24632961.509
        34.800
 133804226.280 6                  25462029.757
        40.500
 128848150.871 6                  24086792.034    24086792.683
        38.900
 148432280.262 6                  28245774.052
        36.500
 140002469.560 6                  26641536.508
        40.500
 124920689.580 5  97160709.901 6  23360739.509    23360738.566    23360749.533
        35.700          41.200
 123664261.465 6                  23199078.365    23199077.463
        38.900
 146242400.825 6                  27828929.937
        38.300
 105233507.191 8  81848444.428 8  19692966.463    19692966.358    19692972.875
        51.700          49.100
 120651920.086 6  94014645.09444  22959234.766    22959233.4614   22959236.1184
        40.700          26.7004
 128448116.884 8                  24442800.921
        48.300
 105227773.817 8  81844042.380 7  19664260.412    19664260.609    19664267.716
        52.700          47.300
 143861412.553 6                  27375946.919
        40.000
 127342688.191 7  99044398.582 6  23863953.202    23863952.323    23863963.111
        42.300          38.700
 120100452.462 7  93584773.55544  22854358.713    22854358.2174   22854361.2724
        43.100          26.1004
 106781504.677 8  83206528.74446  20319782.194    20319781.7654   20319783.6544
        48.000          40.9004
 115167701.615 7  89741226.07346  21915618.190    21915616.9614   21915617.7554
        47.400          37.4004
 111193713.919 8  86484049.495 7  20815687.248    20815687.552    20815694.948
        51.100          46.700
 119239196.254 7  92913832.60345  22690391.242    22690389.8254   22690393.1224
        44.300          32.0004
 108157443.952 8  84122661.292 8  20261467.202    20261467.779    20261475.281
        51.200          48.300
 25  1  1 22  1 15.0000000  0 36E03E05G17G08S31S35G07G15E33E25S48S33
                                R03G30E11E31R13E12R23E06E10R20R10E26
                                R11G21E24R21E09R02G13G14G02R12G19R22
 146683346.122 6                  27912904.272
        38.800
 130568718.559 6                  24846409.832
        41.700
 108351042.671 8  84429567.20148  20618440.228    20618439.6254   20618441.3564
        48.900          49.5004
 132772312.933 5 103459066.68444  25265694.069    25265693.3274   25265702.4224
        35.400          28.5004
 198973122.238 7                  37863334.055
        45.200
 200890922.847 7                  38228280.718
        43.300
 118160056.060 7  92072794.18546  22485110.080    22485109.4464   22485116.1334
        42.900          38.2004
 129330171.077 6 100776767.52244  24610712.532    24610712.1394   24610715.1714
        36.700          28.2004
 130141921.101 7                  24765115.920
        45.800
 146652780.940 6                  27907085.942
        37.900
 412994516.063 5                  78590055.967
        32.800
 202131092.832 7                  38464253.240
        44.700
 128545635.916 7  99979993.762 6  24013401.973    24013401.760    24013411.199
        42.800          38.400
 108854781.328 8  84821937.61648  20714371.937    20714371.0744   20714375.9584
        49.500          50.7004
 150215187.697 5                  28584993.240
        30.700
 126255178.019 7                  24025509.870
        47.100
 131484368.485 6                  24622799.149    24622798.959
        36.700
 133766030.911 6                  25454761.378
        40.100
 128780490.772 6                  24074142.796    24074143.518
        38.100
 148473810.201 6                  28253677.484
        36.500
 139955528.543 6                  26632603.692
        40.600
 124983186.650 6  97209318.739 7  23372428.058    23372426.462    23372437.223
        36.000          42.200
 123711961.254 6                  23208026.854    23208026.615
        39.900
 146277190.310 6                  27835549.897
        37.600
 105245176.372 8  81857520.435 8  19695149.913    19695150.281    19695156.721
        51.900          49.200
 120693169.172 6  94046787.23844  22967084.229    22967082.9104   22967085.6084
        41.000          26.7004
 128430916.394 8                  24439527.682
        48.100
 105249094.602 8  81860625.210 7  19668244.081    19668244.646    19668251.932
        52.300          47.600
 143903249.876 6                  27383908.451
        40.400
 127381501.548 7  99074586.616 6  23871226.766    23871226.356    23871237.309
        42.200          38.900
 120119333.237 7  93599485.82244  22857952.042    22857951.5554   22857954.4054
        42.600          25.9004
 106769853.595 7  83197449.97846  20317565.023    20317564.5944   20317566.5254
        47.700          40.8004
 115188092.750 7  89757115.27246  21919498.258    21919497.0204   21919498.0554
        47.500          37.4004
 111152286.769 8  86451828.376 7  20807932.690    20807932.091    20807939.576
        51.300          46.800
 119196965.371 7  92880925.51345  22682354.953    22682353.5274   22682356.7134
        44.400          32.0004
 108112420.656 8  84087643.234 8  20253033.082    20253033.230    20253040.495
        51.500          48.300
 25  1  1 22  1 30.0000000  0 36E03E05G17G08S31S35G07G15E33E25S48S33
                                R03G30E11E31R13E12R23E06E10R20R10E26
                                R11G21E24R21E09R02G13G14G02R12G19R22
 146670588.920 6                  27910476.494
        38.800
 130589135.589 7                  24850294.250
        42.200
 108336112.548 8  84417933.36548  20615599.097    20615598.4894   20615600.2444
        48.800          49.5004
 132823258.599 6 103498764.55944  25275388.720    25275388.0144   25275397.1464
        36.100          28.2004
 198973121.073 7                  37863333.536
        45.400
 200890927.005 7                  38228283.768
        43.600
 118208218.802 7  92110323.49646  22494275.002    22494274.3544   22494281.3184
        42.400          38.0004
 129339362.536 6 100783929.67644  24612461.335    24612460.9554   24612464.3534
        37.500          28.3004
 130144583.603 7                  24765622.219
        45.600
 146620778.251 6                  27900996.810
        37.100
 412994894.095 5                  78590072.893
        32.800
 202131098.807 7                  38464249.605
        44.500
 128547183.706 7  99981197.612 6  24013691.537    24013692.290    24013699.399
        44.300          37.200
 108879982.626 8  84841574.96948  20719167.535    20719166.6684   20719171.6124
        49.300          50.7004
 150167556.116 5                  28575929.495
        30.600
 126267789.514 7                  24027909.793
        46.900
 131430069.246 5                  24612631.509    24612630.141
        35.500
 133727898.777 6                  25447504.950
        40.700
 128712849.095 6                  24061499.764    24061499.370
        39.600
 148515307.541 6                  28261574.643
        36.500
 139908609.397 6                  26623675.432
        40.300
 125045732.019 5  97257965.147 6  23384122.302    23384122.617    23384132.886
        35.700          41.600
 123759721.182 6                  23216985.186    23216985.314
        38.600
 146312044.754 6                  27842182.463
        38.000
 105256965.263 8  81866689.563 8  19697356.225    19697356.352    19697362.671
        52.000          49.200
 120734517.778 6  94079006.93644  22974952.436    22974951.1134   22974953.9834
        41.000          26.7004
 128413737.919 8                  24436258.810
        48.100
 105270598.272 8  81877350.281 7  19672263.232    19672263.182    19672270.427
        52.600          47.400
 143945090.577 6                  27391870.750
        39.800
 127420411.658 7  99104849.954 6  23878518.510    23878518.406    23878529.108
        43.300          38.500
 120138338.794 7  93614295.31144  22861568.727    22861568.2494   22861571.2904
        43.100          25.8004
 106758266.155 7  83188420.80446  20315360.181    20315359.7484   20315361.4614
        47.800          40.6004
 115208614.793 7  89773106.47246  21923403.533    21923402.2904   21923403.3064
        47.700          37.3004
 111110907.259 8  86419644.326 7  20800185.385    20800185.608    20800193.375
        51.200          46.500
 119154792.498 7  92848063.63545  22674329.585    22674328.1594   22674331.2824
        44.200          31.8004
 108067542.135 8  84052737.787 8  20244625.806    20244626.343    20244633.612
        51.800          48.500
 25  1  1 22  1 45.0000000  0 37E03E05G17G08S31S35G07G15E33E25S48S33
                                R03G30E11E31R13G06E12R23E06E10R20R10
                                E26R11G21E24R21E09R02G13G14G02R12G19
                                R22
 146657933.759 6                  27908068.679
        39.300
 130609640.027 6                  24854196.256
        41.900
 108321283.895 8  84406378.59748  20612777.118    20612776.5104   20612778.4174
        49.200          49.6004
 132874189.266 5 103538450.72944  25285079.956    25285079.2374   25285088.5434
        35.500          28.0004
 198973123.223 7                  37863331.908
        45.100
 200890934.636 7                  38228285.700
        43.400
 118256458.251 7  92147912.57546  22503454.759    22503454.1294   22503460.8714
        42.700          38.1004
 129348684.982 6 100791193.90144  24614235.818    24614235.4564   24614238.4474
        37.800          28.8004
 130147361.808 7                  24766151.313
        45.600
 146588772.082 6                  27894905.702
        36.800
 412993675.776 5                  78590080.248
        32.300
 202131108.310 7                  38464253.781
        44.600
 128548908.065 7  99982538.864 6  24014013.281    24014013.156    24014022.590
        42.600          38.300
 108905315.738 8  84861315.03648  20723988.459    20723987.5964   20723992.3444
        49.700          50.7004
 150119906.869 5                  28566862.423
        31.100
 126280436.358 7                  24030316.396
        46.800
 131375742.312 6                  24602456.640    24602456.489
        36.500
 134706896.782 5                  25633869.860
        33.100
 133689833.493 6                  25440260.939
        40.800
 128645229.675 6                  24048858.067    24048858.308
        39.900
 148556775.400 6                  28269464.880
        36.800
 139861715.787 6                  26614751.942
        40.000
 125108328.437 5  97306651.278 6  23395827.234    23395828.099    23395839.134
        35.200          41.800
 123807544.611 6                  23225957.108    23225957.343
        38.500
 146346967.351 6                  27848828.147
        38.200
 105268877.346 8  81875954.498 8  19699585.435    19699585.746    19699591.990
        51.800          49.400
 120775968.631 6  94111306.30244  22982840.474    22982839.1514   22982841.7604
        40.700          26.6004
 128396584.870 8                  24432994.513
        48.100
 105292287.773 8  81894219.890 7  19676316.144    19676316.457    19676323.636
        52.700          47.400
 143986937.815 6                  27399834.001
        40.700
 127459421.691 7  99135190.990 6  23885828.487    23885829.137    23885839.697
        43.300          38.800
 120157472.274 7  93629204.48544  22865209.541    22865209.0724   22865212.5414
        43.800          26.0004
 106746745.836 7  83179443.93646  20313167.966    20313167.5334   20313169.2484
        47.800          40.7004
 115229270.861 7  89789202.11246  21927334.508    21927333.2654   21927334.0414
        47.200          37.3004
 111069579.032 8  86387500.172 7  20792448.830    20792449.013    20792456.561
        50.700          46.600
 119112681.031 7  92815249.59945  22666315.981    22666314.5644   22666317.7144
        44.100          32.0004
 108022812.206 8  84017947.896 8  20236246.469    20236246.675    20236253.800
        51.400          48.400
 25  1  1 22  2  0.0000000  0 37E03E05G17G08S31S35G07G15E33E25S48S33
                                R03G30E11E31R13G06E12R23E06E10R20R10
                                E26R11G21E24R21E09R02G13G14G02R12G19
                                R22
 146645377.958 6                  27905679.407
        39.200
 130630228.995 7                  24858114.364
        42.200
 108306554.094 8  84394900.85548  20609973.997    20609973.3854   20609975.4214
        48.900          49.7004
 132925101.998 5 103578122.92044  25294768.814    25294768.0994   25294776.9794
        35.600          28.1004
 198973125.020 7                  37863334.453
        45.300
 200890942.668 7                  38228290.780
        43.500
 118304771.309 6  92185559.01646  22512648.541    22512647.9154   22512654.5624
        41.800          38.1004
 129358135.375 6 100798557.83644  24616033.728    24616033.3624   24616036.9834
        37.400          28.7004
 130150252.978 7                  24766701.365
        45.600
 146556759.774 6                  27888813.925
        37.000
 412994056.748 5                  78590098.300
        32.700
 202131117.806 7                  38464253.692
        44.400
 128550805.993 7  99984015.117 6  24014368.345    24014367.867    24014376.412
        43.400          37.900
 108930777.767 8  84881155.55048  20728833.536    20728832.6784   20728837.6154
        49.600          50.7004
 150072237.474 5                  28557789.833
        31.000
 126293115.873 7                  24032729.379
        47.200
 131321384.683 5                  24592275.436    24592276.826
        35.900
 134649413.593 5 104921695.23943  25622931.123    25622931.1014   25622950.5124
        31.700          20.6004
 133651832.637 6                  25433029.959
        40.700
 128577630.241 6                  24036220.895    24036220.308
        38.700
 148598210.851 6                  28277350.001
        36.300
 139814845.173 6                  26605832.692
        40.000
 125170973.257 5  97355375.020 6  23407542.817    23407543.178    23407553.828
        35.600          41.900
 123855428.761 6                  23234940.256    23234940.744
        39.200
 146381955.139 6                  27855485.785
        37.800
 105280909.969 8  81885313.194 8  19701837.062    19701837.503    19701843.921
        52.000          49.200
 120817518.699 6  94143682.98244  22990746.960    22990745.6194   22990748.4874
        40.700          26.8004
 128379454.566 8                  24429734.902
        48.200
 105314160.323 8  81911231.884 7  19680403.537    19680403.833    19680410.994
        52.700          47.300
 144028788.574 6                  27407797.931
        40.600
 127498527.902 7  99165606.858 6  23893157.133    23893157.693    23893168.306
        43.800          39.000
 120176730.764 7  93644211.06344  22868874.134    22868873.6564   22868877.2954
        43.400          25.9004
 106735290.075 7  83170517.37146  20310988.033    20310987.6044   20310989.3014
        47.500          40.8004
 115250058.063 7  89805399.94446  21931290.094    21931288.8564   21931289.7284
        47.600          37.3004
 111028299.724 8  86355394.071 7  20784721.547    20784721.633    20784729.065
        51.200          46.600
 119070628.389 7  92782481.39445  22658313.666    22658312.2454   22658315.3384
        44.700          32.1004
 107978228.459 8  83983271.721 8  20227894.098    20227894.802    20227901.816
        52.100          48.400
 25  1  1 22  2 15.0000000  0 37E03E05G17G08S31S35G07G15E33E25S48S33
                                R03G30E11E31R13G06E12R23E06E10R20R10
                                E26R11G21E24R21E09R02G13G14G02R12G19
                                R22
 146632922.543 6                  27903309.011
        39.100
 130650903.263 7                  24862048.933
        42.600
 108291923.998 8  84383500.80348  20607190.054    20607189.4424   20607191.3844
        48.700          49.7004
 132975997.768 5 103617781.92544  25304454.535    25304453.8114   25304462.1384
        35.400          27.9004
 198973127.970 7                  37863336.103
        45.200
 200890951.754 7                  38228290.815
        43.300
 118353158.710 7  92223263.38146  22521856.594    22521855.9774   22521862.4744
        42.600          38.1004
 129367714.459 6 100806022.04144  24617857.086    24617856.7244   24617860.1354
        36.600          29.0004
 130153258.035 7                  24767273.248
        45.800
 146524742.297 6                  27882721.001
        37.300
 412994437.941 5                  78590104.784
        32.000
 202131127.990 7                  38464257.766
        44.500
 128552878.314 7  99985626.998 6  24014754.449    24014755.302    24014763.560
        42.300          38.000
 108956369.565 8  84901097.18748  20733703.484    20733702.6214   20733707.6054
        49.300          50.6004
 150024549.065 5                  28548714.968
        30.300
 126305829.093 7                  24035148.276
        47.500
 131266997.932 6                  24582092.666    24582092.035
        37.800
 134591907.708 5 104876885.68443  25611986.957    25611986.8414   25612009.5694
        31.900          21.7004
 133613897.323 6                  25425810.850
        41.000
 128510052.119 6                  24023587.259    24023587.362
        40.100
 148639614.647 6                  28285229.135
        36.900
 139767998.805 6                  26596917.858
        40.600
 125233666.843 6  97404136.686 7  23419266.760    23419267.920    23419278.132
        36.100          42.000
 123903374.052 6                  23243935.925    23243934.688
        39.900
 146417008.865 6                  27862156.597
        37.800
 105293064.296 8  81894766.547 8  19704111.887    19704111.860    19704118.349
        52.100          49.300
 120859168.641 6  94176137.48944  22998672.631    22998671.2944   22998674.1924
        40.300          26.3004
 128362348.055 8                  24426479.420
        48.200
 105336216.278 8  81928386.504 7  19684525.529    19684525.757    19684532.757
        52.900          47.400
 144070643.558 6                  27415762.655
        40.400
 127537731.074 7  99196098.108 6  23900504.267    23900504.685    23900515.312
        43.800          38.600
 120196114.907 7  93659315.55944  22872563.111    22872562.6244   22872565.5664
        43.000          26.0004
 106723899.919 7  83161641.92946  20308820.779    20308820.3594   20308821.8164
        47.300          40.7004
 115270977.152 7  89821700.54746  21935270.713    21935269.4704   21935270.4384
        47.400          37.4004
 110987070.507 8  86323326.923 7  20777002.740    20777003.259    20777010.709
        50.700          46.400
 119028635.682 7  92749759.89945  22650322.164    22650320.7164   22650324.4774
        44.000          32.2004
 107933792.182 8  83948710.247 8  20219569.953    20219569.960    20219577.246
        51.300          48.500
 25  1  1 22  2 30.0000000  0 37E03E05G17G08S31S35G07G15E33E25S48S33
                                R03G30E11E31R13G06E12R23E06E10R20R10
                                E26R11G21E24R21E09R02G13G14G02R12G19
                                R22
 146620563.965 6                  27900956.749
        39.100
 130671659.024 7                  24865998.118
        42.200
 108277389.868 8  84372175.53448  20604424.429    20604423.8084   20604425.6234
        48.600          49.6004
 133026872.737 5 103657424.71944  25314135.936    25314135.1814   25314143.3224
        35.400          27.9004
 198973128.962 7                  37863338.544
        45.200
 200890958.339 7                  38228288.758
        43.200
 118401616.531 7  92261022.62046  22531077.398    22531076.7864   22531083.7514
        43.400          38.1004
 129377418.354 6 100813583.48944  24619704.126    24619703.7604   24619705.8874
        37.100          28.6004
 130156373.309 7                  24767866.233
        45.800
 146492715.906 6                  27876626.721
        37.800
 412994816.238 5                  78590116.321
        32.200
 202131135.465 7                  38464257.989
        44.500
 128555121.255 7  99987371.595 6  24015173.896    24015173.694    24015182.485
        42.700          38.100
 108982087.328 8  84921136.97748  20738597.442    20738596.5794   20738601.5684
        49.300          50.6004
 149976838.291 5                  28539636.376
        30.300
 126318572.402 7                  24037573.561
        47.200
 131212578.148 6                  24571901.260    24571900.532
        36.000
 134534375.587 5 104832055.71143  25601039.620    25601039.4464   25601062.2904
        30.900          20.3004
 133576024.193 6                  25418603.876
        40.600
 128442491.825 6                  24010958.366    24010958.731
        40.500
 148680982.924 6                  28293100.852
        37.000
 139721173.286 6                  26588006.908
        40.800
 125296404.591 6  97452932.703 7  23430999.219    23431000.156    23431010.542
        36.600          42.000
 123951377.062 6                  23252940.637    23252940.844
        39.900
 146452124.711 6                  27868838.809
        38.400
 105305336.755 8  81904311.789 8  19706408.416    19706408.700    19706415.091
        51.900          49.300
 120900914.586 6  94208666.79844  23006617.297    23006615.9744   23006618.0794
        40.200          26.4004
 128345261.713 8                  24423228.411
        48.200
 105358451.715 8  81945680.737 7  19688680.393    19688680.713    19688688.084
        52.700          47.200
 144112498.879 6                  27423727.434
        40.700
 127577026.756 7  99226661.323 6  23907868.199    23907867.829    23907879.690
        42.800          38.900
 120215620.757 7  93674514.89144  22876274.895    22876274.3904   22876277.6034
        44.000          25.9004
 106712571.815 7  83152814.84046  20306664.773    20306664.3674   20306666.1314
        47.800          40.6004
 115292024.229 7  89838100.87946  21939275.705    21939274.4624   21939275.4924
        47.200          37.3004
 110945888.084 8  86291296.170 7  20769293.268    20769293.900    20769301.439
        50.400          46.700
 118986699.310 7  92717082.29145  22642342.479    22642341.0314   22642344.2814
        44.200          32.2004
 107889500.111 8  83914260.901 8  20211272.612    20211273.065    20211280.026
        52.000          48.500
 25  1  1 22  2 45.0000000  0 37E03E05G17G08S31S35G07G15E33E25S48S33
                                R03G30E11E31R13G06E12R23E06E10R20R10
                                E26R11G21E24R21E09R02G13G14G02R12G19
                                R22
 146608305.502 6                  27898624.692
        38.200
 130692499.267 7                  24869964.110
        42.500
 108262954.953 8  84360927.56948  20601677.644    20601677.0234   20601678.7554
        48.600          49.7004
 133077730.020 5 103697053.74244  25323813.258    25323812.4854   25323821.0944
        34.800          27.0004
 198973130.356 7                  37863336.250
        45.300
 200890965.329 7                  38228290.471
        43.300
 118450147.750 7  92298839.05046  22540312.567    22540311.9464   22540319.1724
        42.900          38.2004
 129387250.218 6 100821244.66344  24621575.122    24621574.7564   24621576.3404
        37.600          28.5004
 130159601.976 7                  24768480.161
        45.900
 146460683.929 6                  27870530.807
        37.500
 412995195.495 5                  78590132.303
        32.400
 202131144.167 7                  38464261.459
        44.700
 128557538.094 7  99989251.412 6  24015625.726    24015625.086    24015634.029
        42.300          37.800
 109007934.075 8  84941277.27248  20743516.035    20743515.1724   20743520.0714
        49.400          50.6004
 149929108.512 5                  28530553.394
        30.800
 126331349.068 7                  24040004.883
        47.300
 131158128.817 6                  24561704.486    24561703.677
        36.000
 134476820.800 5 104787208.06643  25590086.874    25590086.7224   25590109.4804
        32.400          21.1004
 133538216.663 6                  25411409.053
        41.000
 128374953.367 6                  23998333.070    23998331.978
        39.700
 148722318.715 6                  28300967.361
        36.900
 139674372.051 6                  26579100.972
        40.500
 125359189.693 5  97501765.534 7  23442739.808    23442739.847    23442751.507
        35.600          42.200
 123999440.512 6                  23261957.479    23261957.706
        40.000
 146487305.677 6                  27875533.886
        37.300
 105317730.658 8  81913951.466 8  19708727.579    19708727.773    19708734.450
        51.800          49.400
 120942759.139 6  94241272.94044  23014579.707    23014578.3624   23014580.7784
        40.800          26.2004
 128328198.791 8                  24419981.160
        48.000
 105380869.535 8  81963116.811 7  19692869.804    19692870.172    19692877.431
        52.700          47.300
 144154357.526 6                  27431693.311
        39.800
 127616417.768 7  99257298.653 6  23915250.355    23915250.308    23915261.753
        43.600          38.700
 120235251.255 7  93689811.34544  22880010.005    22880009.4874   22880013.4024
        42.900          26.1004
 106701309.104 7  83144038.70246  20304521.434    20304521.0194   20304522.8924
        47.800          40.7004
 115313202.403 7  89854603.36446  21943305.945    21943304.7074   21943305.6094
        47.300          37.3004
 110904756.014 8  86259304.560 7  20761593.614    20761594.115    20761601.265
        51.200          46.900
 118944822.652 7  92684451.21445  22634373.239    22634371.7864   22634375.3494
        44.000          32.3004
 107845355.868 8  83879926.531 8  20203002.325    20203002.969    20203010.126
        51.800          48.400
 25  1  1 22  3  0.0000000  0 37E03E05G17G08S31S35G07G15E33E25S48S33
                                R03G30E11E31R13G06E12R23E06E10R20R10
                                E26R11G21E24R21E09R02G13G14G02R12G19
                                R22
 146596147.833 6                  27896311.350
        38.000
 130713424.518 7                  24873945.881
        42.500
 108248619.896 8  84349757.42148  20598949.841    20598949.2154   20598950.8644
        48.800          49.8004
 133128570.081 6 103736669.34044  25333487.810    25333487.0194   25333495.6374
        36.000          27.9004
 198973132.665 7                  37863336.997
        45.200
 200890974.047 7                  38228294.822
        43.400
 118498752.726 7  92336712.96146  22549562.417    22549561.7964   22549568.6124
        42.700          38.3004
 129397210.480 6 100829005.89444  24623469.661    24623469.2954   24623471.4944
        37.500          28.3004
 130162944.727 7                  24769116.421
        45.700
 146428646.990 6                  27864434.733
        37.200
 412995575.549 5                  78590148.002
        32.500
 202131153.980 7                  38464262.264
        44.500
 128560129.592 7  99991267.022 6  24016108.919    24016109.672    24016118.444
        43.300          38.600
 109033910.387 8  84961518.52848  20748459.133    20748458.2754   20748463.2364
        49.100          50.7004
 149881360.686 5                  28521467.635
        30.200
 126344159.792 7                  24042442.577
        47.300
 131103650.793 5                  24551501.268    24551501.777
        34.100
 134419244.346 5 104742343.54143  25579129.731    25579129.5754   25579152.7804
        33.400          23.5004
 133500475.686 6                  25404227.382
        40.700
 128307437.706 6                  23985711.209    23985711.404
        40.600
 148763622.490 6                  28308827.344
        36.900
 139627596.039 6                  26570199.540
        40.500
 125422021.705 6  97550634.865 7  23454491.048    23454491.056    23454502.480
        36.100          42.300
 124047565.431 6                  23270985.777    23270985.840
        40.400
 146522552.186 6                  27882241.122
        38.100
 105330246.883 8  81923686.302 8  19711069.546    19711070.063    19711076.717
        51.700          49.400
 120984702.997 6  94273956.47244  23022560.866    23022559.5034   23022562.3114
        40.700          26.2004
 128311160.049 8                  24416738.903
        48.400
 105403469.997 8  81980694.953 7  19697093.349    19697093.516    19697100.824
        52.300          47.400
 144196219.914 6                  27439659.858
        40.200
 127655904.469 7  99288010.432 6  23922650.205    23922651.187    23922660.119
        44.100          38.200
 120255006.895 7  93705205.31944  22883769.865    22883769.3514   22883772.7174
        43.500          26.1004
 106690112.605 7  83135314.15846  20302390.978    20302390.5634   20302392.2404
        47.900          40.8004
 115334512.085 7  89871208.31046  21947361.141    21947359.9214   21947360.6734
        46.800          37.4004
 110863675.276 8  86227352.885 7  20753903.180    20753903.434    20753910.870
        50.900          46.800
 118903006.491 7  92651867.28045  22626416.183    22626414.7444   22626417.8864
        44.000          32.4004
 107801360.512 8  83845707.986 8  20194760.745    20194761.116    20194768.126
        51.400          48.300
 25  1  1 22  3 15.0000000  0 37E03E05G17G08S31S35G07G15E33E25S48S33
                                R03G30E11E31R13G06E12R23E06E10R20R10
                                E26R11G21E24R21E09R02G13G14G02R12G19
                                R22
 146584088.105 6                  27894016.309
        38.600
 130734431.582 7                  24877943.756
        42.100
 108234381.604 8  84338662.66648  20596240.111    20596239.4814   20596241.3924
        49.100          50.0004
 133179389.870 5 103776269.15444  25343158.433    25343157.6464   25343166.4554
        34.600          28.2004
 198973133.711 7                  37863339.886
        45.300
 200890981.349 7                  38228300.756
        43.800
 118547428.231 7  92374641.82146  22558825.082    22558824.4614   22558831.2564
        43.400          38.5004
 129407295.865 6 100836864.61444  24625388.285    24625387.9194   24625391.2514
        37.700          28.7004
 130166398.485 7                  24769773.544
        45.900
 146396602.086 6                  27858336.785
        38.100
 412994353.596 5                  78590160.572
        32.800
 202131161.803 7                  38464265.238
        44.500
 128562892.696 7  99993416.140 6  24016626.184    24016626.305    24016635.641
        43.300          38.600
 109060013.074 8  84981858.26348  20753426.208    20753425.3504   20753430.4304
        49.500          50.8004
 149833591.925 5                  28512376.674
        31.000
 126357001.642 7                  24044886.375
        47.300
 131049141.139 5                  24541294.427    24541293.416
        34.400
 134361643.197 5 104697459.75044  25568168.418    25568168.2494   25568191.2104
        33.800          24.1004
 133462798.421 6                  25397057.761
        40.900
 128239942.391 6                  23973091.879    23973093.402
        40.300
 148804891.029 5                  28316680.310
        35.900
 139580842.488 6                  26561302.654
        40.400
 125484897.758 5  97599538.434 6  23466247.403    23466248.249    23466259.485
        35.200          41.600
 124095748.625 6                  23280025.376    23280024.568
        39.800
 146557861.024 6                  27888959.938
        38.100
 105342882.442 8  81933513.945 8  19713434.697    19713434.956    19713441.168
        52.300          49.300
 121026742.719 6  94306714.70444  23030561.103    23030559.7444   23030562.5094
        40.200          26.2004
 128294142.534 8                  24413500.580
        48.400
 105426249.814 8  81998412.580 7  19701350.319    19701350.537    19701357.800
        52.600          47.600
 144238082.789 6                  27447626.050
        40.100
 127695482.936 6  99318793.573 6  23930066.889    23930066.189    23930078.309
        41.900          38.500
 120274884.411 7  93720694.25944  22887552.661    22887552.1254   22887555.0804
        42.800          26.3004
 106678979.416 8  83126638.94646  20300272.065    20300271.6414   20300273.6524
        48.000          40.9004
 115355950.200 7  89887913.34046  21951440.654    21951439.4434   21951440.2194
        47.300          37.5004
 110822643.212 8  86195439.045 7  20746221.658    20746222.291    20746229.647
        51.000          46.800
 118861247.849 7  92619328.15845  22618469.390    22618467.9374   22618471.3614
        44.900          32.7004
 107757511.375 8  83811603.162 8  20186546.272    20186546.817    20186554.019
        51.600          48.400
 25  1  1 22  3 30.0000000  0 37E03E05G17G08S31S35G07G15E33E25S48S33
                                R03G30E11E31R13G06E12R23E06E10R20R10
                                E26R11G21E24R21E09R02G13G14G02R12G19
                                R22
 146572126.998 6                  27891740.073
        39.200
 130755520.880 7                  24881956.610
        42.200
 108220240.516 8  84327643.65748  20593549.027    20593548.3844   20593550.4144
        48.900          49.9004
 133230189.850 5 103815853.53344  25352825.703    25352824.9084   25352833.0704
        34.400          27.4004
 198973134.641 7                  37863337.252
        45.200
 200890987.486 7                  38228304.400
        43.700
 118596174.541 7  92412625.86746  22568101.210    22568100.6024   22568107.3014
        42.900          38.5004
 129417506.776 6 100844821.14344  24627332.171    24627331.7964   24627335.0344
        37.700          28.9004
 130169963.843 7                  24770452.098
        45.900
 146364549.880 6                  27852237.021
        37.600
 412994730.223 5                  78590177.833
        32.800
 202131169.131 7                  38464265.730
        44.600
 128565827.285 7  99995698.612 6  24017173.041    24017173.283    24017183.858
        42.500          39.700
 109086242.589 8  85002296.81748  20758417.650    20758416.7924   20758421.7584
        49.500          50.8004
 149785803.051 5                  28503282.607
        31.500
 126369875.262 7                  24047336.160
        47.400
 130994600.681 6                  24531081.352    24531080.856
        37.300
 134304018.398 5 104652557.55943  25557202.473    25557202.2994   25557224.9894
        33.100          23.5004
 133425185.780 6                  25389900.380
        40.700
 128172468.093 6                  23960478.351    23960478.257
        39.000
 148846124.728 5                  28324527.101
        35.400
 139534112.270 6                  26552410.314
        40.800
 125547818.024 5  97648476.341 6  23478016.821    23478015.713    23478026.363
        35.600          41.500
 124143990.197 6                  23289075.308    23289075.302
        40.600
 146593232.640 6                  27895690.097
        38.500
 105355638.080 8  81943434.974 8  19715821.264    19715821.747    19715828.295
        51.700          49.300
 121068878.392 6  94339547.68944  23038579.236    23038577.8824   23038580.7094
        40.800          26.4004
 128277146.914 8                  24410266.204
        48.300
 105449209.314 8  82016269.958 7  19705640.721    19705640.933    19705648.322
        52.700          47.600
 144279946.507 6                  27455592.475
        40.100
 127735153.463 7  99349648.290 6  23937500.846    23937500.579    23937512.632
        42.500          38.600
 120294884.126 7  93736278.42044  22891358.317    22891357.7724   22891361.0884
        43.700          26.3004
 106667910.287 8  83118013.65146  20298166.038    20298165.6054   20298167.2944
        48.200          40.9004
 115377517.057 7  89904718.69646  21955544.737    21955543.5264   21955544.2794
        47.400          37.6004
 110781660.766 8  86163563.800 7  20738549.546    20738550.324    20738557.541
        51.200          46.700
 118819547.332 7  92586834.32045  22610534.003    22610532.5464   22610535.9574
        44.500          32.7004
 107713809.424 8  83777612.779 8  20178359.410    20178359.737    20178366.795
        51.700          48.400
 25  1  1 22  3 45.0000000  0 37E03E05G17G08S31S35G07G15E33E25S48S33
                                R03G30E11E31R13G06E12R23E06E10R20R10
                                E26R11G21E24R21E09R02G13G14G02R12G19
                                R22
 146560261.281 6                  27889482.100
        38.600
 130776689.012 7                  24885984.955
        42.200
 108206193.252 8  84316697.76048  20590876.019    20590875.3764   20590877.3004
        48.500          49.8004
 133280966.647 5 103855419.83344  25362487.590    25362486.7864   25362495.6834
        34.600          27.6004
 198973129.781 7                  37863333.084
        45.200
 200890989.670 7                  38228298.981
        43.600
 118644988.079 7  92450662.29146  22577389.894    22577389.2734   22577396.4944
        43.500          38.5004
 129427839.795 6 100852872.83544  24629298.678    24629298.2944   24629301.2924
        36.300          28.3004
 130173637.559 7                  24771151.452
        46.000
 146332487.061 6                  27846135.951
        38.000
 412995101.108 5                  78590190.004
        32.200
 202131171.560 7                  38464263.078
        44.500
 128568930.428 7  99998112.163 6  24017754.098    24017753.664    24017762.531
        43.200          38.600
 109112595.548 8  85022831.56348  20763432.356    20763431.5114   20763436.5894
        49.400          50.6004
 149737991.105 5                  28494183.712
        30.300
 126382777.447 7                  24049791.319
        47.100
 130940026.097 5                  24520860.067    24520860.811
        35.600
 134246366.976 5 104607634.62343  25546231.871    25546231.6934   25546253.8454
        30.600          22.4004
 133387634.711 6                  25382754.057
        41.000
 128105012.037 6                  23947868.961    23947868.881
        40.900
 148887320.213 5                  28332366.189
        35.700
 139487402.383 6                  26543521.457
        40.700
 125610778.360 5  97697445.435 6  23489787.564    23489788.954    23489800.324
        35.400          41.800
 124192287.218 6                  23298135.236    23298135.207
        39.600
 146628663.559 6                  27902432.606
        38.100
 105368510.627 8  81953446.953 8  19718230.602    19718230.642    19718237.140
        52.000          49.300
 121111106.482 6  94372452.71144  23046614.734    23046613.3664   23046616.3814
        40.900          26.1004
 128260169.991 8                  24407035.715
        48.100
 105472344.751 8  82034264.200 7  19709964.441    19709964.510    19709971.652
        52.900          47.400
 144321807.595 6                  27463558.692
        39.400
 127774912.077 7  99380571.568 6  23944952.270    23944952.654    23944963.365
        43.400          39.000
 120315002.518 7  93751955.05544  22895186.579    22895186.0294   22895189.5614
        43.800          26.2004
 106656902.109 7  83109435.84946  20296071.094    20296070.6704   20296072.5184
        47.600          40.8004
 115399209.322 7  89921621.77146  21959672.673    21959671.4624   21959672.1864
        47.300          37.5004
 110740724.893 8  86131724.804 7  20730886.630    20730886.920    20730894.262
        51.300          46.700
 118777902.002 7  92554383.49345  22602609.277    22602607.8114   22602611.0124
        44.600          32.7004
 107670251.749 8  83743734.641 8  20170199.852    20170199.960    20170207.153
        51.800          48.300
 25  1  1 22  4  0.0000000  0 37E03E05G17G08S31S35G07G15E33E25S48S33
                                R03G30E11E31R13G06E12R23E06E10R20R10
                                E26R11G21E24R21E09R02G13G14G02R12G19
                                R22
 146548500.055 6                  27887243.943
        38.300
 130797944.755 7                  24890030.061
        42.100
 108192248.970 8  84305832.10648  20588222.694    20588222.0604   20588223.7684
        48.800          49.7004
 133331729.138 5 103894975.00544  25372147.299    25372146.5214   25372155.1034
        35.900          27.2004
 198973130.665 7                  37863335.092
        45.500
 200890996.226 7                  38228300.550
        43.600
 118693877.705 7  92488758.00146  22586693.788    22586693.1674   22586699.9734
        43.200          38.3004
 129438303.782 6 100861026.56944  24631289.589    24631289.2094   24631292.6754
        39.200          29.3004
 130177428.566 7                  24771872.596
        45.600
 146300422.685 6                  27840033.882
        37.200
 412995476.400 5                  78590204.680
        32.500
 202131178.889 7                  38464265.738
        44.500
 128572211.298 7 100000663.968 6  24018367.213    24018367.537    24018374.673
        43.600          38.500
 109139080.775 8  85043469.37148  20768472.381    20768471.5324   20768476.6274
        49.400          50.5004
 149690165.312 5                  28485083.585
        31.500
 126395717.252 7                  24052253.800
        47.100
 130885426.968 6                  24510636.596    24510635.677
        36.700
 134188698.332 5 104562698.28043  25535259.000    25535258.8134   25535280.1534
        31.300          20.5004
 133350154.422 6                  25375622.011
        41.100
 128037583.717 6                  23935263.785    23935263.618
        40.300
 148928486.172 5                  28340199.730
        35.900
 139440722.068 6                  26534638.532
        41.000
 125673787.678 5  97746452.602 7  23501571.502    23501572.149    23501583.608
        34.900          42.300
 124240648.236 6                  23307208.489    23307207.852
        39.900
 146664162.525 6                  27909187.692
        37.700
 105381509.287 8  81963557.003 8  19720663.113    19720663.245    19720669.627
        52.100          49.300
 121153435.754 6  94405436.56144  23054669.987    23054668.6424   23054671.2484
        39.800          25.8004
 128243220.800 8                  24403810.251
        48.300
 105495665.008 8  82052402.169 7  19714322.294    19714322.312    19714329.629
        53.000          47.200
 144363674.748 6                  27471525.681
        40.400
 127814767.625 7  99411570.182 6  23952421.300    23952421.762    23952431.556
        43.200          38.000
 120335248.328 7  93767730.98044  22899039.500    22899038.9424   22899042.1064
        42.900          26.1004
 106645963.970 7  83100912.61946  20293989.847    20293989.4364   20293991.0274
        47.800          40.7004
 115421035.686 7  89938629.34246  21963825.905    21963824.6944   21963825.5634
        47.600          37.3004
 110699845.008 8  86099929.334 7  20723233.440    20723234.422    20723241.245
        51.300          46.400
 118736321.042 7  92521982.82145  22594696.343    22594694.8774   22594698.5034
        44.500          32.8004
 107626847.858 8  83709976.127 8  20162068.866    20162068.967    20162076.093
        51.900          48.500
 25  1  1 22  4 15.0000000  0 37E03E05G17G08S31S35G07G15E33E25S48S33
                                R03G30E11E31R13G06E12R23E06E10R20R10
                                E26R11G21E24R21E09R02G13G14G02R12G19
                                R22
 146536842.994 6                  27885025.659
        38.800
 130819287.545 7                  24894091.131
        42.100
 108178407.143 8  84295046.29048  20585588.440    20585587.8014   20585589.7274
        48.700          49.5004
 133382476.851 5 103934518.67544  25381804.386    25381803.6044   25381812.1984
        35.600          27.4004
 198973136.342 7                  37863339.363
        45.200
 200891007.458 7                  38228303.591
        43.400
 118742842.783 7  92526912.50346  22596011.117    22596010.4834   22596017.6894
