     2.11           OBSERVATION DATA    M (MIXED)           RINEX VERSION / TYPE
teqc  2019Feb25                         20260317 16:20:09UTCPGM / RUN BY / DATE
Linux 2.4.21-27.ELsmp|Opteron|gcc -static|Linux 64|=+       COMMENT
BIT 2 OF LLI FLAGS DATA COLLECTED UNDER A/S CONDITION       COMMENT
-Unknown-                                                   MARKER NAME
-Unknown-           -Unknown-                               OBSERVER / AGENCY
-Unknown-           -Unknown-           -Unknown-           REC # / TYPE / VERS
-Unknown-           -Unknown-                               ANT # / TYPE
        0.0000        0.0000        0.0000                  APPROX POSITION XYZ
        0.0000        0.0000        0.0000                  ANTENNA: DELTA H/E/N
     1     1                                                WAVELENGTH FACT L1/2
     7    L1    L2    C1    P1    P2    S1    S2            # / TYPES OF OBSERV
 SNR is mapped to RINEX snr flag value [0-9]                COMMENT
  L1 & L2: min(max(int(snr_dBHz/6), 0), 9)                  COMMENT
  2025     1     1    19     0    0.0000000     GPS         TIME OF FIRST OBS
    18                                                      LEAP SECONDS
                                                            END OF HEADER
 25  1  1 19  0  0.0000000  0 34G09E05E19R18G08S31S35G07E13E33S48S33
                                R19G30E04E31G16G27E21R01G04E06R07R20
                                R08R10E26R11G21E24R09E09G14G02
 110537407.694 8  86133046.54848  21034575.446    21034574.8834   21034580.1424
        48.100          49.0004
 140856711.530 6                  26804144.358
        37.300
 145315433.050 5                  27652672.779
        32.300
 129354604.373 6 100609328.222 6  24232432.419    24232433.168    24232450.131
        41.900          40.000
 106016607.622 8  82610484.47148  20174237.688    20174236.9514   20174241.3944
        49.600          49.5004
 198977682.420 7                  37864201.974
        45.900
 200901240.613 7                  38230247.459
        43.800
 110509095.830 8  86111031.51447  21029161.917    21029161.2384   21029162.2024
        48.200          47.7004
 148247290.557 6                  28210489.748
        38.700
 150284102.408 5                  28598113.153
        34.500
 412898706.867 5                  78571721.014
        33.100
 202122541.272 7                  38462634.178
        45.300
 118335256.663 6  92038747.261 7  22121463.186    22121462.454    22121470.798
        39.200          42.900
 120898775.537 7  94206872.30446  23006264.393    23006263.5444   23006267.7524
        43.100          39.5004
 126541799.140 8                  24080111.231
        48.100
 125159696.613 8                  23817044.652
        48.300
 126752671.792 6  98768367.76343  24120220.691    24120219.6004   24120225.6654
        39.500          22.5004
 113464439.448 7  88414016.13547  21591500.894    21591500.1574   21591504.0084
        47.100          47.0004
 148128782.743 6                  28187986.053
        37.300
 119019693.788 7  92570903.627 6  22265094.301    22265094.882    22265103.376
        44.900          38.400
 117491560.499 7  91551833.64045  22357927.813    22357927.3714   22357938.0244
        43.500          30.3004
 124534143.991 8                  23698060.186
        48.800
 119538598.917 7  92974428.557 7  22330854.210    22330854.214    22330875.757
        45.500          42.800
 117862239.487 6  91670778.927 7  22040791.051    22040791.374    22040809.428
        36.100          44.100
 109474578.181 8  85146907.408 7  20443607.774    20443607.967    20443615.408
        48.900          47.700
 106433092.548 8                  19966528.674    19966528.402
        48.100
 145608993.172 6                  27708431.380
        39.200
 117426329.037 8  91331749.672 7  21974687.732    21974688.000    21974692.902
        48.800          43.300
 125566845.646 6  97844378.64242  23894573.823    23894572.5094   23894593.6184
        36.600          17.1004
 146399085.873 6                  27858790.392
        38.900
 113496579.129 8  88275204.864 7  21254244.496    21254244.558    21254251.801
        49.100          47.200
 129045790.095 7                  24556595.299
        47.200
 127408320.764 6  99279337.81243  24244961.450    24244961.0664   24244970.6144
        38.900          22.0004
 131565936.905 6 102518984.16242  25036164.829    25036163.6764   25036185.7424
        37.100          17.2004
 25  1  1 19  0 15.0000000  0 34G09E05E19R18G08S31S35G07E13E33S48S33
                                R19G30E04E31G16G27E21R01G04E06R07R20
                                R08R10E26R11G21E24R09E09G14G02
 110571994.804 8  86159997.47748  21041157.288    21041156.7384   21041161.9414
        48.200          48.8004
 140815584.228 6                  26796318.243
        38.200
 145362631.158 5                  27661653.930
        32.500
 129400918.485 6 100645351.216 6  24241107.854    24241107.646    24241125.540
        39.500          38.400
 106015035.069 8  82609259.13348  20173938.295    20173937.5534   20173942.1124
        49.900          49.3004
 198977678.295 7                  37864204.398
        45.700
 200901212.399 7                  38230244.114
        44.000
 110485953.713 8  86092998.71447  21024758.160    21024757.4854   21024758.3744
        48.400          47.5004
 148243675.362 6                  28209801.415
        38.200
 150244918.806 5                  28590657.306
        35.500
 412897729.581 5                  78571762.197
        34.000
 202122555.702 7                  38462631.893
        45.400
 118344764.725 6  92046142.401 7  22123240.904    22123240.090    22123248.478
        40.100          42.800
 120856820.142 7  94174179.80046  22998280.477    22998279.6234   22998283.8314
        43.600          39.4004
 126569008.642 7                  24085288.950
        47.900
 125147536.301 8                  23814730.675
        48.400
 126803052.033 6  98807624.97343  24129807.479    24129806.3754   24129812.6094
        39.600          22.0004
 113497245.615 7  88439579.38147  21597743.482    21597742.7544   21597746.7914
        46.800          46.8004
 148164725.277 6                  28194825.462
        37.800
 118984167.709 7  92543272.239 6  22258449.480    22258449.331    22258457.614
        45.600          38.300
 117543135.093 7  91592021.41245  22367742.611    22367742.1914   22367752.4354
        43.200          30.1004
 124540761.188 8                  23699319.645
        48.900
 119602531.697 7  93024153.627 7  22342797.624    22342798.123    22342819.591
        46.100          43.300
 117810896.203 6  91630845.682 7  22031189.788    22031190.053    22031207.017
        36.900          43.800
 109498798.928 8  85165745.719 7  20448130.876    20448131.393    20448138.548
        49.500          47.800
 106434997.950 8                  19966886.340    19966885.819
        48.500
 145577893.574 6                  27702512.477
        39.700
 117392736.688 8  91305622.342 7  21968401.067    21968401.270    21968407.639
        48.600          44.000
 125522966.434 6  97810187.03042  23886223.809    23886222.4994   23886243.7444
        37.200          17.4004
 146365481.825 6                  27852394.762
        38.800
 113527974.155 8  88299623.202 7  21260123.782    21260123.856    21260130.791
        49.200          47.200
 129032324.489 7                  24554032.747
        47.200
 127366465.243 6  99246723.42143  24236996.027    24236995.6474   24237005.4024
        39.500          22.1004
 131522316.877 6 102484994.63843  25027864.079    25027862.9264   25027885.1684
        37.400          19.1004
 25  1  1 19  0 30.0000000  0 34G09E05E19R18G08S31S35G07E13E33S48S33
                                R19G30E04E31G16G27E21R01G04E06R07R20
                                R08R10E26R11G21E24R09E09G14G02
 110606701.684 8  86187041.73248  21047761.679    21047761.1254   21047766.5554
        48.600          48.9004
 140774490.337 6                  26788498.072
        37.800
 145409834.158 5                  27670637.037
        31.100
 129447355.765 6 100681470.122 6  24249807.216    24249807.371    24249822.984
        41.800          39.800
 106013624.186 8  82608159.77148  20173669.947    20173669.2054   20173673.6014
        50.300          49.4004
 198977675.546 7                  37864201.921
        45.600
 200901184.756 7                  38230239.620
        43.900
 110462867.018 8  86075009.10547  21020365.075    21020364.4144   21020365.1164
        48.800          47.6004
 148240165.195 6                  28209133.673
        36.700
 150205707.417 5                  28583195.285
        34.800
 412898355.070 5                  78571791.451
        33.100
 202122572.028 7                  38462636.610
        45.400
 118354472.582 6  92053692.939 7  22125055.759    22125054.875    22125063.398
        39.600          42.800
 120814883.870 7  94141502.19946  22990300.156    22990299.3074   22990303.5014
        44.200          39.7004
 126596305.147 7                  24090483.283
        47.400
 125135429.082 8                  23812426.623
        48.200
 126853431.343 6  98846881.45943  24139395.301    24139394.1974   24139399.3484
        40.100          21.5004
 113530184.358 7  88465245.93047  21604011.509    21604010.7854   21604014.7854
        47.300          46.8004
 148200657.675 6                  28201663.865
        37.600
 118948807.467 7  92515769.830 6  22251834.091    22251834.795    22251842.886
        45.600          38.400
 117594775.074 7  91632260.12345  22377569.410    22377569.0084   22377579.3984
        44.300          30.0004
 124547483.978 8                  23700598.866
        48.500
 119666513.590 7  93073916.912 7  22354751.095    22354751.021    22354771.970
        46.300          42.800
 117759652.942 6  91590990.249 7  22021605.500    22021606.946    22021624.491
        36.400          44.200
 109523209.250 8  85184731.478 7  20452689.224    20452689.832    20452696.835
        49.000          47.700
 106436963.349 8                  19967255.139    19967254.553
        48.600
 145546846.093 6                  27696603.730
        39.300
 117359179.211 8  91279522.088 7  21962121.359    21962121.458    21962127.035
        48.600          43.600
 125479111.287 6  97776014.18442  23877878.396    23877877.0734   23877898.7214
        38.000          17.6004
 146331906.576 6                  27846005.881
        37.900
 113559402.253 8  88324067.257 7  21266008.929    21266009.437    21266016.506
        49.100          47.200
 129018958.688 7                  24551489.680
        46.800
 127324641.354 6  99214133.68043  24229036.322    24229035.9424   24229046.4594
        39.500          22.0004
 131478672.436 6 102450986.16043  25019558.462    25019557.3004   25019580.0014
        36.600          19.0004
 25  1  1 19  0 45.0000000  0 34G09E05E19R18G08S31S35G07E13E33S48S33
                                R19G30E04E31G16G27E21R01G04E06R07R20
                                R08R10E26R11G21E24R09E09G14G02
 110641523.763 8  86214175.75348  21054388.224    21054387.6704   21054393.0524
        48.900          48.9004
 140733425.758 6                  26780683.534
        36.300
 145457037.581 5                  27679618.955
        32.800
 129493911.153 6 100717680.875 6  24258526.865    24258526.977    24258544.146
        40.200          38.400
 106012370.643 8  82607183.00448  20173431.323    20173430.5724   20173435.0444
        50.000          49.4004
 198977669.934 7                  37864198.003
        45.600
 200901156.097 7                  38230237.952
        44.100
 110439831.702 8  86057059.51947  21015981.534    21015980.8774   21015981.6074
        49.000          47.7004
 148236755.895 6                  28208484.799
        36.600
 150166464.231 5                  28575728.331
        34.400
 412898977.927 5                  78571829.267
        33.300
 202122585.909 7                  38462634.258
        45.200
 118364376.070 6  92061395.655 7  22126906.581    22126905.962    22126914.359
        39.100          42.900
 120772962.680 7  94108836.35446  22982322.740    22982321.8864   22982326.1934
        43.800          39.6004
 126623684.278 7                  24095693.672
        47.600
 125123370.650 8                  23810132.074
        48.100
 126903805.308 6  98886133.76943  24148981.185    24148980.0724   24148985.1384
        40.200          22.2004
 113563251.099 7  88491012.22147  21610304.099    21610303.3754   21610307.1724
        47.100          46.9004
 148236575.572 6                  28208499.157
        36.900
 118913609.069 7  92488393.315 6  22245248.941    22245249.754    22245258.757
        45.600          37.800
 117646475.858 7  91672546.22345  22387407.542    22387407.1584   22387417.8484
        44.000          30.1004
 124554308.105 8                  23701897.642
        48.500
 119730539.995 7  93123714.799 7  22366710.644    22366711.922    22366733.131
        45.800          42.400
 117708505.883 6  91551209.589 7  22012041.066    22012042.006    22012059.020
        36.800          43.600
 109547804.132 8  85203860.775 7  20457282.394    20457282.756    20457289.751
        48.800          47.700
 106438984.786 8                  19967633.815    19967633.903
        48.400
 145515846.733 6                  27690704.282
        39.100
 117325652.205 8  91253445.537 7  21955847.190    21955848.254    21955853.518
        49.200          43.800
 125435276.255 6  97741856.98942  23869536.838    23869535.4934   23869556.9764
        36.800          16.8004
 146298355.867 6                  27839621.036
        37.200
 113590859.086 8  88348533.643 7  21271899.987    21271900.227    21271907.140
        49.900          47.100
 129005688.534 7                  24548964.140
        46.700
 127282844.939 6  99181565.34243  24221082.945    24221082.5794   24221092.6144
        39.300          22.1004
 131434999.733 6 102416955.60643  25011248.053    25011246.8864   25011269.3254
        37.900          18.5004
 25  1  1 19  1  0.0000000  0 35G09E05E19R18G08S31S35G07E13E33S48S33
                                R19G30E04E31G16G27E21R01G04E06R07R20
                                R08R10E26R11G21E24R09E09R21G14G02
 110676459.540 8  86241398.37748  21061036.359    21061035.7964   21061041.1974
        48.300          48.9004
 140692389.538 6                  26772874.829
        37.500
 145504240.126 5                  27688601.849
        31.600
 129540582.939 6 100753982.269 6  24267269.907    24267269.822    24267285.261
        39.400          37.900
 106011273.225 8  82606327.90048  20173222.605    20173221.8594   20173226.1924
        49.700          49.4004
 198977660.913 7                  37864198.969
        45.800
 200901122.434 7                  38230228.687
        43.900
 110416846.761 8  86039149.18547  21011607.603    21011606.9464   21011607.6984
        48.800          47.6004
 148233446.228 6                  28207855.014
        37.000
 150127188.228 5                  28568253.955
        34.400
 412897995.944 5                  78571866.002
        33.300
 202122595.627 7                  38462641.802
        45.200
 118374473.310 6  92069249.065 7  22128793.157    22128793.456    22128802.045
        39.200          42.900
 120731055.605 7  94076181.50346  22974348.165    22974347.3164   22974351.5064
        43.300          39.8004
 126651144.615 7                  24100918.892
        47.500
 125111359.674 8                  23807846.321
        48.100
 126954172.622 6  98925380.88843  24158565.635    24158564.5134   24158570.0664
        39.500          22.1004
 113596444.268 7  88516877.01547  21616620.444    21616619.7164   21616623.6694
        46.800          46.8004
 148272477.744 6                  28215331.489
        36.400
 118878571.522 7  92461141.901 6  22238694.536    22238695.366    22238703.980
        45.300          38.500
 117698235.850 7  91712878.46144  22397257.783    22397257.4034   22397267.7604
        44.100          29.9004
 124561232.316 8                  23703215.255
        48.600
 119794608.868 7  93173545.717 7  22378680.645    22378680.600    22378702.765
        46.100          43.200
 117657454.360 6  91511503.280 7  22002494.183    22002494.466    22002511.466
        36.200          44.000
 109572582.459 8  85223132.760 7  20461909.479    20461910.117    20461917.164
        49.200          47.500
 106441060.596 8                  19968023.650    19968023.373
        48.400
 145484894.536 6                  27684813.482
        39.000
 117292154.443 7  91227391.784 7  21949578.773    21949578.521    21949584.518
        47.900          43.600
 125391460.651 6  97707714.96643  23861199.066    23861197.7214   23861219.5244
        36.400          18.0004
 146264828.402 6                  27833241.126
        38.100
 113622343.603 8  88373021.600 7  21277795.867    21277796.397    21277803.337
        49.500          46.900
 128992512.917 7                  24546456.897
        46.800
 132390355.104 6 102970402.149 6  24740303.715    24740304.045    24740332.567
        41.500          38.100
 127241074.770 6  99149017.46943  24213133.842    24213133.4714   24213143.9564
        38.500          22.2004
 131391297.775 6 102382902.25843  25002931.640    25002930.4384   25002952.5724
        38.200          18.7004
 25  1  1 19  1 15.0000000  0 35G09E05E19R18G08S31S35G07E13E33S48S33
                                R19G30E04E31G16G27E21R01G04E06R07R20
                                R08R10E26R11G21E24R09E09R21G14G02
 110711513.020 8  86268712.71248  21067706.925    21067706.3674   21067711.7534
        48.200          48.9004
 140651386.162 6                  26765072.158
        37.400
 145551445.814 5                  27697584.970
        31.300
 129587375.258 6 100790377.458 6  24276034.437    24276034.278    24276051.116
        39.200          39.100
 106010336.186 8  82605597.76848  20173044.263    20173043.5214   20173047.8514
        50.100          49.5004
 198977651.915 7                  37864197.619
        46.100
 200901089.685 7                  38230220.446
        43.900
 110393916.736 8  86021281.64947  21007244.176    21007243.5194   21007244.2404
        48.700          47.7004
 148230240.589 6                  28207245.419
        37.500
 150087884.040 5                  28560774.793
        34.800
 412898613.427 5                  78571887.810
        32.500
 202122605.723 7                  38462641.194
        45.500
 118384768.900 6  92077256.705 7  22130718.707    22130718.852    22130726.502
        39.800          42.500
 120689166.883 7  94043540.95546  22966377.219    22966376.3744   22966380.3924
        43.600          39.8004
 126678690.404 7                  24106160.711
        47.200
 125099400.436 7                  23805570.384
        47.700
 127004537.476 6  98964626.09443  24168150.113    24168148.9914   24168154.4214
        39.200          22.3004
 113629767.885 7  88542843.46347  21622961.847    21622961.1194   21622964.9494
        47.000          46.8004
 148308368.476 6                  28222161.277
        36.500
 118843699.506 7  92434019.216 6  22232171.495    22232171.524    22232180.169
        44.700          38.200
 117750059.057 7  91753259.94744  22407119.544    22407119.1644   22407129.6594
        43.500          29.9004
 124568260.950 8                  23704552.703
        48.200
 119858724.598 7  93223413.065 7  22390658.588    22390658.727    22390680.320
        46.600          43.000
 117606503.456 6  91471875.194 7  21992966.043    21992966.329    21992983.404
        36.500          44.000
 109597547.822 8  85242550.207 7  20466571.951    20466572.101    20466579.193
        49.000          47.600
 106443195.258 8                  19968424.113    19968423.739
        48.200
 145453994.136 6                  27678933.206
        38.900
 117258690.331 8  91201364.145 7  21943317.179    21943316.961    21943322.127
        49.100          43.700
 125347669.318 6  97673591.85742  23852865.813    23852864.5084   23852886.8214
        36.100          17.4004
 146231328.631 6                  27826865.511
        38.300
 113653860.001 8  88397534.304 7  21283698.202    21283698.080    21283705.275
        48.900          46.900
 128979436.313 7                  24543968.748
        46.500
 132326932.948 6 102921073.819 6  24728452.258    24728451.679    24728480.464
        40.100          37.700
 127199335.209 6  99116493.44243  24205191.592    24205191.2534   24205201.2914
        39.500          22.3004
 131347571.335 6 102348829.85343  24994609.849    24994608.6514   24994631.4464
        38.900          19.1004
 25  1  1 19  1 30.0000000  0 35G09E05E19R18G08S31S35G07E13E33S48S33
                                R19G30E04E31G16G27E21R01G04E06R07R20
                                R08R10E26R11G21E24R09E09R21G14G02
 110746686.443 8  86296120.51048  21074400.150    21074399.5874   21074405.1114
        48.400          49.0004
 140610418.389 6                  26757276.128
        38.000
 145598657.089 5                  27706569.170
        32.300
 129634289.404 6 100826867.092 6  24284823.212    24284822.398    24284838.812
        40.800          39.500
 106009562.062 8  82604994.58248  20172896.640    20172895.8854   20172900.5244
        50.200          49.6004
 198977645.736 7                  37864199.712
        46.000
 200901060.261 7                  38230211.145
        43.500
 110371044.240 8  86003458.93147  21002891.770    21002891.1094   21002891.7374
        49.000          47.8004
 148227141.583 6                  28206655.389
        37.800
 150048554.448 5                  28553290.045
        35.500
 412899233.923 5                  78571932.361
        33.100
 202122618.816 7                  38462648.809
        45.200
 118395265.346 6  92085420.589 7  22132680.004    22132680.097    22132688.650
        38.900          42.500
 120647299.350 7  94010916.91346  22958409.877    22958409.0374   22958413.3294
        43.600          40.1004
 126706324.003 7                  24111419.562
        47.600
 125087495.397 8                  23803305.161
        48.000
 127054902.133 6  99003871.15743  24177733.905    24177732.7924   24177738.4854
        39.000          22.2004
 113663224.154 7  88568913.27647  21629328.537    21629327.8044   21629331.4404
        46.900          46.9004
 148344250.271 6                  28228988.954
        36.600
 118808996.512 7  92407028.022 6  22225679.274    22225679.220    22225688.071
        44.800          38.300
 117801947.619 7  91793692.36544  22416993.695    22416993.3204   22417003.7894
        43.400          29.9004
 124575396.503 8                  23705910.360
        48.600
 119922888.769 7  93273318.074 7  22402644.358    22402644.947    22402667.367
        45.800          43.000
 117555656.281 6  91432327.789 7  21983457.205    21983456.909    21983474.463
        36.400          44.300
 109622702.853 8  85262115.171 7  20471269.213    20471269.447    20471276.602
        49.000          47.500
 106445391.239 8                  19968836.077    19968835.553
        48.500
 145423148.285 6                  27673063.034
        38.500
 117225262.351 8  91175364.606 7  21937060.572    21937061.362    21937066.260
        49.300          43.400
 125303904.968 6  97639489.77742  23844538.204    23844536.9084   23844558.7734
        36.200          17.1004
 146197859.041 6                  27820496.675
        37.700
 113685410.969 8  88422073.911 7  21289606.796    21289606.936    21289614.099
        49.200          46.900
 128966461.356 7                  24541499.732
        46.800
 132263467.459 5 102871711.776 5  24716591.141    24716592.301    24716620.313
        34.000          33.500
 127157628.826 6  99083995.22743  24197254.417    24197254.0424   24197264.3264
        39.400          21.9004
 131303823.341 6 102314740.63243  24986285.137    24986283.9214   24986306.8414
        38.200          19.6004
 25  1  1 19  1 45.0000000  0 35G09E05E19R18G08S31S35G07E13E33S48S33
                                R19G30E04E31G16G27E21R01G04E06R07R20
                                R08R10E26R11G21E24R09E09R21G14G02
 110781974.037 8  86323617.27348  21081115.528    21081114.9704   21081120.2454
        48.400          49.1004
 140569480.895 6                  26749485.773
        37.100
 145645868.246 5                  27715553.072
        32.200
 129681319.873 6 100863447.188 6  24293631.201    24293630.873    24293647.801
        38.800          39.000
 106008945.263 8  82604513.98748  20172779.489    20172778.7294   20172783.1044
        49.600          49.8004
 198977637.456 7                  37864192.275
        45.600
 200901027.528 7                  38230213.161
        44.200
 110348224.100 8  85985677.00247  20998549.226    20998548.5514   20998549.2104
        49.100          47.9004
 148224143.767 6                  28206084.915
        37.400
 150009194.073 5                  28545800.479
        35.200
 412899851.707 5                  78571967.271
        33.300
 202122629.619 7                  38462649.457
        45.000
 118405956.667 6  92093736.061 7  22134679.722    22134679.372    22134687.318
        39.100          42.500
 120605447.676 7  93978305.22946  22950445.555    22950444.7244   22950449.1594
        43.200          40.2004
 126734039.823 7                  24116693.497
        47.300
 125075639.003 8                  23801048.841
        48.200
 127105261.106 6  99043111.77743  24187317.630    24187316.5444   24187321.5484
        39.100          22.4004
 113696807.242 7  88595081.90747  21635718.987    21635718.2544   21635722.0864
        46.800          47.0004
 148380117.481 6                  28235814.431
        37.300
 118774456.918 7  92380163.879 6  22219218.814    22219218.217    22219226.594
        44.900          38.100
 117853895.728 7  91834171.17544  22426879.201    22426878.8354   22426889.5094
        43.300          29.9004
 124582633.460 8                  23707287.776
        48.700
 119987095.136 7  93323255.910 7  22414639.802    22414639.819    22414661.524
        45.900          42.600
 117504907.682 6  91392857.033 7  21973966.067    21973966.565    21973983.507
        36.300          44.000
 109648041.429 8  85281822.891 7  20476001.440    20476001.398    20476008.504
        48.900          47.400
 106447642.856 8                  19969258.583    19969257.974
        48.400
 145392351.755 6                  27667201.762
        38.400
 117191864.962 8  91149388.874 7  21930810.395    21930810.915    21930816.886
        48.900          44.100
 125260162.643 6  97605404.87343  23836213.758    23836212.4664   23836234.7404
        37.200          18.0004
 146164414.117 6                  27814132.149
        38.000
 113716990.646 8  88446635.853 7  21295520.090    21295520.831    21295527.690
        49.200          46.900
 128953582.659 7                  24539048.959
        46.700
 132199953.687 6 102822312.213 6  24704721.963    24704722.526    24704751.571
        38.500          37.000
 127115950.201 6  99051518.66343  24189323.639    24189323.2244   24189332.1954
        38.300          22.4004
 131260048.554 6 102280630.52743  24977956.008    24977954.8014   24977976.3154
        36.500          18.7004
 25  1  1 19  2  0.0000000  0 34G09E05E19R18G08S31S35G07E13E33S48S33
                                R19G30E04E31G16G27E21R01G04E06R07R20
                                R08R10E26R11G21E24R09E09G14G02
 110817376.760 8  86351203.75148  21087852.292    21087851.7254   21087857.2634
        48.200          49.0004
 140528575.238 6                  26741701.975
        36.900
 145693080.291 5                  27724537.727
        31.600
 129728467.398 6 100900118.228 6  24302463.815    24302464.425    24302479.497
        40.900          39.000
 106008487.062 8  82604156.97848  20172692.327    20172691.5814   20172695.8984
        50.100          49.7004
 198977627.105 7                  37864191.220
        45.800
 200900993.635 7                  38230204.008
        44.200
 110325457.691 8  85967936.94747  20994216.547    20994215.8634   20994216.9054
        49.000          47.8004
 148221248.505 6                  28205533.647
        37.100
 149969804.474 5                  28538304.886
        34.900
 412898868.086 5                  78571992.316
        33.500
 202122638.745 7                  38462651.465
        45.400
 118416844.441 6  92102204.311 7  22136713.749    22136714.202    22136722.550
        39.400          42.600
 120563613.334 7  93945707.05846  22942485.077    22942484.2504   22942488.3204
        44.700          40.0004
 126761838.958 7                  24121983.619
        47.400
 125063832.444 8                  23798802.219
        48.200
 127155615.499 6  99082348.83543  24196898.842    24196897.7294   24196904.0794
        39.100          21.9004
 113730518.118 7  88621350.11447  21642133.722    21642132.9854   21642137.0494
        47.300          46.8004
 148415971.443 6                  28242637.955
        37.900
 118740082.400 7  92353428.194 6  22212787.792    22212787.742    22212796.204
        45.300          38.300
 117905904.286 7  91874697.09344  22436776.166    22436775.8044   22436786.6504
        43.800          29.8004
 124589973.120 8                  23708684.431
        48.800
 120051344.577 7  93373227.247 7  22426641.726    22426642.111    22426664.557
        46.600          42.700
 117454259.771 5  91353464.652 7  21964496.105    21964494.900    21964511.890
        35.800          44.300
 109673564.490 8  85301674.121 7  20480766.800    20480767.759    20480774.967
        48.800          47.400
 106449951.742 8                  19969691.609    19969691.154
        48.700
 145361606.076 6                  27661351.255
        38.700
 117158499.393 8  91123437.897 7  21924567.020    21924567.063    21924573.249
        49.300          43.800
 125216444.183 6  97571338.56042  23827894.367    23827893.0664   23827915.2374
        37.800          17.9004
 146130995.189 6                  27807772.724
        39.400
 113748600.506 8  88471221.287 7  21301440.143    21301440.745    21301447.202
        50.100          46.800
 128940801.650 7                  24536616.656
        47.000
 127074300.694 6  99019064.78943  24181397.620    24181397.2234   24181406.3524
        38.400          21.9004
 131216248.489 6 102246500.74843  24969621.146    24969619.9444   24969641.5014
        38.300          20.5004
 25  1  1 19  2 15.0000000  0 35G09E05E19R18G08S31S35G07E13E33S48S33
                                R19G30E04E31G16G27E21R01G04E06R07R20
                                R08R10E26R11G21E24R21R09E09G14G02
 110852903.717 8  86378887.02448  21094612.907    21094612.3444   21094617.8914
        48.100          49.0004
 140487710.958 6                  26733925.850
        37.000
 145740302.463 5                  27733523.795
        30.800
 129775741.174 6 100936887.465 6  24311319.176    24311319.391    24311334.383
        39.700          38.000
 106008196.817 8  82603930.84348  20172637.205    20172636.4634   20172640.6344
        50.200          49.7004
 198977625.479 7                  37864190.178
        45.800
 200900968.904 7                  38230203.753
        44.400
 110302754.760 8  85950246.35947  20989896.670    20989895.9914   20989896.6794
        48.900          47.7004
 148218465.250 6                  28205003.966
        38.100
 149930395.317 5                  28530805.602
        34.600
 412899492.369 5                  78572029.220
        33.500
 202122656.205 7                  38462651.554
        45.500
 118427937.921 6  92110832.549 7  22138788.362    22138788.660    22138796.314
        39.800          42.400
 120521805.874 7  93913129.83146  22934528.846    22934528.0154   22934532.5174
        44.100          40.1004
 126789730.702 7                  24127291.221
        47.700
 125052085.101 8                  23796566.606
        48.100
 127205974.558 6  99121589.52543  24206482.162    24206481.0674   24206487.3784
        38.700          21.7004
 113764365.867 7  88647724.97447  21648574.582    21648573.8404   21648578.0544
        47.200          46.7004
 148451821.463 6                  28249459.348
        38.200
 118705882.899 7  92326828.584 6  22206389.965    22206389.230    22206398.743
        43.900          38.200
 117957982.372 7  91915277.17744  22446686.486    22446686.1384   22446696.9194
        44.000          29.6004
 124597424.859 8                  23710102.580
        49.000
 120115646.193 7  93423239.154 7  22438654.317    22438654.490    22438677.509
        46.300          43.500
 117403722.340 6  91314158.134 7  21955044.330    21955044.148    21955061.197
        36.800          44.200
 109699281.339 8  85321676.055 7  20485569.834    20485570.165    20485577.486
        49.100          47.600
 106452326.797 8                  19970136.848    19970136.661
        48.300
 145330920.920 6                  27655511.154
        38.600
 117125175.267 8  91097519.165 7  21918330.396    21918330.912    21918336.574
        48.500          43.700
 125172759.155 6  97537298.28942  23819581.322    23819580.0214   23819601.5034
        38.000          17.1004
 146097611.628 6                  27801419.066
        38.800
 132072793.730 6 102723412.468 6  24680960.303    24680960.333    24680989.279
        39.200          37.500
 113780250.067 8  88495837.597 7  21307366.429    21307367.376    21307374.181
        49.600          47.000
 128928127.821 7                  24534205.062
        47.200
 127032689.690 6  98986640.90343  24173479.051    24173478.6454   24173487.4934
        40.200          22.2004
 131172432.951 6 102212358.90243  24961282.502    24961281.2684   24961303.7504
        38.200          19.8004
 25  1  1 19  2 30.0000000  0 35G09E05E19R18G08S31S35G07E13E33S48S33
                                R19G30E04E31G16G27E21R01G04E06R07R20
                                R08R10E26R11G21E24R21R09E09G14G02
 110888539.898 8  86406655.40948  21101394.320    21101393.7624   21101399.2944
        48.400          48.8004
 140446873.595 6                  26726154.887
        36.700
 145787519.918 5                  27742509.196
        32.600
 129823125.778 6 100973742.885 6  24320194.816    24320196.059    24320210.755
        40.200          38.200
 106008059.763 8  82603824.07648  20172610.777    20172610.0314   20172614.5334
        50.000          49.6004
 198977617.527 7                  37864189.208
        46.200
 200900936.925 7                  38230199.586
        44.800
 110280100.730 8  85932593.87647  20985585.651    20985584.9724   20985585.7484
        49.000          47.6004
 148215779.236 6                  28204492.802
        37.900
 149890952.147 6                  28523300.187
        36.200
 412900109.964 5                  78572072.237
        33.900
 202122667.602 7                  38462657.139
        45.500
 118439222.365 6  92119609.331 7  22140897.429    22140897.767    22140906.021
        39.700          42.300
 120480010.739 7  93880562.21846  22926576.229    22926575.4024   22926579.1734
        44.200          40.1004
 126817700.170 7                  24132613.707
        47.700
 125040382.184 8                  23794339.887
        48.300
 127256323.307 6  99160822.18143  24216063.680    24216062.6124   24216068.4244
        39.600          22.0004
 113798335.419 7  88674194.74647  21655038.875    21655038.1294   21655042.2864
        47.600          46.6004
 148487652.794 6                  28256278.185
        38.100
 118671843.886 7  92300353.837 6  22200021.911    22200021.787    22200030.652
        45.000          37.800
 118010114.930 7  91955899.71244  22456606.899    22456606.5374   22456617.7144
        44.400          29.4004
 124604973.944 8                  23711539.062
        48.900
 120179984.277 7  93473279.443 7  22450674.306    22450674.444    22450696.510
        47.700          42.900
 117353281.336 6  91274926.625 7  21945610.331    21945611.104    21945627.101
        36.400          44.000
 109725176.700 8  85341816.843 7  20490405.912    20490405.796    20490413.340
        48.700          47.500
 106454753.485 8                  19970592.141    19970591.734
        48.300
 145300281.711 6                  27649679.896
        38.800
 117091877.569 8  91071620.992 7  21912099.285    21912099.491    21912105.600
        48.400          43.700
 125129093.413 6  97503273.09742  23811271.904    23811270.5634   23811292.0394
        37.700          17.2004
 146064248.821 6                  27795069.992
        38.700
 132009144.936 6 102673907.876 5  24669066.612    24669066.264    24669094.687
        36.800          35.000
 113811924.218 8  88520473.025 7  21313297.797    21313298.630    21313306.034
        48.700          47.000
 128915546.583 7                  24531810.785
        47.400
 126991102.578 6  98954235.66943  24165564.575    24165564.1554   24165573.4144
        40.300          22.3004
 131128587.632 6 102178193.82343  24952939.105    24952937.8984   24952959.7244
        38.100          19.7004
 25  1  1 19  2 45.0000000  0 35G09E05E19R18G08S31S35G07E13E33S48S33
                                R19G30E04E31G16G27E21R01G04E06R07R20
                                R08R10E26R11G21E24R21R09E09G14G02
 110924293.118 8  86434514.99748  21108197.774    21108197.2114   21108202.9404
        48.100          48.7004
 140406071.438 6                  26718391.101
        37.700
 145834740.572 5                  27751494.240
        32.000
 129870628.886 6 101010690.280 6  24329094.539    24329094.833    24329109.583
        41.100          38.000
 106008083.944 8  82603842.93948  20172615.486    20172614.7444   20172619.1164
        50.200          49.5004
 198977610.515 7                  37864186.301
        46.200
 200900906.258 7                  38230193.929
        44.500
 110257503.905 8  85914985.96947  20981285.436    20981284.7574   20981285.7154
        49.100          47.5004
 148213198.646 6                  28204001.534
        37.500
 149851483.223 5                  28515789.179
        35.000
 412900729.614 5                  78572093.902
        33.300
 202122679.787 7                  38462656.205
        45.500
 118450705.659 6  92128540.766 7  22143045.049    22143044.540    22143052.982
        39.400          42.400
 120438236.212 7  93848010.65846  22918626.046    22918625.2104   22918629.7864
        44.300          40.1004
 126845755.359 7                  24137952.393
        47.500
 125028731.709 8                  23792122.557
        48.200
 127306669.810 6  99200053.08243  24225643.984    24225642.9164   24225649.5154
        39.600          22.4004
 113832434.586 7  88700765.51847  21661527.658    21661526.9074   21661531.1474
        47.300          46.5004
 148523473.467 6                  28263094.771
        38.300
 118637973.936 7  92274010.549 6  22193686.792    22193686.062    22193695.584
        45.500          38.100
 118062309.737 7  91996570.75744  22466539.531    22466539.1694   22466550.3554
        44.000          29.0004
 124612628.462 8                  23712995.623
        48.800
 120244366.614 7  93523354.155 7  22462700.918    22462701.771    22462723.923
        46.300          43.200
 117302945.118 6  91235776.607 7  21936198.132    21936197.609    21936214.148
        36.100          44.500
 109751258.156 8  85362102.363 7  20495277.018    20495276.466    20495283.746
        48.600          47.400
 106457239.829 8                  19971058.567    19971058.366
        48.300
 145269696.920 6                  27643859.560
        39.000
 117058614.435 7  91045749.712 7  21905874.331    21905874.407    21905880.923
        47.900          43.900
 125085455.710 6  97469269.72143  23802967.636    23802966.2864   23802987.9814
        38.200          18.0004
 146030914.819 6                  27788727.081
        38.900
 131945453.659 6 102624370.061 6  24657163.974    24657163.941    24657192.198
        40.700          36.100
 113843631.118 8  88545133.915 7  21319236.226    21319236.332    21319243.602
        48.900          47.000
 128903066.128 7                  24529435.781
        47.200
 126949547.481 6  98921855.36643  24157656.913    24157656.4844   24157665.5864
        38.900          22.2004
 131084720.916 6 102144012.08543  24944591.250    24944590.0524   24944611.9384
        39.100          19.2004
 25  1  1 19  3  0.0000000  0 35G09E05E19R18G08S31S35G07E13E33S48S33
                                R19G30E04E31G16G27E21R01G04E06R07R20
                                R08R10E26R11G21E24R21R09E09G14G02
 110960157.927 8  86462461.55348  21115022.548    21115021.9724   21115027.8614
        48.400          48.8004
 140365299.580 6                  26710632.052
        38.400
 145881958.935 5                  27760480.164
        32.300
 129918244.361 6 101047724.841 6  24338013.587    24338014.518    24338028.651
        39.700          37.500
 106008264.180 8  82603983.41448  20172649.849    20172649.1124   20172653.3834
        50.100          49.6004
 198977599.898 7                  37864185.478
        46.200
 200900872.715 7                  38230185.004
        44.300
 110234959.202 8  85897418.66647  20976995.557    20976994.8824   20976995.5964
        48.900          47.7004
 148210718.472 6                  28203529.905
        37.600
 149811983.685 5                  28508272.643
        34.400
 412899746.015 5                  78572133.932
        33.500
 202122688.804 7                  38462657.524
        45.900
 118462382.565 6  92137622.788 7  22145227.404    22145227.215    22145235.755
        39.200          42.300
 120396477.299 7  93815471.26946  22910679.896    22910679.0514   22910683.2304
        44.100          40.3004
 126873890.977 7                  24143306.318
        47.100
 125017128.440 8                  23789914.804
        48.100
 127357008.632 6  99239277.97643  24235223.795    24235222.7404   24235228.7504
        39.200          22.4004
 113866657.826 7  88727432.96047  21668040.285    21668039.5394   21668043.6364
        47.000          46.6004
 148559278.247 6                  28269908.055
        37.500
 118604268.137 7  92247794.915 6  22187380.383    22187380.891    22187389.854
        44.600          38.600
 118114561.268 7  92037286.00244  22476482.815    22476482.4674   22476493.5634
        43.900          29.3004
 124620383.241 8                  23714471.425
        48.600
 120308787.548 7  93573458.930 7  22474736.146    22474736.522    22474758.812
        45.600          42.700
 117252709.673 6  91196704.985 7  21926802.832    21926802.815    21926819.631
        36.300          44.400
 109777520.377 8  85382528.493 7  20500180.432    20500180.696    20500188.101
        48.100          47.500
 106459780.484 8                  19971535.175    19971534.960
        48.400
 145239161.567 6                  27638048.189
        37.800
 117025380.696 8  91019901.266 7  21899655.041    21899655.471    21899661.790
        49.000          44.100
 125041841.138 6  97435284.38642  23794668.727    23794667.4224   23794688.4974
        38.000          17.3004
 145997604.484 6                  27782388.019
        38.600
 131881714.615 6 102574795.205 5  24645252.938    24645252.616    24645281.008
        37.600          35.100
 113875365.786 8  88569816.408 7  21325178.565    21325178.966    21325186.465
        48.400          47.000
 128890681.444 7                  24527079.004
        47.100
 126908019.178 6  98889495.90343  24149754.754    24149754.3434   24149762.5934
        40.000          22.0004
 131040827.964 6 102109809.91643  24936239.403    24936238.2364   24936258.8944
        38.800          19.7004
 25  1  1 19  3 15.0000000  0 35G09E05E19R18G08S31S35G07E13E33S48S33
                                R19G30E04E31G16G27E21R01G04E06R07R20
                                R08R10E26R11G21E24R21R09E09G14G02
 110996141.352 8  86490500.52948  21121870.102    21121869.5304   21121875.3864
        48.000          48.8004
 140324565.613 6                  26702880.177
        37.800
 145929182.271 4                  27769466.243
        29.400
 129965979.661 6 101084852.513 6  24346957.020    24346957.566    24346971.350
        41.500          38.200
 106008607.795 8  82604251.19748  20172714.993    20172714.2474   20172718.7404
        50.300          49.7004
 198977593.208 7                  37864177.854
        45.800
 200900842.570 7                  38230179.794
        44.400
 110212474.358 8  85879898.01447  20972716.712    20972716.0374   20972716.8524
        48.900          47.7004
 148208346.048 6                  28203078.251
        38.000
 149772461.100 5                  28500752.160
        35.700
 412900365.180 5                  78572169.848
        33.800
 202122701.256 7                  38462660.073
        45.500
 118474260.462 6  92146861.144 7  22147447.101    22147448.185    22147456.162
        39.500          42.400
 120354741.523 7  93782949.90446  22902737.855    22902737.0014   22902741.1184
        44.400          40.3004
 126902114.234 7                  24148677.292
        47.100
 125005579.735 8                  23787717.026
        48.000
 127407347.198 6  99278502.68743  24244803.806    24244802.7744   24244807.4934
        38.300          22.1004
 113901012.264 7  88754202.64647  21674577.811    21674577.0654   21674581.0814
        47.400          46.6004
 148595074.573 6                  28276720.337
        37.600
 118570734.323 7  92221713.083 6  22181108.376    22181107.732    22181116.458
        45.500          38.300
 118166876.535 7  92078050.91744  22486438.615    22486438.2534   22486449.2554
        43.500          29.2004
 124628245.661 8                  23715967.437
        48.600
 120373253.796 7  93623598.904 7  22486779.125    22486779.679    22486802.081
        46.500          43.100
 117202582.897 6  91157717.862 7  21917430.375    21917428.823    21917445.393
        36.600          44.600
 109803970.532 8  85403100.794 7  20505120.023    20505119.934    20505127.442
        48.100          47.500
 106462383.111 8                  19972023.450    19972023.100
        48.300
 145208683.398 6                  27632248.123
        38.900
 116992183.730 8  90994081.429 7  21893443.133    21893443.081    21893449.253
        48.500          44.000
 124998257.148 6  97401322.88942  23786374.667    23786373.4154   23786394.5904
        37.500          17.5004
 145964325.197 6                  27776054.943
        38.000
 131817936.109 6 102525189.565 5  24633334.561    24633334.320    24633362.600
        38.800          35.600
 113907135.451 8  88594526.121 7  21331128.900    21331128.966    21331135.802
        49.300          46.800
 128878400.030 7                  24524742.243
        47.000
 126866525.278 6  98857163.28443  24141858.029    24141857.6404   24141866.3294
        39.900          22.6004
 130996916.471 6 102075593.23543  24927882.382    24927881.1894   24927902.6474
        38.400          19.5004
 25  1  1 19  3 30.0000000  0 35G09E05E19R18G08S31S35G07E13E33S48S33
                                R19G30E04E31G16G27E21R01G04E06R07R20
                                R08R10E26R11G21E24R21R09E09G14G02
 111032236.823 8  86518626.80748  21128738.913    21128738.3284   21128744.2014
        48.000          48.9004
 140283863.358 6                  26695135.061
        37.500
 145976404.166 5                  27778453.474
        31.000
 130013827.981 6 101122068.021 6  24355919.191    24355919.029    24355934.749
        39.700          37.600
 106009108.426 8  82604641.32648  20172810.274    20172809.5194   20172813.9854
        50.000          49.8004
 198977583.822 7                  37864183.726
        46.200
 200900809.792 7                  38230170.314
        44.200
 110190043.270 8  85862419.25747  20968448.258    20968447.5884   20968448.3494
        48.800          47.9004
 148206075.093 6                  28202646.003
        37.100
 149732909.383 5                  28493225.364
        35.400
 412900980.959 5                  78572200.448
        33.200
 202122711.754 7                  38462662.903
        45.500
 118486332.878 6  92156250.803 7  22149704.920    22149704.749    22149712.967
        39.400          42.300
 120313022.793 7  93750441.82346  22894799.193    22894798.3484   22894802.3024
        43.700          40.6004
 126930418.673 7                  24154063.397
        47.600
 124994079.189 8                  23785528.522
        48.200
 127457678.972 6  99317722.11843  24254381.148    24254380.1164   24254385.4274
        39.100          22.3004
 113935491.200 7  88781069.34747  21681138.828    21681138.0684   21681142.1944
        46.700          46.7004
 148630856.023 6                  28283529.566
        37.900
 118537366.349 7  92195760.222 6  22174865.033    22174865.517    22174874.153
        44.900          37.500
 118219248.864 7  92118860.27344  22496404.691    22496404.3254   22496415.5804
        43.800          29.3004
 124636209.367 8                  23717482.851
        48.900
 120437758.711 7  93673768.986 7  22498829.975    22498830.009    22498852.912
        46.400          43.000
 117152558.809 6  91118810.611 7  21908073.094    21908073.688    21908089.543
        36.900          44.200
 109830601.900 8  85423814.005 7  20510093.499    20510093.755    20510100.977
        48.700          47.500
 106465040.918 8                  19972522.024    19972521.624
        48.400
 145178256.267 6                  27626456.941
        39.000
 116959017.217 8  90968285.305 7  21887236.605    21887236.326    21887242.525
        48.500          44.200
 124954698.003 6  97367380.79143  23778085.815    23778084.5284   23778105.5164
        38.300          18.1004
 145931070.693 6                  27769726.721
        38.500
 131754111.742 6 102475548.305 6  24621408.251    24621407.563    24621435.396
        40.000          36.500
 113938933.610 8  88619258.015 7  21337083.270    21337083.897    21337090.707
        49.000          46.900
 128866215.693 7                  24522423.519
        46.900
 126825059.349 6  98824852.43743  24133967.212    24133966.7924   24133975.5434
        39.400          22.8004
 130952980.465 6 102041357.49843  24919521.576    24919520.3964   24919541.5854
        38.300          19.6004
 25  1  1 19  3 45.0000000  0 35G09E05E19R18G08S31S35G07E13E33S48S33
                                R19G30E04E31G16G27E21R01G04E06R07R20
                                R08R10E26R11G21E24R21R09E09G14G02
 111068449.299 8  86546844.25548  21135629.844    21135629.2594   21135635.2674
        48.000          48.8004
 140243198.351 6                  26687396.399
        37.300
 146023629.692 5                  27787439.346
        31.900
 130061794.362 6 101159375.455 6  24364905.679    24364906.096    24364919.339
        41.100          38.100
 106009771.266 8  82605157.84448  20172936.456    20172935.7014   20172940.0904
        50.000          49.7004
 198977577.486 7                  37864180.336
        45.900
 200900779.764 7                  38230166.335
        44.100
 110167671.344 8  85844986.59447  20964191.008    20964190.3384   20964191.0964
        48.800          47.7004
 148203910.999 6                  28202234.115
        38.100
 149693334.110 5                  28485694.328
        35.900
 412899998.581 5                  78572239.557
        33.300
 202122724.447 7                  38462664.924
        45.000
 118498605.009 6  92165795.788 7  22151999.344    22151998.709    22152006.995
        38.700          42.200
 120271326.537 7  93717951.24946  22886864.579    22886863.7304   22886867.7794
        44.300          40.5004
 126958809.479 7                  24159465.897
        47.300
 124982632.044 8                  23783350.245
        48.100
 127508009.044 6  99356940.24043  24263958.419    24263957.4094   24263963.3214
        39.400          22.3004
 113970099.615 7  88808036.93247  21687724.657    21687723.8974   21687727.9554
        46.800          46.6004
 148666627.866 6                  28290337.268
        37.200
 118504170.170 7  92169941.029 6  22168655.979    22168655.238    22168663.776
        44.600          37.700
 118271683.210 7  92159717.96944  22506383.268    22506382.9024   22506393.6844
        43.600          29.1004
 124644279.643 8                  23719018.689
        48.900
 120502306.784 7  93723972.639 7  22510887.503    22510887.578    22510911.729
        45.200          43.400
 117102643.244 6  91079987.760 7  21898738.849    21898739.476    21898755.527
        37.000          44.400
 109857419.409 8  85444672.050 7  20515101.130    20515101.535    20515109.016
        48.100          47.200
 106467759.451 7                  19973031.894    19973031.501
        47.900
 145147885.704 6                  27620677.995
        38.500
 116925886.499 8  90942517.025 7  21881036.470    21881036.860    21881042.218
        48.000          44.000
 124911169.523 6  97333462.55842  23769802.757    23769801.4974   23769822.3274
        37.000          17.5004
 145897846.201 6                  27763404.212
        38.800
 131690247.569 6 102425876.077 5  24609472.864    24609471.899    24609501.128
        37.400          34.200
 113970765.784 8  88644016.350 7  21343044.356    21343044.771    21343051.965
        48.500          46.800
 128854133.797 7                  24520124.651
        47.000
 126783626.863 6  98792567.70043  24126082.469    24126082.0544   24126091.4824
        39.400          22.9004
 130909025.686 6 102007107.12343  24911157.451    24911156.2844   24911177.2594
        38.400          19.6004
 25  1  1 19  4  0.0000000  0 35G09E05E19R18G08S31S35G07E13E33S48S33
                                R19G30E04E31G16G27E21R01G04E06R07R20
                                R08R10E26R11G21E24R21R09E09G14G02
 111104779.925 7  86575153.76948  21142543.491    21142542.9104   21142548.7714
        47.600          48.7004
 140202572.276 6                  26679665.411
        38.900
 146070860.019 5                  27796427.566
        32.200
 130109879.959 6 101196775.659 6  24373912.543    24373913.039    24373927.172
        39.900          37.200
 106010597.720 8  82605801.85548  20173093.823    20173093.0724   20173097.3304
        49.900          49.7004
 198977574.965 7                  37864179.419
        46.100
 200900754.344 7                  38230156.251
        44.100
 110145360.152 8  85827601.25347  20959945.228    20959944.5624   20959945.3934
        48.400          47.7004
 148201855.176 6                  28201842.826
        38.200
 149653736.894 5                  28478158.951
        35.300
 412900621.073 5                  78572273.979
        33.200
 202122741.455 7                  38462667.920
        45.400
 118511078.403 6  92175497.305 7  22154331.096    22154330.357    22154339.062
        39.000          42.500
 120229654.358 7  93685479.43246  22878934.567    22878933.7134   22878937.7904
        44.100          40.6004
 126987287.924 7                  24164885.385
        47.500
 124971239.661 8                  23781182.307
        48.400
 127558338.634 6  99396157.98243  24273536.118    24273535.1304   24273540.9334
        39.100          21.9004
 114004838.592 7  88835106.24947  21694335.394    21694334.6434   21694338.5564
        46.500          46.5004
 148702391.512 6                  28297142.478
        37.900
 118471147.282 7  92144256.553 6  22162477.210    22162477.267    22162486.064
        45.000          37.700
 118324180.671 7  92200624.84144  22516373.047    22516372.6904   22516383.9104
        43.200          29.0004
 124652457.893 8                  23720574.947
        49.100
 120566899.061 7  93774210.645 7  22522954.581    22522955.477    22522977.655
        46.600          43.000
 117052838.792 6  91041251.317 7  21889424.452    21889425.233    21889441.227
        36.600          44.400
 109884423.985 8  85465675.534 7  20520143.890    20520144.344    20520151.879
        48.100          47.400
 106470540.026 8                  19973553.877    19973553.227
        48.300
 145117573.351 6                  27614908.821
        39.300
 116892792.866 8  90916777.559 7  21874842.906    21874843.385    21874848.958
        48.300          43.700
 124867673.634 6  97299569.71742  23761525.005    23761523.7274   23761544.9564
        37.100          17.9004
 145864653.210 6                  27757087.431
        38.700
 131626345.270 6 102376174.191 6  24597531.429    24597531.348    24597560.473
        39.600          37.100
 114002633.454 8  88668802.267 7  21349012.256    21349012.446    21349019.368
        48.600          46.500
 128842155.916 7                  24517845.121
        47.500
 126742229.118 6  98760309.97843  24118205.268    24118204.8444   24118212.8674
        38.700          22.4004
 130865053.755 6 101972843.37243  24902789.378    24902788.1984   24902810.1374
        38.900          20.1004
 25  1  1 19  4 15.0000000  0 35G09E05E19R18G08S31S35G07E13E33S48S33
                                R19G30E04E31G16G27E21R01G04E06R07R20
                                R08R10E26R11G21E24R21R09E09G14G02
 111141219.316 8  86603548.03748  21149477.935    21149477.3544   21149482.9964
        48.000          48.7004
 140161976.214 6                  26671940.482
        38.100
 146118086.050 5                  27805414.352
        31.800
 130158074.821 6 101234260.840 6  24382942.210    24382942.050    24382955.736
        40.200          36.900
 106011578.699 8  82606566.26748  20173280.503    20173279.7574   20173284.0074
        50.300          49.8004
 198977567.332 7                  37864184.030
        46.300
 200900723.689 7                  38230154.512
        44.100
 110123100.984 8  85810256.43747  20955709.733    20955709.0674   20955709.6084
        48.900          47.7004
 148199898.632 6                  28201470.283
        37.400
 149614108.960 5                  28470618.176
        35.800
 412901238.379 5                  78572306.546
        33.300
 202122753.299 7                  38462668.609
        45.400
 118523743.609 6  92185348.022 7  22156697.348    22156698.099    22156706.648
        39.500          42.400
 120187997.364 7  93653019.44746  22871007.665    22871006.8024   22871010.7894
        44.700          40.5004
 127015844.815 7                  24170319.597
        47.600
 124959892.908 8                  23779023.064
        48.600
 127608658.655 6  99435368.25543  24283111.843    24283110.8914   24283116.6354
        39.300          22.0004
 114039698.744 7  88862269.99147  21700968.855    21700968.1094   21700972.2934
        47.200          46.5004
 148738137.741 6                  28303945.395
        38.600
 118438289.293 7  92118700.356 6  22156331.231    22156331.182    22156340.262
        45.600          38.600
 118376731.854 7  92241573.57344  22526373.622    22526373.2654   22526384.2744
        42.900          29.0004
 124660735.046 8                  23722150.063
        49.100
 120631525.680 7  93824475.375 7  22535027.320    22535027.771    22535051.054
        46.200          43.100
 117003136.426 6  91002594.291 7  21880128.434    21880129.946    21880146.110
        37.000          44.300
 109911606.311 8  85486817.303 7  20525220.139    20525220.450    20525227.614
        48.400          47.100
 106473373.450 8                  19974085.234    19974084.836
        48.000
 145087310.516 6                  27609148.789
        39.400
 116859727.305 8  90891059.930 7  21868655.343    21868655.482    21868661.207
        48.200          43.700
 124824201.641 6  97265695.52642  23753253.058    23753251.7894   23753272.5704
        38.300          17.6004
 145831482.701 6                  27750774.599
