     2.11           OBSERVATION DATA    M (MIXED)           RINEX VERSION / TYPE
teqc  2019Feb25                         20260317 16:20:09UTCPGM / RUN BY / DATE
Linux 2.4.21-27.ELsmp|Opteron|gcc -static|Linux 64|=+       COMMENT
BIT 2 OF LLI FLAGS DATA COLLECTED UNDER A/S CONDITION       COMMENT
-Unknown-                                                   MARKER NAME
-Unknown-           -Unknown-                               OBSERVER / AGENCY
-Unknown-           -Unknown-           -Unknown-           REC # / TYPE / VERS
-Unknown-           -Unknown-                               ANT # / TYPE
        0.0000        0.0000        0.0000                  APPROX POSITION XYZ
        0.0000        0.0000        0.0000                  ANTENNA: DELTA H/E/N
     1     1                                                WAVELENGTH FACT L1/2
     7    L1    L2    C1    P1    P2    S1    S2            # / TYPES OF OBSERV
 SNR is mapped to RINEX snr flag value [0-9]                COMMENT
  L1 & L2: min(max(int(snr_dBHz/6), 0), 9)                  COMMENT
  2025     1     1    18     0    0.0000000     GPS         TIME OF FIRST OBS
    18                                                      LEAP SECONDS
                                                            END OF HEADER
 25  1  1 18  0  0.0000000  0 31G09G26E19R18G08S31S35G07R06S48S33R19
                                G30G20E04E31G16G27E21R01G04E06R07R20
                                R08R10R11R16G31R09E09
 106162752.161 8  82724230.82748  20202100.964    20202100.3924   20202104.1604
        50.100          52.0004
 129580513.001 6 100971825.21045  24658371.342    24658370.6494   24658382.8604
        39.600          32.5004
 134513852.470 6                  25597169.064
        37.600
 122642340.943 7  95388700.667 7  22974983.226    22974984.084    22974995.378
        46.800          42.100
 110846720.752 7  86374190.64847  21093391.664    21093390.9094   21093399.7254
        47.800          47.3004
 198979108.542 7                  37864477.757
        46.100
 200909470.218 7                  38231828.012
        44.400
 117206162.252 7  91329523.33247  22303572.635    22303571.9294   22303572.9394
        46.800          44.3004
 123600768.451 6                  23162785.081    23162784.785
        36.400
 412852510.857 5                  78563142.277
        33.300
 202119496.111 7                  38462055.737
        45.300
 121550494.767 6  94539458.485 6  22722538.884    22722538.633    22722554.842
        36.600          40.800
 131160842.647 6 102203283.12845  24959075.502    24959074.5994   24959078.6174
        38.800          30.1004
 132980337.620 6 103621043.36042  25305315.654    25305314.3174   25305315.7124
        38.600          15.8004
 122691571.735 8                  23347433.632
        48.000
 129680302.238 7                  24677295.938
        45.700
 115039416.665 7  89641168.21945  21891253.472    21891252.4484   21891254.5624
        45.600          32.5004
 109951409.417 8  85676584.73448  20922997.388    20922996.6644   20923001.8864
        48.200          48.8004
 139325156.194 7                  26512694.318
        42.900
 131256934.944 6                  24554324.983    24554324.067
        37.500
 107697177.096 7  83919871.28746  20494099.958    20494099.5524   20494104.0154
        47.700          38.0004
 125855201.713 8                  23949449.081
        48.700
 106867340.262 8  83119053.199 7  19963721.420    19963721.735    19963731.304
        51.800          47.900


 109487492.433 8  85156955.702 7  20446016.893    20446017.006    20446022.994
        51.000          47.000
 107839572.042 7                  20230381.718    20230381.181
        46.600
 126503526.918 7  98391757.339 6  23673387.171    23673386.484    23673401.872
        42.100          41.000
 126994237.539 7  98773298.237 6  23773613.431    23773613.864    23773630.257
        42.400          41.500
 134380568.827 6 104712023.40244  25571854.079    25571853.5704   25571880.5434
        37.400          26.8004
 107026875.941 8  83243215.894 8  20042674.981    20042675.334    20042681.249
        51.400          48.600
 134753996.097 7                  25642830.802
        43.900
 25  1  1 18  0 15.0000000  0 31G09G26E19R18G08S31S35G07R06S48S33R19
                                G30G20E04E31G16G27E21R01G04E06R07R20
                                R08R10R11R16G31R09E09
 106163467.295 8  82724788.07148  20202237.225    20202236.6494   20202240.2624
        49.900          51.9004
 129630872.979 6 101011066.41645  24667954.745    24667954.0704   24667966.4424
        38.800          32.1004
 134555006.585 6                  25605000.323
        37.900
 122649410.740 7  95394199.430 6  22976307.791    22976308.391    22976320.096
        47.000          41.600
 110809862.999 7  86345470.43247  21086377.885    21086377.1254   21086385.8024
        47.400          47.2004
 198979098.146 7                  37864471.935
        45.600
 200909429.365 7                  38231820.312
        44.100
 117174988.661 7  91305232.25647  22297640.725    22297640.0284   22297640.8134
        46.900          44.2004
 123668768.583 5                  23175526.243    23175526.964
        35.800
 412853141.339 5                  78563184.744
        33.200
 202119505.785 7                  38462056.256
        45.100
 121516763.830 6  94513223.775 6  22716232.062    22716232.424    22716247.945
        36.400          40.600
 131118290.961 6 102170126.00144  24950978.127    24950977.2244   24950981.5104
        37.700          29.6004
 132975067.759 6 103616936.91942  25304312.632    25304311.2784   25304312.9554
        38.100          14.8004
 122696099.954 8                  23348295.493
        48.000
 129654538.744 7                  24672393.060
        45.600
 115084452.381 7  89676261.02745  21899823.068    21899822.0404   21899824.4934
        45.000          32.1004
 109946554.422 8  85672801.67748  20922073.498    20922072.7794   20922077.9784
        48.000          48.7004
 139361700.680 7                  26519648.798
        42.400
 131195224.650 6                  24542779.710    24542779.683
        38.900
 107724665.025 7  83941290.41046  20499330.820    20499330.4184   20499334.8564
        47.400          38.0004
 125838493.869 8                  23946269.718
        48.500
 106904039.411 8  83147596.903 8  19970577.662    19970577.698    19970587.383
        52.000          48.000


 109463344.917 8  85138174.329 7  20441507.027    20441507.701    20441513.725
        50.600          47.100
 107825162.762 7                  20227678.295    20227677.933
        46.400
 126461327.012 7  98358935.538 6  23665490.452    23665490.649    23665504.226
        43.600          40.600
 127040267.346 7  98809098.789 6  23782229.833    23782230.279    23782247.467
        42.100          41.300
 134424395.911 6 104746174.20744  25580194.094    25580193.5984   25580220.6734
        37.000          26.0004
 107048488.460 8  83260025.679 8  20046722.606    20046722.809    20046728.662
        51.700          48.900
 134721696.656 7                  25636684.855
        43.700
 25  1  1 18  0 30.0000000  0 31G09G26E19R18G08S31S35G07R06S48S33R19
                                G30G20E04E31G16G27E21R01G04E06R07R20
                                R08R10R11R16G31R09E09
 106164334.719 8  82725463.98248  20202402.203    20202401.6184   20202405.3594
        50.200          51.8004
 129681228.701 6 101050304.43845  24677537.490    24677536.8154   24677549.2814
        38.200          32.2004
 134596208.170 6                  25612840.708
        37.300
 122656670.381 7  95399845.836 6  22977667.718    22977668.265    22977679.630
        46.700          41.300
 110773126.723 7  86316844.88347  21079387.167    21079386.4124   21079395.0374
        47.600          47.2004
 198979090.119 7                  37864479.148
        45.900
 200909390.621 7                  38231809.544
        44.200
 117143834.814 7  91280956.56747  22291712.192    22291711.4954   22291712.3624
        47.400          44.1004
 123736794.209 5                  23188275.638    23188275.560
        35.400
 412853773.774 5                  78563219.127
        32.800
 202119517.146 7                  38462060.066
        45.500
 121483175.249 6  94487099.782 6  22709953.652    22709953.269    22709969.688
        36.700          41.300
 131075733.606 6 102136964.46345  24942878.809    24942877.9114   24942883.2144
        38.500          30.0004
 132969923.427 6 103612928.31542  25303333.901    25303332.5424   25303334.1614
        38.700          15.9004
 122700726.842 8                  23349176.041
        48.100
 129628836.417 7                  24667501.779
        45.800
 115129542.874 7  89711396.49845  21908403.909    21908402.8814   21908404.8894
        45.400          32.1004
 109941868.750 8  85669150.59448  20921181.633    20921180.9184   20921186.2514
        48.600          48.6004
 139398257.546 7                  26526605.538
        42.500
 131133567.340 6                  24531246.054    24531246.421
        39.700
 107752284.434 7  83962811.97746  20504586.531    20504586.1294   20504590.7354
        47.800          37.8004
 125821872.197 8                  23943106.589
        48.500
 106940913.337 8  83176276.559 7  19977465.677    19977466.050    19977475.421
        52.000          47.700


 109439388.433 8  85119541.543 7  20437033.291    20437033.780    20437039.813
        50.400          47.200
 107810835.334 7                  20224990.561    20224990.430
        46.900
 126419166.627 7  98326144.564 6  23657599.906    23657599.711    23657614.460
        43.200          41.000
 127086284.074 7  98844889.340 6  23790845.542    23790845.110    23790862.612
        42.500          41.700
 134468234.273 6 104780333.81244  25588537.097    25588536.6014   25588562.9684
        38.100          26.0004
 107070158.444 8  83276880.126 8  20050780.553    20050780.896    20050786.633
        52.000          49.100
 134689455.166 7                  25630549.270
        44.000
 25  1  1 18  0 45.0000000  0 31G09G26E19R18G08S31S35G07R06S48S33R19
                                G30G20E04E31G16G27E21R01G04E06R07R20
                                R08R10R11R16G31R09E09
 106165356.471 8  82726260.12048  20202596.433    20202595.8484   20202599.8174
        50.100          51.8004
 129731582.005 6 101089540.64745  24687118.907    24687118.2234   24687131.7854
        39.300          32.0004
 134637458.929 6                  25620691.145
        36.800
 122664122.086 7  95405641.741 6  22979063.785    22979064.091    22979075.819
        46.100          41.500
 110736514.213 7  86288315.75147  21072419.603    21072418.8434   21072427.8204
        47.800          47.1004
 198979086.426 7                  37864467.043
        45.100
 200909356.633 7                  38231796.617
        43.900
 117112702.727 7  91256697.80947  22285788.016    22285787.3194   22285788.1154
        47.200          44.1004
 123804846.958 6                  23201028.439    23201028.949
        36.200
 412852809.513 5                  78563256.085
        33.300
 202119532.094 7                  38462064.005
        45.400
 121449731.417 6  94461088.399 6  22703700.617    22703700.438    22703716.853
        36.400          41.000
 131033172.748 6 102103800.19344  24934779.543    24934778.6454   24934784.0464
        38.200          29.8004
 132964906.350 6 103609018.93242  25302379.427    25302378.0594   25302379.4754
        38.100          16.0004
 122705454.439 7                  23350075.724
        47.900
 129603197.289 7                  24662623.105
        45.600
 115174690.159 7  89746576.27645  21916995.152    21916994.1424   21916996.1194
        45.600          31.9004
 109937354.410 8  85665632.98548  20920322.458    20920321.7394   20920327.1234
        48.600          48.5004
 139434828.567 7                  26533564.159
        42.600
 131071965.494 6                  24519721.488    24519721.771
        39.500
 107780037.229 7  83984437.44946  20509867.957    20509867.5554   20509871.9714
        47.900          37.7004
 125805338.859 8                  23939960.437
        48.400
 106977963.845 8  83205093.553 7  19984387.595    19984387.433    19984396.974
        51.500          47.900


 109415625.497 8  85101059.279 7  20432596.342    20432596.455    20432602.166
        50.400          47.000
 107796591.248 7                  20222318.296    20222317.960
        46.600
 126377047.916 7  98293385.936 6  23649717.395    23649718.123    23649732.223
        43.800          41.100
 127132289.244 6  98880670.916 6  23799457.175    23799456.771    23799474.532
        41.500          41.300
 134512086.001 6 104814503.83244  25596881.255    25596880.7554   25596908.1794
        36.300          24.8004
 107091887.851 8  83293780.824 8  20054849.567    20054850.019    20054855.881
        52.000          49.000
 134657273.829 7                  25624425.165
        43.900
 25  1  1 18  1  0.0000000  0 32G09G26E19R18G08S31S35G07E13R06S48S33
                                R19G30G20E04E31G16G27E21R01G04E06R07
                                R20R08R10R11R16G31R09E09
 106166522.528 8  82727168.70048  20202818.662    20202818.0724   20202821.7394
        50.400          52.0004
 129781922.329 6 101128766.68545  24696698.390    24696697.6974   24696711.2254
        38.600          32.0004
 134678748.927 6                  25628548.334
        37.200
 122671755.227 7  95411578.676 6  22980493.909    22980494.327    22980505.092
        46.700          41.900
 110700015.734 7  86259875.45547  21065474.410    21065473.6504   21065482.2904
        47.700          47.4004
 198979076.502 7                  37864470.549
        45.200
 200909316.082 7                  38231796.706
        44.100
 117081582.292 7  91232448.13247  22279865.876    22279865.1744   22279866.0864
        47.500          44.3004
 151749410.127 5                  28876952.116
        34.200
 123872916.020 5                  23213784.508    23213783.537
        35.000
 412853441.771 5                  78563294.183
        33.500
 202119542.493 7                  38462063.335
        45.000
 121416422.408 6  94435181.721 6  22697474.638    22697474.272    22697489.381
        37.000          41.100
 130990598.237 6 102070625.28545  24926678.731    24926677.8424   24926682.4764
        38.700          30.2004
 132960006.549 6 103605200.90742  25301447.107    25301445.7214   25301447.0794
        38.900          14.8004
 122710272.681 7                  23350992.562
        47.900
 129577611.269 7                  24657754.097
        45.500
 115219883.600 7  89781791.97945  21925594.984    21925593.9604   21925596.1364
        45.500          32.1004
 109933001.344 8  85662241.01548  20919494.318    20919493.5994   20919498.7464
        48.800          48.8004
 139471403.591 7                  26540524.203
        42.500
 131010409.467 6                  24508206.208    24508205.943
        37.700
 107807913.147 8  84006158.87146  20515172.670    20515172.2644   20515176.6394
        48.100          38.1004
 125788883.904 8                  23936829.140
        48.500
 107015179.802 8  83234039.180 7  19991339.833    19991340.189    19991349.637
        52.000          47.900


 109392046.116 8  85082719.765 7  20428192.568    20428192.832    20428199.017
        50.100          47.100
 107782420.011 7                  20219660.136    20219659.486
        46.100
 126334960.518 7  98260651.639 6  23641842.003    23641842.192    23641855.706
        43.800          41.600
 127178272.169 6  98916435.064 6  23808065.449    23808065.033    23808083.107
        41.300          41.400
 134555940.856 6 104848676.34144  25605227.175    25605226.6884   25605253.3984
        38.100          25.8004
 107113666.171 8  83310719.524 8  20058927.929    20058928.304    20058934.135
        51.700          48.900
 134625142.704 7                  25618310.648
        43.900
 25  1  1 18  1 15.0000000  0 32G09G26E19R18G08S31S35G07E13R06S48S33
                                R19G30G20E04E31G16G27E21R01G04E06R07
                                R20R08R10R11R16G31R09E09
 106167844.120 8  82728198.48848  20203070.222    20203069.6324   20203073.2454
        50.200          52.0004
 129832260.471 6 101167990.86545  24706278.618    24706277.9164   24706290.2284
        38.700          32.1004
 134720088.654 6                  25636414.891
        37.800
 122679581.199 7  95417665.573 6  22981959.291    22981959.668    22981971.758
        45.500          41.800
 110663642.796 7  86231532.98347  21058552.946    21058552.1864   21058560.6704
        47.800          47.3004
 198979072.282 7                  37864469.753
        45.600
 200909281.331 7                  38231791.143
        43.900
 117050485.023 7  91208216.49547  22273948.272    22273947.5664   22273948.4084
        47.700          44.2004
 151724860.937 5                  28872280.574
        33.900
 123941012.232 5                  23226544.957    23226545.597
        35.200
 412854080.076 5                  78563329.741
        33.100
 202119557.898 7                  38462063.925
        45.400
 121383260.367 6  94409389.359 6  22691273.581    22691274.457    22691289.870
        36.300          41.200
 130948021.335 6 102037448.52145  24918576.809    24918575.9334   24918580.2904
        38.300          30.2004
 132955235.091 6 103601482.82142  25300539.093    25300537.6804   25300538.7944
        37.900          13.5004
 122715192.836 7                  23351928.899
        47.800
 129552089.612 7                  24652897.590
        45.500
 115265134.107 7  89817052.09945  21934206.017    21934205.0074   21934207.0454
        45.700          32.0004
 109928820.859 8  85658983.53348  20918698.549    20918697.8214   20918703.2134
        48.700          48.7004
 139507993.414 7                  26547487.375
        42.800
 130948910.902 6 101849183.692 5  24496701.605    24496701.192    24496710.830
        38.500          32.200
 107835923.211 8  84027984.81846  20520502.848    20520502.4514   20520506.8454
        48.200          37.9004
 125772518.684 8                  23933714.981
        48.500
 107052572.365 8  83263122.204 7  19998324.893    19998325.288    19998334.521
        52.000          47.900


 109368661.828 8  85064531.970 7  20423826.130    20423826.204    20423832.393
        50.200          47.100
 107768333.143 7                  20217017.753    20217016.802
        46.600
 126292915.851 7  98227950.568 6  23633973.259    23633972.887    23633986.683
        42.900          41.100
 127224244.032 7  98952190.323 6  23816672.358    23816672.893    23816689.894
        42.700          41.700
 134599809.868 6 104882859.84444  25613575.145    25613574.6724   25613601.6274
        38.300          26.6004
 107135504.431 8  83327704.746 8  20063017.815    20063018.024    20063024.028
        51.600          49.000
 134593073.195 7                  25612208.655
        43.900
 25  1  1 18  1 30.0000000  0 32G09G26E19R18G08S31S35G07E13R06S48S33
                                R19G30G20E04E31G16G27E21R01G04E06R07
                                R20R08R10R11R16G31R09E09
 106169315.801 8  82729345.24148  20203350.247    20203349.6574   20203353.3174
        50.100          52.0004
 129882590.819 6 101207208.79045  24715856.497    24715855.8004   24715867.9874
        38.100          31.7004
 134761472.846 6                  25644290.378
        37.500
 122687594.415 7  95423898.111 6  22983460.349    22983460.752    22983473.069
        46.100          41.700
 110627390.267 7  86203284.34947  21051654.261    21051653.4974   21051661.9584
        47.100          47.3004
 198979067.806 7                  37864469.780
        45.400
 200909246.494 7                  38231777.733
        43.700
 117019405.505 7  91183998.70647  22268034.029    22268033.3194   22268034.1864
        46.900          44.2004
 151700379.383 6                  28867621.487
        37.400
 124009129.507 6                  23239312.191    23239311.547
        36.000
 412854718.358 5                  78563361.678
        32.400
 202119572.576 7                  38462069.823
        45.000
 121350240.071 6  94383707.298 6  22685101.097    22685101.225    22685117.188
        36.600          40.900
 130905436.594 6 102004265.64845  24910472.485    24910471.6144   24910476.5654
        39.100          30.6004
 132950586.505 6 103597860.47442  25299654.433    25299653.0344   25299654.2134
        38.100          13.6004
 122720209.414 7                  23352883.541
        47.800
 129526626.751 7                  24648051.669
        45.400
 115310436.066 7  89852352.31245  21942826.451    21942825.4504   21942827.7254
        45.500          32.2004
 109924807.454 8  85655856.24848  20917934.694    20917933.9664   20917939.4474
        48.300          48.7004
 139544592.490 7                  26554451.908
        42.700
 130887464.787 6 101801392.349 5  24485207.747    24485206.434    24485216.046
        39.300          32.100
 107864061.745 8  84049910.88446  20525857.371    20525856.9654   20525861.4744
        48.100          38.0004
 125756237.837 8                  23930616.606
        48.400
 107090135.785 8  83292338.125 7  20005342.233    20005342.422    20005351.906
        52.000          47.800


 109345467.449 8  85046491.898 7  20419494.377    20419494.695    20419500.915
        50.100          47.000
 107754324.838 7                  20214388.795    20214388.843
        46.300
 126250908.326 7  98195278.460 6  23626111.220    23626111.448    23626125.624
        43.600          41.400
 127270199.224 6  98987932.411 6  23825275.478    23825276.045    23825294.069
        41.900          41.900
 134643687.621 6 104917050.18644  25621924.679    25621924.2064   25621951.8144
        38.900          27.7004
 107157397.048 8  83344732.211 8  20067117.556    20067118.090    20067124.005
        51.700          49.000
 134561060.006 7                  25606116.236
        43.800
 25  1  1 18  1 45.0000000  0 32G09G26E19R18G08S31S35G07E13R06S48S33
                                R19G30G20E04E31G16G27E21R01G04E06R07
                                R20R08R10R11R16G31R09E09
 106170936.154 8  82730607.84448  20203658.512    20203657.9274   20203661.6664
        50.000          51.9004
 129932911.973 6 101246419.51045  24725432.129    24725431.4364   24725443.9454
        38.600          31.5004
 134802899.921 6                  25652173.580
        37.300
 122695793.484 7  95430275.160 6  22984996.822    22984997.036    22985008.777
        46.100          41.400
 110591257.041 7  86175128.68847  21044778.324    21044777.5694   21044785.9754
        47.000          47.2004
 198979061.553 7                  37864468.040
        45.400
 200909209.672 7                  38231774.961
        43.400
 116988342.224 7  91159793.56247  22262123.035    22262122.3294   22262123.0324
        46.500          44.0004
 151675964.447 5                  28862975.543
        34.600
 124077265.901 5                  23252079.891    23252079.309
        35.400
 412853752.698 5                  78563401.743
        32.200
 202119586.227 7                  38462065.946
        44.700
 121317360.830 6  94358134.937 6  22678955.865    22678955.266    22678969.548
        37.700          40.700
 130862842.639 6 101971075.57245  24902367.056    24902366.1764   24902371.2264
        38.900          30.1004
 132946059.406 6 103594332.81042  25298792.838    25298791.4344   25298792.7644
        38.400          14.1004
 122725321.044 8                  23353856.294
        48.200
 129501221.354 7                  24643217.497
        45.900
 115355787.674 7  89887691.25645  21951456.535    21951455.5204   21951457.9084
        46.000          31.8004
 109920959.840 8  85652858.16548  20917202.691    20917201.9674   20917207.2634
        48.200          48.6004
 139581199.398 7                  26561418.009
        42.400
 130826070.011 6 101753640.930 5  24473721.520    24473721.635    24473730.813
        40.000          31.300
 107892327.158 7  84071935.81746  20531236.376    20531235.9744   20531240.3354
        47.500          37.8004
 125740040.147 8                  23927534.440
        48.600
 107127867.939 8  83321685.262 7  20012391.051    20012391.309    20012400.896
        52.400          47.900


 109322461.889 8  85028598.660 7  20415198.175    20415198.530    20415204.741
        50.300          47.000
 107740393.451 7                  20211775.490    20211775.336
        46.400
 126208936.663 7  98162634.161 6  23618256.835    23618257.517    23618271.094
        44.000          41.100
 127316136.694 6  99023660.733 6  23833875.389    23833875.815    23833894.323
        41.700          41.900
 134687572.560 6 104951246.09644  25630275.766    25630275.2974   25630302.7434
        37.300          26.8004
 107179342.803 8  83361801.097 8  20071227.293    20071227.542    20071233.547
        51.400          48.800
 134529101.981 7                  25600035.086
        43.900
 25  1  1 18  2  0.0000000  0 32G09G26E19R18G08S31S35G07E13R06S48S33
                                R19G30G20E04E31G16G27E21R01G04E06R07
                                R20R08R10R11R16G31R09E09
 106172706.590 8  82731987.38048  20203995.400    20203994.8154   20203998.5634
        50.100          51.9004
 129983225.634 6 101285624.47445  24735007.230    24735006.5284   24735018.9944
        38.600          31.8004
 134844371.166 6                  25660065.267
        37.500
 122704179.445 7  95436797.482 6  22986568.244    22986568.503    22986579.528
        46.400          41.200
 110555244.776 8  86147067.27447  21037925.222    21037924.4714   21037932.9724
        48.000          47.2004
 198979055.343 7                  37864468.997
        45.400
 200909172.866 7                  38231764.725
        43.900
 116957296.808 7  91135602.34247  22256215.163    22256214.4754   22256215.3264
        46.600          44.0004
 151651617.596 5                  28858341.501
        34.000
 124145422.473 6                  23264853.835    23264853.505
        36.100
 412854386.702 5                  78563441.138
        33.400
 202119599.611 7                  38462069.255
        44.500
 121284623.928 6  94332673.310 6  22672833.512    22672834.451    22672849.444
        36.400          40.500
 130820240.861 6 101937879.41344  24894259.822    24894258.9464   24894264.1344
        38.200          29.7004
 132941655.009 6 103590900.74342  25297954.833    25297953.4564   25297954.3034
        38.000          14.9004
 122730529.091 8                  23354847.290
        48.000
 129475874.697 7                  24638394.049
        45.400
 115401190.153 7  89923069.81745  21960096.365    21960095.3504   21960097.6734
        45.400          31.8004
 109917279.355 8  85649990.30548  20916502.458    20916501.7484   20916506.8194
        48.300          48.6004
 139617815.332 7                  26568385.825
        42.700
 130764728.420 6 101705930.703 5  24462245.986    24462246.597    24462254.568
        39.300          31.300
 107920720.608 7  84094060.50346  20536639.437    20536639.0404   20536643.5094
        47.600          37.7004
 125723927.037 8                  23924468.206
        48.600
 107165769.979 8  83351164.525 8  20019471.210    20019471.565    20019481.263
        52.100          48.000


 109299646.682 8  85010853.505 7  20410937.845    20410937.879    20410944.327
        50.100          47.100
 107726540.466 7                  20209176.635    20209176.563
        46.400
 126167001.999 7  98130018.679 6  23610408.627    23610409.243    23610423.155
        43.500          41.400
 127362058.098 6  99059376.790 6  23842472.520    23842472.429    23842490.807
        41.800          41.000
 134731466.150 6 104985448.75644  25638629.095    25638628.6394   25638655.2964
        37.900          26.8004
 107201342.641 8  83378912.102 8  20075347.274    20075347.673    20075353.499
        51.700          48.800
 134497200.653 7                  25593964.534
        44.100
 25  1  1 18  2 15.0000000  0 32G09G26E19R18G08S31S35G07E13R06S48S33
                                R19G30G20E04E31G16G27E21R01G04E06R07
                                R20R08R10R11R16G31R09E09
 106174629.154 8  82733485.45748  20204361.355    20204360.7704   20204364.4404
        50.000          52.1004
 130033533.581 6 101324825.11945  24744580.614    24744579.8904   24744592.9174
        37.000          31.6004
 134885888.289 6                  25667966.218
        37.000
 122712754.387 7  95443466.733 6  22988174.627    22988174.915    22988186.227
        46.100          41.300
 110519355.848 7  86119101.96747  21031095.429    21031094.6694   21031103.4324
        47.100          47.4004
 198979050.979 7                  37864463.461
        45.300
 200909137.790 7                  38231756.314
        43.600
 116926271.298 7  91111426.62847  22250311.223    22250310.5354   22250311.3804
        46.500          44.3004
 151627341.104 6                  28853722.191
        37.900
 124213600.561 5                  23277628.286    23277628.322
        34.000
 412855022.517 5                  78563462.951
        32.500
 202119614.030 7                  38462079.857
        45.100
 121252032.066 6  94307324.432 6  22666742.752    22666741.991    22666756.916
        36.900          40.600
 130777633.374 6 101904678.82145  24886151.605    24886150.7424   24886156.5864
        37.200          30.5004
 132937375.369 6 103587565.92142  25297140.586    25297139.2584   25297140.0124
        37.200          15.1004
 122735835.648 7                  23355857.143
        47.800
 129450588.854 7                  24633582.180
        45.600
 115446645.097 7  89958489.28345  21968746.271    21968745.2394   21968747.4234
        45.500          32.1004
 109913768.124 8  85647254.32748  20915833.971    20915833.2654   20915838.6254
        48.300          48.9004
 139654442.170 7                  26575355.684
        42.500
 130703442.724 6 101658264.100 5  24450781.472    24450781.438    24450790.088
        39.100          30.600
 107949244.045 7  84116286.49946  20542067.122    20542066.7254   20542071.3974
        47.400          38.0004
 125707900.694 8                  23921418.667
        48.500
 107203843.619 8  83380777.286 7  20026584.141    20026584.476    20026593.857
        52.400          47.800


 109277024.286 8  84993258.294 7  20406713.094    20406713.617    20406719.507
        50.900          46.900
 107712767.717 7                  20206593.159    20206592.842
        46.600
 126125106.375 7  98097433.528 6  23602568.335    23602568.418    23602582.809
        42.900          41.900
 127407965.517 6  99095082.135 6  23851068.545    23851067.178    23851085.262
        41.800          41.200
 134775370.367 6 105019659.70644  25646983.775    25646983.3374   25647009.7184
        37.600          26.0004
 107223398.422 8  83396066.619 8  20079477.984    20079477.963    20079483.852
        51.800          48.700
 134465358.185 7                  25587904.961
        43.900
 25  1  1 18  2 30.0000000  0 32G09G26E19R18G08S31S35G07E13R06S48S33
                                R19G30G20E04E31G16G27E21R01G04E06R07
                                R20R08R10R11R16G31R09E09
 106176703.866 8  82735102.09348  20204756.052    20204755.4674   20204759.2714
        50.200          52.0004
 130083835.663 6 101364021.33845  24754153.544    24754152.8474   24754165.3784
        37.600          31.5004
 134927451.204 6                  25675875.421
        37.400
 122721518.917 7  95450283.622 6  22989815.780    22989816.082    22989827.362
        45.100          40.800
 110483590.546 7  86091232.99247  21024289.917    21024289.1574   21024297.3854
        47.300          47.3004
 198979048.078 7                  37864467.517
        45.700
 200909104.615 7                  38231755.344
        44.000
 116895265.814 7  91087266.52847  22244411.082    22244410.4074   22244411.1944
        47.200          44.2004
 151603134.902 5                  28849115.941
        35.500
 124281799.635 5                  23290410.392    23290409.315
        35.500
 412854061.033 5                  78563507.725
        33.300
 202119631.799 7                  38462077.622
        44.900
 121219586.176 6  94282089.160 6  22660676.608    22660676.145    22660690.405
        36.900          40.200
 130735020.177 6 101871473.75145  24878043.262    24878042.4044   24878047.7144
        39.200          30.6004
 132933220.235 6 103584328.10142  25296350.204    25296348.9034   25296349.5594
        38.000          15.2004
 122741240.701 7                  23356885.636
        47.900
 129425363.772 7                  24628782.328
        45.700
 115492151.971 7  89993949.22345  21977405.748    21977404.7074   21977406.9754
        44.800          31.9004
 109910426.123 8  85644650.21848  20915197.940    20915197.2304   20915202.6304
        48.600          48.8004
 139691079.698 7                  26582327.177
        42.400
 130642213.068 6 101610640.939 5  24439327.630    24439327.479    24439336.398
        39.900          31.400
 107977897.216 7  84138613.60946  20547519.777    20547519.3754   20547523.9374
        47.700          38.1004
 125691961.280 8                  23918385.441
        48.400
 107242088.078 8  83410522.913 8  20033728.367    20033728.770    20033738.155
        52.400          48.000


 109254594.887 8  84975813.215 7  20402524.306    20402524.825    20402530.992
        50.300          46.900
 107699075.322 7                  20204024.109    20204024.038
        46.000
 126083249.998 7  98064878.946 6  23594735.590    23594736.179    23594750.243
        43.700          41.900
 127453858.662 6  99130776.487 6  23859658.184    23859658.091    23859677.059
        41.800          41.500
 134819285.009 6 105053878.77944  25655340.199    25655339.7614   25655366.5324
        37.600          25.9004
 107245509.716 8  83413264.298 8  20083617.892    20083618.704    20083624.749
        51.400          48.800
 134433574.833 7                  25581857.288
        44.100
 25  1  1 18  2 45.0000000  0 32G09G26E19R18G08S31S35G07E13R06S48S33
                                R19G30G20E04E31G16G27E21R01G04E06R07
                                R20R08R10R11R16G31R09E09
 106178924.804 8  82736832.68548  20205178.631    20205178.0414   20205181.9244
        50.400          52.1004
 130134125.453 6 101403207.98445  24763723.600    24763722.9164   24763735.2944
        37.300          31.2004
 134969053.602 6                  25683791.872
        37.200
 122730466.374 7  95457242.833 6  22991492.395    22991492.068    22991503.710
        45.500          41.000
 110447943.217 7  86063455.95447  21017506.083    21017505.3234   21017513.8444
        47.500          47.3004
 198979041.301 7                  37864465.666
        45.800
 200909067.061 7                  38231744.683
        43.900
 116864274.458 7  91063117.45347  22238513.568    22238512.8984   22238513.7154
        46.600          44.2004
 151578993.320 5                  28844522.203
        34.800
 124350013.467 5                  23303193.346    23303193.693
        35.700
 412854692.546 5                  78563551.409
        33.100
 202119643.717 7                  38462078.789
        45.000
 121187280.290 6  94256962.750 6  22654636.928    22654636.745    22654651.206
        36.700          40.700
 130692395.348 6 101838259.62345  24869932.031    24869931.1734   24869936.4504
        38.800          30.7004
 132929183.809 6 103581182.76342  25295581.856    25295580.5604   25295581.5624
        38.600          16.2004
 122746738.304 8                  23357931.779
        48.000
 129400193.498 7                  24623992.313
        45.900
 115537704.587 7  90029444.80445  21986074.126    21986073.0894   21986075.4214
        45.600          31.8004
 109907247.454 8  85642173.39248  20914592.943    20914592.2244   20914597.6874
        48.500          48.9004
 139727721.876 7                  26589300.327
        42.300
 130581034.172 6 101563057.389 5  24427882.641    24427883.233    24427891.030
        40.100          32.400
 108006673.908 7  84161036.94446  20552995.838    20552995.4414   20553000.0024
        47.500          38.0004
 125676102.978 8                  23915367.684
        48.600
 107280497.198 8  83440396.610 8  20040903.423    20040903.859    20040913.486
        52.000          48.000


 109232352.827 8  84958513.819 7  20398371.179    20398371.394    20398377.382
        50.100          47.000
 107685457.097 7                  20201469.633    20201469.364
        46.200
 126041426.712 7  98032350.082 6  23586907.966    23586907.915    23586922.096
        42.500          41.000
 127499730.762 7  99166454.318 6  23868246.241    23868246.280    23868264.247
        42.400          41.200
 134863204.174 6 105088101.38744  25663698.019    25663697.6044   25663724.3664
        38.000          26.6004
 107267670.685 8  83430500.677 8  20087767.904    20087768.378    20087774.491
        51.300          48.800
 134401844.805 7                  25575818.908
        44.300
 25  1  1 18  3  0.0000000  0 32G09G26E19R18G08S31S35G07E13R06S48S33
                                R19G30G20E04E31G16G27E21R01G04E06R07
                                R20R08R10R11R16G31R09E09
 106181294.739 8  82738679.37148  20205629.547    20205628.9534   20205632.9104
        50.500          52.1004
 130184405.265 6 101442386.71845  24773291.182    24773290.5074   24773303.1804
        39.000          31.3004
 135010698.247 6                  25691716.785
        36.900
 122739599.623 7  95464346.495 6  22993203.728    22993203.814    22993214.575
        46.300          41.400
 110412416.962 7  86035773.25647  21010745.537    21010744.7684   21010753.3104
        47.700          47.3004
 198979032.598 7                  37864466.109
        45.800
 200909028.087 7                  38231741.254
        44.000
 116833300.082 7  91038981.61047  22232619.325    22232618.6554   22232619.4234
        47.300          44.3004
 151554919.388 5                  28839940.312
        35.800
 124418244.067 5                  23315978.946    23315979.475
        35.100
 412855323.038 5                  78563584.494
        32.800
 202119654.801 7                  38462086.127
        45.500
 121155117.435 6  94231947.598 6  22648623.916    22648623.705    22648638.166
        37.100          40.900
 130649761.698 6 101805038.62845  24861819.027    24861818.1514   24861823.5414
        38.300          30.5004
 132925268.730 6 103578131.97342  25294836.600    25294835.3354   25294836.8634
        38.600          15.3004
 122752331.289 8                  23358996.170
        48.000
 129375080.774 7                  24619213.475
        45.900
 115583305.396 7  90064977.89845  21994751.666    21994750.6294   21994752.8734
        45.400          32.0004
 109904234.880 8  85639825.98248  20914019.715    20914018.9914   20914024.3454
        48.400          49.0004
 139764371.305 7                  26596274.531
        42.700
 130519909.019 6 101515515.463 5  24416447.570    24416447.975    24416456.796
        40.300          32.800
 108035576.753 7  84183558.57246  20558495.887    20558495.4944   20558500.0854
        47.900          37.8004
 125660328.670 8                  23912365.678
        48.600
 107319073.260 8  83470400.136 7  20048109.588    20048110.273    20048119.832
        52.100          47.700


 109210301.062 8  84941362.457 7  20394253.112    20394253.307    20394259.644
        49.900          47.100
 107671915.379 7                  20198929.194    20198928.812
        46.400
 125999639.315 7  97999849.138 6  23579088.897    23579089.100    23579102.274
        43.100          41.700
 127545584.641 7  99202117.770 6  23876830.539    23876831.281    23876848.917
        42.900          40.400
 134907130.631 6 105122329.67544  25672057.202    25672056.7874   25672083.4784
        37.600          26.1004
 107289883.814 8  83447777.659 8  20091927.572    20091928.190    20091934.110
        51.000          49.000
 134370171.097 7                  25569791.588
        44.700
 25  1  1 18  3 15.0000000  0 32G09G26E19R18G08S31S35G07E13R06S48S33
                                R19G30G20E04E31G16G27E21R01G04E06R07
                                R20R08R10R11R16G31R09E09
 106183819.710 8  82740646.85548  20206110.285    20206109.6914   20206113.4084
        50.200          51.9004
 130234680.950 6 101481562.03545  24782858.857    24782858.1914   24782870.7444
        37.000          31.0004
 135052391.015 6                  25699651.384
        37.000
 122748924.688 7  95471599.444 6  22994950.076    22994950.689    22994961.589
        46.400          41.800
 110377018.102 7  86008189.83147  21004009.032    21004008.2774   21004016.9994
        47.300          47.1004
 198979029.009 7                  37864459.169
        45.500
 200908994.006 7                  38231734.649
        44.100
 116802348.860 7  91014863.79447  22226729.170    22226728.4954   22226729.5224
        47.000          44.1004
 151530919.415 6                  28835373.302
        36.500
 124486497.169 5                  23328771.158    23328770.296
        35.300
 412855960.993 5                  78563620.120
        32.800
 202119670.521 7                  38462090.218
        45.400
 121123104.972 6  94207049.423 6  22642639.330    22642639.386    22642653.869
        36.900          41.100
 130607125.321 6 101771815.50345  24853705.928    24853705.0614   24853709.9074
        38.500          30.2004
 132921480.978 6 103575180.39742  25294115.575    25294114.2384   25294116.1984
        37.400          14.4004
 122758025.657 8                  23360079.539
        48.100
 129350031.635 7                  24614446.806
        46.000
 115628960.232 7  90100553.08945  22003439.745    22003438.7134   22003440.7264
        45.400          31.8004
 109901394.489 8  85637612.73848  20913479.103    20913478.3844   20913483.7974
        48.300          48.8004
 139801033.857 7                  26603251.216
        43.400
 130458844.524 6 101468020.902 5  24405024.671    24405025.086    24405032.676
        40.100          31.000
 108064611.641 7  84206183.12046  20564021.050    20564020.6614   20564025.3334
        47.900          37.8004
 125644644.541 8                  23909381.197
        48.600
 107357821.823 8  83500537.806 7  20055348.817    20055348.935    20055358.508
        52.300          47.800


 109188445.985 8  84924364.054 7  20390171.769    20390172.035    20390178.228
        50.500          47.100
 107658456.363 7                  20196405.007    20196404.161
        46.600
 125957893.905 7  97967380.864 7  23571275.924    23571275.494    23571290.166
        42.400          42.200
 127591426.482 6  99237771.818 6  23885412.865    23885413.099    23885431.700
        41.500          41.200
 134951070.439 6 105156568.37144  25680418.655    25680418.2444   25680445.1894
        36.900          25.6004
 107312155.157 8  83465099.895 8  20096098.644    20096098.855    20096104.757
        51.500          49.000
 134338559.884 7                  25563775.939
        44.600
 25  1  1 18  3 30.0000000  0 32G09G26E19R18G08S31S35G07E13R06S48S33
                                R19G30G20E04E31G16G27E21R01G04E06R07
                                R20R08R10R11R16G31R09E09
 106186492.440 8  82742729.47548  20206618.909    20206618.3194   20206622.0424
        50.400          52.1004
 130284945.426 6 101520728.58245  24792425.279    24792424.6094   24792436.4664
        37.200          31.5004
 135094124.377 6                  25707592.562
        37.400
 122758434.113 7  95478995.752 6  22996731.119    22996731.173    22996743.298
        46.200          41.500
 110341739.647 7  85980700.22247  20997295.684    20997294.9294   20997303.5914
        47.500          47.3004
 198979022.362 7                  37864463.748
        45.600
 200908957.039 7                  38231722.057
        43.600
 116771413.621 7  90990758.42647  22220842.663    22220841.9934   22220842.7484
        47.100          44.3004
 151506986.315 5                  28830818.542
        34.100
 124554764.838 5                  23341564.021    23341563.318
        34.700
 412854994.735 5                  78563652.771
        32.400
 202119683.130 7                  38462089.820
        45.300
 121091235.111 6  94182262.146 6  22636680.953    22636680.909    22636695.777
        37.200          41.200
 130564478.891 6 101738584.52545  24845590.016    24845589.1314   24845594.2524
        39.700          30.4004
 132917813.168 6 103572322.26242  25293418.392    25293417.0244   25293418.3434
        37.600          15.5004
 122763814.169 8                  23361181.330
        48.500
 129325038.774 7                  24609690.757
        46.200
 115674661.659 7  90136164.59445  22012136.446    22012135.4144   22012137.4824
        45.500          31.8004
 109898718.986 8  85635527.98048  20912969.999    20912969.2804   20912974.6274
        48.700          49.0004
 139837702.080 7                  26610228.885
        42.900
 130397833.591 6 101420568.000 5  24393611.493    24393610.997    24393619.642
        39.100          33.200
 108093770.981 8  84228904.60746  20569569.805    20569569.4034   20569574.2414
        48.200          37.8004
 125629043.393 8                  23906412.480
        49.000
 107396735.168 8  83530803.689 7  20062617.755    20062618.260    20062627.931
        52.100          47.900


 109166780.480 8  84907513.081 7  20386125.477    20386126.004    20386132.233
        50.200          47.200
 107645072.763 7                  20193893.383    20193893.197
        46.300
 125916182.932 7  97934939.312 6  23563469.643    23563469.834    23563484.126
        42.400          41.900
 127637249.207 7  99273411.025 6  23893991.659    23893991.513    23894010.942
        43.000          41.300
 134995016.176 6 105190811.68544  25688780.683    25688780.2864   25688807.7764
        36.700          25.4004
 107334476.742 8  83482461.171 8  20100278.872    20100278.941    20100284.870
        51.500          49.100
 134307004.017 7                  25557771.406
        44.800
 25  1  1 18  3 45.0000000  0 32G09G26E19R18G08S31S35G07E13R06S48S33
                                R19G30G20E04E31G16G27E21R01G04E06R07
                                R20R08R10R11R16G31R09E09
 106189316.256 8  82744929.83148  20207156.263    20207155.6644   20207159.4154
        50.100          52.0004
 130335201.653 6 101559888.64745  24801988.875    24801988.2184   24802000.5874
        37.400          31.0004
 135135901.559 6                  25715542.690
        37.300
 122768131.101 7  95486537.951 6  22998547.721    22998548.248    22998559.546
        46.200          41.500
 110306585.166 7  85953307.21747  20990606.121    20990605.3704   20990613.7804
        47.500          47.2004
 198979016.195 7                  37864460.868
        45.400
 200908920.469 7                  38231722.898
        44.000
 116740497.633 7  90966668.05947  22214959.454    22214958.7794   22214959.6894
        47.300          44.3004
 151483123.449 5                  28826277.990
        34.200
 124623049.749 5                  23354360.186    23354360.230
        34.600
 412855630.226 5                  78563685.937
        32.100
 202119696.649 7                  38462091.770
        45.200
 121059511.823 6  94157588.856 6  22630751.472    22630750.219    22630764.491
        37.500          40.800
 130521825.837 6 101705348.39345  24837474.090    24837473.2014   24837477.4034
        38.800          30.6004
 132914268.658 6 103569560.26142  25292744.047    25292742.6934   25292743.8804
        37.400          15.0004
 122769700.114 8                  23362301.394
        48.400
 129300105.462 7                  24604945.905
        45.700
 115720412.354 7  90171814.47945  22020842.602    22020841.5704   22020843.5254
        45.700          31.7004
 109896211.657 8  85633574.24948  20912493.113    20912492.3944   20912497.4514
        48.700          49.0004
 139874379.094 7                  26617208.764
        42.500
 130336879.860 6 101373159.494 5  24382208.008    24382208.203    24382216.947
        39.800          31.400
 108123057.899 7  84251725.50346  20575142.960    20575142.5544   20575147.3994
        47.800          37.7004
 125613528.671 8                  23903460.203
        48.700
 107435816.259 8  83561200.022 8  20069918.804    20069918.828    20069928.745
        52.000          48.000


 109145308.173 8  84890812.401 7  20382116.166    20382116.242    20382122.341
        50.100          47.100
 107631767.558 7                  20191397.622    20191397.254
        46.000
 125874510.160 7  97902527.597 7  23555671.150    23555671.159    23555685.907
        43.100          42.500
 127683055.761 7  99309037.670 6  23902567.604    23902567.459    23902586.249
        42.600          40.600
 135038971.045 6 105225062.11044  25697145.200    25697144.8074   25697172.2324
        38.000          26.1004
 107356851.992 8  83499864.124 8  20104468.419    20104469.048    20104475.129
        51.000          49.000
 134275507.041 7                  25551777.249
        44.300
 25  1  1 18  4  0.0000000  0 32G09G26E19R18G08S31S35G07E13R06S48S33
                                R19G30G20E04E31G16G27E21R01G04E06R07
                                R20R08R10R11R16G31R09E09
 106192290.029 8  82747247.03948  20207722.271    20207721.6814   20207725.3214
        50.000          52.3004
 130385448.659 6 101599041.61845  24811550.581    24811549.9384   24811562.9914
        37.800          31.7004
 135177721.159 6                  25723501.086
        36.600
 122778014.409 7  95494224.993 6  23000399.002    23000399.044    23000411.035
        46.000          41.600
 110271553.884 7  85926010.20747  20983939.731    20983938.9894   20983947.4224
        47.400          47.5004
 198979009.575 7                  37864459.021
        45.600
 200908883.242 7                  38231710.739
        44.000
 116709599.794 7  90942591.83147  22209079.563    22209078.8794   22209079.9794
        47.200          44.6004
 151459330.017 5                  28821750.039
        35.400
 124691350.525 5                  23367159.579    23367160.719
        34.900
 412856264.869 5                  78563729.755
        33.200
 202119709.496 7                  38462095.106
        45.000
 121027934.583 6  94133029.159 6  22624847.779    22624847.118    22624861.279
        37.500          41.200
 130479165.031 6 101672106.22545  24829355.651    24829354.7754   24829359.5794
        38.800          31.2004
 132910846.278 6 103566893.39442  25292092.282    25292090.9454   25292092.5484
        37.000          14.7004
 122775682.384 8                  23363439.855
        48.200
 129275230.577 7                  24600212.196
        45.600
 115766211.044 7  90207501.76045  22029557.330    22029556.2804   22029558.7044
        45.100          32.0004
 109893871.496 8  85631750.78948  20912047.598    20912046.8924   20912052.1134
        48.300          49.3004
 139911063.651 7                  26624189.489
        42.700
 130275982.843 6 101325795.179 5  24370817.611    24370816.315    24370823.767
        40.500          32.100
 108152471.115 7  84274644.82046  20580740.277    20580739.8664   20580744.6814
        47.500          38.1004
 125598099.389 8                  23900524.133
        48.700
 107475063.301 8  83591725.402 8  20077250.384    20077250.876    20077260.485
        52.100          48.000


 109124028.219 8  84874261.316 7  20378142.118    20378142.494    20378148.504
        50.300          47.100
 107618539.321 7                  20188915.673    20188915.767
        46.800
 125832873.968 7  97870144.305 6  23547879.411    23547879.468    23547892.526
        42.800          41.500
 127728845.183 7  99344651.042 6  23911139.825    23911140.016    23911158.421
        42.700          40.700
 135082933.927 6 105259318.80244  25705511.160    25705510.7674   25705538.0664
        36.600          25.0004
 107379279.532 8  83517307.789 8  20108668.931    20108669.230    20108675.087
        51.900          49.100
 134244068.032 7                  25545794.983
        44.100
 25  1  1 18  4 15.0000000  0 32G09G26E19R18G08S31S35G07E13R06S48S33
                                R19G30G20E04E31G16G27E21R01G04E06R07
                                R20R08R10R11R16G31R09E09
 106195414.879 8  82749681.96448  20208316.762    20208316.1774   20208319.9574
        49.900          52.1004
 130435687.426 6 101638188.22645  24821110.232    24821109.5934   24821123.6374
        37.300          31.2004
 135219584.178 6                  25731467.071
        36.800
 122788085.198 7  95502057.912 6  23002285.265    23002286.096    23002297.644
        46.300          41.900
 110236647.196 7  85898810.28547  20977297.589    20977296.8524   20977304.7784
        47.400          47.3004
 198979003.564 7                  37864458.028
        45.500
 200908846.747 7                  38231701.233
        43.800
 116678721.459 7  90918530.80447  22203204.052    22203203.3824   22203203.9854
        46.300          44.5004
 151435607.330 6                  28817235.861
        36.600
 124759667.753 5                  23379963.211    23379962.956
        34.900
 412856900.970 5                  78563759.075
        32.700
 202119723.169 7                  38462102.917
        45.300
 120996504.968 6  94108584.264 6  22618971.370    22618971.875    22618985.652
        38.100          41.700
 130436497.667 6 101638858.96745  24821236.065    24821235.1944   24821239.9984
        38.700          30.8004
 132907547.239 6 103564322.62442  25291464.981    25291463.6764   25291464.6654
        37.900          14.6004
 122781762.092 8                  23364596.745
        48.300
 129250415.227 7                  24595490.213
        45.700
 115812058.689 7  90243227.21245  22038281.900    22038280.8594   22038283.3634
        45.200          31.9004
 109891699.545 8  85630058.40448  20911634.533    20911633.8274   20911638.7664
        48.400          49.2004
 139947756.777 7                  26631171.790
        42.200
 130215144.044 6 101278476.080 5  24359435.686    24359435.794    24359443.706
        40.400          31.500
 108182011.526 7  84297663.23646  20586361.983    20586361.5774   20586366.1144
        47.200          37.9004
 125582756.759 8                  23897604.561
        48.500
 107514477.408 8  83622380.740 8  20084613.128    20084613.644    20084623.543
        51.900          48.200


 109102942.158 8  84857861.064 7  20374204.357    20374204.537    20374211.187
        49.700          47.300
 107605389.464 7                  20186449.066    20186448.773
        45.900
 125791275.577 7  97837790.381 7  23540094.535    23540095.026    23540108.299
        42.000          42.000
 127774618.449 7  99380251.902 6  23919709.020    23919708.405    23919728.035
        42.200          40.700
 135126905.802 5 105293582.52944  25713879.037    25713878.6224   25713905.4514
        35.100          24.5004
 107401760.465 8  83534793.042 8  20112878.432    20112878.628    20112884.869
        51.200          49.000
 134212688.220 7                  25539823.804
        44.400
 25  1  1 18  4 30.0000000  0 32G09G26E19R18G08S31S35G07E13R06S48S33
                                R19G30G20E04E31G16G27E21R01G04E06R07
                                R20R08R10R11R16G31R09E09
 106198693.218 8  82752236.48048  20208940.773    20208940.1924   20208943.8254
        50.200          52.0004
 130485919.893 6 101677329.91145  24830669.786    24830669.1694   24830682.9204
        38.300          31.3004
 135261492.772 6                  25739442.260
        37.000
 122798345.848 7  95510038.475 6  23004208.244    23004208.223    23004219.722
        46.100          41.800
 110201867.814 7  85871709.54747  20970678.653    20970677.9074   20970686.3874
        47.200          47.3004
 198979000.190 7                  37864456.360
        45.700
 200908813.161 7                  38231700.656
        44.000
 116647865.069 7  90894486.86847  22197332.178    22197331.5214   22197332.2264
        47.000          44.3004
 151411958.038 5                  28812734.588
        33.400
 124828003.331 5                  23392768.203    23392768.905
        34.800
 412855838.765 5                  78563807.436
        33.400
 202119738.806 7                  38462100.427
        45.100
 120965226.196 6  94084256.718 6  22613122.751    22613123.288    22613137.579
        37.000          40.700
 130393826.166 6 101605608.47345  24813115.827    24813114.9734   24813119.6744
        38.300          30.3004
 132904373.584 6 103561849.64042  25290861.036    25290859.7224   25290861.0094
        37.900          15.1004
 122787941.698 8                  23365772.845
        48.500
 129225661.781 7                  24590779.763
        46.000
 115857956.953 7  90278992.11045  22047015.991    22047014.9454   22047017.4754
        45.500          31.7004
 109889698.284 8  85628499.01948  20911253.345    20911252.6354   20911257.9044
        48.700          49.1004
 139984460.696 7                  26638156.753
        42.700
 130154366.357 6 101231204.506 5  24348066.305    24348066.157    24348073.417
        38.900          30.700
 108211681.352 7  84320782.48446  20592007.889    20592007.4874   20592012.1644
        47.400          37.6004
 125567503.377 8                  23894701.826
        48.800
 107554060.081 8  83653167.167 8  20092007.691    20092008.174    20092017.912
        52.200          48.000


 109082052.540 8  84841613.574 7  20370303.188    20370303.923    20370309.898
        50.400          46.900
 107592319.827 7                  20183996.847    20183996.620
        45.900
 125749717.516 7  97805467.744 6  23532318.472    23532318.472    23532330.314
        43.700          41.400
 127820377.656 7  99415841.720 6  23928275.381    23928275.707    23928295.543
        42.100          41.000
 135170889.052 6 105327855.10044  25722248.912    25722248.4884   25722275.1394
        36.500          25.1004
 107424296.965 8  83552321.475 8  20117098.984    20117099.321    20117105.375
        51.800          49.100
 134181370.235 7                  25533864.159
        45.000
 25  1  1 18  4 45.0000000  0 32G09G26E19R18G08S31S35G07E13R06S48S33
                                R19G30G20E04E31G16G27E21R01G04E06R07
                                R20R08R10R11R16G31R09E09
 106202117.565 8  82754904.78848  20209592.238    20209591.6574   20209595.4794
        49.600          52.1004
 130536138.625 6 101716460.89345  24840226.020    24840225.4124   24840239.6184
        38.300          30.6004
 135303439.374 6                  25747424.765
        36.900
 122808788.442 7  95518160.458 7  23006165.046    23006165.470    23006176.030
        46.600          42.100
 110167208.593 7  85844702.47547  20964083.557    20964082.8064   20964090.8924
        47.700          47.4004
 198978992.218 7                  37864454.612
        45.400
 200908774.835 7                  38231692.486
        43.700
 116617023.078 7  90870454.18447  22191462.888    22191462.2314   22191463.1724
        47.100          44.4004
 151388374.424 5                  28808247.432
        35.800
 124896349.000 5                  23405577.316    23405577.094
        34.400
 412856470.209 5                  78563842.560
        33.000
 202119750.235 7                  38462103.772
        45.000
 120934090.889 6  94060040.795 6  22607302.428    22607303.007    22607316.877
        37.300          41.100
 130351143.034 6 101572348.93545  24804993.816    24804992.9314   24804997.6024
        37.200          30.6004
