     2.11           OBSERVATION DATA    M (MIXED)           RINEX VERSION / TYPE
teqc  2019Feb25                         20260317 16:20:09UTCPGM / RUN BY / DATE
Linux 2.4.21-27.ELsmp|Opteron|gcc -static|Linux 64|=+       COMMENT
BIT 2 OF LLI FLAGS DATA COLLECTED UNDER A/S CONDITION       COMMENT
-Unknown-                                                   MARKER NAME
-Unknown-           -Unknown-                               OBSERVER / AGENCY
-Unknown-           -Unknown-           -Unknown-           REC # / TYPE / VERS
-Unknown-           -Unknown-                               ANT # / TYPE
        0.0000        0.0000        0.0000                  APPROX POSITION XYZ
        0.0000        0.0000        0.0000                  ANTENNA: DELTA H/E/N
     1     1                                                WAVELENGTH FACT L1/2
     7    L1    L2    C1    P1    P2    S1    S2            # / TYPES OF OBSERV
 SNR is mapped to RINEX snr flag value [0-9]                COMMENT
  L1 & L2: min(max(int(snr_dBHz/6), 0), 9)                  COMMENT
  2025     1     1    11     0    0.0000000     GPS         TIME OF FIRST OBS
    18                                                      LEAP SECONDS
                                                            END OF HEADER
 25  1  1 11  0  0.0000000  0 38G10G24E19E08R04S31S35G21R12E13S48S33
                                E27R13E29G23R19G18E07E02E30G12E33R20
                                E26R14G08G27R05G32R18E12G28G31R03G25
                                R15G02
 107738026.154 8  83951729.01948  20501857.893    20501857.2814   20501858.9824
        52.000          53.4004
 122077770.347 7  95125572.64446  23230619.623    23230619.1674   23230622.0734
        42.500          40.1004
 137385773.535 6                  26143642.088
        37.900
 151856425.564 6                  28897307.823
        36.600
 106773524.440 8  83046127.462 8  19939200.193    19939200.660    19939205.570
        52.600          48.300
 198975187.198 7                  37863711.916
        45.400
 200953141.194 7                  38240114.564
        43.800
 124055449.677 6  96666596.36844  23606960.414    23606959.0604   23606959.2884
        40.700          24.7004
 129307990.157 7 100572916.954 6  24206720.778    24206720.174    24206727.587
        43.100          37.200
 148001031.392 6                  28163646.617
        36.800
 412699090.799 5                  78534086.734
        32.500
 202090961.654 7                  38456599.396
        44.800
 150093016.909 6                  28561753.713
        37.200
 116199119.612 7                  21760347.508    21760347.124
        43.300
 124123338.039 8                  23619877.134
        49.100
 113069908.686 7  88106433.89946  21516481.314    21516480.9344   21516480.8544
        46.700          36.5004
 109815000.198 6  85411694.281 7  20528745.883    20528745.434    20528750.710
        40.500          44.800
 130445042.849 6 101645482.74843  24822868.024    24822867.5864   24822869.7604
        38.900          22.8004
 128794251.004 7                  24508723.833
        47.600
 149891296.972 6                  28523370.435
        38.700
 147494655.895 6                  28067293.997
        37.800
 130100431.529 6 101376970.09645  24757283.543    24757282.9224   24757284.0444
        39.400          30.3004
 125985615.515 7                  23974258.309
        47.800
 116565505.270 6  90662107.402 7  21798331.061    21798330.622    21798338.589
        38.000          44.400
 127822928.376 7                  24323890.503
        47.600
 116239108.757 8  90408242.917 7  21806153.516    21806152.967    21806159.326
        50.400          44.300
 132030735.484 5 102881110.40944  25124607.392    25124606.6194   25124610.2974
        35.700          26.7004
 133659693.365 6 104150427.78245  25434590.364    25434589.6094   25434591.7664
        39.000          32.1004
 118791526.317 8  92393422.037 7  22222405.075    22222405.250    22222409.840
        49.300          42.500
 110316865.163 8  85961209.45648  20992592.869    20992592.3964   20992593.7864
        50.700          52.1004
 121088068.926 7  94179646.515 7  22683871.687    22683871.338    22683879.229
        44.300          43.700
 147741281.986 5                  28114228.848
        35.500
 120431915.895 7  93843054.30045  22917430.809    22917430.3764   22917431.2894
        43.400          30.2004
 133118057.457 6 103728354.61944  25331525.889    25331525.4924   25331526.6854
        36.100          26.2004
 114011186.491 8  88675403.726 7  21298241.747    21298241.628    21298246.425
        49.700          46.300
 128261267.537 6  99943872.81444  24407305.081    24407304.0934   24407308.0414
        38.200          29.5004
 131734243.764 6 102460010.043 6  24652269.678    24652270.270    24652278.383
        41.700          38.500
 132808305.267 6 103487002.18043  25272577.794    25272576.5204   25272576.0084
        40.000          21.5004
 25  1  1 11  0 15.0000000  0 38G10G24E19E08R04S31S35G21R12E13S48S33
                                E27R13E29G23R19G18E07E02E30G12E33R20
                                E26R14G08G27R05G32R18E12G28G31R03G25
                                R15G02
 107730343.102 8  83945742.23648  20500395.935    20500395.3184   20500396.9444
        52.400          53.2004
 122127107.281 7  95164016.98646  23240008.253    23240007.8024   23240010.5084
        42.600          39.6004
 137355052.144 6                  26137796.181
        38.100
 151892395.677 5                  28904152.613
        34.800
 106770446.031 8  83043733.145 8  19938625.297    19938625.860    19938630.757
        52.500          48.300
 198975196.402 7                  37863713.499
        45.400
 200953138.125 7                  38240113.200
        43.800
 124027440.262 6  96644770.82944  23601630.291    23601628.9284   23601629.4054
        40.100          24.6004
 129352892.946 7 100607841.215 6  24215125.723    24215125.903    24215134.001
        43.300          37.600
 148048984.734 6                  28172771.852
        37.200
 412699033.080 5                  78534084.131
        32.500
 202090961.515 7                  38456598.632
        44.800
 150055470.448 6                  28554609.379
        37.100
 116206123.696 7                  21761659.063    21761659.152
        43.100
 124114404.135 8                  23618177.204
        49.200
 113099445.772 7  88129449.79546  21522102.455    21522102.0754   21522101.5634
        46.700          36.4004
 109852779.995 6  85441078.536 7  20535807.727    20535807.812    20535813.298
        39.900          44.900
 130503882.273 6 101691331.65143  24834065.189    24834064.7474   24834066.4614
        38.300          22.4004
 128818988.226 7                  24513431.072
        47.700
 149891835.271 6                  28523472.837
        38.200
 147467643.700 6                  28062153.408
        38.800
 130071144.982 6 101354149.50445  24751710.291    24751709.6704   24751710.6624
        40.500          30.2004
 125977168.437 8                  23972650.704
        48.000
 116530870.777 6  90635169.515 7  21791853.660    21791853.598    21791861.869
        38.400          45.100
 127854725.564 7                  24329941.309
        47.400
 116189754.532 8  90369856.324 7  21796894.426    21796894.620    21796900.407
        50.100          44.300
 132059584.667 6 102903590.30444  25130098.378    25130097.6054   25130100.4434
        37.000          27.2004
 133699720.503 6 104181617.76545  25442206.773    25442206.0184   25442208.9204
        38.800          31.7004
 118757112.687 8  92366655.888 7  22215967.434    22215967.683    22215972.085
        49.400          42.500
 110305863.041 8  85952636.37948  20990499.345    20990498.8764   20990500.1554
        51.200          51.9004
 121153773.711 7  94230750.248 7  22696179.709    22696180.141    22696187.285
        43.600          43.000
 147700440.893 5                  28106456.680
        34.900
 120380011.213 7  93802609.15444  22907553.745    22907553.3254   22907554.0704
        42.900          29.9004
 133057729.967 6 103681346.10744  25320045.970    25320045.5954   25320047.0694
        37.700          26.9004
 114041821.547 8  88699230.986 7  21303963.684    21303964.500    21303969.615
        49.200          46.500
 128217788.612 6  99909993.20744  24399030.333    24399029.3414   24399033.8354
        38.300          29.1004
 131671877.985 6 102411503.120 6  24640598.534    24640598.745    24640607.305
        38.300          38.100
 132765844.757 6 103453916.01343  25264497.536    25264496.2714   25264496.4394
        39.600          21.7004
 25  1  1 11  0 30.0000000  0 37G10G24E19E08R04S31S35G21R12E13S48S33
                                E27R13E29G23R19G18E07E02E30G12E33R20
                                E26R14G08G27R05G32R18E12G28G31R03G25
                                G02
 107722738.332 8  83939816.44548  20498948.679    20498948.0584   20498949.8074
        52.000          53.3004
 122176521.260 7  95202521.34246  23249411.081    23249410.6344   23249413.8924
        42.600          39.5004
 137324362.867 6                  26131956.198
        38.000
 151928346.414 5                  28910993.786
        35.000
 106767421.151 8  83041380.464 8  19938060.225    19938060.718    19938065.812
        52.400          48.100
 198975202.116 7                  37863710.856
        45.500
 200953131.704 7                  38240112.842
        43.900
 123999524.922 6  96623018.61744  23596317.975    23596316.6344   23596317.2064
        41.000          24.5004
 129397914.730 7 100642857.663 6  24223555.693    24223555.292    24223562.155
        43.200          37.700
 148096938.704 6                  28181896.817
        36.000
 412698973.405 5                  78534065.243
        32.500
 202090961.249 7                  38456597.152
        44.700
 150017900.218 6                  28547459.930
        37.400
 116213321.684 7                  21763007.026    21763007.038
        43.600
 124105519.795 8                  23616486.538
        49.100
 113129059.634 7  88152525.50946  21527737.588    21527737.2044   21527736.8534
        46.700          36.4004
 109890725.134 6  85470591.394 7  20542900.624    20542901.285    20542907.044
        40.100          44.800
 130562725.320 6 101737183.33943  24845262.582    24845262.1224   24845264.0084
        38.200          22.6004
 128843747.099 7                  24518142.542
        47.300
 149892470.841 6                  28523594.088
        39.200
 147440686.954 6                  28057023.443
        38.100
 130041937.303 6 101331390.37745  24746152.661    24746152.0584   24746152.7934
        38.500          30.6004
 125968824.267 7                  23971062.903
        47.700
 116496405.282 6  90608363.026 7  21785408.916    21785408.465    21785416.544
        38.600          44.300
 127886601.043 7                  24336007.190
        47.500
 116140498.209 8  90331545.883 7  21787654.284    21787653.815    21787659.369
        49.800          44.300
 132088493.902 5 102926116.99244  25135599.615    25135598.8284   25135601.2944
        35.900          26.4004
 133739746.860 6 104212807.14845  25449823.956    25449823.1834   25449825.2964
        38.500          31.3004
 118722728.752 8  92339912.840 7  22209534.608    22209535.401    22209540.541
        49.400          42.800
 110294928.402 8  85944115.88848  20988418.310    20988417.8374   20988419.3664
        50.900          52.0004
 121219508.160 7  94281877.015 7  22708494.776    22708495.146    22708502.330
        44.600          43.300
 147659635.961 5                  28098692.261
        34.800
 120328162.248 7  93762207.38444  22897687.213    22897686.7984   22897687.6134
        43.800          29.9004
 132997392.778 6 103634330.03144  25308563.291    25308562.8714   25308565.0964
        36.800          25.8004
 114072481.371 8  88723077.510 7  21309691.848    21309692.170    21309696.900
        49.900          46.200
 128174322.959 6  99876123.93144  24390759.054    24390758.0574   24390762.1974
        39.000          29.3004
 132723440.368 6 103420873.55743  25256428.467    25256427.1934   25256426.8824
        39.900          21.3004
 25  1  1 11  0 45.0000000  0 37G10G24E19E08R04S31S35G21R12E13S48S33
                                E27R13E29G23R19G18E07E02E30G12E33R20
                                E26R14G08G27R05G32R18E12G28G31R03G25
                                G02
 107715212.080 8  83933951.84048  20497516.693    20497516.0764   20497517.6044
        52.100          53.2004
 122226011.992 7  95241085.55446  23258829.321    23258828.8744   23258831.3844
        42.900          39.7004
 137293705.629 6                  26126122.522
        38.200
 151964277.760 6                  28917831.917
        36.500
 106764449.594 8  83039069.245 8  19937505.544    19937505.960    19937510.861
        52.700          48.400
 198975205.748 7                  37863713.548
        45.100
 200953123.760 7                  38240110.199
        43.500
 123971703.648 6  96601339.75644  23591023.373    23591022.0234   23591022.6134
        40.400          24.8004
 129443056.303 7 100677967.488 6  24232005.428    24232005.183    24232013.661
        43.600          39.200
 148144893.155 5                  28191022.488
        35.300
 412698911.438 5                  78534047.710
        32.100
 202090957.124 7                  38456597.438
        44.400
 149980306.604 6                  28540306.028
        36.500
 116220713.734 7                  21764391.617    21764390.652
        42.500
 124096685.003 8                  23614805.342
        48.900
 113158750.316 7  88175661.09146  21533387.308    21533386.9194   21533386.8204
        46.900          36.3004
 109928834.933 6  85500232.307 7  20550024.627    20550025.287    20550030.639
        40.000          44.800
 130621571.613 6 101783037.55443  24856460.355    24856459.9264   24856463.1374
        39.500          23.0004
 128868527.605 7                  24522858.277
        47.200
 149893203.426 6                  28523733.203
        38.400
 147413785.928 6                  28051905.100
        37.100
 130012808.432 6 101308692.65445  24740610.093    24740609.4904   24740609.9224
        38.600          30.0004
 125960583.162 7                  23969494.883
        47.800
 116462109.054 6  90581688.134 7  21778995.151    21778994.956    21779002.739
        38.100          44.200
 127918554.705 7                  24342087.648
        47.300
 116091340.460 8  90293312.083 7  21778432.460    21778432.726    21778437.716
        50.900          44.200
 132117462.984 6 102948690.30844  25141112.030    25141111.2434   25141113.5044
        36.200          25.8004
 133779772.095 6 104243995.66245  25457441.169    25457440.4004   25457441.2754
        38.800          30.8004
 118688374.619 8  92313192.950 7  22203108.185    22203109.089    22203113.129
        49.700          42.800
 110284061.194 8  85935647.91748  20986350.490    20986350.0084   20986351.3974
        51.100          51.9004
 121285271.598 7  94333026.360 7  22720814.474    22720814.833    22720821.963
        45.600          43.500
 147618867.471 5                  28090934.000
        34.900
 120276369.328 7  93721849.29744  22887831.583    22887831.1634   22887831.6214
        43.000          29.7004
 132937046.111 5 103587306.59844  25297080.440    25297079.9844   25297081.1154
        35.600          25.8004
 114103165.924 8  88746943.273 7  21315423.295    21315424.075    21315429.096
        49.600          46.400
 128130871.052 6  99842265.37644  24382490.400    24382489.3994   24382493.5504
        38.700          29.2004
 132681092.596 6 103387875.30643  25248370.040    25248368.7574   25248368.6834
        40.400          21.4004
 25  1  1 11  1  0.0000000  0 37G10G24E19E08R04S31S35G21R12E13S48S33
                                E27R13E29G23R19G18E07E02E30G12E33R20
                                E26R14G08G27R05G32R18E12G28G31R03G25
                                G02
 107707771.822 8  83928154.22948  20496100.588    20496099.9714   20496101.7684
        52.100          53.2004
 122275586.279 7  95279714.82546  23268262.503    23268262.0524   23268264.9974
        42.800          39.5004
 137263087.862 6                  26120295.646
        38.100
 152000196.979 5                  28924666.441
        34.700
 106761538.902 8  83036805.397 8  19936962.049    19936962.385    19936967.188
        52.600          48.100
 198975214.857 7                  37863713.995
        45.100
 200953120.480 7                  38240107.337
        43.600
 123943983.939 6  96579740.04344  23585748.788    23585747.4434   23585747.5704
        40.500          24.7004
 129488324.798 7 100713176.305 6  24240479.022    24240479.051    24240487.090
        42.000          36.900
 148192855.291 5                  28200149.303
        35.000
 412698855.353 5                  78534034.809
        32.100
 202090957.902 7                  38456597.143
        44.700
 149942697.101 6                  28533149.152
        37.900
 116228306.781 7                  21765813.976    21765813.182
        43.000
 124087907.024 8                  23613134.879
        49.100
 113188525.120 7  88198862.21446  21539053.120    21539052.7144   21539052.8094
        46.700          36.3004
 109967117.137 6  85530007.332 7  20557182.539    20557182.029    20557187.627
        40.400          44.800
 130680428.309 6 101828899.83343  24867660.133    24867659.7004   24867663.1124
        38.800          22.7004
 128893336.962 7                  24527579.104
        47.500
 149894040.236 6                  28523892.664
        38.600
 147386948.193 6                  28046798.100
        38.300
 129983766.371 6 101286062.57345  24735083.139    24735082.5224   24735083.0644
        39.000          30.1004
 125952452.556 7                  23967947.494
        47.800
 116427990.515 6  90555151.550 7  21772614.800    21772615.296    21772622.557
        38.800          44.800
 127950593.713 7                  24348184.418
        47.400
 116042289.477 8  90255161.366 7  21769229.913    21769230.779    21769235.819
        50.000          44.400
 132146498.742 5 102971315.58744  25146636.809    25146636.0184   25146638.7124
        35.500          25.9004
 133819803.281 6 104275188.80445  25465057.946    25465057.1594   25465058.8184
        38.100          30.5004
 118654057.733 8  92286502.057 7  22196688.515    22196688.989    22196693.596
        49.500          42.600
 110273268.764 8  85927238.24048  20984296.821    20984296.3394   20984297.6794
        51.300          52.0004
 121351071.049 7  94384203.723 7  22733139.660    22733140.646    22733147.937
        43.900          43.200
 147578142.960 5                  28083183.922
        35.200
 120224640.131 7  93681540.85644  22877987.643    22877987.2284   22877987.8804
        42.600          29.9004
 132876697.654 5 103540281.75544  25285595.991    25285595.5534   25285596.7364
        35.400          26.0004
 114133882.855 8  88770834.224 7  21321162.233    21321162.200    21321167.332
        49.700          46.300
 128087440.658 6  99808423.58344  24374226.011    24374225.0144   24374229.4544
        38.700          29.6004
 132638808.928 6 103354927.08743  25240323.173    25240321.8724   25240321.8824
        40.000          20.5004
 25  1  1 11  1 15.0000000  0 38G10G24E19E08R04S31S35G21R12E13S48S33
                                E27R13E29G23R19G18E07E02E30R15G12E33
                                R20E26R14G08G27R05G32R18E12G28G31R03
                                G25G02
 107700406.599 8  83922415.08748  20494699.131    20494698.5144   20494700.2404
        51.700          53.2004
 122325232.714 7  95318400.31546  23277710.193    23277709.7374   23277712.6764
        43.100          39.4004
 137232498.450 6                  26114474.910
        38.700
 152036092.945 6                  28931497.685
        36.000
 106758677.626 8  83034579.945 8  19936427.674    19936428.013    19936432.869
        52.700          48.200
 198975217.157 7                  37863716.128
        45.600
 200953110.691 7                  38240104.395
        43.900
 123916354.868 6  96558210.90544  23580491.175    23580489.8474   23580489.8314
        40.100          24.9004
 129533707.249 7 100748473.493 6  24248976.606    24248977.047    24248982.950
        43.400          36.700
 148240813.688 6                  28209276.122
        36.500
 412698792.546 5                  78534033.164
        32.300
 202090953.882 7                  38456596.061
        44.800
 149905060.776 6                  28525987.141
        37.200
 116236089.688 7                  21767270.954    21767270.220
        42.900
 124079174.635 8                  23611473.140
        49.200
 113218372.882 7  88222120.19746  21544733.392    21544732.9994   21544732.6814
        46.500          36.1004
 110005559.417 6  85559906.837 7  20564367.873    20564368.607    20564374.133
        40.000          44.900
 130739283.904 6 101874761.29043  24878860.856    24878860.4594   24878862.7694
        37.200          22.2004
 128918163.881 7                  24532303.463
        47.200
 149894970.358 6                  28524069.689
        39.300
 147360162.770 6                  28041700.686
        38.300
 131421948.190 6 102217110.241 6  24593827.624    24593828.426    24593836.472
        40.900          38.000
 129954800.272 6 101263491.68845  24729570.141    24729569.4984   24729570.9664
        38.700          30.2004
 125944421.408 8                  23966419.462
        48.000
 116394038.332 6  90528744.288 7  21766266.155    21766264.899    21766273.496
        37.900          44.100
 127982706.766 7                  24354295.487
        47.600
 115993334.236 8  90217085.073 7  21760046.283    21760046.389    21760052.113
        50.100          44.500
 132175589.858 5 102993984.00544  25152173.157    25152172.3934   25152174.4924
        35.300          25.2004
 133859828.818 6 104306377.55145  25472674.492    25472673.7104   25472675.9544
        38.300          31.4004
 118619766.957 8  92259831.452 7  22190273.683    22190274.106    22190278.258
        49.900          42.700
 110262539.829 8  85918878.01848  20982255.093    20982254.6114   20982256.0354
        51.100          51.9004
 121416894.516 7  94435399.736 7  22745471.472    22745471.530    22745478.928
        43.700          43.000
 147537451.467 5                  28075440.924
        35.200
 120172963.822 7  93641273.63944  22868153.941    22868153.5304   22868154.1614
        42.600          29.8004
 132816336.570 6 103493247.08644  25274110.384    25274110.0004   25274110.3274
        36.000          26.3004
 114164620.460 8  88794741.242 7  21326904.074    21326904.371    21326909.566
        49.700          46.400
 128044020.916 6  99774590.09344  24365963.398    24365962.4244   24365967.0414
        38.100          29.0004
 132596578.373 6 103322020.23543  25232287.590    25232286.3034   25232285.0124
        39.900          20.8004
 25  1  1 11  1 30.0000000  0 38G10G24E19E08R04S31S35G21R12E13S48S33
                                E27R13E29G23R19G18E07E02E30R15G12E33
                                R20E26R14G08G27R05G32R18E12G28G31R03
                                G25G02
 107693125.981 8  83916741.88148  20493313.649    20493313.0324   20493314.7754
        51.800          53.3004
 122374960.318 7  95357149.06746  23287172.953    23287172.4974   23287175.4934
        42.300          39.2004
 137201946.622 6                  26108661.295
        38.100
 152071974.893 5                  28938325.701
        35.900
 106755875.238 8  83032400.311 8  19935904.432    19935904.699    19935909.681
        52.400          48.100
 198975223.089 7                  37863717.684
        45.600
 200953104.661 7                  38240107.042
        44.000
 123888825.925 6  96536759.82144  23575252.465    23575251.1464   23575251.5044
        40.500          24.9004
 129579213.730 7 100783867.307 6  24257494.866    24257494.661    24257502.066
        42.800          38.100
 148288777.505 6                  28218402.519
        36.500
 412698733.113 5                  78534012.916
        32.100
 202090951.342 7                  38456595.426
        44.800
 149867407.301 6                  28518821.685
        37.500
 116244071.972 7                  21768766.724    21768765.611
        43.800
 124070497.122 8                  23609821.904
        49.000
 113248302.959 7  88245442.32746  21550428.770    21550428.3644   21550428.1874
        46.600          36.1004
 110044171.030 6  85589938.057 7  20571587.003    20571586.311    20571591.587
        40.100          44.700
 130798147.428 6 101920628.91143  24890062.292    24890061.8904   24890063.9024
        37.900          22.2004
 128943017.654 7                  24537032.981
        47.100
 149896002.980 6                  28524266.048
        38.300
 147333439.321 6                  28036615.150
        38.200
 131359351.270 6 102168423.615 6  24582113.775    24582114.023    24582122.761
        39.200          36.200
 129925919.919 6 101240987.62045  24724074.976    24724074.3334   24724075.1454
        38.900          30.6004
 125936499.170 7                  23964911.799
        47.800
 116360262.516 6  90502474.265 7  21759950.002    21759948.692    21759956.793
        37.700          44.100
 128014903.092 7                  24360422.121
        47.300
 115944485.259 8  90179091.484 7  21750882.340    21750882.594    21750888.166
        50.500          44.500
 132204745.214 6 103016702.47944  25157720.356    25157719.6014   25157722.4964
        36.100          25.4004
 133899857.757 6 104337568.93945  25480291.624    25480290.8464   25480293.3544
        37.300          31.0004
 118585511.324 8  92233188.205 7  22183865.377    22183865.824    22183870.535
        49.100          42.600
 110251883.711 8  85910574.55448  20980227.172    20980226.6764   20980228.2484
        51.000          51.9004
 121482751.053 7  94486621.487 7  22757808.135    22757808.723    22757816.730
        43.500          42.900
 147496802.580 5                  28067705.172
        35.300
 120121350.061 7  93601055.15644  22858332.522    22858332.1114   22858332.3094
        42.200          29.8004
 132755972.470 5 103446210.06244  25262623.523    25262623.1304   25262623.7134
        35.500          26.0004
 114195388.478 8  88818671.924 7  21332651.875    21332652.096    21332657.569
        50.100          46.200
 128000621.610 6  99740772.50244  24357705.485    24357704.4844   24357707.9904
        37.700          29.0004
 132554410.658 6 103289162.30943  25224263.034    25224261.7604   25224260.8024
        38.500          20.9004
 25  1  1 11  1 45.0000000  0 38G10G24E19E08R04S31S35G21R12E13S48S33
                                E27R13E29G23R19G18E07E02E30R15G12E33
                                R20E26R14G08G27R05G32R18E12G28G31R03
                                G25G02
 107685928.476 8  83911133.44848  20491943.894    20491943.2734   20491945.1354
        52.200          53.3004
 122424767.020 7  95395959.46046  23296650.845    23296650.3854   23296653.4464
        42.100          39.3004
 137171430.901 6                  26102854.080
        38.300
 152107841.180 6                  28945150.917
        36.600
 106753130.218 8  83030265.299 8  19935391.842    19935392.099    19935396.973
        52.500          48.100
 198975230.394 7                  37863717.291
        45.500
 200953100.048 7                  38240106.984
        44.200
 123861395.551 6  96515385.50444  23570032.211    23570030.9104   23570031.5874
        40.900          25.2004
 129624841.468 7 100819355.312 6  24266037.450    24266037.589    24266044.564
        43.500          38.900
 148336744.980 6                  28227530.962
        36.200
 412698674.901 5                  78533997.619
        32.000
 202090951.794 7                  38456596.387
        45.000
 149829735.158 6                  28511653.061
        37.000
 116252251.934 7                  21770296.524    21770296.570
        42.900
 124061872.759 8                  23608180.740
        48.800
 113278313.650 7  88268827.27346  21556139.570    21556139.1684   21556139.0754
        46.000          36.0004
 110082949.390 6  85620098.952 7  20578836.071    20578835.772    20578841.451
        40.000          45.000
 130857016.927 6 101966501.19543  24901264.312    24901263.9464   24901266.2734
        38.400          21.8004
 128967896.505 7                  24541767.453
        47.300
 149897136.529 6                  28524482.238
        38.400
 147306776.417 6                  28031541.384
        37.500
 131296711.604 6 102119703.698 6  24570392.618    24570391.986    24570400.354
        40.500          38.300
 129897123.928 6 101218549.26945  24718594.308    24718593.6824   24718595.1274
        39.000          30.6004
 125928684.249 7                  23963424.583
        47.800
 116326661.377 6  90476340.033 7  21753665.849    21753665.928    21753673.032
        38.800          44.600
 128047180.851 7                  24366564.504
        47.700
 115895740.876 8  90141179.189 7  21741737.804    21741737.871    21741743.394
        50.200          44.300
 132233962.941 5 103039469.52744  25163280.704    25163279.9714   25163282.2664
        35.600          25.7004
 133939888.040 6 104368761.37645  25487909.813    25487909.0494   25487910.4104
        38.400          30.4004
 118551289.484 8  92206571.205 7  22177463.540    22177463.569    22177468.141
        49.300          42.500
 110241298.656 8  85902326.45348  20978212.745    20978212.2404   20978213.9834
        51.400          52.0004
 121548638.441 7  94537867.203 7  22770151.733    22770151.501    22770159.141
        43.800          43.200
 147456194.858 5                  28059978.629
        35.500
 120069797.482 7  93560884.32745  22848522.132    22848521.7214   22848522.3424
        42.800          30.0004
 132695603.872 6 103399169.55244  25251136.746    25251136.3494   25251136.2934
        36.000          25.9004
 114226185.387 8  88842625.075 7  21338404.889    21338405.174    21338410.656
        50.100          46.500
 127957241.530 6  99706969.90744  24349449.782    24349448.7814   24349453.3074
        38.600          29.9004
 132512304.334 6 103256352.20243  25216251.202    25216249.9424   25216248.0074
        39.700          20.7004
 25  1  1 11  2  0.0000000  0 38G10G24E19E08R04S31S35G21R12E13S48S33
                                E27R13E29G23R19G18E07E02E30R15G12E33
                                R20E26R14G08G27R05G32R18E12G28G31R03
                                G25G02
 107678811.819 8  83905588.00848  20490589.608    20490588.9914   20490590.8774
        52.100          53.1004
 122474650.003 7  95434829.27646  23306143.547    23306143.1094   23306145.9004
        42.600          39.3004
 137140948.714 6                  26097053.622
        38.000
 152143689.402 5                  28951972.528
        33.900
 106750439.647 8  83028172.632 8  19934889.445    19934889.667    19934894.600
        52.300          48.200
 198975236.833 7                  37863722.545
        45.400
 200953094.434 7                  38240101.229
        43.700
 123834061.775 6  96494086.47444  23564831.082    23564829.7864   23564830.1384
        40.700          25.3004
 129670587.782 7 100854935.505 6  24274601.013    24274601.542    24274608.978
        44.200          40.400
 148384713.438 5                  28236658.692
        35.800
 412698616.354 5                  78533996.577
        32.700
 202090951.063 7                  38456595.207
        44.700
 149792042.232 6                  28504480.547
        37.000
 116260626.965 7                  21771866.015    21771865.568
        43.100
 124053299.073 8                  23606549.253
        49.000
 113308402.538 7  88292273.15346  21561865.572    21561865.1834   21561864.7644
        46.300          36.1004
 110121891.900 6  85650387.536 7  20586116.351    20586115.605    20586121.252
        39.900          44.700
 130915889.700 6 102012376.03943  24912467.247    24912466.9034   24912469.0784
        39.600          21.6004
 128992797.926 7                  24546505.806
        47.200
 149898368.620 6                  28524716.906
        38.300
 147280171.891 6                  28026478.692
        38.800
 131234026.956 6 102070948.871 6  24558661.140    24558661.471    24558669.991
        41.200          38.200
 129868410.377 6 101196175.15944  24713131.053    24713130.4364   24713130.9214
        39.100          29.9004
 125920974.369 7                  23961957.479
        47.700
 116293233.121 6  90450340.306 7  21747414.987    21747414.327    21747421.816
        38.500          44.500
 128079537.469 7                  24372721.659
        47.500
 115847099.513 8  90103347.037 7  21732613.617    21732612.882    21732618.668
        50.300          44.400
 132263240.215 5 103062282.99144  25168852.453    25168851.7254   25168853.7384
        35.400          26.1004
 133979916.952 6 104399952.76145  25495526.406    25495525.6284   25495527.4754
        38.300          30.2004
 118517098.811 8  92179978.464 7  22171067.253    22171067.553    22171072.720
        49.300          42.700
 110230782.260 8  85894131.85848  20976211.628    20976211.1144   20976212.7844
        51.300          51.9004
 121614553.780 7  94589134.642 7  22782500.548    22782500.920    22782508.176
        44.800          43.600
 147415626.150 5                  28052257.876
        35.700
 120018304.061 7  93520759.60244  22838723.155    22838722.7624   22838723.3054
        43.600          29.9004
 132635228.765 6 103352123.94244  25239646.966    25239646.5694   25239647.7114
        37.100          26.8004
 114257008.131 8  88866598.316 7  21344162.733    21344163.099    21344168.527
        50.100          46.500
 127913878.682 6  99673180.74944  24341197.992    24341197.0004   24341201.9304
        38.400          29.7004
 132470257.441 6 103223588.41343  25208248.785    25208247.5424   25208246.6204
        40.100          20.9004
 25  1  1 11  2 15.0000000  0 38G10G24E19E08R04S31S35G21R12E13S48S33
                                E27R13E29G23R19G18E07E02E30R15G12E33
                                R20E26R14G08G27R05G32R18E12G28G31R03
                                G25G02
 107671773.980 8  83900103.97848  20489250.376    20489249.7644   20489251.6094
        52.000          53.3004
 122524606.587 7  95473756.39246  23315649.861    23315649.4194   23315652.3194
        42.600          39.0004
 137110497.896 6                  26091259.269
        38.000
 152179517.282 5                  28958790.354
        35.400
 106747801.438 8  83026120.692 8  19934396.497    19934396.957    19934401.975
        52.300          48.000
 198975240.759 7                  37863720.175
        45.500
 200953085.414 7                  38240101.126
        44.000
 123806822.755 6  96472861.26744  23559647.843    23559646.5604   23559646.7544
        41.100          25.3004
 129716449.852 7 100890605.661 6  24283186.685    24283187.218    24283194.672
        42.700          37.000
 148432680.494 5                  28245786.952
        35.700
 412698555.826 5                  78533986.449
        32.800
 202090946.594 7                  38456594.263
        44.700
 149754326.506 6                  28497303.073
        37.300
 116269194.903 7                  21773470.436    21773470.040
        43.200
 124044773.791 8                  23604927.081
        48.800
 113338567.443 7  88315778.29046  21567605.657    21567605.2684   21567604.9684
        46.000          36.1004
 110160995.976 6  85680801.767 7  20593425.757    20593425.796    20593431.197
        40.400          44.700
 130974763.169 6 102058251.42743  24923670.190    24923669.8284   24923672.2014
        39.900          21.6004
 129017719.518 7                  24551248.407
        46.800
 149899697.112 6                  28524969.368
        37.400
 147253623.730 6                  28021426.273
        38.200
 131171295.375 6 102022157.607 6  24546919.829    24546920.703    24546930.171
        38.800          37.600
 129839777.402 6 101173863.82344  24707682.412    24707681.8094   24707682.1464
        39.000          29.9004
 125913367.413 7                  23960509.977
        47.600
 116259976.337 6  90424473.941 7  21741195.550    21741195.418    21741203.090
        38.500          44.600
 128111970.600 7                  24378893.510
        47.300
 115798559.415 8  90065593.643 7  21723506.924    21723507.236    21723512.647
        50.700          44.600
 132292574.462 5 103085140.85444  25174434.116    25174433.3794   25174436.0134
        35.800          26.0004
 134019941.877 6 104431141.01345  25503143.146    25503142.3734   25503144.1464
        37.500          30.3004
 118482937.112 8  92153408.247 7  22164676.848    22164676.719    22164681.908
        49.100          42.700
 110220332.164 8  85885988.92448  20974223.294    20974222.7804   20974224.1874
        50.800          51.9004
 121680494.159 7  94640421.578 7  22794852.427    22794852.896    22794860.639
        44.600          43.200
 147375094.385 5                  28044545.662
        34.800
 119966867.810 7  93480679.43244  22828935.150    22828934.7754   22828935.3614
        42.400          29.9004
 132574845.205 6 103305071.77844  25228156.406    25228155.9864   25228157.3364
        36.500          26.7004
 114287854.357 8  88890589.833 7  21349924.809    21349925.711    21349930.468
        50.000          46.300
 127870531.217 6  99639403.56745  24332949.376    24332948.3484   24332952.8234
        38.100          30.0004
 132428267.880 6 103190869.31843  25200259.273    25200258.0044   25200256.9044
        40.200          21.2004
 25  1  1 11  2 30.0000000  0 38G10G24E19E08R04S31S35G21R12E13S48S33
                                E27R13E29G23R19G18E07E02E30R15G12E33
                                R20E26R14G08G27R05G32R18E12G28G31R03
                                G25G02
 107664818.471 8  83894684.09048  20487926.771    20487926.1544   20487928.0264
        51.900          53.5004
 122574639.917 6  95512743.30746  23325170.819    23325170.3774   23325173.3114
        41.000          38.7004
 137080081.880 6                  26085470.924
        38.400
 152215328.322 5                  28965605.033
        35.000
 106745219.029 8  83024112.149 7  19933914.324    19933914.706    19933919.813
        52.500          47.800
 198975244.087 7                  37863723.484
        45.700
 200953077.075 7                  38240099.552
        44.000
 123779681.877 6  96451712.57944  23554482.861    23554481.5604   23554482.1414
        40.600          25.7004
 129762431.345 7 100926368.931 5  24291794.986    24291795.382    24291802.564
        42.400          35.700
 148480649.325 5                  28254915.354
        35.400
 412698496.660 5                  78533970.114
        32.600
 202090943.143 7                  38456592.067
        44.700
 149716591.588 6                  28490121.901
        37.000
 116277958.851 7                  21775111.261    21775111.193
        42.700
 124036300.189 8                  23603314.387
        49.000
 113368811.606 7  88339345.16546  21573360.841    21573360.4574   21573360.2514
        46.200          36.2004
 110200264.182 6  85711343.679 7  20600767.060    20600766.841    20600771.893
        40.400          44.400
 131033640.403 6 102104129.73943  24934874.337    24934873.9844   24934876.5044
        38.600          21.2004
 129042664.565 7                  24555995.281
        47.200
 149901125.478 6                  28525241.839
        37.900
 147227135.542 6                  28016385.940
        37.500
 131108520.633 6 101973332.757 6  24535173.284    24535173.509    24535182.552
        38.500          36.700
 129811228.573 6 101151618.06745  24702250.071    24702249.4724   24702249.2854
        38.500          30.1004
 125905866.814 7                  23959082.596
        47.700
 116226894.105 6  90398743.325 7  21735008.181    21735008.369    21735016.421
        38.000          44.400
 128144483.421 7                  24385080.660
        47.300
 115750124.471 8  90027922.043 7  21714420.766    21714420.752    21714426.346
        50.300          44.800
 132321968.732 5 103108045.50544  25180027.735    25180026.9714   25180029.6154
        35.900          25.4004
 134059965.812 6 104462328.51145  25510759.534    25510758.7744   25510760.4734
        37.500          30.8004
 118448807.522 8  92126863.004 7  22158292.526    22158292.556    22158297.079
        49.900          42.500
 110209951.695 8  85877900.24548  20972247.938    20972247.4204   20972248.8484
        50.900          52.2004
 121746462.534 7  94691730.327 7  22807210.789    22807210.480    22807218.496
        43.600          43.300
 147334603.301 5                  28036839.936
        34.900
 119915492.428 6  93440646.68945  22819158.903    22819158.5374   22819158.9774
        41.900          30.0004
 132514456.839 5 103258015.86144  25216664.699    25216664.2264   25216665.4984
        34.500          25.9004
 114318728.122 8  88914602.762 7  21355692.564    21355692.758    21355698.074
        49.800          46.500
 127827202.894 6  99605641.29845  24324704.687    24324703.6684   24324708.0104
        36.700          30.3004
 132386339.206 6 103158197.56843  25192280.105    25192278.8314   25192278.4834
        40.000          21.9004
 25  1  1 11  2 45.0000000  0 38G10G24E19E08R04S31S35G21R12E13S48S33
                                E27R13E29G23R19G18E07E02E30R15G12E33
                                R20E26R14G08G27R05G32R18E12G28G31R03
                                G25G02
 107657948.083 8  83889330.53748  20486619.405    20486618.7844   20486620.6404
        51.500          53.4004
 122624752.206 6  95551791.76146  23334707.279    23334706.8414   23334709.5474
        41.800          39.3004
 137049703.161 6                  26079690.188
        38.500
 152251125.045 5                  28972416.953
        33.400
 106742694.935 8  83022148.975 7  19933442.823    19933443.178    19933448.281
        52.300          47.900
 198975250.924 7                  37863723.068
        45.900
 200953071.339 7                  38240097.527
        44.200
 123752641.663 6  96430642.28944  23549337.513    23549336.2174   23549336.3864
        41.100          25.4004
 129808534.307 7 100962226.851 6  24300424.703    24300424.903    24300432.733
        44.000          40.500
 148528622.320 5                  28264043.944
        34.800
 412698441.109 5                  78533957.048
        32.900
 202090942.962 7                  38456594.361
        45.300
 149678840.294 6                  28482938.255
        36.600
 116286921.766 7                  21776789.388    21776789.254
        42.900
 124027880.804 8                  23601712.445
        48.700
 113399137.614 7  88362975.81446  21579131.559    21579131.1704   21579131.1034
        46.300          36.1004
 110239699.009 6  85742015.168 7  20608138.314    20608138.829    20608144.195
        40.200          44.600
 131092523.701 6 102150012.76043  24946079.509    24946079.1564   24946082.3814
        38.200          21.5004
 129067635.608 7                  24560747.008
        47.000
 149902656.511 6                  28525533.372
        38.500
 147200710.155 6                  28011357.351
        38.000
 131045706.045 6 101924476.898 6  24523418.912    24523419.241    24523427.381
        41.700          37.800
 129782766.810 6 101129440.14144  24696833.209    24696832.6154   24696832.5144
        39.200          29.8004
 125898475.267 7                  23957675.726
        47.700
 116193989.915 6  90373151.192 7  21728854.856    21728855.439    21728863.567
        38.600          44.700
 128177078.399 7                  24391283.255
        47.300
 115701797.987 8  89990334.792 7  21705354.874    21705355.284    21705360.279
        50.500          44.900
 132351425.283 5 103130998.66744  25185632.822    25185632.0314   25185634.8474
        35.600          26.1004
 134099991.001 6 104493516.98845  25518375.515    25518374.7464   25518376.5854
        38.200          30.0004
 118414712.954 8  92100345.009 7  22151914.326    22151914.560    22151919.106
        49.900          42.500
 110199643.403 8  85869867.81548  20970286.043    20970285.5254   20970287.2504
        51.000          52.1004
 121812461.039 7  94743062.458 7  22819575.765    22819575.782    22819582.099
        44.900          43.300
 147294155.618 5                  28029143.597
        35.300
 119864180.745 7  93400663.55445  22809394.935    22809394.5694   22809394.6214
        43.000          30.0004
 132454066.541 6 103210958.44844  25205174.074    25205173.6234   25205173.2454
        36.700          26.6004
 114349631.582 8  88938638.770 7  21361466.123    21361466.137    21361471.301
        50.300          46.300
 127783896.736 6  99571896.31245  24316463.768    24316462.7494   24316466.9394
        37.800          30.1004
 132344474.539 6 103125575.76943  25184312.995    25184311.7174   25184312.1894
        39.600          21.3004
 25  1  1 11  3  0.0000000  0 38G10G24E19E08R04S31S35G21R12E13S48S33
                                E27R13E29G23R19G18E07E02E30R15G12E33
                                R20E26R14G08G27R05G32R18E12G28G31R03
                                G25G02
 107651157.925 8  83884039.51548  20485327.373    20485326.7564   20485328.5294
        51.600          53.4004
 122674937.895 6  95590897.37246  23344257.319    23344256.8954   23344259.6724
        41.400          38.7004
 137019356.650 6                  26073915.236
        38.500
 152286902.138 6                  28979225.052
        38.300
 106740223.889 8  83020227.054 7  19932981.426    19932981.769    19932986.899
        52.500          47.800
 198975255.392 7                  37863725.800
        45.700
 200953063.877 7                  38240096.529
        44.000
 123725697.553 6  96409646.89844  23544210.125    23544208.8334   23544209.0454
        40.400          25.3004
 129854751.278 7 100998172.773 6  24309077.957    24309077.850    24309085.488
        43.900          39.600
 148576594.102 5                  28273172.504
        35.700
 412698383.794 5                  78533948.489
        32.700
 202090939.808 7                  38456594.245
        44.900
 149641067.807 6                  28475750.643
        37.500
 116296078.152 7                  21778504.788    21778504.591
        43.300
 124019510.433 8                  23600119.479
        48.800
 113429540.376 7  88386666.26646  21584916.958    21584916.5524   21584916.5154
        46.300          36.0004
 110279294.592 6  85772811.709 7  20615541.072    20615540.840    20615545.414
        40.100          44.500
 131151407.611 6 102195896.28643  24957285.290    24957284.9694   24957287.6194
        37.800          21.7004
 129092627.410 7                  24565502.908
        47.000
 149904284.666 6                  28525843.044
        38.300
 147174342.652 6                  28006340.091
        38.000
 130982846.530 6 101875586.158 6  24511655.871    24511655.457    24511663.449
        39.400          36.300
 129754387.526 6 101107326.50045  24691433.105    24691432.4934   24691432.3284
        39.200          30.3004
 125891187.807 7                  23956289.127
        47.700
 116161258.449 6  90347693.363 7  21722734.023    21722734.490    21722742.242
        38.700          45.000
 128209750.228 7                  24397500.356
        47.200
 115653575.378 8  89952828.349 7  21696308.451    21696308.355    21696314.030
        50.300          44.700
 132380938.606 5 103153996.08644  25191249.257    25191248.4704   25191251.3444
        35.200          26.5004
 134140012.005 6 104524702.19445  25525991.048    25525990.2614   25525992.5144
        37.400          30.2004
 118380647.934 8  92073849.990 7  22145541.937    22145542.038    22145546.668
        49.900          42.600
 110189402.026 8  85861887.51848  20968337.362    20968336.8444   20968338.3734
        51.100          52.1004
 121878483.905 7  94794413.579 7  22831942.810    22831943.047    22831950.370
        43.700          43.400
 147253746.534 5                  28021453.500
        34.600
 119812928.081 7  93360726.40445  22799641.496    22799641.1394   22799641.5204
        42.700          30.1004
 132393669.550 6 103163895.81844  25193679.576    25193679.1474   25193679.7444
        36.400          27.1004
 114380559.591 8  88962693.869 7  21367242.673    21367243.531    21367248.963
        49.800          46.000
 127740608.027 6  99538164.90945  24308226.410    24308225.3644   24308229.1334
        38.400          30.4004
 132302668.908 6 103093000.00743  25176357.872    25176356.6034   25176356.4214
        39.300          20.8004
 25  1  1 11  3 15.0000000  0 38G10G24E19E08R04S31S35G21R12E13S48S33
                                E27R13E29G23R19G18E07E02E30R15G12E33
                                R20E26R14G08G27R05G32R18E12G28G31R03
                                G25G02
 107644453.218 8  83878815.06248  20484051.642    20484051.0214   20484052.6684
        52.000          53.5004
 122725201.736 7  95630063.86346  23353822.645    23353822.2164   23353824.5804
        42.300          38.7004
 136989047.442 6                  26068147.395
        38.100
 152322664.798 5                  28986030.939
        33.300
 106737811.039 8  83018350.375 7  19932531.214    19932531.289    19932536.168
        52.500          47.800
 198975262.695 7                  37863724.208
        46.000
 200953058.691 7                  38240093.770
        44.200
 123698854.821 6  96388730.50344  23539102.312    23539101.0294   23539100.8874
        41.100          25.9004
 129901089.160 6 101034213.029 6  24317751.912    24317752.074    24317759.854
        41.700          36.300
 148624569.753 5                  28282302.396
        35.500
 412698328.862 5                  78533943.248
        32.600
 202090940.153 7                  38456594.522
        45.300
 149603279.451 6                  28468559.317
        37.300
 116305433.397 7                  21780256.928    21780256.072
        43.400
 124011194.182 8                  23598537.098
        48.700
 113460025.003 7  88410420.50946  21590718.302    21590717.8914   21590717.5964
        46.200          36.0004
 110319055.770 6  85803737.025 7  20622973.773    20622973.813    20622979.062
        39.900          44.400
 131210296.998 6 102241784.09643  24968491.943    24968491.6354   24968493.6354
        38.300          21.4004
 129117645.012 7                  24570263.658
        47.000
 149906015.575 6                  28526172.840
        37.800
 147148038.507 6                  28001334.150
        37.600
 130919947.774 6 101826664.851 6  24499884.451    24499884.228    24499893.468
        39.800          36.900
 129726096.277 6 101085281.44445  24686049.537    24686048.9344   24686049.2014
        40.200          30.9004
 125884009.603 7                  23954923.359
        47.700
 116128705.667 6  90322374.568 7  21716646.609    21716647.069    21716654.598
        38.300          44.800
 128242503.924 7                  24403733.357
        47.200
 115605462.123 8  89915406.951 7  21687282.123    21687282.202    21687288.216
        49.900          44.900
 132410513.521 6 103177041.48044  25196876.820    25196876.0254   25196879.6014
        36.200          26.1004
 134180033.548 6 104555887.82745  25533607.177    25533606.3904   25533608.5554
        38.000          30.5004
 118346618.067 8  92047382.312 7  22139175.729    22139176.003    22139180.768
        49.800          42.700
 110179232.706 8  85853963.36748  20966402.287    20966401.7734   20966403.2034
        51.200          52.1004
 121944535.767 7  94845787.234 7  22844317.189    22844317.373    22844325.156
        44.800          44.100
 147213381.262 5                  28013772.275
        34.800
 119761739.965 7  93320839.61145  22789900.727    22789900.3654   22789900.7884
        42.600          30.2004
 132333271.298 5 103116832.21144  25182187.208    25182186.7884   25182186.4804
        35.200          26.1004
 114411517.361 8  88986772.119 7  21373026.567    21373026.864    21373031.916
        50.000          46.300
 127697342.305 6  99504451.41345  24299992.764    24299991.7274   24299995.9414
        37.800          30.4004
 132260927.833 6 103060474.53743  25168415.084    25168413.8194   25168412.9954
        40.200          20.7004
 25  1  1 11  3 30.0000000  0 38G10G24E19E08R04S31S35G21R12E13S48S33
                                E27R13E29G23R19G18E07E02E30R15G12E33
                                R20E26R14G08G27R05G32R18E12G28G31R03
                                G25G02
 107637827.679 8  83873652.29948  20482790.692    20482790.0714   20482791.8674
        52.100          53.5004
 122775537.064 6  95669286.09746  23363400.616    23363400.1784   23363403.2164
        41.700          38.3004
 136958769.172 6                  26062386.459
        38.500
 152358406.528 6                  28992832.686
        36.600
 106735449.761 8  83016513.840 7  19932090.385    19932090.316    19932095.145
        52.600          47.900
 198975266.764 7                  37863725.165
        45.900
 200953049.849 7                  38240094.213
        44.200
 123672107.094 6  96367888.13644  23534012.650    23534011.3764   23534010.8524
        41.100          25.5004
 129947541.199 7 101070342.613 6  24326447.614    24326447.922    24326455.501
        42.600          38.100
 148672542.490 5                  28291431.412
        34.800
 412698270.993 5                  78533926.261
        32.700
 202090937.453 7                  38456592.121
        45.100
 149565468.960 6                  28461364.259
        37.900
 116314980.246 7                  21782045.451    21782044.363
        43.400
 124002925.429 8                  23596963.393
        48.800
 113490584.941 7  88434233.43845  21596533.622    21596533.2204   21596532.9504
        46.200          35.9004
 110358975.456 6  85834785.616 7  20630436.880    20630436.182    20630441.292
        40.700          44.200
 131269184.937 6 102287670.74643  24979696.970    24979696.6894   24979699.6914
        38.000          20.9004
 129142681.730 7                  24575027.916
        47.000
 149907842.274 6                  28526520.286
        37.900
 147121791.360 6                  27996339.438
        37.700
 130857003.412 6 101777708.057 6  24488106.236    24488106.337    24488114.669
        41.500          37.200
 129697886.879 6 101063300.15945  24680680.785    24680680.1684   24680681.4474
        38.600          30.6004
 125876934.234 7                  23953576.605
        47.800
 116096325.039 6  90297189.660 7  21710591.524    21710591.571    21710599.507
        38.100          44.700
 128275332.767 7                  24409980.416
        47.200
 115557452.517 8  89878066.181 7  21678275.719    21678275.656    21678281.479
        50.100          44.900
 132440143.211 5 103200129.56544  25202515.223    25202514.4414   25202517.8344
        35.300          26.2004
 134220048.797 6 104587068.53845  25541221.759    25541220.9554   25541223.4104
        38.500          30.3004
 118312616.287 8  92020936.484 7  22132815.408    22132815.670    22132819.397
        50.100          42.900
 110169128.863 8  85846090.24048  20964479.461    20964478.9474   20964480.5034
        51.400          52.1004
 122010609.497 7  94897177.888 7  22856693.738    22856694.904    22856701.927
        44.300          43.200
 147173053.580 5                  28006098.600
        35.900
 119710609.971 7  93280998.08645  22780170.885    22780170.5374   22780170.9044
        43.100          30.2004
 132272865.578 6 103069762.78544  25170692.670    25170692.2324   25170691.8354
        36.700          26.9004
 114442498.166 8  89010868.302 7  21378814.364    21378814.275    21378819.591
        49.800          46.200
 127654093.441 6  99470751.05745  24291762.611    24291761.5874   24291766.0144
        37.700          30.5004
 132219244.918 6 103027994.41143  25160482.397    25160481.1014   25160480.8334
        39.600          21.1004
 25  1  1 11  3 45.0000000  0 37G10G24E19R04S31S35G21R12E13S48S33E27
                                R13E29G23R19G18E07E02E30R15G12E33R20
                                E26R14G08G27R05G32R18E12G28G31R03G25
                                G02
 107631286.028 8  83868554.90848  20481545.791    20481545.1744   20481547.0484
        51.700          53.4004
 122825948.044 6  95708567.38546  23372993.688    23372993.2594   23372996.2644
        41.900          38.4004
 136928526.239 6                  26056630.837
        38.200
 106733144.701 8  83014721.013 7  19931659.577    19931659.837    19931664.743
        52.500          47.800
 198975271.321 7                  37863726.243
        46.000
 200953041.883 7                  38240091.007
        44.400
 123645459.223 6  96347123.57844  23528941.062    23528939.7574   23528939.9344
        41.800          25.8004
 129994110.269 7 101106562.982 6  24335165.105    24335166.016    24335173.864
        42.800          37.000
 148720516.675 5                  28300559.879
        34.800
 412698214.800 5                  78533916.557
        32.700
 202090934.212 7                  38456593.807
        45.300
 149527641.115 6                  28454165.734
        37.600
 116324724.005 7                  21783868.946    21783868.754
        43.200
 123994708.710 8                  23595399.656
        48.800
 113521224.772 7  88458108.62545  21602364.203    21602363.7974   21602363.5444
        46.200          35.7004
 110399057.706 6  85865960.660 7  20637928.374    20637929.110    20637934.516
        40.100          44.300
 131328075.727 6 102333559.61443  24990903.633    24990903.3344   24990906.4944
        39.600          21.6004
 129167742.071 7                  24579796.933
        46.900
 149909769.692 6                  28526887.186
        37.200
 147095606.034 6                  27991356.443
        38.000
 130794018.831 6 101728720.031 6  24476318.760    24476319.073    24476328.281
        40.100          37.400
 129669764.021 6 101041386.31145  24675329.816    24675329.2084   24675329.6084
        38.200          30.1004
 125869966.391 7                  23952251.012
        47.800
 116064122.109 6  90272142.943 7  21704568.907    21704569.570    21704577.264
        39.000          44.800
 128308241.194 7                  24416242.631
        47.300
 115509551.555 8  89840809.902 7  21669289.702    21669289.823    21669295.744
        50.400          45.000
 132469831.833 5 103223263.57844  25208165.284    25208164.5114   25208167.6084
        35.700          26.1004
 134260061.968 6 104618247.65045  25548835.672    25548834.8774   25548837.5914
        38.200          30.3004
 118278647.417 8  91994516.259 7  22126460.126    22126460.690    22126465.535
        49.900          42.900
 110159094.981 8  85838271.63648  20962570.087    20962569.5694   20962571.1164
        51.100          52.0004
 122076709.204 7  94948588.744 7  22869077.912    22869077.221    22869085.026
        44.000          43.200
 147132768.375 5                  27998432.269
        35.100
 119659543.079 7  93241205.71945  22770453.171    22770452.8184   22770453.2594
        42.800          30.4004
 132212457.257 6 103022691.35144  25159196.314    25159195.8674   25159196.8674
        37.600          27.0004
 114473506.807 8  89034986.128 7  21384606.616    21384606.998    21384612.050
        49.700          46.400
 127610866.423 6  99437067.72845  24283537.127    24283536.1264   24283539.9364
        38.200          30.3004
