     2.11           OBSERVATION DATA    M (MIXED)           RINEX VERSION / TYPE
teqc  2019Feb25                         20260317 16:20:09UTCPGM / RUN BY / DATE
Linux 2.4.21-27.ELsmp|Opteron|gcc -static|Linux 64|=+       COMMENT
BIT 2 OF LLI FLAGS DATA COLLECTED UNDER A/S CONDITION       COMMENT
-Unknown-                                                   MARKER NAME
-Unknown-           -Unknown-                               OBSERVER / AGENCY
-Unknown-           -Unknown-           -Unknown-           REC # / TYPE / VERS
-Unknown-           -Unknown-                               ANT # / TYPE
        0.0000        0.0000        0.0000                  APPROX POSITION XYZ
        0.0000        0.0000        0.0000                  ANTENNA: DELTA H/E/N
     1     1                                                WAVELENGTH FACT L1/2
     7    L1    L2    C1    P1    P2    S1    S2            # / TYPES OF OBSERV
 SNR is mapped to RINEX snr flag value [0-9]                COMMENT
  L1 & L2: min(max(int(snr_dBHz/6), 0), 9)                  COMMENT
  2025     1     1    12     0    0.0000000     GPS         TIME OF FIRST OBS
    18                                                      LEAP SECONDS
                                                            END OF HEADER
 25  1  1 12  0  0.0000000  0 32G10E19E10R04S31S35G21S48S33E27R13E29
                                G23R19E07E21E30R15G12E33R20E26R14R05
                                G32E12G28G31R03G25R21G02
 108562906.655 8  84594492.91748  20658827.596    20658826.9704   20658828.7134
        51.600          52.0004
 130971568.393 6                  24923057.438
        39.900
 148060281.892 6                  28174929.813
        36.700
 107569304.253 8  83665066.714 8  20087806.668    20087807.117    20087812.371
        52.300          48.100
 198976799.814 7                  37864018.204
        45.500
 200950953.704 7                  38239698.644
        44.200
 120449865.492 7  93857051.84844  22920839.320    22920838.0284   22920837.5204
        42.700          29.0004
 412690943.727 5                  78532259.182
        32.200
 202091728.193 7                  38456743.521
        44.800
 141029768.371 6                  26837068.163
        41.200
 123110415.348 6                  23054613.854    23054613.782
        40.500
 123304732.891 8                  23464102.760
        48.400
 122314855.633 7  95310282.62944  23275740.878    23275740.4134   23275741.5354
        42.100          26.4004
 122490767.370 5  95270617.852 6  22898350.504    22898351.515    22898358.258
        35.800          40.900
 135211228.422 7                  25729836.166
        43.700
 151480415.980 5                  28825762.418
        34.200
 143146187.863 6                  27239806.921
        40.700
 116480738.470 8  90596178.756 7  21797776.196    21797776.893    21797783.226
        49.200          45.200
 126121174.075 7  98276251.46545  24000055.280    24000054.6464   24000054.7984
        42.700          35.8004
 127093760.323 7                  24185131.388
        47.500
 113758706.927 6  88479043.323 7  21273444.601    21273444.137    21273452.032
        39.000          46.400
 137348123.154 7                  26136478.908
        42.000
 108427114.224 8  84332250.265 7  20340639.926    20340640.425    20340645.693
        52.200          47.500
 111417778.370 8  86658283.179 7  20842993.490    20842994.000    20842999.735
        51.000          47.000
 109519546.713 8  85339921.04748  20840868.937    20840868.4284   20840870.3104
        52.100          52.0004
 139551731.745 6                  26555807.156
        39.500
 110293896.517 7  85943304.63046  20988225.888    20988225.5264   20988224.8624
        47.400          38.5004
 119114746.378 7  92816685.94446  22666782.768    22666782.2864   22666782.6334
        43.800          40.3004
 122114379.301 7  94977884.588 6  22811988.317    22811987.878    22811993.042
        45.600          41.500
 119205776.143 7  92887652.63946  22684096.529    22684095.5554   22684098.9244
        42.300          38.8004
 125545069.254 7  97646211.633 6  23461094.793    23461094.803    23461101.919
        44.300          41.100
 124900512.106 7  97325088.31444  23767772.033    23767770.7954   23767769.9454
        43.200          29.3004
 25  1  1 12  0 15.0000000  0 32G10E19E10R04S31S35G21S48S33E27R13E29
                                G23R19E07E21E30R15G12E33R20E26R14R05
                                G32E12G28G31R03G25R21G02
 108578792.420 8  84606871.42948  20661850.475    20661849.8544   20661851.6644
        51.500          52.1004
 130948650.550 6                  24918696.078
        39.500
 148022806.910 6                  28167799.089
        36.800
 107579066.334 8  83672659.418 8  20089629.941    20089630.188    20089635.358
        52.600          48.000
 198976805.248 7                  37864018.629
        45.300
 200950939.368 7                  38239694.821
        43.700
 120448912.166 7  93856308.99644  22920657.830    22920656.5434   22920656.1114
        42.900          29.0004
 412690991.970 5                  78532250.909
        32.100
 202091734.298 7                  38456743.727
        44.400
 140994254.147 6                  26830309.569
        40.900
 123158299.026 6                  23063581.633    23063581.008
        41.000
 123306202.476 8                  23464382.470
        48.300
 122361624.195 7  95346725.62444  23284640.843    23284640.3654   23284641.1734
        42.000          26.2004
 122553271.134 5  95319231.878 6  22910035.895    22910035.717    22910042.639
        35.100          40.900
 135239279.109 7                  25735173.852
        43.300
 151440422.176 5                  28818151.740
        34.500
 143138745.264 6                  27238390.409
        40.300
 116420876.746 7  90549619.700 7  21786573.030    21786573.238    21786580.658
        47.600          45.000
 126119892.118 6  98275252.29746  23999811.083    23999810.4494   23999811.3094
        41.500          36.0004
 127111526.880 7                  24188512.131
        47.500
 113771188.172 6  88488750.914 7  21275778.606    21275778.158    21275786.309
        38.900          47.000
 137393766.943 7                  26145165.046
        42.400
 108415582.746 8  84323281.253 7  20338477.273    20338477.309    20338482.317
        52.600          47.500
 111390805.949 8  86637304.622 7  20837948.163    20837948.369    20837953.889
        51.600          47.000
 109523308.516 8  85342852.33448  20841584.993    20841584.4884   20841586.1454
        52.200          52.3004
 139526468.775 6                  26550999.707
        39.500
 110263831.178 7  85919877.08946  20982504.870    20982504.5134   20982503.6264
        47.500          38.6004
 119061355.730 7  92775082.89046  22656623.269    22656622.7914   22656622.7004
        44.800          40.6004
 122151382.733 7  95006664.973 6  22818900.527    22818900.676    22818905.545
        45.800          41.300
 119177753.702 7  92865816.98346  22678764.108    22678763.1344   22678766.4474
        42.100          38.9004
 125507590.632 7  97617061.572 6  23454090.985    23454091.697    23454097.963
        44.100          40.800
 124879462.614 7  97308686.14844  23763766.430    23763765.1964   23763764.4004
        44.000          29.5004
 25  1  1 12  0 30.0000000  0 32G10E19E10R04S31S35G21S48S33E27R13E29
                                G23R19E07E21E30R15G12E33R20E26R14R05
                                G32E12G28G31R03G25R21G02
 108594792.831 8  84619339.28148  20664895.103    20664894.4824   20664896.4504
        51.800          52.1004
 130925765.902 6                  24914341.435
        39.900
 147985393.580 6                  28160679.040
        36.400
 107588888.287 8  83680298.722 7  20091463.741    20091464.224    20091469.734
        52.100          47.700
 198976814.499 7                  37864021.933
        45.300
 200950929.659 7                  38239694.866
        43.800
 120448082.718 7  93855662.66844  22920499.670    22920498.3744   22920498.2364
        43.000          29.1004
 412691044.690 5                  78532251.982
        31.900
 202091744.214 7                  38456744.796
        44.500
 140958783.710 6                  26823559.958
        41.100
 123206312.844 6                  23072572.821    23072572.104
        40.500
 123307711.240 8                  23464669.627
        48.500
 122408455.777 6  95383217.72444  23293552.556    23293552.0964   23293552.8314
        41.900          26.1004
 122615812.902 6  95367875.427 6  22921727.770    22921727.620    22921733.852
        36.200          40.500
 135267340.484 7                  25740513.965
        44.000
 151400390.404 5                  28810534.025
        34.700
 143131406.598 6                  27236994.303
        40.700
 116361093.330 8  90503121.535 7  21775386.607    21775387.063    21775392.645
        49.700          45.100
 126118756.257 7  98274367.07746  23999595.236    23999594.6024   23999595.3614
        42.200          36.0004
 127129402.014 7                  24191913.722
        47.500
 113783869.819 6  88498614.421 7  21278150.568    21278150.381    21278157.592
        39.900          46.900
 137439446.063 7                  26153856.896
        42.300
 108404254.807 8  84314470.571 7  20336352.027    20336352.260    20336357.335
        52.800          47.500
 111363871.213 8  86616355.413 7  20832909.341    20832909.794    20832914.920
        51.300          46.600
 109527128.213 8  85345828.72048  20842311.884    20842311.3794   20842313.0124
        52.100          52.4004
 139501299.683 6                  26546210.378
        39.600
 110233887.697 8  85896544.52346  20976806.529    20976806.1674   20976805.5944
        48.000          38.6004
 119008034.763 7  92733534.11646  22646476.174    22646475.6874   22646475.9444
        44.500          40.6004
 122188418.887 7  95035470.802 6  22825818.792    22825819.407    22825824.942
        45.900          41.400
 119149847.173 7  92844071.64146  22673453.495    22673452.5254   22673456.1544
        42.000          38.8004
 125470270.168 7  97588034.483 6  23447117.150    23447118.219    23447123.090
        45.700          40.900
 124858532.143 7  97292376.69744  23759783.672    23759782.4164   23759781.3784
        43.400          29.1004
 25  1  1 12  0 45.0000000  0 32G10E19E10R04S31S35G21S48S33E27R13E29
                                G23R19E07E21E30R15G12E33R20E26R14R05
                                G32E12G28G31R03G25R21G02
 108610899.917 8  84631890.25648  20667960.283    20667959.6574   20667961.5154
        51.700          52.3004
 130902906.337 6                  24909991.397
        40.400
 147948033.980 6                  28153569.494
        36.200
 107598762.221 8  83687978.458 8  20093308.024    20093308.183    20093313.482
        52.500          48.100
 198976819.791 7                  37864020.945
        45.600
 200950915.500 7                  38239693.838
        44.200
 120447368.868 7  93855106.43244  22920363.900    22920362.5954   22920362.3034
        42.500          29.2004
 412691093.864 5                  78532251.025
        32.400
 202091750.692 7                  38456745.207
        44.600
 140923349.298 6                  26816816.845
        41.200
 123254448.532 6                  23081586.996    23081586.591
        41.000
 123309251.058 8                  23464962.590
        48.600
 122455342.199 6  95419752.54444  23302474.319    23302473.8414   23302474.6704
        41.900          26.2004
 122678383.608 5  95416541.527 6  22933425.332    22933423.596    22933430.969
        35.500          40.500
 135295404.456 7                  25745854.081
        43.900
 151360312.782 5                  28802907.804
        34.500
 143124163.803 6                  27235615.778
        41.000
 116301380.480 8  90456678.275 7  21764211.836    21764211.754    21764218.351
        48.200          44.700
 126117758.895 6  98273590.09146  23999405.530    23999404.9044   23999405.5774
        41.400          36.2004
 127147377.549 7                  24195334.180
        47.400
 113796743.425 6  88508627.265 7  21280558.122    21280557.353    21280564.984
        39.800          46.600
 137485152.239 7                  26162554.771
        42.100
 108393122.343 8  84305811.923 7  20334263.434    20334263.806    20334269.124
        52.100          47.400
 111336966.157 8  86595429.275 7  20827875.844    20827876.383    20827881.971
        50.600          46.800
 109530997.714 8  85348843.90948  20843048.097    20843047.6014   20843049.3674
        52.100          52.4004
 139476216.711 6                  26541437.384
        39.900
 110204058.150 7  85873300.72846  20971130.122    20971129.7564   20971129.1694
        47.700          38.8004
 118954775.674 7  92692033.51346  22636341.521    22636341.0434   22636341.0574
        44.600          40.7004
 122225479.879 7  95064295.969 6  22832742.339    22832742.937    22832748.601
        46.400          41.600
 119122048.865 7  92822410.63546  22668164.194    22668163.2244   22668166.2204
        42.200          38.8004
 125433100.477 7  97559124.843 6  23440170.075    23440171.111    23440177.467
        45.000          40.000
 124837712.924 7  97276153.96044  23755821.623    23755820.3544   23755819.8114
        43.400          29.1004
 25  1  1 12  1  0.0000000  0 32G10E19E10R04S31S35G21S48S33E27R13E29
                                G23R19E07E21E30R15G12E33R20E26R14R05
                                G32E12G28G31R03G25R21G02
 108627119.910 8  84644529.20648  20671046.919    20671046.2984   20671048.0884
        51.500          52.2004
 130880078.126 6                  24905647.341
        40.300
 147910734.459 6                  28146471.947
        36.200
 107608694.455 8  83695703.516 8  20095162.858    20095163.030    20095168.342
        52.300          48.100
 198976827.701 7                  37864023.879
        45.700
 200950903.530 7                  38239688.668
        44.400
 120446776.776 7  93854645.05544  22920251.479    22920250.1834   22920249.7794
        42.600          29.3004
 412691145.567 5                  78532249.514
        31.700
 202091759.284 7                  38456747.608
        44.600
 140887957.378 6                  26810082.342
        41.600
 123302711.601 6                  23090624.651    23090624.827
        41.200
 123310828.085 8                  23465262.683
        48.800
 122502289.488 6  95456334.81544  23311408.512    23311408.0304   23311408.7304
        41.700          26.3004
 122740989.074 5  95465234.638 6  22945128.155    22945127.679    22945134.672
        35.400          40.800
 135323477.175 7                  25751196.175
        44.200
 151320195.688 5                  28795273.827
        34.800
 143117023.041 6                  27234256.944
        41.300
 116241745.005 8  90410295.155 7  21753051.510    21753052.520    21753058.250
        48.900          45.000
 126116905.595 7  98272925.37345  23999243.266    23999242.6404   23999242.9354
        42.600          35.9004
 127165459.596 7                  24198775.277
        47.500
 113809815.353 6  88518794.313 7  21283001.375    21283001.698    21283009.620
        39.400          46.700
 137530891.478 7                  26171258.799
        42.400
 108382191.940 8  84297310.499 7  20332213.189    20332213.210    20332218.724
        52.100          47.600
 111310097.095 8  86574531.145 7  20822849.777    20822849.962    20822855.201
        50.600          46.500
 109534923.196 8  85351902.73048  20843795.160    20843794.6644   20843796.3654
        52.000          52.3004
 139451226.065 6                  26536681.484
        40.300
 110174348.857 7  85850150.60246  20965476.769    20965476.3984   20965475.6564
        47.300          38.7004
 118901585.093 7  92650586.30146  22626219.747    22626219.2564   22626219.3744
        44.700          40.9004
 122262572.106 7  95093145.402 6  22839671.006    22839671.447    22839677.081
        45.700          41.500
 119094365.341 7  92800839.04746  22662896.077    22662895.1254   22662898.0274
        42.500          38.8004
 125396087.831 7  97530337.270 6  23433253.204    23433254.204    23433261.257
        43.400          40.900
 124817011.026 7  97260022.61544  23751882.254    23751880.9804   23751880.1104
        43.800          29.2004
 25  1  1 12  1 15.0000000  0 32G10E19E10R04S31S35G21S48S33E27R13E29
                                G23R19E07E21E30R15G12E33R20E26R14R05
                                G32E12G28G31R03G25R21G02
 108643453.425 8  84657256.61948  20674155.148    20674154.5274   20674156.2504
        51.400          52.1004
 130857281.827 6                  24901309.161
        40.000
 147873496.044 6                  28139385.536
        36.000
 107618685.502 8  83703474.332 7  20097028.314    20097028.783    20097033.939
        52.200          47.900
 198976838.223 7                  37864026.244
        45.700
 200950894.333 7                  38239688.910
        44.000
 120446307.481 7  93854279.36644  22920162.094    22920160.7934   22920160.6114
        42.600          28.9004
 412691200.973 5                  78532241.071
        32.500
 202091770.518 7                  38456750.765
        44.800
 140852608.786 6                  26803355.618
        41.400
 123351102.237 6                  23099686.918    23099686.181
        40.100
 123312442.830 8                  23465569.752
        48.500
 122549298.095 6  95492964.84844  23320353.950    23320353.4544   23320354.5834
        41.400          26.0004
 122803629.291 5  95513954.746 6  22956837.228    22956837.092    22956843.969
        35.600          40.000
 135351559.223 7                  25756539.994
        44.000
 151280039.918 5                  28787631.762
        34.100
 143109985.229 6                  27232917.716
        41.000
 116182188.280 8  90363973.323 7  21741906.305    21741906.992    21741913.795
        48.600          45.200
 126116196.680 7  98272372.99046  23999107.552    23999106.9044   23999108.0134
        42.000          36.0004
 127183648.594 7                  24202236.423
        47.300
 113823085.499 6  88529115.526 7  21285484.200    21285483.748    21285491.076
        39.800          46.600
 137576664.108 6                  26179968.913
        41.800
 108371464.101 8  84288966.598 7  20330200.658    20330200.864    20330206.158
        52.500          47.600
 111283264.706 8  86553661.522 7  20817830.263    20817830.481    20817836.180
        51.200          47.000
 109538905.146 8  85355005.55148  20844552.930    20844552.4254   20844554.1094
        52.200          52.3004
 139426328.618 6                  26531943.592
        39.600
 110144760.611 7  85827094.81646  20959846.311    20959845.9454   20959845.2174
        47.400          38.6004
 118848464.061 7  92609193.29346  22616111.444    22616110.9534   22616110.6854
        44.600          40.8004
 122299696.332 7  95122019.740 6  22846606.545    22846606.831    22846612.612
        45.500          41.500
 119066797.520 7  92779357.62046  22657649.781    22657648.8114   22657652.0094
        42.100          38.7004
 125359233.745 7  97501673.192 6  23426367.363    23426367.521    23426373.532
        45.200          41.400
 124796427.527 7  97243983.56444  23747965.563    23747964.2804   23747962.9964
        42.800          29.4004
 25  1  1 12  1 30.0000000  0 32G10E19E10R04S31S35G21S48S33E27R13E29
                                G23R19E07E21E30R15G12E33R20E26R14R05
                                G32E12G28G31R03G25R21G02
 108659894.514 8  84670067.85948  20677283.691    20677283.0654   20677284.8524
        51.300          52.1004
 130834511.358 6                  24896976.132
        40.100
 147836312.554 6                  28132310.401
        36.300
 107628729.424 8  83711286.274 8  20098904.149    20098904.266    20098909.467
        52.200          48.100
 198976846.300 7                  37864028.873
        45.900
 200950882.216 7                  38239686.468
        44.500
 120445954.777 7  93854004.53844  22920094.545    22920093.2354   22920093.5594
        42.600          28.8004
 412691253.836 5                  78532239.770
        32.500
 202091778.848 7                  38456752.178
        45.000
 140817297.763 6                  26796636.032
        41.100
 123399613.870 6                  23108772.021    23108771.798
        40.500
 123314089.272 8                  23465883.226
        48.400
 122596361.843 6  95529637.85044  23329310.043    23329309.5704   23329310.6304
        41.900          25.8004
 122866297.328 5  95562696.496 6  22968552.626    22968552.466    22968559.740
        35.100          40.300
 135379644.504 7                  25761884.494
        43.500
 151239839.664 5                  28779981.882
        34.300
 143103044.469 6                  27231597.267
        41.000
 116122704.495 8  90317708.168 7  21730775.344    21730775.585    21730781.127
        49.300          44.700
 126115626.692 6  98271928.89746  23998999.841    23998999.2024   23998999.5274
        41.000          36.0004
 127201938.438 7                  24205716.802
        47.600
 113836547.587 6  88539586.068 7  21288001.519    21288000.977    21288008.854
        39.500          46.600
 137622463.854 7                  26188684.415
        42.300
 108360933.076 8  84280775.814 7  20328225.271    20328225.041    20328230.282
        52.200          47.500
 111256462.630 8  86532815.478 7  20812816.608    20812816.603    20812821.953
        51.600          47.000
 109542937.543 8  85358147.66848  20845320.321    20845319.8164   20845321.4484
        52.200          52.1004
 139401518.549 6                  26527222.281
        39.700
 110115287.559 7  85804128.79346  20954237.636    20954237.2794   20954236.6894
        47.500          38.5004
 118795406.664 7  92567849.88346  22606014.804    22606014.3174   22606014.1284
        44.700          40.8004
 122336845.915 7  95150913.766 6  22853547.193    22853546.749    22853552.714
        46.100          41.500
 119039339.767 7  92757961.96646  22652424.834    22652423.8604   22652427.0524
        42.500          38.5004
 125322531.968 7  97473127.485 6  23419508.315    23419507.699    23419515.132
        44.100          41.300
 124775956.359 7  97228032.00544  23744070.569    23744069.2954   23744067.5384
        43.100          29.2004
 25  1  1 12  1 45.0000000  0 32G10E19E10R04S31S35G21S48S33E27R13E29
                                G23R19E07E21E30R15G12E33R20E26R14R05
                                G32E12G28G31R03G25R21G02
 108676444.308 8  84682963.79648  20680433.151    20680432.5344   20680434.1764
        51.500          52.0004
 130811767.929 6                  24892648.536
        40.400
 147799185.480 6                  28125245.013
        36.500
 107638827.187 8  83719140.087 8  20100790.249    20100790.169    20100795.222
        52.800          48.000
 198976851.558 7                  37864029.817
        45.600
 200950868.278 7                  38239682.059
        44.200
 120445719.674 7  93853821.35144  22920050.691    22920049.3684   22920048.8564
        42.800          28.9004
 412689705.417 5                  78532229.749
        32.400
 202091784.992 7                  38456752.241
        44.600
 140782025.661 6                  26789924.000
        41.500
 123448246.916 6                  23117878.219    23117878.370
        40.100
 123315768.391 8                  23466202.900
        48.500
 122643481.687 6  95566354.56644  23338276.439    23338275.9794   23338277.3824
        41.400          25.8004
 122928994.328 5  95611460.797 6  22980272.725    22980273.152    22980280.543
        35.900          40.700
 135407734.150 7                  25767229.929
        43.700
 151199596.343 5                  28772324.214
        35.200
 143096201.583 6                  27230294.813
        40.700
 116063295.620 8  90271501.327 7  21719657.302    21719657.835    21719664.128
        48.800          45.200
 126115196.711 7  98271593.91945  23998917.850    23998917.2114   23998917.7234
        42.500          35.9004
 127220330.125 7                  24209216.721
        47.700
 113850202.540 6  88550206.554 7  21290554.319    21290554.202    21290562.003
        39.300          46.700
 137668291.584 7                  26197404.944
        42.400
 108350599.946 8  84272738.909 7  20326286.758    20326286.562    20326291.888
        52.000          47.400
 111229692.472 8  86511994.271 7  20807808.209    20807808.506    20807814.075
        50.600          46.800
 109547021.399 8  85361329.88648  20846097.343    20846096.8294   20846098.6124
        52.300          52.3004
 139376797.108 6                  26522518.486
        39.800
 110085930.972 7  85781253.54546  20948651.501    20948651.1534   20948650.3674
        47.200          38.5004
 118742414.264 7  92526557.10046  22595930.570    22595930.0884   22595930.1674
        44.400          40.9004
 122374022.519 7  95179828.864 6  22860490.982    22860491.192    22860497.555
        45.500          41.700
 119011993.532 6  92736653.21946  22647221.199    22647220.2294   22647223.4304
        41.800          38.4004
 125285984.038 7  97444701.409 6  23412677.520    23412677.546    23412685.337
        43.400          40.800
 124755598.825 7  97212169.03044  23740196.295    23740195.0304   23740193.6994
        43.500          29.2004
 25  1  1 12  2  0.0000000  0 32G10E19E10R04S31S35G21S48S33E27R13E29
                                G23R19E07E21E30R15G12E33R20E26R14R05
                                G32E12G28G31R03G25R21G02
 108693106.136 8  84695947.03948  20683603.704    20683603.0834   20683604.8294
        51.500          52.0004
 130789054.429 6                  24888326.058
        40.200
 147762118.705 5                  28118191.856
        35.100
 107648982.424 8  83727038.610 8  20102686.060    20102686.696    20102691.530
        52.600          48.100
 198976858.145 7                  37864029.580
        45.600
 200950855.066 7                  38239681.536
        44.200
 120445605.513 7  93853732.39644  22920028.774    22920027.4374   22920027.0524
        42.900          28.6004
 412689758.595 5                  78532234.145
        32.400
 202091792.632 7                  38456753.542
        44.600
 140746796.062 6                  26783220.116
        41.400
 123497004.612 6                  23127010.265    23127009.248
        39.600
 123317483.454 8                  23466529.078
        48.400
 122690660.801 6  95603117.46244  23347254.119    23347253.6544   23347255.2744
        40.600          25.9004
 122991722.713 5  95660249.513 6  22991999.199    22991999.772    22992006.152
        35.500          39.600
 135435831.400 7                  25772576.668
        43.600
 151159313.315 5                  28764658.248
        34.600
 143089460.242 6                  27229012.350
        40.900
 116003965.319 8  90225355.563 7  21708555.105    21708554.971    21708560.807
        49.100          44.700
 126114909.959 6  98271370.38745  23998862.556    23998861.9084   23998862.9954
        40.900          35.8004
 127238826.811 7                  24212736.294
        47.100
 113864053.653 6  88560979.616 7  21293144.242    21293145.006    21293152.329
        39.500          46.400
 137714150.417 7                  26206132.007
        42.100
 108340468.225 8  84264858.615 7  20324386.505    20324386.002    20324391.265
        52.000          47.500
 111202957.397 8  86491200.311 7  20802807.093    20802807.537    20802812.829
        51.800          46.900
 109551160.009 8  85364554.76548  20846885.075    20846884.5574   20846886.1854
        52.200          52.3004
 139352167.729 6                  26517831.208
        40.200
 110056694.231 7  85758471.66846  20943087.814    20943087.4704   20943086.8064
        47.500          38.5004
 118689490.538 7  92485317.83746  22585859.443    22585858.9564   22585859.0144
        44.300          40.9004
 122411229.470 7  95208767.521 6  22867442.540    22867442.535    22867448.419
        46.100          41.900
 118984762.468 6  92715434.20546  22642039.560    22642038.5904   22642041.4544
        41.700          38.5004
 125249593.713 7  97416397.866 6  23405877.988    23405877.759    23405885.425
        44.000          41.500
 124735358.381 7  97196397.28144  23736344.245    23736342.9854   23736342.0854
        43.300          29.3004
 25  1  1 12  2 15.0000000  0 32G10E19E10R04S31S35G21S48S33E27R13E29
                                G23R19E07E21E30R15G12E33R20E26R14R05
                                G32E12G28G31R03G25R21G02
 108709879.266 8  84709017.00848  20686795.410    20686794.7894   20686796.6514
        51.500          52.1004
 130766370.439 6                  24884009.963
        40.400
 147725111.579 5                  28111149.942
        35.600
 107659194.263 8  83734981.185 8  20104593.328    20104593.543    20104598.811
        52.700          48.200
 198976865.253 7                  37864029.549
        45.400
 200950842.275 7                  38239679.873
        44.000
 120445611.467 7  93853737.03844  22920029.579    22920028.2384   22920027.8804
        42.700          28.6004
 412689812.570 5                  78532224.629
        32.200
 202091800.726 7                  38456755.680
        44.500
 140711608.450 6                  26776524.081
        41.500
 123545885.226 6                  23136163.580    23136162.539
        39.600
 123319233.643 8                  23466862.126
        48.500
 122737898.223 6  95639925.79944  23356243.710    23356243.2544   23356244.2144
        40.500          25.6004
 123054481.160 6  95709061.636 6  23003732.443    23003732.764    23003738.831
        36.100          40.200
 135463935.454 7                  25777924.643
        44.000
 151118989.970 5                  28756985.508
        35.100
 143082819.832 6                  27227747.921
        41.400
 115944713.602 8  90179270.953 7  21697465.968    21697466.523    21697473.549
        48.700          45.100
 126114765.875 6  98271257.91145  23998836.156    23998835.5224   23998835.6694
        41.800          35.9004
 127257427.636 7                  24216276.133
        47.400
 113878099.614 6  88571904.260 7  21295772.064    21295771.557    21295779.068
        39.600          46.500
 137760039.294 7                  26214864.255
        42.100
 108330537.385 8  84257134.592 7  20322522.971    20322523.025    20322528.459
        52.100          47.400
 111176256.941 8  86470433.335 7  20797812.344    20797812.444    20797817.978
        51.000          47.100
 109555352.491 8  85367821.60648  20847682.766    20847682.2484   20847684.0214
        52.300          52.2004
 139327629.807 6                  26513161.620
        40.200
 110027576.744 7  85735782.72046  20937547.124    20937546.7894   20937545.9114
        47.100          38.5004
 118636635.138 7  92444131.82346  22575801.380    22575800.8894   22575800.8234
        44.700          41.0004
 122448465.763 7  95237729.019 6  22874398.064    22874398.439    22874404.498
        45.500          41.600
 118957646.104 6  92694304.56346  22636879.058    22636878.0934   22636881.2464
        41.900          38.5004
 125213360.642 7  97388216.594 6  23399107.221    23399107.092    23399114.173
        45.100          41.600
 124715234.362 7  97180716.26844  23732515.084    23732513.8284   23732512.5034
        43.500          29.1004
 25  1  1 12  2 30.0000000  0 32G10E19E10R04S31S35G21S48S33E27R13E29
                                G23R19E07E21E30R15G12E33R20E26R14R05
                                G32E12G28G31R03G25R21G02
 108726766.933 8  84722176.23248  20690009.136    20690008.5194   20690010.2504
        51.400          52.1004
 130743718.821 6                  24879699.042
        40.500
 147688167.518 5                  28104119.780
        35.900
 107669466.129 8  83742970.419 8  20106511.174    20106511.601    20106517.164
        52.600          48.300
 198976875.885 7                  37864031.091
        45.500
 200950833.421 7                  38239676.836
        43.900
 120445740.503 7  93853837.58844  22920053.966    22920052.6164   22920052.4564
        42.200          28.7004
 412689870.321 5                  78532220.037
        31.900
 202091812.629 7                  38456758.680
        44.400
 140676466.244 6                  26769836.480
        41.200
 123594891.763 6                  23145341.110    23145340.893
        40.700
 123321022.141 8                  23467202.546
        48.600
 122785197.004 6  95676781.92744  23365244.010    23365243.5414   23365244.8174
        41.000          25.4004
 123117272.624 5  95757899.373 6  23015470.012    23015469.910    23015477.373
        35.400          40.500
 135492049.457 7                  25783274.552
        43.900
 151078629.799 5                  28749304.805
        35.800
 143076283.552 6                  27226504.151
        41.600
 115885544.047 8  90133250.217 7  21686393.492    21686393.761    21686399.866
        49.500          44.900
 126114767.935 7  98271259.40146  23998837.011    23998836.3774   23998836.3804
        42.300          36.0004
 127276135.684 7                  24219836.168
        47.600
 113892343.933 6  88582983.171 7  21298434.394    21298435.137    21298442.760
        39.400          46.200
 137805961.178 7                  26223602.740
        42.500
 108320810.999 8  84249569.605 7  20320698.366    20320698.639    20320703.795
        52.500          47.400
 111149594.133 8  86449695.588 7  20792824.450    20792824.649    20792830.236
        51.300          47.100
 109559602.109 8  85371132.99848  20848491.450    20848490.9324   20848492.7184
        51.900          52.2004
 139303186.831 6                  26508510.268
        39.900
 109998581.857 7  85713189.31646  20932029.375    20932029.0454   20932028.3494
        47.400          38.6004
 118583851.414 7  92403001.67946  22565756.674    22565756.1924   22565756.4414
        44.400          41.0004
 122485734.971 7  95266716.095 6  22881360.516    22881360.876    22881367.123
        46.300          41.800
 118930648.033 6  92673267.09946  22631741.703    22631740.7474   22631743.6434
        41.800          38.5004
 125177288.863 7  97360160.974 6  23392365.156    23392366.126    23392372.799
        44.800          41.400
 124695230.111 7  97165128.54344  23728708.207    23728706.9554   23728705.7884
        43.200          29.5004
 25  1  1 12  2 45.0000000  0 32G10E19E10R04S31S35G21S48S33E27R13E29
                                G23R19E07E21E30R15G12E33R20E26R14R05
                                G32E12G28G31R03G25R21G02
 108743760.141 8  84735417.69648  20693242.912    20693242.2914   20693243.9534
        51.800          52.0004
 130721090.737 6                  24875393.214
        40.300
 147651277.691 6                  28097099.221
        37.100
 107679788.757 8  83750999.127 8  20108439.097    20108439.465    20108444.581
        52.600          48.200
 198976881.376 7                  37864035.044
        45.700
 200950819.140 7                  38239673.903
        44.200
 120445983.523 7  93854026.95544  22920100.319    22920098.9654   22920098.5894
        42.800          28.4004
 412689923.558 5                  78532221.137
        32.500
 202091819.327 7                  38456758.166
        44.700
 140641360.737 6                  26763156.423
        40.900
 123644014.357 6                  23154540.239    23154539.875
        40.300
 123322839.754 8                  23467548.484
        48.300
 122832547.955 6  95713678.72144  23374254.546    23374254.0774   23374255.6374
        41.000          25.7004
 123180086.878 5  95806754.893 6  23027212.598    23027212.561    23027219.478
        35.600          39.800
 135520164.334 7                  25788624.763
        43.100
 151038223.877 5                  28741615.531
        34.500
 143069842.290 6                  27225278.758
        41.100
 115826448.109 8  90087286.767 7  21675334.325    21675334.625    21675341.217
        48.700          44.900
 126114907.110 6  98271367.76045  23998862.120    23998861.5084   23998862.8964
        40.800          35.6004
 127294941.759 7                  24223414.966
        47.100
 113906777.048 6  88594208.904 7  21301134.467    21301134.517    21301141.482
        39.700          46.200
 137851906.819 6                  26232346.001
        41.600
 108311279.803 8  84242156.436 7  20318910.362    20318910.598    20318915.638
        52.200          47.400
 111122959.819 8  86428980.022 7  20787842.210    20787842.349    20787847.579
        52.200          47.000
 109563899.674 8  85374481.74148  20849309.333    20849308.8194   20849310.5204
        52.200          52.3004
 139278829.949 6                  26503875.621
        40.100
 109969700.632 7  85690684.46346  20926533.435    20926533.0964   20926532.4344
        47.300          38.6004
 118531130.643 7  92361920.56746  22555724.536    22555724.0364   22555724.0474
        44.800          41.2004
 122523027.644 7  95295721.459 6  22888327.251    22888327.338    22888332.949
        46.100          41.600
 118903759.486 6  92652314.97546  22626624.658    22626623.6844   22626627.0024
        41.700          38.4004
 125141368.977 7  97332223.451 6  23385652.695    23385653.612    23385659.986
        45.300          41.200
 124675336.638 7  97149627.12744  23724923.082    23724921.8084   23724920.3274
        43.200          29.2004
 25  1  1 12  3  0.0000000  0 32G10E19E10R04S31S35G21S48S33E27R13E29
                                G23R19E07E21E30R15G12E33R20E26R14R05
                                G32E12G28G31R03G25R21G02
 108760868.102 8  84748748.57148  20696498.212    20696497.5824   20696499.5094
        51.700          51.9004
 130698495.305 6                  24871093.428
        40.300
 147614451.119 6                  28090091.683
        36.000
 107690171.627 8  83759074.673 8  20110377.813    20110378.133    20110383.557
        52.300          48.200
 198976890.223 7                  37864036.408
        45.600
 200950808.451 7                  38239672.544
        44.300
 120446349.426 7  93854312.06744  22920169.851    22920168.4924   22920168.3074
        42.700          28.3004
 412689981.722 5                  78532215.825
        32.400
 202091829.183 7                  38456762.593
        44.900
 140606301.298 6                  26756484.560
        41.100
 123693262.374 6                  23163762.220    23163761.742
        40.000
 123324695.662 8                  23467901.309
        48.400
 122879960.076 6  95750623.18844  23383276.960    23383276.4954   23383277.5924
        41.500          25.4004
 123242933.045 5  95855635.186 6  23038959.903    23038960.466    23038967.736
        35.400          39.900
 135548289.267 7                  25793976.647
        44.000
 150997781.636 6                  28733920.330
        36.100
 143063505.502 6                  27224072.701
        41.500
 115767435.658 8  90041388.247 7  21664291.147    21664291.680    21664297.875
        48.600          44.900
 126115192.586 6  98271590.10145  23998917.374    23998916.7484   23998917.1824
        41.400          35.1004
 127313854.919 7                  24227013.786
        47.300
 113921407.446 6  88605588.104 7  21303868.926    21303870.247    21303877.597
        39.400          46.400
 137897885.157 6                  26241095.573
        41.400
 108301953.240 8  84234902.402 7  20317160.738    20317160.879    20317166.143
        52.400          47.500
 111096363.933 8  86408294.354 7  20782866.242    20782866.632    20782872.205
        51.700          47.000
 109568254.330 8  85377874.97348  20850137.944    20850137.4264   20850139.2104
        52.100          52.2004
 139254568.315 6                  26499258.693
        40.300
 109940942.450 7  85668275.50546  20921061.098    20921060.7774   20921059.9734
        47.400          38.4004
 118478482.202 7  92320895.83346  22545705.668    22545705.1724   22545705.2884
        45.000          40.9004
 122560353.333 7  95324752.482 7  22895300.290    22895300.131    22895306.346
        46.300          42.300
 118876990.072 7  92631455.68046  22621531.179    22621530.2054   22621533.0514
        42.200          38.4004
 125105610.890 7  97304411.761 6  23378970.894    23378970.567    23378977.508
        43.700          41.100
 124655563.333 7  97134219.36844  23721160.275    23721159.0104   23721157.5514
        43.400          29.3004
 25  1  1 12  3 15.0000000  0 32G10E19E10R04S31S35G21S48S33E27R13E29
                                G23R19E07E21E30R15G12E33R20E26R14R05
                                G32E12G28G31R03G25R21G02
 108778084.480 8  84762163.92848  20699774.531    20699773.9014   20699775.6704
        51.400          51.8004
 130675925.915 6                  24866798.781
        40.200
 147577681.913 5                  28083094.881
        35.000
 107700608.328 8  83767192.091 8  20112327.370    20112327.250    20112332.487
        52.600          48.200
 198976896.991 7                  37864036.207
        45.300
 200950795.231 7                  38239669.735
        44.000
 120446832.323 7  93854688.35444  22920261.437    22920260.0874   22920260.2524
        42.100          28.3004
 412690037.842 5                  78532219.617
        32.200
 202091837.118 7                  38456763.255
        44.500
 140571281.872 6                  26749820.680
        40.800
 123742628.692 6                  23173009.049    23173007.421
        40.900
 123326583.458 8                  23468260.849
        48.200
 122927426.898 6  95787610.27144  23392309.769    23392309.2964   23392310.0014
        41.400          25.2004
 123305803.870 5  95904534.679 6  23050713.975    23050714.193    23050721.047
        35.400          39.800
 135576417.857 7                  25799329.413
        43.600
 150957296.999 5                  28726215.677
        35.300
 143057266.855 6                  27222885.836
        40.800
 115708500.754 8  89995550.047 7  21653261.954    21653262.200    21653268.939
        48.400          45.200
 126115618.168 6  98271921.62345  23998998.634    23998998.0134   23998998.2304
        41.300          35.2004
 127332868.741 7                  24230631.984
        47.100
 113936228.893 6  88617115.883 7  21306641.993    21306641.651    21306649.506
        39.300          46.100
 137943889.523 7                  26249849.910
        42.100
 108292825.065 8  84227802.686 7  20315448.148    20315448.369    20315453.739
        52.300          47.500
 111069799.282 8  86387632.945 7  20777897.283    20777897.295    20777902.440
        52.100          46.800
 109572659.722 8  85381307.75548  20850976.476    20850975.9674   20850977.5324
        52.100          52.1004
 139230395.886 6                  26494658.373
        40.100
 109912301.094 8  85645957.60146  20915610.748    20915610.4134   20915609.6694
        48.100          38.5004
 118425900.110 7  92279922.80846  22535699.966    22535699.4704   22535699.1154
        44.700          40.9004
 122597705.580 7  95353804.145 7  22902278.007    22902278.385    22902284.242
        46.600          42.100
 118850333.706 7  92610684.46446  22616458.537    22616457.5634   22616460.5274
        42.300          38.3004
 125070008.514 7  97276721.154 6  23372317.006    23372316.372    23372324.812
        43.700          41.700
 124635904.110 7  97118900.51244  23717419.120    23717417.8604   23717416.5424
        43.300          29.0004
 25  1  1 12  3 30.0000000  0 32G10E19E10R04S31S35G21S48S33E27R13E29
                                G23R19E07E21E30R15G12E33R20E26R14R05
                                G32E12G28G31R03G25R21G02
 108795411.860 8  84775665.77248  20703071.804    20703071.1704   20703072.9464
        51.600          52.0004
 130653385.215 6                  24862509.437
        40.700
 147540973.070 6                  28076109.918
        36.700
 107711101.571 8  83775353.515 8  20114286.557    20114286.612    20114291.979
        52.200          48.400
 198976904.356 7                  37864037.553
        45.600
 200950782.049 7                  38239667.661
        44.400
 120447434.672 6  93855157.71544  22920376.138    22920374.7934   22920374.9054
        41.900          28.3004
 412690094.537 5                  78532220.515
        32.500
 202091844.818 7                  38456766.662
        44.800
 140536305.256 6                  26743164.854
        41.300
 123792115.460 6                  23182273.995    23182274.063
        40.300
 123328505.612 8                  23468626.613
        48.500
 122974950.806 6  95824641.82944  23401353.330    23401352.8254   23401353.9524
        41.600          25.6004
 123368701.580 6  95953455.079 6  23062472.154    23062473.026    23062478.512
        36.100          39.200
 135604552.613 7                  25804683.354
        43.700
 150916772.590 5                  28718504.749
        35.800
 143051129.033 6                  27221717.953
        41.300
 115649646.540 8  89949774.594 7  21642248.612    21642249.166    21642254.461
        49.100          44.700
 126116186.507 6  98272364.43645  23999106.857    23999106.2364   23999106.6634
        40.900          35.4004
 127351985.604 7                  24234270.002
        47.500
 113951243.476 6  88628793.904 7  21309449.859    21309449.973    21309457.364
        39.900          46.100
 137989922.345 6                  26258609.764
        41.500
 108283897.825 8  84220859.197 7  20313774.243    20313773.871    20313779.166
        52.400          47.500
 111043269.209 8  86366998.454 7  20772933.943    20772934.237    20772939.618
        52.000          46.800
 109577118.331 8  85384782.00448  20851824.915    20851824.4104   20851825.9824
        52.100          52.3004
 139206315.422 6                  26490076.347
        39.900
 109883779.223 7  85623732.78946  20910182.728    20910182.3804   20910182.0854
        47.500          38.6004
 118373387.277 7  92239003.75846  22525706.685    22525706.1984   22525706.3094
        45.400          41.3004
 122635086.945 7  95382878.475 6  22909261.647    22909261.203    22909266.291
        46.400          41.500
 118823793.345 7  92590003.64046  22611407.696    22611406.7084   22611410.0534
        42.000          38.4004
 125034564.645 7  97249153.786 6  23365694.202    23365693.452    23365700.814
        44.300          40.900
 124616361.502 7  97103672.50644  23713700.609    23713699.3494   23713697.6014
        43.600          29.4004
 25  1  1 12  3 45.0000000  0 32G10E19E10R04S31S35G21S48S33E27R13E29
                                G23R19E07E21E30R15G12E33R20E26R14R05
                                G32E12G28G31R03G25R21G02
 108812853.759 8  84789256.85048  20706390.921    20706390.2914   20706392.0304
        51.500          51.9004
 130630876.748 6                  24858226.200
        40.400
 147504328.390 6                  28069136.685
        36.400
 107721654.916 8  83783561.655 8  20116257.555    20116257.453    20116262.829
        52.600          48.400
 198976914.068 7                  37864038.000
        45.400
 200950772.195 7                  38239665.161
        44.300
 120448159.872 7  93855722.82244  22920514.506    22920513.1654   22920513.0114
        42.600          28.4004
 412690154.948 5                  78532209.381
        31.900
 202091855.822 7                  38456764.838
        44.800
 140501375.232 6                  26736517.985
        41.300
 123841725.442 6                  23191565.200    23191564.767
        39.800
 123330465.551 8                  23468999.376
        48.500
 123022535.142 6  95861720.47944  23410407.764    23410407.2594   23410409.1224
        41.200          25.5004
 123431628.938 5  96002398.562 6  23074234.518    23074235.254    23074243.079
        34.800          40.200
 135632697.012 7                  25810038.904
        44.000
 150876212.198 5                  28710785.883
        35.000
 143045095.455 6                  27220569.707
        40.800
 115590877.252 8  89904065.185 7  21631250.842    21631250.548    21631257.060
        49.200          44.800
 126116901.318 7  98272921.47845  23999241.887    23999241.2574   23999242.7974
        42.300          35.4004
 127371208.915 7                  24237928.147
        47.400
 113966455.106 6  88640625.149 7  21312294.087    21312294.507    21312301.660
        40.200          46.000
 138035986.842 6                  26267375.549
        41.800
 108275175.529 8  84214075.126 7  20312137.305    20312137.503    20312142.838
        52.200          47.600
 111016777.092 8  86346393.465 7  20767978.385    20767978.512    20767983.916
        51.500          46.900
 109581633.596 8  85388300.39548  20852683.999    20852683.4904   20852685.2184
        52.400          52.2004
 139182330.489 6                  26485512.377
        39.800
 109855380.495 7  85601603.94846  20904779.028    20904778.6804   20904777.9604
        47.700          38.5004
 118320947.347 7  92198141.49346  22515728.013    22515727.5224   22515727.2124
        45.400          41.1004
 122672501.330 7  95411978.493 7  22916250.316    22916251.011    22916256.408
        46.300          42.200
 118797372.847 7  92569416.24346  22606380.255    22606379.2764   22606382.3174
        42.600          38.5004
 124999283.555 7  97221713.000 6  23359101.341    23359101.176    23359108.064
        45.200          41.500
 124596939.205 7  97088538.25444  23710004.307    23710003.0474   23710001.5144
        44.000          29.5004
 25  1  1 12  4  0.0000000  0 32G10E19E10R04S31S35G21S48S33E27R13E29
                                G23R19E07E21E30R15G12E33R20E26R14R05
                                G32E12G28G31R03G25R21G02
 108830403.661 8  84802932.07648  20709730.574    20709729.9404   20709731.6974
        51.400          51.6004
 130608394.028 6                  24853947.875
        40.500
 147467741.374 6                  28062174.367
        36.400
 107732261.764 8  83791811.418 8  20118238.049    20118238.275    20118243.404
        52.800          48.300
 198976921.177 7                  37864042.664
        45.200
 200950759.237 7                  38239663.019
        43.900
 120449001.316 7  93856378.48744  22920674.227    22920672.8864   22920673.0864
        42.400          28.1004
 412690212.413 5                  78532209.739
        31.900
 202091864.101 7                  38456767.664
        44.500
 140466485.444 6                  26729878.347
        40.900
 123891451.855 6                  23200877.980    23200878.168
        40.900
 123332456.666 8                  23469378.423
        48.300
 123070173.177 6  95898840.98544  23419473.346    23419472.8684   23419474.1424
        41.400          25.3004
 123494578.913 6  96051359.606 6  23086004.337    23086004.184    23086010.677
        36.000          39.400
 135660844.434 7                  25815395.233
        43.800
 150835609.469 5                  28703059.861
        34.900
 143039159.827 6                  27219440.052
        40.900
 115532186.748 8  89858417.060 7  21620267.367    21620267.461    21620273.651
        48.400          44.900
 126117755.852 6  98273587.37245  23999404.847    23999404.2354   23999405.3584
        41.100          35.1004
 127390531.956 7                  24241605.103
        47.200
 113981856.203 6  88652603.753 7  21315173.810    21315174.285    21315182.109
        39.700          46.200
 138082076.169 6                  26276145.988
        41.500
 108266651.366 8  84207445.167 7  20310538.445    20310538.393    20310543.683
        52.700          47.400
 110990316.229 8  86325812.836 7  20763028.109    20763028.318    20763033.812
        51.500          46.800
 109586198.876 8  85391857.75248  20853552.737    20853552.2324   20853553.9604
        52.300          52.1004
 139158434.753 6                  26480965.083
        40.000
 109827098.452 7  85579566.02446  20899397.082    20899396.7254   20899396.0584
        47.800          38.3004
 118268574.097 7  92157331.20546  22505761.805    22505761.3094   22505760.8334
        44.800          40.8004
 122709941.591 7  95441098.605 7  22923244.965    22923244.866    22923250.781
        46.200          42.400
 118771065.933 7  92548917.34446  22601374.062    22601373.0794   22601376.3004
        42.000          38.3004
 124964158.520 7  97194393.559 6  23352535.948    23352536.727    23352543.601
        44.800          40.700
 124577630.844 7  97073492.80344  23706330.385    23706329.1254   23706327.1604
        43.200          29.2004
 25  1  1 12  4 15.0000000  0 32G10E19E10R04S31S35G21S48S33E27R13E29
                                G23R19E07E21E30R15G12E33R20E26R14R05
                                G32E12G28G31R03G25R21G02
 108848062.957 8  84816692.56448  20713090.862    20713090.2284   20713092.1664
        51.400          51.6004
 130585938.068 6                  24849674.713
        40.800
 147431213.478 6                  28055223.080
        37.700
 107742923.416 8  83800103.808 8  20120229.175    20120229.394    20120234.510
        52.900          48.000
 198976926.805 7                  37864042.780
        45.400
 200950744.803 7                  38239662.626
        43.900
 120449959.938 7  93857125.46644  22920856.826    22920855.4944   22920855.4704
        42.300          27.6004
 412690268.869 5                  78532208.482
        31.500
 202091871.348 7                  38456769.180
        44.500
 140431637.530 6                  26723247.102
        40.900
 123941295.324 6                  23210211.811    23210212.068
        40.700
 123334480.237 8                  23469763.469
        48.500
 123117866.096 6  95936004.23844  23428549.011    23428548.5244   23428550.2714
        41.600          25.5004
 123557552.184 5  96100338.776 6  23097775.093    23097775.762    23097782.366
        35.800          39.400
 135688996.229 7                  25820752.311
        43.900
 150794965.802 5                  28695325.946
        35.800
 143033323.548 6                  27218329.662
        41.200
 115473576.924 8  89812831.704 7  21609299.237    21609298.960    21609306.088
        48.400          44.800
 126118751.464 6  98274363.13145  23999594.485    23999593.8824   23999594.6644
        41.200          35.1004
 127409955.970 7                  24245301.191
        47.200
 113997447.949 6  88664730.684 7  21318089.695    21318090.208    21318097.486
        39.200          46.100
 138128191.490 6                  26284921.419
        41.100
 108258327.072 8  84200970.684 7  20308977.250    20308976.831    20308982.175
        52.500          47.800
 110963888.097 8  86305257.622 7  20758084.386    20758084.756    20758089.709
        51.800          46.800
 109590815.473 8  85395455.08048  20854431.180    20854430.6754   20854432.4914
        52.100          52.0004
 139134629.725 6                  26476435.037
        40.000
 109798934.577 7  85557620.18246  20894037.453    20894037.0914   20894036.6264
        47.300          38.3004
 118216269.072 7  92116574.07446  22495808.315    22495807.8154   22495807.4314
        45.000          40.9004
 122747409.387 7  95470240.150 7  22930243.327    22930243.926    22930250.368
        46.200          42.400
 118744874.307 7  92528508.27846  22596390.224    22596389.2454   22596392.3104
        42.100          38.2004
 124929191.471 7  97167197.007 6  23346001.464    23346001.357    23346009.532
        44.600          41.900
 124558437.900 7  97058537.27344  23702677.855    23702676.6174   23702675.0524
        43.400          29.2004
 25  1  1 12  4 30.0000000  0 32G10E19E10R04S31S35G21S48S33E27R13E29
                                G23R19E07E21E30R15G12E33R20E26R14R05
                                G32E12G28G31R03G25R21G02
 108865840.658 8  84830545.31048  20716474.146    20716473.5124   20716475.1594
        51.100          51.7004
 130563517.879 6                  24845408.100
        40.700
 147394754.064 6                  28048284.865
        37.300
 107753649.157 8  83808446.062 8  20122231.820    20122232.324    20122237.520
        53.000          48.100
 198976938.990 7                  37864044.994
        45.500
 200950737.391 7                  38239661.329
        43.900
 120451045.052 7  93857971.01244  22921063.469    22921062.1284   22921062.0324
        42.000          28.0004
 412690332.468 5                  78532203.912
        32.100
 202091884.668 7                  38456774.004
        44.600
 140396840.726 6                  26716625.702
        41.500
 123991264.391 6                  23219569.256    23219568.428
        40.100
 123336545.171 8                  23470156.395
        48.600
 123165622.728 6  95973217.14044  23437637.159    23437636.6774   23437637.6684
        40.700          25.2004
 123620557.559 5  96149342.975 6  23109553.645    23109553.309    23109560.446
        34.400          39.200
 135717161.324 7                  25826112.202
        44.100
 150754290.426 5                  28687585.288
        35.500
 143027595.595 6                  27217239.717
        41.100
 115415057.422 8  89767316.608 7  21598348.045    21598348.671    21598354.544
        48.800          44.700
 126119897.478 6  98275256.16945  23999812.414    23999811.8114   23999812.9654
        41.300          35.6004
 127429489.814 7                  24249018.463
        47.300
 114013239.327 6  88677012.873 7  21321043.561    21321042.763    21321050.483
        38.600          46.000
 138174341.526 6                  26293703.863
        41.500
 108250211.652 8  84194658.669 7  20307454.603    20307454.440    20307459.677
        52.100          47.500
 110937502.053 8  86284735.154 7  20753148.010    20753148.282    20753153.739
        51.600          46.700
 109595492.381 8  85399099.41948  20855321.296    20855320.7914   20855322.5054
        52.100          52.2004
 139110924.555 6                  26471923.942
        39.700
 109770897.992 7  85535773.51746  20888702.610    20888702.2574   20888701.3814
        47.600          38.4004
 118164041.641 7  92075877.41146  22485869.310    22485868.8104   22485869.0044
        44.700          41.1004
 122784913.812 7  95499410.185 7  22937251.101    22937250.202    22937256.623
        45.900          42.300
 118718807.256 6  92508196.28446  22591429.958    22591428.9754   22591431.8544
        41.500          38.4004
 124894392.240 7  97140131.022 6  23339499.534    23339499.828    23339506.407
        45.200          41.000
 124539369.339 7  97043678.67744  23699049.063    23699047.8204   23699046.5134
        43.600          29.7004
 25  1  1 12  4 45.0000000  0 32G10E19E10R04S31S35G21S48S33E27R13E29
                                G23R19E07E21E30R15G12E33R20E26R14R05
                                G32E12G28G31R03G25R21G02
 108883721.151 8  84844478.16448  20719876.785    20719876.1594   20719877.7064
        51.400          51.8004
 130541117.982 6                  24841145.531
        40.800
 147358347.640 6                  28041356.699
        37.400
 107764423.214 8  83816825.874 8  20124244.123    20124244.433    20124249.504
        52.900          48.100
 198976943.480 7                  37864046.210
        45.600
 200950721.629 7                  38239657.269
        44.200
 120452240.944 7  93858902.87744  22921290.770    22921289.4204   22921289.6064
        42.100          27.9004
 412690388.515 5                  78532197.200
        32.300
 202091890.485 7                  38456775.113
        44.800
 140362079.635 6                  26710010.408
        41.300
 124041342.833 6                  23228947.528    23228947.174
        39.800
 123338635.822 8                  23470554.233
        48.500
