     2.11           OBSERVATION DATA    M (MIXED)           RINEX VERSION / TYPE
teqc  2019Feb25                         20260317 16:20:09UTCPGM / RUN BY / DATE
Linux 2.4.21-27.ELsmp|Opteron|gcc -static|Linux 64|=+       COMMENT
BIT 2 OF LLI FLAGS DATA COLLECTED UNDER A/S CONDITION       COMMENT
-Unknown-                                                   MARKER NAME
-Unknown-           -Unknown-                               OBSERVER / AGENCY
-Unknown-           -Unknown-           -Unknown-           REC # / TYPE / VERS
-Unknown-           -Unknown-                               ANT # / TYPE
        0.0000        0.0000        0.0000                  APPROX POSITION XYZ
        0.0000        0.0000        0.0000                  ANTENNA: DELTA H/E/N
     1     1                                                WAVELENGTH FACT L1/2
     7    L1    L2    C1    P1    P2    S1    S2            # / TYPES OF OBSERV
 SNR is mapped to RINEX snr flag value [0-9]                COMMENT
  L1 & L2: min(max(int(snr_dBHz/6), 0), 9)                  COMMENT
  2025     1     1    23     0    0.0000000     GPS         TIME OF FIRST OBS
    18                                                      LEAP SECONDS
                                                            END OF HEADER
 25  1  1 23  0  0.0000000  0 32E03E05G17S31S35G07G15E33E25S48S33G30
                                E11E31R13G06G24E12R23E10R04R11G21G03
                                E24R21G13G14G02R12G19R22
 146458151.532 6                  27870052.753
        38.100
 137235253.487 6                  26115021.654
        37.200
 107360682.327 8  83657861.01248  20429978.644    20429977.9964   20429978.8124
        49.500          51.5004
 198973861.647 7                  37863474.929
        45.300
 200894037.177 7                  38228876.898
        43.900
 130862834.323 5 101971033.45344  24902390.322    24902389.6344   24902403.6254
        35.400          24.5004
 134471470.278 6 104782958.03944  25589081.884    25589081.4374   25589088.5104
        37.500          24.4004
 133700042.629 7                  25442201.834
        43.700
 138984420.875 6                  26447839.293
        41.400
 413005530.320 5                  78592143.764
        32.400
 202132045.652 7                  38464431.081
        44.800
 117861204.975 7  91839920.34346  22428244.480    22428243.5594   22428251.0774
        43.200          40.9004
 138912817.775 6                  26434190.106
        37.500
 130209034.889 7                  24777905.381
        44.500
 118308264.158 7                  22155333.778    22155334.190
        42.800
 121315006.766 7  94531302.10246  23085437.326    23085436.9554   23085446.2374
        42.400          39.3004
 127004095.999 6  98964263.65945  24168073.200    24168072.8254   24168077.2184
        38.600          31.8004
 126998995.735 7                  24167029.663
        43.400
 114275945.831 8                  21362632.800    21362632.789
        48.000
 130056078.268 7                  24748784.387
        45.700
 131503639.761 6 102280636.103 6  24557383.755    24557384.019    24557393.929
        40.700          37.700
 111444566.280 8  86679262.572 7  20855286.029    20855286.167    20855293.738
        50.700          47.100
 132397695.450 5 103167198.19842  25194380.558    25194379.2894   25194381.7484
        33.000          15.2004
 126255392.742 6  98380922.80745  24025572.641    24025572.2754   24025581.2324
        36.400          31.9004
 125147852.729 7                  23814780.100
        47.700
 114444103.211 8  89012298.459 7  21386551.809    21386552.549    21386559.245
        51.700          46.400
 127341719.132 6  99227300.27343  24232340.459    24232339.8514   24232347.9574
        38.300          20.1004
 106068074.213 8  82650609.16246  20184020.858    20184020.5054   20184021.8504
        49.300          41.8004
 123085471.063 7  95910918.24245  23422318.262    23422317.0284   23422317.4494
        44.200          31.6004
 103499725.733 8  80499838.962 8  19375354.289    19375354.595    19375361.830
        51.900          48.100
 111079381.895 7  86555547.74946  21137620.755    21137619.3424   21137620.4094
        47.500          39.7004
 102144895.189 8  79446242.455 8  19135108.961    19135109.024    19135114.487
        52.600          50.800
 25  1  1 23  0 15.0000000  0 32E03E05G17S31S35G07G15E33E25S48S33G30
                                E11E31R13G06G24E12R23E10R04R11G21G03
                                E24R21G13G14G02R12G19R22
 146468838.829 6                  27872086.182
        37.200
 137269456.085 6                  26121530.175
        37.800
 107366168.046 8  83662135.61648  20431022.420    20431021.7724   20431022.6894
        49.500          51.4004
 198973864.978 7                  37863476.865
        45.500
 200894055.564 7                  38228882.255
        43.900
 130919923.821 6 102015518.73244  24913254.585    24913253.9554   24913267.6384
        36.800          25.7004
 134503319.758 6 104807775.68043  25595142.241    25595141.7944   25595149.0784
        37.200          20.0004
 133726608.450 7                  25447257.098
        43.900
 138951410.170 6                  26441557.627
        41.300
 413005779.233 5                  78592135.138
        32.500
 202132043.780 7                  38464431.014
        44.700
 117910279.159 7  91878159.86046  22437583.438    22437582.5174   22437589.6544
        43.900          40.9004
 138866257.062 6                  26425329.654
        38.000
 130230521.632 7                  24781994.267
        44.800
 118252818.041 7                  22144950.513    22144950.707
        43.100
 121260527.824 6  94488851.11246  23075069.707    23075069.3104   23075078.9724
        41.400          39.1004
 126962411.833 6  98931782.50345  24160141.574    24160141.2084   24160144.8824
        38.600          31.4004
 126981173.116 7                  24163638.062
        43.700
 114223762.929 8                  21352877.662    21352877.037
        48.000
 130020850.024 7                  24742080.513
        45.800
 131507304.045 6 102283486.034 6  24558068.766    24558069.345    24558078.664
        40.800          38.100
 111485540.225 8  86711131.158 7  20862953.464    20862953.868    20862961.252
        50.800          47.200
 132452832.731 5 103210162.33042  25204872.667    25204871.4474   25204874.1914
        33.500          16.0004
 126222153.938 6  98355022.60645  24019247.860    24019247.5164   24019255.6714
        37.000          32.3004
 125137826.397 7                  23812872.371
        47.900
 114496698.994 8  89053206.314 7  21396380.089    21396380.706    21396387.898
        51.000          46.200
 127380952.945 6  99257871.92243  24239806.920    24239806.3264   24239813.7254
        38.600          19.6004
 106074834.158 8  82655876.65446  20185307.022    20185306.6654   20185308.2244
        49.000          41.8004
 123129624.256 7  95945323.33745  23430720.291    23430719.0574   23430719.4724
        43.300          31.5004
 103479414.355 8  80484041.227 8  19371552.287    19371552.455    19371559.364
        52.600          48.100
 111053087.933 8  86535058.97546  21132617.435    21132616.0184   21132616.8244
        48.100          39.7004
 102140548.402 8  79442861.655 8  19134294.307    19134294.653    19134300.267
        52.800          50.900
 25  1  1 23  0 30.0000000  0 32E03E05G17S31S35G07G15E33E25S48S33G30
                                E11E31R13G06G24E12R23E10R04R11G21G03
                                E24R21G13G14G02R12G19R22
 146479624.317 6                  27874138.535
        37.800
 137303693.797 6                  26128045.530
        37.600
 107371730.410 8  83666469.94548  20432080.829    20432080.1864   20432081.1584
        49.700          51.5004
 198973874.284 7                  37863478.515
        45.600
 200894079.681 7                  38228885.783
        44.200
 130977019.519 5 102060008.87344  24924119.214    24924118.5934   24924132.2904
        35.600          24.8004
 134535232.035 6 104832642.23043  25601214.949    25601214.5164   25601222.1954
        36.000          21.1004
 133753263.671 7                  25452329.483
        44.000
 138918405.367 6                  26435277.258
        41.400
 413006032.104 5                  78592142.225
        32.500
 202132047.883 7                  38464431.958
        45.000
 117959425.403 7  91916455.48946  22446935.364    22446934.4574   22446941.9944
        43.500          40.7004
 138819732.006 6                  26416476.018
        38.000
 130252056.702 7                  24786091.957
        45.000
 118197407.691 7                  22134574.089    22134573.774
        42.400
 121206106.254 6  94446444.83846  23064714.330    23064713.9414   23064722.8694
        41.700          39.4004
 126920829.392 6  98899380.60945  24152228.369    24152228.0164   24152231.8634
        38.600          31.7004
 126963459.156 7                  24160267.100
        43.800
 114171694.728 7                  21343143.019    21343143.567
        47.900
 129985701.953 7                  24735392.040
        46.100
 131511143.742 6 102286472.336 6  24558785.186    24558786.043    24558795.760
        39.700          37.500
 111526636.669 8  86743095.017 7  20870643.927    20870644.514    20870651.428
        50.500          46.900
 132507994.435 5 103253145.49642  25215369.863    25215368.6474   25215371.2404
        34.000          16.0004
 126188997.005 6  98329186.19845  24012937.567    24012937.2234   24012946.0864
        38.600          32.8004
 125127846.117 8                  23810973.209
        48.100
 114549376.259 8  89094177.514 7  21406224.508    21406224.670    21406232.121
        51.000          46.100
 127420233.880 6  99288480.29643  24247281.893    24247281.2994   24247289.0394
        39.100          19.8004
 106081690.635 8  82661219.36946  20186611.976    20186611.6054   20186612.9634
        49.100          41.8004
 123173847.897 7  95979783.32645  23439135.858    23439134.6294   23439134.8824
        43.900          31.7004
 103459241.217 8  80468351.017 8  19367775.410    19367775.987    19367782.810
        52.200          48.000
 111026872.182 8  86514631.14646  21127628.596    21127627.1754   21127628.1174
        48.000          39.9004
 102136387.384 8  79439625.309 8  19133514.982    19133515.177    19133520.702
        52.700          50.600
 25  1  1 23  0 45.0000000  0 31E03E05G17S31S35G07E33E25S48S33G30E11
                                E31R13G06G24E12R23E10R04R11G21G03E24
                                R21G13G14G02R12G19R22
 146490499.775 6                  27876207.933
        38.200
 137337958.268 6                  26134566.171
        37.200
 107377360.972 8  83670857.40948  20433152.279    20433151.6364   20433152.6044
        49.700          51.3004
 198973881.067 7                  37863479.915
        45.600
 200894100.715 7                  38228890.594
        44.000
 131034113.254 6 102104497.48844  24934984.663    24934984.0604   24934996.6564
        36.000          24.3004
 133779999.953 7                  25457417.189
        44.100
 138885398.434 6                  26428995.706
        41.900
 413004682.857 5                  78592150.095
        33.000
 202132048.631 7                  38464430.111
        44.900
 118008635.334 7  91954800.72846  22456300.131    22456299.2334   22456306.4484
        43.500          40.5004
 138773234.670 6                  26407627.792
        38.500
 130273631.969 7                  24790197.924
        45.300
 118142025.530 6                  22124202.192    22124202.544
        41.600
 121151734.301 7  94404077.22246  23054367.245    23054366.8654   23054376.0264
        42.400          39.3004
 126879340.909 6  98867051.95345  24144333.249    24144332.9104   24144337.5664
        38.700          32.2004
 126945845.755 7                  24156915.464
        43.800
 114119733.314 7                  21333430.478    21333429.794
        47.100
 129950626.082 7                  24728717.400
        46.300
 131515151.245 6 102289589.353 6  24559534.709    24559535.308    24559544.216
        40.900          37.000
 111567847.139 8  86775147.603 7  20878356.154    20878356.310    20878363.743
        50.200          47.100
 132563172.746 5 103296141.57842  25225869.653    25225868.4014   25225871.3434
        33.400          15.7004
 126155914.208 6  98303407.57445  24006641.771    24006641.4274   24006650.9274
        38.200          33.0004
 125117903.884 8                  23809081.150
        48.400
 114602126.155 8  89135205.213 7  21416082.539    21416082.147    21416089.661
        50.900          46.100
 127459553.512 6  99319118.80043  24254763.657    24254763.0814   24254771.3834
        38.500          19.1004
 106088635.619 8  82666631.04546  20187933.653    20187933.2874   20187934.5694
        48.800          41.7004
 123218133.566 7  96014291.64345  23447562.905    23447561.6674   23447562.1154
        43.900          31.2004
 103439198.342 8  80452762.136 8  19364023.770    19364023.848    19364030.770
        52.200          48.200
 111000726.592 8  86494257.98746  21122653.308    21122651.8874   21122652.7304
        48.100          39.7004
 102132403.804 8  79436527.001 8  19132768.536    19132768.939    19132774.424
        52.500          50.600
 25  1  1 23  1  0.0000000  0 31E03E05G17S31S35G07E33E25S48S33G30E11
                                E31R13G06G24E12R23E10R04R11G21G03E24
                                R21G13G14G02R12G19R22
 146501464.442 6                  27878294.581
        37.500
 137372248.540 6                  26141091.650
        37.400
 107383059.199 8  83675297.60148  20434236.504    20434235.8614   20434236.9284
        49.700          51.4004
 198973884.199 7                  37863479.409
        45.500
 200894118.616 7                  38228893.697
        43.900
 131091203.855 6 102148983.64943  24945847.690    24945847.0474   24945860.7054
        36.600          23.7004
 133806816.478 7                  25462520.052
        43.900
 138852388.780 6                  26422714.269
        41.300
 413004929.823 5                  78592164.923
        32.500
 202132046.239 7                  38464431.931
        44.800
 118057908.009 7  91993194.89746  22465676.134    22465675.2404   22465682.8464
        44.000          40.6004
 138726764.648 6                  26398784.643
        38.000
 130295246.864 7                  24794310.688
        44.800
 118086670.989 7                  22113836.213    22113836.133
        42.400
 121097411.635 7  94361748.01346  23044029.809    23044029.4254   23044038.7484
        42.100          39.4004
 126837946.042 6  98834796.23045  24136456.379    24136456.0264   24136460.5174
        39.400          32.1004
 126928332.433 7                  24153582.862
        43.700
 114067878.201 7                  21323736.483    21323735.960
        47.400
 129915622.032 7                  24722056.285
        46.300
 131519325.071 6 102292835.696 6  24560311.563    24560313.187    24560323.656
        40.300          37.100
 111609170.903 8  86807288.266 7  20886089.219    20886089.400    20886097.181
        50.200          47.300
 132618366.370 5 103339149.58842  25236373.594    25236372.3424   25236374.3044
        34.000          15.6004
 126122905.320 6  98277686.52945  24000360.562    24000360.2454   24000369.2544
        37.200          32.4004
 125107999.169 8                  23807196.156
        48.400
 114654947.780 8  89176288.706 7  21425953.498    21425953.661    21425960.585
        51.200          46.100
 127498910.864 6  99349786.72743  24262252.981    24262252.3874   24262260.8234
        38.400          19.1004
 106095668.575 8  82672111.27046  20189272.112    20189271.7464   20189272.9214
        48.800          41.7004
 123262480.412 7  96048847.64245  23456001.709    23456000.4934   23456000.8504
        43.600          31.3004
 103419285.500 8  80437274.384 8  19360295.850    19360296.058    19360303.100
        52.200          48.200
 110974650.581 8  86473939.04546  21117691.094    21117689.6644   21117690.5574
        48.000          39.9004
 102128596.945 8  79433566.141 8  19132055.710    19132055.769    19132061.330
        52.400          50.500
 25  1  1 23  1 15.0000000  0 31E03E05G17S31S35G07E33E25S48S33G30E11
                                E31R13G06G24E12R23E10R04R11G21G03E24
                                R21G13G14G02R12G19R22
 146512524.549 6                  27880399.315
        38.400
 137406570.812 6                  26147623.459
        37.200
 107388831.322 8  83679795.37248  20435334.668    20435334.0294   20435335.3154
        49.200          51.2004
 198973890.914 7                  37863480.921
        45.600
 200894139.979 7                  38228898.303
        44.100
 131148297.349 5 102193472.06643  24956711.938    24956711.2814   24956724.9364
        35.600          23.4004
 133833719.425 7                  25467639.474
        44.100
 138819382.853 6                  26416433.854
        41.700
 413005178.154 5                  78592158.506
        32.700
 202132047.327 7                  38464432.637
        45.000
 118107249.431 7  92031642.62846  22475065.516    22475064.6314   22475072.4134
        43.200          40.3004
 138680328.564 6                  26389948.650
        38.500
 130316907.770 7                  24798433.126
        45.100
 118031351.501 7                  22103477.002    22103476.913
        42.600
 121043144.970 6  94319462.43446  23033702.909    23033702.5204   23033712.0324
        41.700          39.3004
 126796651.508 6  98802618.69345  24128598.829    24128598.4634   24128601.9714
        39.400          32.2004
 126910925.603 7                  24150270.340
        44.000
 114016136.357 7                  21314063.588    21314063.402
        47.400
 129880696.294 7                  24715409.914
        46.300
 131523671.672 6 102296216.280 6  24561125.454    24561126.204    24561135.264
        39.700          37.300
 111650614.205 8  86839521.929 7  20893845.054    20893845.134    20893852.620
        50.400          47.000
 132673581.269 5 103382174.18742  25246880.446    25246879.1634   25246881.5574
        33.100          15.9004
 126089977.073 6  98252028.32445  23994094.755    23994094.4384   23994102.9014
        38.100          32.4004
 125098138.440 8                  23805319.919
        48.400
 114707846.941 8  89217432.508 7  21435838.331    21435839.153    21435846.081
        51.300          46.300
 127538311.718 6  99380488.54643  24269750.732    24269750.1204   24269758.6564
        39.100          19.2004
 106102795.965 8  82677665.08246  20190628.276    20190627.9054   20190629.2324
        48.900          41.6004
 123306894.543 7  96083456.06245  23464453.907    23464452.7004   23464452.7624
        43.300          31.1004
 103399509.462 8  80421893.016 8  19356593.981    19356593.992    19356600.959
        52.500          48.300
 110948650.445 8  86453679.22746  21112743.471    21112742.0414   21112742.8684
        48.100          39.7004
 102124973.121 8  79430747.625 8  19131376.779    19131376.870    19131382.395
        52.700          50.500
 25  1  1 23  1 30.0000000  0 31E03E05G17S31S35G07E33E25S48S33G30E11
                                E31R13G06G24E12R23E10R04R11G21G03E24
                                R21G13G14G02R12G19R22
 146523675.956 6                  27882521.289
        38.400
 137440920.688 6                  26154159.420
        37.500
 107394673.087 8  83684347.41448  20436446.671    20436446.0324   20436446.9514
        49.400          51.1004
 198973896.665 7                  37863486.157
        45.500
 200894159.459 7                  38228899.479
        43.700
 131205389.213 6 102237959.21244  24967576.666    24967576.0054   24967589.1194
        36.100          24.4004
 133860704.527 7                  25472774.460
        44.400
 138786376.692 7                  26410152.666
        42.300
 413005427.745 5                  78592160.751
        32.600
 202132046.667 7                  38464430.187
        44.600
 118156655.243 7  92070140.53946  22484467.445    22484466.5784   22484474.1784
        43.700          40.3004
 138633922.553 6                  26381117.118
        38.200
 130338610.692 7                  24802562.650
        45.200
 117976062.839 6                  22093123.579    22093122.424
        41.800
 120988930.595 7  94277217.60346  23023386.438    23023386.0414   23023395.0824
        42.200          39.1004
 126755453.560 6  98770516.41245  24120758.440    24120758.0784   24120761.7014
        39.400          31.8004
 126893621.371 7                  24146977.516
        44.100
 113964503.890 7                  21304411.415    21304411.128
        47.000
 129845845.012 7                  24708777.932
        46.600
 131528187.038 6 102299728.176 5  24561968.591    24561969.637    24561978.147
        40.600          35.300
 111692172.908 8  86871845.329 7  20901621.702    20901622.265    20901629.680
        49.900          47.100
 132728813.037 5 103425211.93942  25257390.627    25257389.3534   25257391.7614
        34.600          15.6004
 126057125.802 6  98226430.11745  23987842.833    23987842.5164   23987851.3634
        38.100          32.6004
 125088317.754 8                  23803450.891
        48.500
 114760819.119 8  89258633.104 7  21445737.370    21445737.765    21445745.002
        50.600          46.200
 127577751.665 6  99411220.81443  24277255.979    24277255.3454   24277264.2934
        38.200          18.8004
 106110013.821 8  82683289.38846  20192001.891    20192001.5204   20192002.7534
        48.800          41.5004
 123351371.451 7  96118113.41245  23472917.247    23472916.0494   23472916.4484
        43.700          31.0004
 103379866.448 8  80406615.130 8  19352916.597    19352916.794    19352923.720
        52.600          48.300
 110922722.142 8  86433475.38646  21107809.685    21107808.2554   21107808.8664
        48.100          39.6004
 102121528.130 8  79428068.203 8  19130731.051    19130731.552    19130737.117
        52.700          50.600
 25  1  1 23  1 45.0000000  0 31E03E05G17S31S35G07E33E25S48S33G30E11
                                E31R13G06G24E12R23E10R04R11G21G03E24
                                R21G13G14G02R12G19R22
 146534920.055 6                  27884660.952
        38.300
 137475299.498 6                  26160701.571
        37.300
 107400586.063 8  83688954.94448  20437571.821    20437571.1824   20437572.1374
        49.600          51.5004
 198973902.737 7                  37863484.646
        45.300
 200894181.019 7                  38228905.476
        43.700
 131262480.641 5 102282446.02244  24978440.671    24978440.0374   24978453.2614
        35.600          24.2004
 133887773.161 7                  25477925.240
        44.600
 138753371.852 7                  26403871.735
        42.600
 413005677.017 5                  78592160.881
        32.200
 202132048.017 7                  38464432.378
        44.600
 118206126.630 7  92108689.54946  22493881.708    22493880.8414   22493888.3704
        43.500          40.5004
 138587548.360 6                  26372292.923
        38.500
 130360357.235 7                  24806700.969
        45.200
 117920807.090 7                  22082775.769    22082775.429
        42.800
 120934770.394 6  94235014.98746  23013079.872    23013079.4614   23013088.5154
        41.400          39.4004
 126714354.063 6  98738490.85845  24112937.224    24112936.8404   24112940.8874
        39.000          32.3004
 126876421.285 7                  24143704.456
        43.900
 113912982.618 7                  21294780.130    21294779.642
        47.600
 129811069.928 7                  24702160.192
        46.600
 131532872.513 6 102303372.359 5  24562843.139    24562844.537    24562853.678
        40.800          35.400
 111733848.285 8  86904259.502 7  20909420.594    20909421.173    20909428.936
        50.100          47.100
 132784063.033 5 103468263.90042  25267904.755    25267903.4414   25267905.8924
        34.200          16.2004
 126024353.467 6  98200893.39245  23981606.676    23981606.3554   23981614.6524
        38.000          32.9004
 125078538.769 8                  23801589.974
        48.500
 114813865.552 8  89299891.454 7  21455651.149    21455651.240    21455657.851
        50.700          46.300
 127617231.860 6  99441984.44743  24284769.958    24284769.3504   24284777.5224
        37.600          19.0004
 106117323.785 8  82688985.46846  20193393.005    20193392.6344   20193393.7634
        48.900          41.8004
 123395912.504 7  96152820.74445  23481393.293    23481392.1004   23481392.1184
        43.900          31.1004
 103360358.447 8  80391442.263 8  19349264.971    19349265.115    19349271.831
        52.700          48.400
 110896867.283 7  86413328.77446  21102889.374    21102887.9444   21102888.8564
        47.900          40.0004
 102118263.411 8  79425529.014 8  19130119.782    19130120.018    19130125.435
        52.400          50.600
 25  1  1 23  2  0.0000000  0 31E03E05G17S31S35G07E33E25S48S33G30E11
                                E31R13G06G24E12R23E10R04R11G21G03E24
                                R21G13G14G02R12G19R22
 146546255.989 6                  27886817.680
        38.200
 137509706.256 6                  26167249.207
        37.700
 107406569.484 8  83693617.36448  20438710.331    20438709.6884   20438710.7374
        49.300          51.3004
 198973909.354 7                  37863485.191
        45.700
 200894201.740 7                  38228911.208
        44.100
 131319570.926 5 102326931.94343  24989305.211    24989304.6084   24989317.6944
        34.700          22.9004
 133914924.366 7                  25483092.099
        44.500
 138720367.725 7                  26397591.382
        42.000
 413005923.454 5                  78592163.202
        32.600
 202132048.607 7                  38464432.432
        45.000
 118255662.521 7  92147288.82946  22503307.834    22503306.9544   22503314.8904
        43.000          40.3004
 138541205.484 6                  26363473.669
        38.800
 130382146.665 7                  24810847.470
        45.100
 117865583.973 7                  22072434.063    22072434.019
        42.800
 120880663.970 6  94192854.27146  23002783.535    23002783.1334   23002792.4394
        41.900          39.5004
 126673352.606 6  98706541.70145  24105135.031    24105134.6384   24105139.1984
        38.700          32.7004
 126859324.656 7                  24140451.142
        44.000
 113861572.186 7                  21285168.645    21285169.119
        47.100
 129776370.484 7                  24695557.339
        46.600
 131537727.365 6 102307148.246 5  24563750.105    24563751.029    24563759.825
        39.600          35.600
 111775639.421 8  86936763.697 7  20917241.226    20917241.647    20917249.174
        49.900          47.100
 132839330.208 5 103511329.20442  25278419.908    25278418.6074   25278422.5044
        33.200          14.4004
 125991659.729 6  98175417.92545  23975385.049    23975384.7284   23975392.8414
        38.200          32.6004
 125068800.842 8                  23799736.898
        48.500
 114866984.781 8  89341206.419 7  21465577.306    21465577.567    21465584.509
        51.100          46.300
 127656751.266 6  99472778.63243  24292289.877    24292289.2834   24292297.7854
        39.400          19.0004
 106124725.223 8  82694752.82846  20194801.300    20194800.9344   20194802.2174
        48.900          41.6004
 123440516.673 7  96187577.24745  23489881.265    23489880.0674   23489879.9954
        43.800          31.1004
 103340985.003 8  80376374.028 8  19345637.581    19345638.240    19345644.983
        52.900          48.500
 110871085.155 8  86393238.82946  21097983.505    21097982.0794   21097982.6634
        48.100          39.9004
 102115178.140 8  79423129.375 8  19129541.659    19129541.756    19129547.492
        52.600          50.600
 25  1  1 23  2 15.0000000  0 31E03E05G17S31S35G07E33E25S48S33G30E11
                                E31R13G06G24E12R23E10R04R11G21G03E24
                                R21G13G14G02R12G19R22
 146557680.683 6                  27888992.715
        37.200
 137544137.735 6                  26173801.082
        37.600
 107412620.447 8  83698332.41248  20439861.747    20439861.1044   20439862.1934
        49.100          51.3004
 198973912.034 7                  37863483.841
        45.500
 200894219.375 7                  38228914.826
        44.100
 131376656.786 5 102371414.42143  25000167.567    25000166.9194   25000180.9164
        34.500          22.0004
 133942154.934 7                  25488273.984
        44.900
 138687361.368 7                  26391310.761
        42.100
 413006166.423 5                  78592171.483
        32.400
 202132045.445 7                  38464433.755
        44.800
 118305259.597 7  92185935.79346  22512746.257    22512745.3864   22512753.0324
        43.600          40.2004
 138494891.190 6                  26354660.362
        38.800
 130403976.052 7                  24815001.239
        45.300
 117810390.600 7                  22062098.831    22062098.141
        42.400
 120826608.625 6  94150733.36446  22992497.171    22992496.7474   22992505.9014
        40.900          39.3004
 126632446.516 6  98674666.84645  24097351.326    24097350.9424   24097354.4924
        39.600          32.3004
 126842328.622 7                  24137216.664
        44.100
 113810269.809 7                  21275578.724    21275578.732
        47.100
 129741743.874 7                  24688968.328
        46.800
 131542748.742 6 102311053.713 5  24564687.980    24564688.473    24564697.328
        40.500          35.000
 111817543.145 8  86969355.444 7  20925083.438    20925083.411    20925091.152
        49.300          47.200
 132894611.087 5 103554405.21542  25288940.453    25288939.1844   25288941.9614
        34.000          16.1004
 125959041.965 6  98150001.65245  23969177.043    23969176.7304   23969185.9964
        38.300          33.3004
 125059101.094 8                  23797891.219
        48.600
 114920173.473 8  89382575.415 7  21475516.591    21475517.126    21475523.660
        50.500          46.100
 127696306.490 6  99503600.75043  24299816.194    24299815.6274   24299824.8274
        39.000          18.8004
 106132215.244 8  82700589.21046  20196226.609    20196226.2384   20196227.5564
        48.600          41.6004
 123485180.453 7  96222380.19545  23498380.256    23498379.0544   23498379.2754
        43.800          31.0004
 103321743.278 8  80361408.244 8  19342035.415    19342036.116    19342042.818
        52.500          48.400
 110845372.782 7  86373203.24646  21093090.361    21093088.9224   21093089.7074
        47.700          39.9004
 102112269.060 8  79420866.783 8  19128996.750    19128996.836    19129002.544
        52.100          50.600
 25  1  1 23  2 30.0000000  0 31E03E05G17S31S35G07E33E25S48S33G30E11
                                E31R13G06G24E12R23E10R04R11G21G03E24
                                R21G13G14G02R12G19R22
 146569200.126 6                  27891184.582
        38.700
 137578599.800 6                  26180359.613
        37.900
 107418744.276 8  83703104.24048  20441027.274    20441026.6404   20441027.5074
        49.400          51.1004
 198973918.338 7                  37863482.110
        45.800
 200894241.152 7                  38228917.898
        44.400
 131433744.156 6 102415898.07443  25011030.895    25011030.2164   25011044.0164
        36.500          22.9004
 133969470.881 7                  25493472.301
        44.800
 138654358.998 7                  26385030.540
        42.400
 413004812.837 5                  78592172.190
        32.500
 202132046.458 7                  38464431.640
        45.100
 118354923.675 7  92224634.97246  22522196.927    22522196.0514   22522203.8384
        43.000          40.0004
 138448611.795 6                  26345853.696
        39.200
 130425851.579 7                  24819164.084
        45.200
 117755234.097 7                  22051768.903    22051768.594
        42.200
 120772610.963 7  94108657.39246  22982221.487    22982221.0764   22982230.4834
        42.000          39.2004
 126591642.255 6  98642871.32645  24089585.320    24089584.9144   24089589.8604
        39.300          32.6004
 126825439.430 7                  24134003.002
        44.100
 113759082.097 7                  21266009.486    21266009.388
        47.400
 129707196.433 7                  24682393.891
        46.600
 131547942.590 6 102315093.417 6  24565658.212    24565659.388    24565668.184
        41.700          36.900
 111859565.598 8  87002039.552 7  20932947.432    20932947.761    20932955.185
        50.200          47.300
 132949911.637 5 103597496.56142  25299463.795    25299462.5574   25299465.6694
        34.400          16.1004
 125926506.729 6  98124649.67545  23962986.242    23962985.9384   23962994.5254
        38.700          32.7004
 125049445.776 8                  23796053.841
        48.700
 114973437.352 8  89424002.896 7  21485470.971    21485471.235    21485477.926
        51.000          46.400
 127735903.186 6  99534455.14743  24307351.557    24307350.9674   24307359.8104
        38.300          19.0004
 106139800.075 8  82706499.47346  20197670.020    20197669.6494   20197670.8974
        49.000          41.5004
 123529909.695 7  96257234.15845  23506891.934    23506890.7454   23506890.9914
        44.000          30.8004
 103302640.157 8  80346550.275 8  19338459.457    19338460.043    19338466.763
        52.600          48.400
 110819736.343 7  86353226.82946  21088211.905    21088210.4704   21088211.2514
        47.800          39.8004
 102109542.433 8  79418746.095 8  19128485.749    19128486.105    19128491.652
        52.300          50.600
 25  1  1 23  2 45.0000000  0 31E03E05G17S31S35G07E33E25S48S33G30E11
                                E31R13G06G24E12R23E10R04R11G21G03E24
                                R21G13G14G02R12G19R22
 146580811.017 6                  27893393.958
        37.700
 137613088.979 6                  26186922.353
        37.100
 107424937.483 8  83707930.12748  20442205.555    20442204.9124   20442206.0254
        50.000          51.2004
 198973924.883 7                  37863484.829
        45.700
 200894261.344 7                  38228922.530
        44.300
 131490829.451 5 102460380.12143  25021894.365    25021893.6724   25021906.8264
        34.300          22.3004
 133996868.789 7                  25498685.748
        44.100
 138621357.512 6                  26378750.756
        41.800
 413005058.485 5                  78592179.460
        32.600
 202132046.307 7                  38464434.560
        45.100
 118404651.221 7  92263383.61046  22531660.004    22531659.1154   22531666.6544
        44.000          40.0004
 138402364.373 6                  26337052.847
        38.800
 130447770.108 7                  24823335.453
        44.800
 117700111.097 7                  22041445.935    22041445.742
        42.300
 120718667.998 7  94066624.05446  22971956.543    22971956.1194   22971965.2524
        42.400          39.2004
 126550937.024 6  98611152.99245  24081840.213    24081839.7894   24081844.1554
        38.900          32.7004
 126808653.944 7                  24130808.535
        43.600
 113708006.270 7                  21256461.164    21256460.940
        47.200
 129672725.146 7                  24675834.221
        46.400
 131553305.065 6 102319264.066 6  24566659.201    24566660.334    24566669.658
        40.500          36.800
 111901703.335 8  87034813.324 7  20940832.935    20940833.087    20940840.909
        49.700          47.100
 133005228.380 5 103640600.53042  25309990.316    25309989.0644   25309991.7394
        34.000          15.2004
 125894051.275 6  98099359.86145  23956810.650    23956810.3374   23956818.4104
        38.300          33.0004
 125039831.815 8                  23794224.394
        48.200
 115026772.586 8  89465485.876 7  21495437.050    21495437.480    21495444.708
        50.300          46.400
 127775537.811 6  99565339.10443  24314894.324    24314893.7254   24314901.9534
        39.100          18.6004
 106147476.616 8  82712481.19946  20199130.829    20199130.4674   20199131.6824
        48.600          41.5004
 123574701.000 7  96292136.47945  23515415.450    23515414.2484   23515414.4094
        44.500          30.8004
 103283672.580 8  80331797.733 8  19334909.177    19334909.159    19334915.982
        52.500          48.400
 110794172.541 8  86333307.01546  21083347.427    21083346.0014   21083346.6094
        48.300          39.9004
 102106994.764 8  79416764.600 8  19128008.554    19128008.884    19128014.360
        52.400          50.600
 25  1  1 23  3  0.0000000  0 31E03E05G17S31S35G07E33E25S48S33G30E11
                                E31R13G06G24E12R23E10R04R11G21G03E24
                                R21G13G14G02R12G19R22
 146592512.312 6                  27895620.469
        37.700
 137647604.186 6                  26193490.682
        37.000
 107431199.406 8  83712809.55748  20443397.104    20443396.4524   20443397.6154
        49.900          51.2004
 198973929.469 7                  37863488.558
        45.800
 200894280.946 7                  38228925.017
        44.200
 131547911.621 6 102504859.73743  25032756.071    25032755.3964   25032769.6224
        36.900          23.0004
 134024347.602 7                  25503914.847
        44.100
 138588356.082 7                  26372470.634
        42.300
 413005302.787 5                  78592189.839
        33.000
 202132045.834 7                  38464429.440
        45.100
 118454441.016 7  92302180.75446  22541134.482    22541133.5884   22541141.3884
        43.300          39.8004
 138356148.191 6                  26328258.001
        38.600
 130469730.769 7                  24827514.050
        44.700
 117645021.407 7                  22031129.623    22031129.118
        42.000
 120664779.244 7  94024632.95646  22961702.015    22961701.5914   22961710.3824
        42.300          39.4004
 126510330.158 6  98579511.31345  24074113.260    24074112.8634   24074116.9144
        39.800          32.8004
 126791971.423 7                  24127633.969
        43.700
 113657041.481 7                  21246934.125    21246933.594
        47.400
 129638329.290 7                  24669288.923
        46.000
 131558836.020 6 102323565.862 6  24567692.060    24567693.091    24567702.652
        39.600          37.200
 111943955.303 8  87067675.941 7  20948740.084    20948740.065    20948747.493
        49.900          47.100
 133060560.229 5 103683716.25042  25320519.802    25320518.5464   25320521.0564
        35.300          14.8004
 125861675.043 6  98074131.78545  23950649.164    23950648.8474   23950657.2964
        38.300          33.1004
 125030258.439 8                  23792402.646
        48.300
 115080178.051 8  89507023.439 7  21505417.829    21505417.967    21505425.137
        50.700          46.500
 127815209.140 6  99596251.70043  24322443.549    24322442.9374   24322451.0004
        39.700          19.1004
 106155244.069 8  82718533.76546  20200609.033    20200608.6804   20200609.7504
        49.300          41.5004
 123619553.265 7  96327086.30745  23523950.187    23523948.9804   23523949.6014
        44.200          30.9004
 103264839.879 8  80317150.070 8  19331383.308    19331383.763    19331390.407
        52.800          48.300
 110768680.700 8  86313443.27346  21078496.482    21078495.0614   21078495.6274
        48.400          39.9004
 102104625.098 8  79414921.540 8  19127564.416    19127564.852    19127570.449
        52.600          50.600
 25  1  1 23  3 15.0000000  0 31E03E05G17S31S35G07E33E25S48S33G30E11
                                E31R13G06G24E12R23E10R04R11G21G03E24
                                R21G13G14G02R12G19R22
 146604303.588 6                  27897864.147
        38.400
 137682144.810 6                  26200063.666
        38.000
 107437529.590 8  83717742.17348  20444601.863    20444601.2204   20444602.1984
        49.900          51.4004
 198973933.255 7                  37863489.600
        45.600
 200894300.536 7                  38228924.520
        43.900
 131604989.924 5 102549336.33043  25043617.954    25043617.2794   25043631.2834
        35.400          23.3004
 134051906.776 7                  25509158.940
        44.400
 138555354.461 7                  26366190.474
        42.000
 413005544.726 5                  78592186.758
        32.600
 202132043.487 7                  38464426.923
        44.800
 118504292.357 7  92341025.86246  22550621.152    22550620.2674   22550627.8544
        43.100          40.0004
 138309963.161 6                  26319469.188
        38.300
 130491733.248 7                  24831701.061
        44.900
 117589964.788 7                  22020820.097    22020818.737
        42.400
 120610944.703 7  93982684.11446  22951457.208    22951456.7794   22951465.8454
        42.400          39.4004
 126469821.678 6  98547946.27145  24066404.925    24066404.5284   24066408.2894
        39.900          33.4004
 126775391.485 7                  24124478.618
        43.600
 113606187.834 7                  21237427.033    21237426.812
        47.400
 129604008.723 7                  24662757.779
        46.600
 131564534.413 6 102327997.815 6  24568757.008    24568757.288    24568766.782
        39.300          37.700
 111986321.046 8  87100627.031 7  20956667.638    20956668.095    20956675.694
        49.500          47.200
 133115906.572 5 103726843.30642  25331051.930    25331050.6434   25331053.3054
        34.900          16.1004
 125829378.065 6  98048965.44845  23944503.505    23944503.1924   23944511.4404
        38.500          33.2004
 125020725.385 8                  23790588.704
        48.400
 115133652.702 8  89548614.831 7  21515410.313    21515411.064    21515417.787
        50.700          46.300
 127854916.417 6  99627192.28043  24329999.925    24329999.3314   24330007.1304
        39.500          18.5004
 106163102.182 8  82724656.97846  20202104.111    20202103.7544   20202105.1234
        49.100          41.6004
 123664465.739 7  96362083.05745  23532496.972    23532495.7744   23532496.1464
        44.500          31.0004
 103246142.131 8  80302607.373 8  19327883.225    19327883.560    19327890.120
        52.900          48.400
 110743260.366 8  86293635.25446  21073658.974    21073657.5444   21073658.2754
        48.600          40.1004
 102102432.996 8  79413216.595 8  19127153.811    19127154.223    19127159.695
        52.200          50.800
 25  1  1 23  3 30.0000000  0 31E03E05G17S31S35G07E33E25S48S33G30E11
                                E31R13G06G24E12R23E10R04R11G21G03E24
                                R21G13G14G02R12G19R22
 146616191.686 6                  27900126.821
        38.000
 137716717.515 6                  26206642.537
        37.000
 107443934.669 8  83722733.15248  20445820.619    20445819.9714   20445821.0424
        50.000          51.4004
 198973943.101 7                  37863490.977
        45.800
 200894324.541 7                  38228930.535
        44.000
 131662070.596 6 102593814.78543  25054480.361    25054479.6684   25054492.9394
        36.200          21.7004
 134079553.047 7                  25514420.013
        44.400
 138522359.621 7                  26359911.706
        42.300
 413005791.976 5                  78592189.151
        32.700
 202132046.779 7                  38464430.527
        45.000
 118554211.876 7  92379924.08446  22560120.609    22560119.7464   22560127.3784
        43.000          39.9004
 138263816.474 6                  26310687.981
        38.600
 130513784.545 7                  24835897.206
        44.400
 117534948.824 6                  22010516.414    22010516.436
        41.700
 120557171.640 6  93940783.17246  22941224.251    22941223.8094   22941233.1414
        41.300          39.4004
 126429418.873 6  98516463.58645  24058715.429    24058715.0494   24058720.1524
        40.000          33.6004
 126758921.254 7                  24121344.886
        43.600
 113555452.548 8                  21227942.815    21227942.666
        48.000
 129569770.558 7                  24656242.374
        46.300
 131570407.414 6 102332565.584 5  24569853.789    24569854.105    24569863.876
        39.800          35.100
 112028807.320 8  87133671.891 7  20964618.805    20964618.909    20964626.570
        49.600          47.000
 133171273.717 5 103769986.53642  25341587.897    25341586.6324   25341589.3064
        35.400          16.6004
 125797167.726 6  98023866.61345  23938373.898    23938373.5814   23938381.8074
        38.900          33.2004
 125011239.746 8                  23788783.626
        48.300
 115187203.235 8  89590265.247 7  21525417.653    21525417.934    21525425.198
        50.500          46.400
 127894666.300 6  99658166.06943  24337564.135    24337563.5234   24337571.6404
        39.100          18.0004
 106171057.990 8  82730856.31846  20203618.074    20203617.7264   20203619.0674
        48.900          41.6004
 123709444.971 7  96397131.83345  23541056.411    23541055.2044   23541055.2114
        44.200          31.1004
 103227586.786 8  80288175.454 8  19324409.266    19324409.789    19324416.554
        52.300          48.500
 110717918.322 8  86273888.23946  21068836.411    21068834.9764   21068835.8454
        48.700          40.1004
 102100425.381 8  79411655.135 8  19126777.757    19126778.084    19126783.578
        52.300          50.700
 25  1  1 23  3 45.0000000  0 31E03E05G17S31S35G07E33E25S48S33G30E11
                                E31R13G06G24E12R23E10R04R11G21G03E24
                                R21G13G14G02R12G19R22
 146628161.777 6                  27902404.190
        38.500
 137751307.456 6                  26213225.309
        37.700
 107450400.153 8  83727771.20148  20447050.993    20447050.3414   20447051.3684
        49.900          51.4004
 198973943.190 7                  37863489.256
        45.500
 200894340.148 7                  38228935.284
        43.800
 131719138.946 6 102638283.64643  25065339.582    25065338.8764   25065352.2924
        36.300          22.9004
 134107271.590 7                  25519694.691
        44.100
 138489357.065 7                  26353631.947
        42.300
 413006030.759 5                  78592197.097
        32.400
 202132040.865 7                  38464430.545
        44.800
 118604184.590 7  92418863.76546  22569630.200    22569629.3374   22569637.0804
        43.400          39.7004
 138217693.669 6                  26301910.656
        38.200
 130535870.080 7                  24840099.898
        44.700
 117479959.036 7                  22000218.413    22000218.057
        42.100
 120503445.759 7  93898918.98946  22931000.576    22931000.1474   22931009.2364
        42.400          39.4004
 126389107.366 6  98485052.04645  24051044.922    24051044.5604   24051049.2044
        40.400          33.8004
 126742546.136 7                  24118228.751
        43.700
 113504821.297 8                  21218476.847    21218477.592
        48.200
 129535600.366 7                  24649739.941
        46.200
 131576440.182 6 102337257.631 6  24570979.882    24570980.445    24570990.332
        38.700          36.900
 112071399.219 8  87166798.905 7  20972589.008    20972589.307    20972597.009
        50.100          46.900
 133226647.095 5 103813134.64342  25352124.296    25352123.0134   25352126.4484
        35.000          16.5004
 125765029.811 6  97998824.22445  23932257.651    23932257.3344   23932265.9874
        39.100          33.5004
 125001786.973 8                  23786984.658
        48.100
 115240814.417 8  89631962.838 7  21535436.039    21535436.989    21535443.747
        50.600          46.300
 127934443.748 6  99689161.32843  24345133.210    24345132.6024   24345141.1444
        39.800          18.5004
 106179096.969 8  82737120.46446  20205147.793    20205147.4454   20205148.8054
        48.800          41.5004
 123754476.091 7  96432221.03245  23549625.878    23549624.6854   23549624.3744
        44.200          31.0004
 103209159.331 8  80273843.006 8  19320960.096    19320960.335    19320966.756
        52.600          48.500
 110692640.196 8  86254191.02746  21064026.075    21064024.6404   21064025.5824
        48.700          40.1004
 102098587.234 8  79410225.491 8  19126433.437    19126433.612    19126439.281
        52.300          50.800
 25  1  1 23  4  0.0000000  0 31E03E05G17S31S35G07E33E25S48S33G30E11
                                E31R13G06G24E12R23E10R04R11G21G03E24
                                R21G13G14G02R12G19R22
 146640228.907 6                  27904700.510
        38.200
 137785929.449 6                  26219813.535
        38.300
 107456941.389 8  83732868.27748  20448295.654    20448294.9974   20448296.1074
        49.700          51.5004
 198973950.227 7                  37863492.945
        45.700
 200894361.765 7                  38228940.220
        44.000
 131776210.053 5 102682754.66643  25076200.289    25076199.5704   25076213.0144
        32.700          20.3004
 134135077.368 7                  25524985.797
        44.400
 138456361.967 7                  26347352.842
        42.500
 413006275.245 5                  78592193.470
        32.200
 202132041.649 7                  38464428.751
        44.800
 118654225.291 7  92457856.41146  22579152.888    22579152.0304   22579159.3284
        43.100          39.7004
 138171610.083 6                  26293141.090
        38.400
 130558004.990 7                  24844312.209
        44.900
 117425011.159 7                  21989928.969    21989928.393
        43.000
 120449782.514 7  93857103.62646  22920788.837    22920788.3994   22920797.2714
        42.100          39.5004
 126348902.654 6  98453723.72045  24043393.570    24043393.1904   24043398.2224
        39.500          33.3004
 126726281.325 7                  24115133.472
        44.000
 113454309.567 7                  21209034.891    21209035.162
        47.700
 129501513.436 7                  24643253.544
        46.300
 131582647.740 6 102342085.574 5  24572139.151    24572139.923    24572149.613
        37.700          35.500
 112114111.847 8  87200019.807 7  20980582.371    20980582.418    20980589.846
        50.200          46.600
 133282041.363 5 103856299.00742  25362665.511    25362664.2064   25362667.5384
        33.300          16.3004
 125732979.808 6  97973850.32845  23926158.429    23926158.1214   23926166.9264
        38.000          33.2004
 124992382.310 8                  23785195.082
        48.400
 115294501.067 8  89673719.122 7  21545468.456    21545469.146    21545476.731
        50.100          46.700
 127974263.370 6  99720189.43843  24352711.136    24352710.5464   24352718.9174
        38.400          18.6004
 106187234.309 8  82743461.25346  20206696.305    20206695.9574   20206697.3064
        48.700          41.5004
 123799573.956 7  96467362.24445  23558207.392    23558206.2034   23558206.1694
        44.200          31.3004
 103190875.425 8  80259622.198 8  19317536.932    19317537.357    19317544.113
        52.400          48.600
 110667441.182 8  86234555.46446  21059230.825    21059229.3864   21059230.3484
        48.100          40.1004
 102096933.762 8  79408939.481 8  19126123.808    19126123.957    19126129.455
        52.600          50.700
 25  1  1 23  4 15.0000000  0 31E03E05G17S31S35G07E33E25S48S33G30E11
                                E31R13G06G24E12R23E10R04R11G21G03E24
                                R21G13G14G02R12G19R22
 146652389.257 6                  27907015.057
        36.700
 137820579.585 6                  26226407.341
        37.900
 107463553.845 8  83738020.85148  20449553.968    20449553.3114   20449554.3914
        49.800          51.4004
 198973959.185 7                  37863494.425
        45.500
 200894385.551 7                  38228943.565
        43.700
 131833279.826 5 102727224.61343  25087060.468    25087059.7934   25087073.5574
        35.700          23.6004
 134162966.463 7                  25530292.973
        43.900
 138423370.727 7                  26341074.766
        42.500
 413004919.648 5                  78592202.624
        32.800
 202132044.634 7                  38464430.706
        44.700
 118704329.939 7  92496898.90446  22588687.390    22588686.5274   22588694.0354
        42.900          39.6004
 138125562.268 6                  26284379.057
        38.000
 130580185.618 7                  24848533.164
        44.800
 117370102.004 7                  21979645.561    21979645.669
        42.100
 120396178.550 7  93815334.43846  22910588.016    22910587.5834   22910596.5304
        42.200          39.5004
 126308801.361 6  98422475.98145  24035762.749    24035762.3474   24035766.8224
        40.200          33.6004
 126710123.223 7                  24112058.584
        43.600
 113403913.946 8                  21199614.403    21199614.160
        48.200
 129467506.249 7                  24636781.969
        46.100
 131589026.654 6 102347046.885 6  24573330.090    24573331.195    24573341.207
        38.700          36.000
 112156941.273 8  87233331.565 7  20988597.088    20988597.368    20988605.190
        49.600          46.800
 133337452.698 5 103899476.68542  25373211.500    25373210.2804   25373211.8434
        35.100          17.2004
 125701014.418 6  97948942.37245  23920076.099    23920075.8094   23920083.6374
        39.000          33.6004
 124983022.150 8                  23783413.888
        48.300
 115348258.940 8  89715530.802 7  21555514.923    21555515.442    21555521.968
        50.400          46.300
 128014121.156 6  99751247.31143  24360296.155    24360295.5614   24360304.0764
        38.900          19.4004
 106195466.418 8  82749875.88646  20208262.811    20208262.4674   20208263.8274
        48.900          41.6004
 123844734.508 7  96502552.29145  23566800.979    23566799.7774   23566800.2304
        44.800          31.4004
 103172731.764 8  80245510.469 8  19314140.590    19314141.012    19314147.724
        52.800          48.600
 110642317.422 8  86214978.54146  21054450.133    21054448.7034   21054449.4104
        48.400          40.2004
 102095461.117 8  79407794.112 8  19125847.825    19125847.978    19125853.494
        52.500          50.700
 25  1  1 23  4 30.0000000  0 31E03E05G17S31S35G07E33E25S48S33G30E11
                                E31R13G06G24E12R23E10R04R11G21G03E24
                                R21G13G14G02R12G19R22
 146664637.511 6                  27909345.874
        38.000
 137855252.462 6                  26233005.381
        36.500
 107470232.550 8  83743225.05448  20450824.717    20450824.0604   20450825.2974
        49.800          51.2004
 198973965.261 7                  37863494.085
        45.600
 200894407.353 7                  38228948.063
        43.900
 131890342.857 5 102771689.35543  25097918.670    25097918.0134   25097932.5084
        34.900          21.5004
 134190933.550 7                  25535614.912
        44.200
 138390378.254 7                  26334796.020
        43.100
 413005161.099 5                  78592200.786
        32.500
 202132044.413 7                  38464429.860
        44.800
 118754493.067 7  92535986.95046  22598233.181    22598232.3234   22598240.0684
        43.300          39.4004
 138079545.290 6                  26275621.794
        38.800
 130602406.887 7                  24852761.374
        44.900
 117315226.449 7                  21969370.232    21969369.541
        42.200
 120342629.085 7  93773607.73246  22900398.321    22900397.9064   22900406.3994
        42.000          39.1004
 126268798.670 6  98391305.06545  24028150.813    24028150.4114   24028154.5914
        40.300          33.8004
 126694066.758 7                  24109002.960
        44.100
 113353629.550 8                  21190213.407    21190214.040
        48.100
 129433573.852 7                  24630324.836
        46.500
 131595571.304 6 102352137.088 6  24574553.184    24574554.058    24574562.971
        39.600          36.300
 112199882.193 8  87266730.024 7  20996633.288    20996633.191    20996640.897
        49.400          46.700
 133392875.655 5 103942663.42242  25383756.729    25383755.5134   25383758.2324
        34.600          16.3004
 125669128.873 6  97924096.62745  23914007.937    23914007.6204   23914015.7084
        38.800          33.3004
 124973701.493 8                  23781640.217
        48.600
 115402082.363 8  89757393.467 7  21565573.196    21565573.807    21565580.838
        50.300          46.600
 128054011.618 6  99782330.63243  24367886.762    24367886.1864   24367895.6314
        39.500          19.3004
 106203788.272 8  82756360.45646  20209846.427    20209846.0744   20209847.4344
        49.100          41.3004
 123889952.413 7  96537787.03945  23575405.700    23575404.4894   23575404.6734
        44.200          31.1004
 103154723.267 8  80231503.867 8  19310769.786    19310769.552    19310776.442
        52.900          48.600
 110617263.885 8  86195456.33546  21049682.229    21049680.7944   21049681.8474
        48.400          40.1004
 102094163.935 8  79406785.210 8  19125604.553    19125604.963    19125610.448
        52.200          50.600
 25  1  1 23  4 45.0000000  0 31E03E05G17S31S35G07E33E25S48S33G30E11
                                E31R13G06G24E12R23E10R04R11G21G03E24
                                R21G13G14G02R12G19R22
 146676975.144 6                  27911693.311
        37.800
 137889949.389 6                  26239608.417
        37.400
 107476978.837 8  83748481.91748  20452108.690    20452108.0334   20452109.0644
        50.100          51.4004
 198973970.367 7                  37863494.166
        45.600
 200894427.687 7                  38228951.171
        43.900
 131947400.330 5 102816149.72043  25108776.774    25108776.1354   25108790.2294
        35.200          21.7004
 134218979.981 7                  25540951.923
        44.300
 138357386.179 7                  26328517.960
        42.700
 413005401.663 5                  78592201.622
        32.400
 202132043.927 7                  38464430.097
        44.800
 118804715.912 7  92575121.53446  22607790.298    22607789.4184   22607797.2904
        43.400          39.6004
 138033560.894 6                  26266871.090
        38.600
 130624670.377 7                  24856998.499
        44.600
 117260386.589 7                  21959099.825    21959099.373
        42.500
 120289135.990 7  93731924.95246  22890218.305    22890217.8764   22890226.7104
        42.300          39.5004
 126228896.431 6  98360212.43945  24020557.766    24020557.3694   24020561.4724
        40.400          33.9004
 126678113.575 7                  24105967.367
        43.900
 113303458.395 8                  21180834.549    21180834.843
        48.200
 129399717.977 7                  24623882.306
        46.600
 131602282.779 6 102357356.954 6  24575805.463    24575806.716    24575816.554
        37.600          37.500
 112242935.982 8  87300216.269 7  21004690.219    21004690.326    21004697.580
        49.800          46.500
 133448311.471 5 103985860.16742  25394306.641    25394305.4034   25394307.4654
        35.200          16.2004
 125637325.107 6  97899314.59045  23907956.069    23907955.7654   23907963.7294
        39.000          33.6004
 124964422.020 8                  23779874.451
        48.600
 115455972.479 8  89799308.013 7  21575643.509    21575643.561    21575651.187
        49.200          46.500
 128093935.806 6  99813440.22243  24375484.632    24375484.0874   24375493.1724
        40.200          19.2004
 106212201.490 8  82762916.21546  20211447.522    20211447.1744   20211448.4544
        48.700          41.4004
 123935228.739 7  96573067.30545  23584021.873    23584020.6754   23584020.4444
