     2.11           OBSERVATION DATA    M (MIXED)           RINEX VERSION / TYPE
teqc  2019Feb25                         20260317 16:20:09UTCPGM / RUN BY / DATE
Linux 2.4.21-27.ELsmp|Opteron|gcc -static|Linux 64|=+       COMMENT
BIT 2 OF LLI FLAGS DATA COLLECTED UNDER A/S CONDITION       COMMENT
-Unknown-                                                   MARKER NAME
-Unknown-           -Unknown-                               OBSERVER / AGENCY
-Unknown-           -Unknown-           -Unknown-           REC # / TYPE / VERS
-Unknown-           -Unknown-                               ANT # / TYPE
        0.0000        0.0000        0.0000                  APPROX POSITION XYZ
        0.0000        0.0000        0.0000                  ANTENNA: DELTA H/E/N
     1     1                                                WAVELENGTH FACT L1/2
     7    L1    L2    C1    P1    P2    S1    S2            # / TYPES OF OBSERV
 SNR is mapped to RINEX snr flag value [0-9]                COMMENT
  L1 & L2: min(max(int(snr_dBHz/6), 0), 9)                  COMMENT
  2025     1     1    13     0    0.0000000     GPS         TIME OF FIRST OBS
    18                                                      LEAP SECONDS
                                                            END OF HEADER
 25  1  1 13  0  0.0000000  0 33G10G26E19E10R04S31S35G21G03R06S48S33
                                E27E11E29E07E21E30R15G12E33R20E26R14
                                R05G32R16E12G28G31G25R21G02
 115513371.671 7  90010433.76447  21981461.340    21981460.7144   21981464.3594
        46.500          46.1004
 124514694.452 6  97024457.13545  23694360.557    23694359.8294   23694366.3224
        40.500          34.2004
 126229994.275 7                  24020766.114
        43.100
 141198952.344 6                  26869261.817
        41.500
 111671272.309 8  86855483.195 7  20853822.624    20853823.035    20853828.893
        51.000          46.200
 198978671.858 7                  37864375.241
        45.600
 200947364.028 7                  38239019.208
        44.300
 123432345.302 6  96181061.86744  23488386.570    23488385.2834   23488384.3784
        40.900          25.7004
 124517228.774 6  97026427.68845  23694836.481    23694836.2314   23694839.4794
        40.100          35.1004
 127018814.315 5                  23803273.093    23803272.103
        32.200
 412692809.835 5                  78532550.293
        32.900
 202094763.992 7                  38457318.916
        44.700
 134205300.722 7                  25538414.226
        45.200
 149950569.544 5                  28534645.564
        33.200
 124554461.286 8                  23701918.895
        48.900
 142089586.377 6                  27038750.037
        40.500
 141161437.420 6                  26862125.952
        39.300
 144316086.434 6                  27462433.728
        40.600
 105445664.363 8  82013347.125 8  19732710.004    19732710.171    19732715.771
        52.000          48.500
 129874823.834 6 101201173.26844  24714350.719    24714350.0934   24714350.9524
        38.400          29.9004
 133994768.082 7                  25498352.975
        44.100
 121573818.520 6  94557460.336 7  22734912.373    22734911.960    22734920.329
        37.700          42.400
 148657660.395 6                  28288625.579
        37.100
 111384164.715 8  86632175.998 7  20895377.516    20895377.603    20895383.483
        52.600          47.600
 106131245.924 8  82546536.487 8  19854038.000    19854038.489    19854043.472
        53.400          48.100
 111884577.090 8  87182800.62648  21290920.428    21290919.9284   21290921.9494
        50.900          50.3004
 121637490.462 7  94606973.096 7  22770793.297    22770793.916    22770802.631
        45.900          42.500
 136383949.200 6                  25952997.402
        40.700
 106647368.732 8  83101852.97647  20294315.747    20294315.3634   20294314.9684
        50.200          43.4004
 108786620.336 8  84768799.04648  20701403.456    20701402.9914   20701401.8624
        49.100          48.0004
 116328097.654 7  90645303.33846  22136494.561    22136493.5604   22136497.2804
        43.800          41.2004
 121595088.334 7  94574006.138 7  22722944.695    22722944.223    22722951.809
        45.800          43.500
 123332030.246 7  96102895.80944  23469299.279    23469298.1124   23469295.9414
        44.700          29.6004
 25  1  1 13  0 15.0000000  0 33G10G26E19E10R04S31S35G21G03R06S48S33
                                E27E11E29E07E21E30R15G12E33R20E26R14
                                R05G32R16E12G28G31G25R21G02
 115554809.022 7  90042722.54647  21989346.872    21989346.2464   21989349.6274
        46.500          46.0004
 124459481.905 6  96981434.35945  23683854.130    23683853.4064   23683859.8064
        40.000          34.1004
 126213137.855 7                  24017558.369
        42.800
 141181151.841 6                  26865874.395
        41.500
 111696488.929 8  86875096.060 7  20858531.656    20858532.096    20858537.977
        50.800          46.300
 198978679.474 7                  37864376.426
        45.500
 200947346.744 7                  38239017.585
        44.400
 123456707.392 6  96200045.29344  23493022.259    23493020.9724   23493020.5164
        41.600          25.7004
 124465315.898 6  96985976.12345  23684958.018    23684957.7684   23684960.6454
        40.000          34.6004
 126970970.290 5                  23794305.579    23794306.281
        31.500
 412691391.231 5                  78532554.488
        32.300
 202094781.183 7                  38457319.417
        44.500
 134186169.231 7                  25534773.492
        45.200
 149917690.486 5                  28528388.703
        32.700
 124563102.576 8                  23703563.238
        48.900
 142118815.062 6                  27044312.020
        40.200
 141117621.901 6                  26853788.525
        39.700
 144333288.069 6                  27465706.837
        40.900
 105418299.254 8  81992063.060 8  19727589.000    19727589.305    19727594.699
        52.000          48.400
 129906624.961 6 101225953.28744  24720402.360    24720401.7484   24720401.9964
        38.100          29.7004
 134032698.989 7                  25505570.928
        44.400
 121622196.216 6  94595087.359 7  22743958.680    22743958.915    22743967.352
        37.600          42.600
 148704009.189 5                  28297445.162
        35.900
 111419066.873 8  86659322.060 7  20901924.934    20901925.185    20901931.030
        52.000          47.300
 106115508.687 8  82534296.347 8  19851094.231    19851094.708    19851099.548
        53.300          48.000
 111900380.251 8  87195114.76648  21293927.622    21293927.1264   21293929.2184
        50.400          50.2004
 121570721.009 7  94555041.239 7  22758293.666    22758294.443    22758303.780
        45.900          43.100
 136383830.111 6                  25952974.618
        40.900
 106647316.833 8  83101812.52947  20294305.592    20294305.2084   20294305.0734
        49.900          43.3004
 108756208.169 8  84745101.22647  20695616.109    20695615.6404   20695614.6304
        49.000          47.9004
 116334157.544 7  90650025.30646  22137647.718    22137646.7214   22137650.4904
        43.300          41.2004
 121601178.580 7  94578742.905 7  22724084.497    22724084.205    22724089.559
        47.900          42.800
 123340210.500 7  96109270.02444  23470855.843    23470854.6674   23470852.6834
        44.500          29.6004
 25  1  1 13  0 30.0000000  0 33G10G26E19E10R04S31S35G21G03R06S48S33
                                E27E11E29E07E21E30R15G12E33R20E26R14
                                R05G32R16E12G28G31G25R21G02
 115596339.508 7  90075083.90547  21997249.693    21997249.0674   21997252.6834
        47.100          45.7004
 124404283.478 6  96938422.59245  23673350.231    23673349.5074   23673356.0284
        41.000          34.1004
 126196303.813 7                  24014354.969
        42.700
 141163453.866 6                  26862506.270
        41.500
 111721779.158 8  86894766.178 7  20863253.816    20863254.729    20863260.936
        50.500          46.400
 198978688.248 7                  37864377.897
        45.600
 200947329.507 7                  38239013.874
        44.400
 123481150.999 7  96219092.24344  23497673.453    23497672.1614   23497672.1084
        42.000          25.6004
 124413432.036 6  96945547.10745  23675084.742    23675084.4834   23675087.1414
        40.600          34.4004
 126923108.216 5                  23785337.083    23785337.427
        32.300
 412691573.323 5                  78532568.815
        32.700
 202094798.539 7                  38457324.126
        44.700
 134167130.914 7                  25531150.637
        45.000
 149884881.877 5                  28522145.131
        32.800
 124571770.849 8                  23705212.912
        48.600
 142148049.243 6                  27049875.176
        40.200
 141073819.214 6                  26845452.529
        39.500
 144350587.314 6                  27468999.026
        40.800
 105391120.789 8  81970924.174 8  19722503.269    19722503.291    19722508.667
        52.000          48.400
 129938546.157 6 101250826.99544  24726476.095    24726475.4924   24726476.4414
        38.000          29.7004
 134070687.714 7                  25512800.028
        44.100
 121670662.438 6  94632783.325 7  22753022.834    22753021.731    22753030.418
        37.100          42.100
 148750333.365 6                  28306260.868
        36.700
 111454133.211 8  86686595.852 7  20908503.247    20908503.416    20908509.413
        52.200          47.400
 106099837.703 8  82522107.746 8  19848162.904    19848163.076    19848168.091
        53.500          48.100
 111916232.527 8  87207467.17048  21296944.637    21296944.1464   21296945.8334
        50.900          50.1004
 121503990.974 7  94503140.083 7  22745801.958    22745801.946    22745811.269
        46.700          42.400
 136383823.287 6                  25952973.791
        41.100
 106647386.480 8  83101866.79147  20294319.051    20294318.6674   20294318.3534
        50.300          43.2004
 108725915.278 8  84721496.34847  20689851.614    20689851.1494   20689850.0874
        49.300          47.7004
 116340375.182 7  90654870.16646  22138831.246    22138830.2494   22138833.7444
        43.900          41.1004
 121607455.432 7  94583624.845 7  22725255.381    22725255.717    22725261.876
        45.900          43.000
 123348507.531 7  96115735.24044  23472435.029    23472433.8534   23472431.7074
        44.000          29.4004
 25  1  1 13  0 45.0000000  0 33G10G26E19E10R04S31S35G21G03R06S48S33
                                E27E11E29E07E21E30R15G12E33R20E26R14
                                R05G32R16E12G28G31G25R21G02
 115637963.522 7  90107518.14347  22005170.426    22005169.8004   22005173.6124
        46.800          45.7004
 124349100.137 6  96895422.60045  23662848.955    23662848.2224   23662854.9014
        39.500          34.0004
 126179492.657 7                  24011156.088
        42.600
 141145859.162 6                  26859158.229
        41.300
 111747143.536 8  86914493.953 7  20867991.160    20867991.492    20867997.466
        50.800          46.400
 198978697.694 7                  37864379.305
        45.800
 200947312.300 7                  38239011.495
        44.400
 123505676.671 6  96238203.13844  23502340.808    23502339.5344   23502339.4094
        40.700          25.2004
 124361578.234 6  96905141.52045  23665217.417    23665217.1634   23665219.8714
        39.600          34.7004
 126875228.964 5                  23776362.672    23776365.107
        31.800
 412691756.835 5                  78532575.522
        33.400
 202094816.853 7                  38457325.879
        44.600
 134148186.447 7                  25527545.754
        45.000
 149852145.466 5                  28515916.369
        33.600
 124580466.668 8                  23706867.551
        48.600
 142177289.484 6                  27055439.067
        40.100
 141030030.127 6                  26837120.122
        39.300
 144367984.655 6                  27472309.127
        41.000
 105364130.077 8  81949931.348 8  19717451.732    19717452.141    19717458.041
        51.600          48.300
 129970587.369 6 101275794.14444  24732573.874    24732573.2804   24732573.7534
        38.700          29.5004
 134108734.526 7                  25520040.101
        43.800
 121719216.426 6  94670547.522 7  22762102.396    22762102.045    22762110.280
        37.100          42.500
 148796633.212 6                  28315071.240
        36.700
 111489363.690 8  86713997.272 7  20915113.015    20915112.818    20915118.618
        52.000          47.500
 106084233.470 8  82509971.093 8  19845243.900    19845244.059    19845249.083
        53.700          48.100
 111932134.536 8  87219858.33448  21299970.217    21299969.7214   21299971.8964
        50.900          50.1004
 121437301.097 7  94451270.138 7  22733317.432    22733317.780    22733326.995
        45.800          42.900
 136383929.271 6                  25952993.582
        40.500
 106647578.119 8  83102016.11147  20294355.671    20294355.2874   20294354.8374
        50.200          43.2004
 108695742.393 8  84697984.99047  20684109.938    20684109.4734   20684108.4124
        49.000          47.8004
 116346751.127 7  90659838.39046  22140044.635    22140043.6384   22140047.1144
        44.100          41.1004
 121613919.393 7  94588652.312 7  22726464.256    22726463.520    22726470.269
        45.800          42.800
 123356921.789 7  96122291.80644  23474036.255    23474035.0844   23474033.0444
        44.400          29.4004
 25  1  1 13  1  0.0000000  0 33G10G26E19E10R04S31S35G21G03R06S48S33
                                E27E11E29E07E21E30R15G12E33R20E26R14
                                R05G32R16E12G28G31G25R21G02
 115679677.339 7  90140022.36547  22013108.281    22013107.6514   22013111.4854
        46.400          45.7004
 124293928.673 6  96852431.85745  23652350.494    23652349.7704   23652356.2194
        40.400          34.2004
 126162701.026 7                  24007960.547
        42.900
 141128364.218 6                  26855829.029
        41.500
 111772578.608 8  86934276.727 7  20872741.083    20872741.464    20872747.300
        51.200          46.300
 198978703.414 7                  37864383.075
        45.700
 200947293.222 7                  38239007.725
        44.200
 123530280.547 6  96257374.97444  23507022.924    23507021.6464   23507021.3774
        41.500          25.4004
 124309751.141 6  96864756.77545  23655355.350    23655355.1314   23655357.6814
        39.300          34.8004
 126827328.853 5                  23767388.852    23767388.548
        32.300
 412691938.076 5                  78532574.977
        33.200
 202094832.522 7                  38457327.135
        44.400
 134129332.462 7                  25523958.045
        45.200
 149819476.663 5                  28509698.509
        32.700
 124589186.535 8                  23708526.901
        48.800
 142206532.246 6                  27061004.216
        40.100
 140986251.372 6                  26828789.106
        39.400
 144385476.274 6                  27475637.978
        40.600
 105337323.704 8  81929081.928 8  19712435.565    19712435.701    19712441.399
        51.600          48.400
 130002744.832 6 101300851.86044  24738693.393    24738692.7854   24738693.0214
        38.300          29.6004
 134146835.635 7                  25527290.620
        43.700
 121767854.567 6  94708377.154 7  22771196.952    22771198.104    22771205.570
        37.500          42.200
 148842904.941 6                  28323876.911
        36.900
 111524753.985 8  86741523.031 7  20921751.650    20921751.823    20921757.457
        51.600          47.300
 106068692.832 8  82497883.944 8  19842336.711    19842336.664    19842341.911
        53.200          48.200
 111948082.711 8  87232285.48448  21303005.051    21303004.5514   21303006.7464
        50.800          50.2004
 121370648.407 7  94399429.143 7  22720840.490    22720840.151    22720849.152
        45.000          43.000
 136384144.472 6                  25953034.433
        40.700
 106647888.092 8  83102257.64447  20294414.570    20294414.1904   20294413.8184
        49.800          43.3004
 108665686.073 8  84674564.48647  20678390.374    20678389.9144   20678388.8854
        49.100          47.8004
 116353281.914 7  90664927.28746  22141286.654    22141285.6534   22141289.9034
        43.600          41.3004
 121620566.717 7  94593822.481 7  22727706.737    22727706.318    22727713.103
        46.300          43.400
 123365449.598 7  96128936.84644  23475659.216    23475658.0494   23475655.7744
        44.100          29.5004
 25  1  1 13  1 15.0000000  0 33G10G26E19E10R04S31S35G21G03R06S48S33
                                E27E11E29E07E21E30R15G12E33R20E26R14
                                R05G32R16E12G28G31G25R21G02
 115721483.194 7  90172598.30247  22021064.179    22021063.5534   22021066.8994
        45.800          45.6004
 124238771.886 6  96809452.56045  23641854.555    23641853.8364   23641860.6064
        40.400          34.5004
 126145931.170 7                  24004769.544
        42.800
 141110971.356 6                  26852519.633
        41.200
 111798086.760 8  86954116.343 7  20877504.143    20877504.878    20877511.000
        50.200          46.400
 198978709.781 7                  37864385.029
        45.400
 200947273.456 7                  38239003.428
        44.000
 123554964.402 6  96276609.13344  23511719.935    23511718.6484   23511718.5434
        40.900          25.3004
 124257953.410 6  96824394.85745  23645499.027    23645498.8084   23645500.7404
        40.100          34.5004
 126779410.760 5                  23758407.813    23758408.359
        31.200
 412692118.896 5                  78532591.244
        32.400
 202094847.736 7                  38457332.224
        44.100
 134110571.532 7                  25520387.924
        45.000
 149786878.794 5                  28503495.424
        32.700
 124597932.863 8                  23710191.374
        48.700
 142235779.981 6                  27066569.820
        39.800
 140942485.619 6                  26820460.953
        39.200
 144403064.772 6                  27478985.337
        40.500
 105310704.537 8  81908378.140 8  19707454.357    19707454.550    19707460.002
        51.800          48.300
 130035020.859 6 101326002.01444  24744835.595    24744834.9834   24744835.1884
        37.800          29.7004
 134184993.222 7                  25534552.025
        43.700
 121816578.657 6  94746273.652 7  22780308.482    22780308.972    22780316.894
        36.600          42.000
 148889150.798 6                  28332676.965
        36.600
 111560306.526 8  86769174.992 7  20928421.545    20928421.391    20928427.200
        52.300          47.600
 106053218.152 8  82485848.071 8  19839441.598    19839441.959    19839447.050
        53.500          48.100
 111964079.517 8  87244750.53248  21306049.047    21306048.5424   21306050.8444
        50.700          50.3004
 121304035.793 7  94347619.321 7  22708369.658    22708369.770    22708379.281
        44.600          42.800
 136384471.303 6                  25953096.444
        40.500
 106648318.709 8  83102593.18747  20294496.508    20294496.1334   20294495.7704
        50.200          43.3004
 108635748.698 8  84651236.63947  20672693.548    20672693.0884   20672692.0154
        49.400          47.8004
 116359969.991 7  90670138.79146  22142559.748    22142558.7424   22142562.5584
        43.600          41.4004
 121627399.531 7  94599136.888 7  22728983.435    22728984.294    22728989.675
        46.400          43.000
 123374093.092 7  96135672.03744  23477303.638    23477302.4804   23477300.5264
        44.100          29.5004
 25  1  1 13  1 30.0000000  0 33G10G26E19E10R04S31S35G21G03R06S48S33
                                E27E11E29E07E21E30R15G12E33R20E26R14
                                R05G32R16E12G28G31G25R21G02
 115763381.985 7  90205246.65747  22029036.978    22029036.3664   22029039.9904
        46.500          45.6004
 124183631.257 6  96766485.84645  23631361.112    23631360.3884   23631367.5194
        39.800          34.1004
 126129184.310 7                  24001582.541
        42.500
 141093682.190 6                  26849229.245
        41.600
 111823669.419 8  86974013.904 7  20882282.028    20882282.489    20882288.275
        50.900          46.600
 198978716.436 7                  37864382.324
        45.300
 200947253.798 7                  38238996.935
        44.100
 123579729.611 6  96295906.68244  23516432.549    23516431.2844   23516431.1694
        41.200          25.5004
 124206186.672 6  96784057.12745  23635647.636    23635647.4084   23635649.9844
        40.600          34.9004
 126731475.651 5                  23749426.334    23749426.103
        31.700
 412692301.226 5                  78532587.265
        32.300
 202094862.989 7                  38457336.378
        44.300
 134091904.988 7                  25516835.720
        45.100
 149754353.060 5                  28497306.199
        33.800
 124606706.727 8                  23711861.146
        48.800
 142265033.838 6                  27072136.987
        40.200
 140898734.228 6                  26812135.266
        39.600
 144420751.083 6                  27482350.409
        40.900
 105284273.850 8  81887821.003 8  19702507.680    19702508.082    19702513.601
        51.600          48.400
 130067416.402 6 101351245.40245  24751000.411    24750999.8084   24750999.9594
        38.500          30.3004
 134223208.117 7                  25541824.140
        44.200
 121865389.660 6  94784237.760 7  22789437.333    22789437.722    22789445.430
        37.600          42.500
 148935371.738 6                  28341473.143
        36.600
 111596021.888 8  86796953.572 7  20935121.520    20935121.536    20935127.104
        51.800          47.300
 106037810.955 8  82473864.706 8  19836559.152    19836559.529    19836564.857
        53.100          48.200
 111980126.019 8  87257254.28748  21309103.013    21309102.5174   21309104.4124
        50.800          50.3004
 121237465.148 7  94295842.132 7  22695908.035    22695908.968    22695916.985
        46.200          43.300
 136384910.832 6                  25953180.392
        40.600
 106648870.960 8  83103023.50047  20294601.594    20294601.2194   20294600.8664
        50.000          43.3004
 108605931.612 8  84628002.51847  20667019.522    20667019.0494   20667018.0454
        48.800          47.9004
 116366816.354 7  90675473.65446  22143862.624    22143861.6274   22143865.2814
        43.900          41.5004
 121634418.918 7  94604596.410 7  22730294.392    22730295.222    22730301.180
        46.500          42.700
 123382853.369 7  96142498.22344  23478970.767    23478969.6004   23478967.6544
        43.800          29.7004
 25  1  1 13  1 45.0000000  0 33G10G26E19E10R04S31S35G21G03R06S48S33
                                E27E11E29E07E21E30R15G12E33R20E26R14
                                R05G32R16E12G28G31G25R21G02
 115805373.806 7  90237967.50147  22037027.683    22037027.0714   22037030.8424
        46.500          45.6004
 124128507.445 6  96723532.24345  23620871.904    23620871.1894   23620877.4104
        40.000          34.3004
 126112460.523 7                  23998400.212
        42.900
 141076496.886 6                  26845958.520
        41.700
 111849326.905 8  86993969.648 7  20887073.715    20887074.007    20887079.865
        51.200          46.600
 198978723.771 7                  37864386.147
        45.600
 200947235.609 7                  38238996.314
        44.300
 123604575.971 6  96315267.46344  23521160.781    23521159.5214   23521159.2394
        41.700          25.4004
 124154451.301 6  96743743.85745  23625802.635    23625802.3994   23625805.0004
        41.100          35.0004
 126683523.754 5                  23740438.898    23740438.683
        31.300
 412692484.969 5                  78532592.519
        32.200
 202094880.144 7                  38457340.376
        44.400
 134073333.231 7                  25513301.945
        45.100
 149721900.285 5                  28491130.383
        33.600
 124615508.376 8                  23713535.876
        48.800
 142294294.077 6                  27077705.277
        40.600
 140854997.682 6                  26803812.094
        38.800
 144438535.301 6                  27485734.437
        41.300
 105258032.112 8  81867410.829 8  19697597.241    19697597.529    19697602.901
        52.100          48.400
 130099930.908 6 101376581.21945  24757187.585    24757186.9684   24757187.3614
        38.900          30.1004
 134261480.325 7                  25549106.929
        44.100
 121914286.631 6  94822268.701 7  22798581.507    22798580.491    22798589.853
        36.300          42.200
 148981567.782 6                  28350264.262
        36.400
 111631900.132 8  86824858.872 7  20941852.135    20941852.080    20941857.960
        51.600          47.200
 106022471.682 8  82461934.134 8  19833689.784    19833690.214    19833695.390
        53.200          48.100
 111996222.475 8  87269796.95548  21312165.860    21312165.3644   21312167.4914
        51.000          50.3004
 121170937.034 7  94244098.074 7  22683454.027    22683453.925    22683463.145
        46.100          43.200
 136385463.363 6                  25953285.415
        40.700
 106649544.987 8  83103548.71947  20294729.848    20294729.4774   20294729.1304
        50.000          43.3004
 108576235.074 8  84604862.33447  20661368.573    20661368.1084   20661366.9874
        49.000          47.9004
 116373821.097 7  90680931.85546  22145195.667    22145194.6844   22145198.2184
        44.200          41.6004
 121641624.978 7  94610201.166 7  22731641.404    22731641.673    22731647.715
        46.400          42.800
 123391730.553 7  96149415.50044  23480660.183    23480659.0254   23480656.9404
        44.600          29.7004
 25  1  1 13  2  0.0000000  0 33G10G26E19E10R04S31S35G21G03R06S48S33
                                E27E11E29E07E21E30R15G12E33R20E26R14
                                R05G32R16E12G28G31G25R21G02
 115847458.297 7  90270760.54847  22045036.471    22045035.8634   22045039.3264
        46.200          45.6004
 124073400.623 6  96680591.89645  23610384.957    23610384.2424   23610391.4464
        39.800          34.7004
 126095759.722 7                  23995222.015
        42.700
 141059415.442 6                  26842708.663
        41.300
 111875059.011 8  87013983.426 7  20891879.163    20891879.150    20891885.165
        50.800          46.500
 198978731.559 7                  37864385.695
        45.700
 200947218.080 7                  38238992.937
        44.500
 123629503.014 6  96334691.11644  23525904.415    23525903.1464   23525902.5574
        40.800          25.6004
 124102747.481 6  96703455.14045  23615963.617    23615963.3544   23615966.0134
        39.900          34.8004
 126635555.064 5                  23731450.318    23731450.444
        31.700
 412692670.413 5                  78532597.509
        32.900
 202094897.853 7                  38457342.831
        44.800
 134054856.254 7                  25509785.718
        45.000
 149689519.949 5                  28484967.652
        32.700
 124624337.692 8                  23715216.148
        48.800
 142323560.562 6                  27083274.458
        40.300
 140811276.107 6                  26795492.829
        39.100
 144456416.994 6                  27489137.318
        40.900
 105231979.356 8  81847147.574 8  19692721.656    19692722.025    19692727.518
        52.100          48.400
 130132564.549 6 101402009.97245  24763397.935    24763397.3054   24763397.6274
        37.400          30.2004
 134299809.467 7                  25556400.609
        43.600
 121963268.938 6  94860366.047 7  22807741.477    22807741.124    22807749.123
        37.000          42.300
 149027738.599 6                  28359050.660
        36.500
 111667940.340 8  86852890.172 7  20948613.413    20948613.352    20948619.071
        52.400          47.200
 106007200.230 8  82450056.356 8  19830833.285    19830833.388    19830838.345
        53.400          48.200
 112012368.805 8  87282378.49648  21315238.445    21315237.9404   21315240.0504
        50.900          50.3004
 121104451.740 7  94192387.352 7  22671007.202    22671008.053    22671016.844
        46.100          43.200
 136386128.666 6                  25953411.617
        40.500
 106650340.485 8  83104168.58147  20294881.370    20294881.0044   20294880.4994
        49.900          43.4004
 108546659.263 8  84581816.20148  20655740.438    20655739.9694   20655738.9054
        49.200          48.1004
 116380984.185 7  90686513.42646  22146558.635    22146557.6474   22146561.4234
        43.800          41.7004
 121649017.184 7  94615950.648 7  22733023.251    22733023.136    22733030.015
        47.000          43.300
 123400724.341 7  96156423.63744  23482371.325    23482370.1674   23482368.5474
        44.200          29.9004
 25  1  1 13  2 15.0000000  0 34G10G26E19E10R04S31S35G21G03R06S48S33
                                E27E11E29E04E07E21E30R15G12E33R20E26
                                R14R05G32R16E12G28G31G25R21G02
 115889634.279 7  90303624.89347  22053062.335    22053061.7324   22053065.1964
        45.900          45.5004
 124018310.192 6  96637664.30645  23599901.706    23599901.0004   23599908.0404
        40.100          34.6004
 126079080.897 7                  23992048.140
        42.500
 141042437.115 6                  26839478.200
        41.500
 111900864.661 8  87034054.431 7  20896697.937    20896698.177    20896704.277
        50.600          46.100
 198978740.080 7                  37864388.159
        45.700
 200947199.955 7                  38238989.955
        44.300
 123654509.521 6  96354176.69044  23530662.514    23530661.2224   23530661.4504
        40.900          25.3004
 124051074.728 6  96663190.74345  23606130.542    23606130.2794   23606132.9514
        40.000          34.9004
 126587568.807 5                  23722457.977    23722457.126
        31.800
 412692856.051 5                  78532606.899
        32.700
 202094915.171 7                  38457348.501
        44.500
 134036473.181 7                  25506287.434
        44.600
 149657210.938 5                  28478820.484
        32.300
 124633193.589 8                  23716901.404
        48.500
 151817146.994 5                  28889842.968
        35.900
 142352832.289 6                  27088844.823
        40.600
 140767568.706 6                  26787174.702
        38.800
 144474394.964 6                  27492558.489
        40.600
 105206114.709 8  81827030.587 8  19687881.700    19687881.865    19687887.299
        51.800          48.300
 130165316.239 6 101427530.90645  24769630.099    24769629.4734   24769630.2154
        39.200          30.3004
 134338194.246 7                  25563704.976
        43.600
 122012335.227 6  94898528.673 7  22816917.409    22816916.836    22816924.950
        37.300          42.000
 149073882.948 6                  28367831.754
        36.800
 111704141.350 8  86881046.556 7  20955404.284    20955404.548    20955410.312
        51.400          47.100
 105991996.005 8  82438230.847 8  19827988.647    19827989.047    19827994.120
        52.800          48.000
 112028563.935 8  87294998.04948  21318320.261    21318319.7614   21318321.9194
        50.500          50.3004
 121038008.785 7  94140709.568 7  22658569.537    22658569.050    22658578.521
        45.400          43.400
 136386905.748 6                  25953559.966
        39.900
 106651256.362 8  83104882.25047  20295055.582    20295055.2164   20295054.7854
        50.300          43.4004
 108517203.179 8  84558863.33948  20650135.085    20650134.6074   20650133.6414
        49.400          48.0004
 116388304.755 7  90692217.78946  22147951.656    22147950.6774   22147954.5844
        44.700          41.7004
 121656594.537 7  94621844.199 7  22734438.644    22734438.740    22734445.941
        46.500          43.300
 123409833.510 7  96163521.69945  23484104.990    23484103.8374   23484101.9854
        45.200          30.0004
 25  1  1 13  2 30.0000000  0 34G10G26E19E10R04S31S35G21G03R06S48S33
                                E27E11E29E04E07E21E30R15G12E33R20E26
                                R14R05G32R16E12G28G31G25R21G02
 115931903.818 7  90336562.13747  22061105.969    22061105.3844   22061108.8494
        46.400          45.4004
 123963238.753 6  96594751.52245  23589421.709    23589421.0034   23589427.8444
        40.400          34.5004
 126062426.301 7                  23988879.040
        42.500
 141025564.089 6                  26836267.059
        41.800
 111926746.538 8  87054184.722 7  20901531.237    20901531.639    20901537.761
        51.000          46.400
 198978749.709 7                  37864390.180
        45.800
 200947184.341 7                  38238984.388
        44.400
 123679597.455 6  96373725.71344  23535437.389    23535436.1154   23535435.5514
        41.500          25.3004
 123999435.422 6  96622952.43545  23596304.032    23596303.7964   23596306.4134
        40.700          35.7004
 126539567.499 5                  23713464.154    23713462.600
        31.600
 412693044.192 5                  78532605.844
        32.700
 202094934.580 7                  38457350.504
        44.500
 134018186.458 7                  25502807.601
        44.600
 149624976.366 5                  28472686.247
        31.700
 124642078.398 8                  23718592.183
        48.600
 151786259.413 6                  28883965.169
        36.700
 142382111.578 6                  27094416.551
        40.500
 140723878.046 6                  26778861.493
        39.000
 144492471.739 6                  27495997.962
        40.500
 105180441.166 8  81807062.217 8  19683077.115    19683077.438    19683082.934
        52.000          48.400
 130198187.196 6 101453144.58745  24775884.575    24775883.9364   24775884.8124
        38.400          30.0004
 134376636.721 7                  25571020.274
        43.400
 122061486.952 6  94936757.769 7  22826107.778    22826108.851    22826116.415
        36.700          42.000
 149120002.858 5                  28376607.685
        35.400
 111740504.945 8  86909329.379 7  20962225.921    20962226.138    20962231.844
        51.400          47.100
 105976861.255 8  82426459.339 8  19825157.268    19825157.781    19825162.850
        53.400          48.000
 112044810.301 8  87307657.55348  21321412.032    21321411.5504   21321413.5284
        50.700          50.4004
 120971610.981 7  94089066.904 7  22646139.393    22646139.733    22646148.966
        45.600          43.100
 136387796.912 6                  25953729.505
        40.000
 106652294.745 8  83105691.37547  20295253.202    20295252.8364   20295252.3864
        50.200          43.5004
 108487869.269 8  84536005.69248  20644553.041    20644552.5684   20644551.6524
        49.100          48.1004
 116395784.947 7  90698046.56246  22149375.131    22149374.1434   22149377.9824
        44.500          41.9004
 121664359.116 7  94627883.361 7  22735890.637    22735889.562    22735896.477
        46.800          43.500
 123419060.316 7  96170711.42145  23485860.264    23485859.1024   23485857.7634
        44.900          30.0004
 25  1  1 13  2 45.0000000  0 34G10G26E19E10R04S31S35G21G03R06S48S33
                                E27E11E29E04E07E21E30R15G12E33R20E26
                                R14R05G32R16E12G28G31G25R21G02
 115974261.603 7  90369568.13247  22069166.468    22069165.8744   22069169.3024
        45.800          45.3004
 123908181.609 6  96551849.88845  23578945.417    23578944.6934   23578950.6274
        40.200          34.5004
 126045790.809 7                  23985713.349
        42.400
 141008791.505 6                  26833074.919
        41.400
 111952699.274 8  87074370.141 7  20906377.276    20906377.863    20906384.195
        50.800          46.200
 198978756.525 7                  37864391.522
        45.400
 200947165.599 7                  38238983.489
        44.200
 123704761.400 6  96393333.95844  23540225.486    23540224.1994   23540224.0064
        41.700          25.3004
 123947824.431 6  96582736.07145  23586483.202    23586482.9664   23586484.9774
        41.100          35.1004
 126491545.752 5                  23704463.644    23704461.600
        30.000
 412693229.324 5                  78532612.985
        32.500
 202094950.966 7                  38457354.215
        44.500
 133999991.050 7                  25499345.378
        44.800
 149592811.885 5                  28466565.371
        32.100
 124650987.044 8                  23720287.306
        48.700
 151755368.671 6                  28878086.551
        36.100
 142411393.303 6                  27099988.333
        40.500
 140680199.193 6                  26770549.317
        39.000
 144510641.799 6                  27499456.232
        40.700
 105154953.631 8  81787238.563 8  19678307.370    19678307.764    19678313.202
        52.000          48.200
 130231172.850 6 101478847.83145  24782161.885    24782161.2554   24782161.4234
        38.800          30.4004
 134415131.460 7                  25578345.741
        43.700
 122110718.471 6  94975048.932 7  22835314.152    22835315.685    22835323.379
        37.300          42.200
 149166093.007 6                  28385378.527
        36.100
 111777025.558 8  86937734.357 7  20969077.486    20969077.183    20969082.652
        51.600          47.000
 105961791.118 8  82414738.131 8  19822338.272    19822338.459    19822343.698
        53.300          48.100
 112061102.645 8  87320352.90248  21324512.400    21324511.9274   21324513.8514
        51.000          50.5004
 120905253.615 7  94037455.689 7  22633717.880    22633718.469    22633726.410
        47.000          43.000
 136388796.956 6                  25953919.732
        39.700
 106653450.393 8  83106591.87847  20295473.152    20295472.7954   20295472.3054
        50.300          43.5004
 108458652.527 8  84513239.36648  20638993.383    20638992.9054   20638991.9364
        49.700          48.1004
 116403419.305 7  90703995.36446  22150827.910    22150826.9134   22150830.7094
        44.400          41.8004
 121672305.360 7  94634063.742 7  22737374.808    22737374.865    22737381.257
        46.600          42.900
 123428399.297 7  96177988.55145  23487637.796    23487636.6254   23487635.0324
        44.700          30.1004
 25  1  1 13  3  0.0000000  0 34G10G26E19E10R04S31S35G21G03R06S48S33
                                E27E11E29E04E07E21E30R15G12E33R20E26
                                R14R05G32R16E12G28G31G25R21G02
 116016710.293 7  90402644.97847  22077244.327    22077243.7424   22077247.0874
        45.800          45.5004
 123853141.938 6  96508961.86845  23568471.175    23568470.4474   23568477.1844
        40.000          34.9004
 126029177.265 7                  23982552.165
        42.400
 140992122.156 6                  26829903.171
        41.700
 111978725.971 8  87094613.047 7  20911238.169    20911238.637    20911244.634
        51.400          46.300
 198978763.919 7                  37864391.982
        45.500
 200947146.393 7                  38238977.577
        44.300
 123730003.914 6  96413003.42744  23545028.615    23545027.3194   23545027.5534
        41.200          25.7004
 123896245.208 6  96542544.45245  23576667.712    23576667.4444   23576669.9044
        39.900          34.9004
 126443506.433 5                  23695460.333    23695460.147
        31.100
 412691815.172 5                  78532621.566
        32.400
 202094966.962 7                  38457358.356
        44.600
 133981889.978 7                  25495900.590
        44.700
 149560719.689 5                  28460457.850
        31.200
 124659922.367 8                  23721987.605
        48.500
 151724477.464 5                  28872208.040
        30.900
 142440680.347 6                  27105562.189
        40.000
 140636535.359 6                  26762240.107
        39.500
 144528907.982 6                  27502932.030
        40.500
 105129655.063 8  81767561.833 8  19673573.254    19673573.679    19673579.301
        51.600          48.400
 130264274.740 6 101504641.34545  24788461.723    24788461.1064   24788460.8034
        38.400          30.6004
 134453681.087 7                  25585681.708
        43.200
 122160031.844 6  95013403.744 6  22844536.531    22844537.226    22844544.370
        36.500          41.700
 149212156.017 6                  28394144.392
        36.400
 111813705.518 8  86966263.269 7  20975958.142    20975958.120    20975964.041
        51.200          47.100
 105946788.601 8  82403069.502 8  19819531.624    19819532.024    19819537.106
        53.100          48.200
 112077443.849 8  87333086.28648  21327621.916    21327621.4344   21327623.4804
        51.000          50.5004
 120838939.876 7  93985878.407 7  22621303.206    22621303.398    22621312.792
        46.500          43.200
 136389908.727 6                  25954131.576
        40.000
 106654726.043 8  83107585.89747  20295715.745    20295715.3884   20295715.0474
        50.000          43.6004
 108429555.888 8  84490566.62648  20633456.292    20633455.8054   20633455.0614
        49.000          48.2004
 116411210.986 7  90710066.74146  22152310.863    22152309.8844   22152313.4234
        44.000          41.8004
 121680436.286 7  94640387.821 7  22738893.405    22738894.394    22738900.759
        47.100          42.700
 123437853.221 7  96185355.23645  23489437.074    23489435.9034   23489434.0914
        44.600          30.1004
 25  1  1 13  3 15.0000000  0 34G10G26E19E10R04S31S35G21G03R06S48S33
                                E27E11E29E04E07E21E30R15G12E33R20E26
                                R14R05G32R16E12G28G31G25R21G02
 116059251.010 7  90435793.52947  22085339.691    22085339.1014   22085342.4904
        45.800          45.2004
 123798121.429 6  96466088.76945  23558001.361    23558000.6514   23558006.9914
        40.400          34.7004
 126012586.820 7                  23979394.727
        42.400
 140975557.543 6                  26826750.748
        41.700
 112004827.821 8  87114914.459 7  20916112.688    20916112.831    20916118.707
        51.300          46.500
 198978771.349 7                  37864395.408
        45.600
 200947128.519 7                  38238974.957
        44.300
 123755326.076 6  96432734.95644  23549847.377    23549846.0674   23549846.2544
        41.300          25.3004
 123844699.373 6  96502378.89445  23566858.657    23566858.3854   23566860.8634
        41.400          35.6004
 126395451.417 5                  23686456.403    23686454.890
        32.100
 412692002.634 5                  78532625.644
        32.500
 202094984.824 7                  38457360.614
        44.700
 133963884.774 7                  25492474.415
        44.600
 149528700.998 5                  28454365.008
        32.700
 124668885.547 8                  23723693.303
        48.700
 151693587.206 5                  28866329.837
        33.700
 142469974.013 6                  27111136.338
        40.100
 140592888.026 6                  26753933.924
        39.400
 144547271.717 6                  27506426.170
        40.900
 105104547.324 8  81748033.533 8  19668875.011    19668875.046    19668880.587
        52.000          48.200
 130297494.999 6 101530527.27945  24794782.772    24794782.1514   24794782.7344
        38.800          30.5004
 134492286.655 7                  25593028.098
        43.800
 122209428.036 5  95051823.014 7  22853774.602    22853774.569    22853781.982
        35.800          42.000
 149258193.019 6                  28402905.382
        36.600
 111850545.561 8  86994916.590 7  20982869.640    20982869.312    20982874.866
        51.800          47.000
 105931855.255 8  82391454.671 8  19816738.417    19816738.409    19816743.643
        53.300          48.200
 112093835.230 8  87345858.77248  21330740.816    21330740.3254   21330742.6784
        50.700          50.3004
 120772671.854 7  93934336.676 7  22608897.694    22608898.938    22608905.877
        47.900          42.400
 136391133.509 6                  25954364.428
        39.800
 106656122.807 8  83108674.27147  20295981.573    20295981.2204   20295980.8634
        49.800          43.5004
 108400580.695 8  84467988.53448  20627942.570    20627942.0884   20627941.3094
        48.900          48.1004
 116419161.276 7  90716261.76946  22153823.559    22153822.5854   22153826.3214
        43.600          41.7004
 121688752.771 7  94646856.193 7  22740447.445    22740448.149    22740455.260
        46.600          42.900
 123447423.243 7  96192812.38745  23491257.641    23491256.4614   23491255.2494
        44.300          30.0004
 25  1  1 13  3 30.0000000  0 34G10G26E19E10R04S31S35G21G03R06S48S33
                                E27E11E29E04E07E21E30R15G12E33R20E26
                                R14R05G32R16E12G28G31G25R21G02
 116101884.068 7  90469014.03747  22093452.359    22093451.7874   22093455.2924
        46.200          45.2004
 123743120.972 6  96423231.31945  23547534.962    23547534.2604   23547540.9894
        40.400          35.0004
 125996020.146 7                  23976242.544
        42.600
 140959098.403 6                  26823618.800
        41.800
 112031005.446 8  87135274.774 7  20921000.946    20921001.070    20921007.331
        50.700          46.200
 198978780.986 7                  37864395.488
        45.500
 200947111.810 7                  38238972.274
        44.400
 123780728.088 6  96452528.71244  23554681.441    23554680.1274   23554679.8994
        41.200          25.5004
 123793187.579 6  96462239.80745  23557055.803    23557055.5224   23557058.4634
        40.800          35.5004
 126347381.055 5                  23677448.110    23677445.626
        31.600
 412692192.628 5                  78532635.840
        32.700
 202095003.552 7                  38457364.303
        44.700
 133945976.064 7                  25489066.572
        45.000
 149496756.763 5                  28448285.964
        32.600
 124677877.174 8                  23725404.447
        48.900
 151662698.195 5                  28860451.992
        34.700
 142499274.828 6                  27116712.096
        40.200
 140549257.947 6                  26745631.606
        40.000
 144565732.991 6                  27509939.576
        41.000
 105079630.947 8  81728654.081 8  19664212.162    19664212.396    19664217.933
        51.800          48.300
 130330832.191 6 101556503.72145  24801126.238    24801125.6084   24801126.6874
        38.200          30.2004
 134530948.393 7                  25600384.901
        43.800
 122258906.899 6  95090306.533 7  22863027.747    22863026.857    22863035.388
        36.900          42.000
 149304204.230 6                  28411661.121
        36.600
 111887545.983 8  87023694.654 7  20989810.445    20989810.719    20989816.323
        51.700          47.000
 105916991.918 8  82379894.320 8  19813957.468    19813958.111    19813963.148
        53.700          48.200
 112110277.325 8  87358670.76648  21333869.782    21333869.2864   21333871.5354
        50.900          50.3004
 120706450.175 7  93882830.991 7  22596500.841    22596500.233    22596509.708
        46.100          43.000
 136392471.787 6                  25954619.047
        40.300
 106657641.120 8  83109857.36047  20296270.613    20296270.2694   20296269.7974
        50.000          43.5004
 108371727.651 8  84445505.60348  20622452.141    20622451.6594   20622450.7874
        48.900          48.1004
 116427270.484 7  90722580.60546  22155366.669    22155365.6904   22155369.5274
        44.000          41.9004
 121697255.192 7  94653469.118 7  22742037.482    22742037.140    22742044.265
        46.200          42.900
 123457109.697 7  96200360.27245  23493101.236    23493100.0604   23493098.2104
        44.000          30.1004
 25  1  1 13  3 45.0000000  0 34G10G26E19E10R04S31S35G21G03R06S48S33
                                E27E11E29E04E07E21E30R15G12E33R20E26
                                R14R05G32R16E12G28G31G25R21G02
 116144605.507 7  90502303.41447  22101581.774    22101581.1894   22101584.8764
        46.200          45.0004
 123688137.258 6  96380386.89745  23537071.851    23537071.1584   23537078.0054
        40.400          34.9004
 125979473.455 7                  23973093.407
        42.500
 140942741.080 6                  26820505.976
        41.700
 112057255.212 8  87155691.197 7  20925902.995    20925903.239    20925909.405
        50.600          46.300
 198978788.684 7                  37864398.703
        45.500
 200947093.302 7                  38238969.046
        44.200
 123806205.802 6  96472381.44044  23559529.656    23559528.3464   23559528.2024
        41.300          25.6004
 123741706.512 6  96422124.65345  23547259.558    23547259.2724   23547262.0234
        40.900          35.5004
 126299291.569 5                  23668432.564    23668434.568
        32.100
 412692381.121 5                  78532646.451
        32.700
 202095020.356 7                  38457367.729
        44.700
 133928160.286 7                  25485676.174
        44.500
 149464884.261 5                  28442221.101
        33.000
 124686893.496 8                  23727120.144
        48.700
 151631806.883 6                  28854573.960
        36.700
 142528579.099 6                  27122288.984
        40.300
 140505641.666 6                  26737331.899
        39.700
 144584287.912 6                  27513470.215
        40.700
 105054902.641 8  81709420.898 8  19659584.449    19659584.852    19659590.268
        51.700          48.300
 130364283.789 6 101582569.37245  24807493.153    24807492.5234   24807492.8784
        38.000          30.3004
 134569662.329 7                  25607751.847
        43.600
 122308464.409 6  95128851.218 7  22872295.044    22872295.046    22872303.264
        37.000          42.300
 149350185.768 5                  28420410.971
        35.400
 111924702.648 8  87052594.293 7  20996780.529    20996780.843    20996786.795
        51.200          47.000
 105902195.182 8  82368385.761 8  19811189.209    19811189.698    19811195.004
        52.900          48.200
 112126766.453 8  87371519.41748  21337007.712    21337007.2164   21337009.3274
        50.900          50.4004
 120640272.018 7  93831359.202 7  22584112.389    22584113.329    22584120.778
        47.200          43.000
 136393919.751 6                  25954894.657
        40.300
 106659277.140 8  83111132.16247  20296581.971    20296581.6274   20296581.1474
        50.200          43.5004
 108342993.063 8  84423114.95448  20616984.256    20616983.7744   20616982.8164
        48.800          48.2004
 116435534.946 7  90729020.39546  22156939.731    22156938.7574   22156942.3404
        43.800          41.8004
 121705939.688 7  94660223.760 7  22743660.071    22743659.856    22743667.205
        45.600          43.000
 123466908.668 7  96207995.82644  23494965.890    23494964.7014   23494962.8684
        44.500          29.9004
 25  1  1 13  4  0.0000000  0 34G10G26E19E10R04S31S35G21G03R06S48S33
                                E27E11E29E04E07E21E30R15G12E33R20E26
                                R14R05G32R16E12G28G31G25R21G02
 116187413.795 7  90535660.45947  22109727.752    22109727.1674   22109731.1044
        46.100          45.0004
 123633169.194 6  96337554.67645  23526611.830    23526611.1514   23526617.6904
        40.800          35.0004
 125962945.531 7                  23969948.365
        42.600
 140926484.151 6                  26817412.182
        40.900
 112083575.716 8  87176162.621 7  20930818.374    20930818.227    20930824.765
        50.700          46.300
 198978792.284 7                  37864398.676
        45.400
 200947070.861 7                  38238963.072
        44.000
 123831757.840 6  96492292.08944  23564392.165    23564390.8694   23564390.5414
        41.200          25.4004
 123690254.966 6  96382032.46045  23537468.630    23537468.3404   23537471.1024
        41.200          35.0004
 126251182.053 5                  23659417.120    23659419.107
        32.800
 412692567.051 5                  78532650.605
        32.800
 202095033.569 7                  38457372.245
        44.500
 133910436.109 7                  25482303.440
        44.400
 149433081.442 5                  28436169.066
        33.000
 124695933.095 8                  23728840.359
        48.600
 151600911.734 5                  28848694.622
        33.900
 142557885.448 6                  27127865.905
        40.300
 140462038.010 6                  26729034.451
        39.600
 144602935.457 6                  27517018.725
        40.500
 105030361.183 8  81690333.054 8  19654992.144    19654992.339    19654997.823
        52.100          48.300
 130397849.919 6 101608725.28145  24813880.174    24813879.5534   24813880.8774
        39.000          31.0004
 134608426.811 7                  25615128.672
        43.400
 122358098.382 6  95167455.396 7  22881576.946    22881576.615    22881584.255
        36.100          42.100
 149396136.066 5                  28429155.293
        34.800
 111962013.636 8  87081613.893 7  21003780.411    21003780.256    21003786.602
        51.100          46.800
 105887463.548 8  82356927.819 8  19808433.611    19808434.123    19808439.134
        53.500          48.300
 112143301.174 8  87384403.59948  21340154.199    21340153.6944   21340155.8114
        51.200          50.2004
 120574135.871 7  93779920.040 7  22571730.491    22571731.240    22571740.505
        45.700          43.400
 136395476.014 6                  25955190.714
        39.800
 106661029.356 8  83112497.52047  20296915.333    20296914.9984   20296914.6054
        50.500          43.5004
 108314375.706 8  84400815.63548  20611538.555    20611538.0734   20611537.1574
        49.300          48.1004
 116443953.314 7  90735580.16646  22158541.475    22158540.5234   22158544.3354
        44.700          41.9004
 121714804.454 7  94667118.556 7  22745315.756    22745316.593    22745323.065
        45.000          42.500
 123476818.631 7  96215717.88544  23496851.848    23496850.6644   23496848.6494
        44.400          29.9004
 25  1  1 13  4 15.0000000  0 34G10G26E19E10R04S31S35G21G03R06S48S33
                                E27E11E29E04E07E21E30R15G12E33R20E26
                                R14R05G32R16E12G28G31G25R21G02
 116230317.952 7  90569092.21047  22117892.619    22117892.0474   22117895.6164
        46.100          45.0004
 123578226.444 6  96294742.17645  23516156.144    23516155.4874   23516162.4914
        40.600          34.8004
 125946445.374 7                  23966808.552
        42.600
 140910336.904 6                  26814339.614
        41.200
 112109976.440 8  87196696.450 7  20935748.429    20935748.678    20935754.894
        50.800          46.100
 198978801.902 7                  37864403.555
        45.600
 200947054.139 7                  38238957.987
        44.300
 123857393.255 6  96512267.70844  23569270.622    23569269.3174   23569269.0734
        41.500          25.6004
 123638842.861 6  96341971.11145  23527685.382    23527685.0924   23527687.8804
        41.500          35.5004
 126203061.817 5                  23650401.524    23650402.200
        31.600
 412692759.732 5                  78532654.960
        32.600
 202095053.143 7                  38457376.439
        44.600
 133892813.013 7                  25478950.085
        44.600
 149401358.159 5                  28430132.810
        33.300
 124705005.293 8                  23730566.562
        48.700
 151570021.995 5                  28842816.885
        34.400
 142587203.179 6                  27133444.743
        40.700
 140418456.496 6                  26720740.227
        39.300
 144621684.459 6                  27520586.641
        41.100
 105006016.217 8  81671398.102 8  19650435.749    19650436.395    19650442.085
        52.200          48.200
 130431538.004 6 101634976.52345  24820289.470    24820288.8444   24820290.9174
        38.500          30.3004
 134647250.873 7                  25622516.760
        43.300
 122407817.663 6  95206125.947 6  22890875.319    22890874.750    22890882.511
        37.100          41.800
 149442064.083 5                  28437895.329
        35.400
 111999488.031 8  87110760.634 7  21010810.956    21010810.975    21010816.153
        51.600          46.900
 105872806.609 8  82345527.987 8  19805691.516    19805691.914    19805697.063
        53.000          48.100
 112159890.791 8  87397330.54248  21343311.266    21343310.7574   21343312.7494
        51.000          50.3004
 120508052.096 7  93728521.593 7  22559360.145    22559359.786    22559368.429
        45.400          42.800
 136397149.852 6                  25955509.471
        40.100
 106662906.884 8  83113960.52247  20297272.501    20297272.1624   20297271.8874
        50.400          43.5004
 108285884.864 8  84378614.90248  20606116.762    20606116.2754   20606115.5924
        49.200          48.2004
 116452534.709 7  90742266.94146  22160174.776    22160173.8204   22160177.3584
        44.200          41.8004
 121723858.874 7  94674160.876 7  22747008.404    22747009.151    22747015.037
        45.700          42.800
 123486848.761 7  96223533.56044  23498760.311    23498759.1184   23498757.3574
        44.200          29.9004
 25  1  1 13  4 30.0000000  0 34G10G26E19E10R04S31S35G21G03R06S48S33
                                E27E11E29E04E07E21E30R15G12E33R20E26
                                R14R05G32R16E12G28G31G25R21G02
 116273309.080 7  90602591.72147  22126073.730    22126073.1584   22126076.6014
        46.500          45.0004
 123523300.698 6  96251942.94345  23505705.044    23505704.3834   23505710.3014
        41.000          35.2004
 125929964.276 7                  23963672.174
        42.500
 140894290.952 6                  26811286.081
        41.200
 112136448.431 8  87217285.706 7  20940691.552    20940692.164    20940698.448
        50.500          46.300
 198978808.396 7                  37864402.468
        45.800
 200947034.953 7                  38238956.503
        44.200
 123883102.853 6  96532301.14944  23574163.031    23574161.7084   23574161.2834
        41.500          25.4004
 123587461.311 6  96301933.48445  23517908.071    23517907.7764   23517910.4584
        40.500          35.3004
 126154921.967 5                  23641380.692    23641381.104
        32.700
 412692949.838 5                  78532651.839
        32.500
 202095069.158 7                  38457376.126
        44.600
 133875282.426 7                  25475613.985
        44.500
 149369705.776 5                  28424109.302
        34.100
 124714101.329 8                  23732297.645
        48.500
 151539128.979 5                  28836937.837
        34.900
 142616523.571 6                  27139024.235
        40.900
 140374888.703 6                  26712449.982
        39.700
 144640525.845 6                  27524172.231
        41.000
 104981859.268 8  81652609.355 8  19645915.601    19645915.836    19645921.153
        52.200          48.300
 130465336.923 6 101661313.27245  24826722.508    24826721.9054   24826721.8714
        38.300          30.6004
 134686125.483 7                  25629914.570
        43.100
 122457612.731 6  95244855.415 7  22900184.955    22900186.282    22900194.893
        36.100          42.100
 149487960.980 5                  28446629.145
        34.500
 112037116.211 8  87140026.971 7  21017869.273    21017869.436    21017875.218
        51.400          46.900
 105858215.741 8  82334179.512 8  19802962.307    19802962.606    19802967.643
        52.900          48.200
 112176526.632 8  87410293.51748  21346476.964    21346476.4554   21346478.5024
