     2.11           OBSERVATION DATA    M (MIXED)           RINEX VERSION / TYPE
teqc  2019Feb25                         20260317 16:20:08UTCPGM / RUN BY / DATE
Linux 2.4.21-27.ELsmp|Opteron|gcc -static|Linux 64|=+       COMMENT
BIT 2 OF LLI FLAGS DATA COLLECTED UNDER A/S CONDITION       COMMENT
-Unknown-                                                   MARKER NAME
-Unknown-           -Unknown-                               OBSERVER / AGENCY
-Unknown-           -Unknown-           -Unknown-           REC # / TYPE / VERS
-Unknown-           -Unknown-                               ANT # / TYPE
        0.0000        0.0000        0.0000                  APPROX POSITION XYZ
        0.0000        0.0000        0.0000                  ANTENNA: DELTA H/E/N
     1     1                                                WAVELENGTH FACT L1/2
     7    L1    L2    C1    P1    P2    S1    S2            # / TYPES OF OBSERV
 SNR is mapped to RINEX snr flag value [0-9]                COMMENT
  L1 & L2: min(max(int(snr_dBHz/6), 0), 9)                  COMMENT
  2025     1     1     3     0    0.0000000     GPS         TIME OF FIRST OBS
    18                                                      LEAP SECONDS
                                                            END OF HEADER
 25  1  1  3  0  0.0000000  0 33E34G25E03G04S31S35R06E21E13S33G12G20
                                E15R22G05G11E02G06G29R07R23E27E09R13
                                E05G09R24G17R12E30R14R08G19
 131147814.838 7                  24956548.278
        46.500
 115705521.234 7  90160230.56246  22018003.483    22018002.5044   22018006.2514
        44.100          41.4004
 148637051.414 6                  28284688.585
        36.300
 133587836.006 6 104094420.01543  25420925.421    25420925.0414   25420928.8464
        38.800          19.8004
 198982966.216 7                  37865199.303
        45.800
 200933549.856 7                  38236383.925
        43.800
 125901419.327 5                  23593858.994    23593859.144
        34.500
 143745973.752 6                  27353938.639
        40.100
 138626989.998 7                  26379822.497
        42.800
 202131498.519 7                  38464320.565
        45.300
 108865244.208 8  84830192.54348  20716317.710    20716317.0844   20716317.2134
        49.000          49.4004
 107917586.371 7  84091678.40846  20536009.171    20536007.9154   20536008.6424
        47.800          39.5004
 123518359.428 8                  23504724.355
        48.700
 114847407.000 8  89325900.055 7  21514745.531    21514745.536    21514750.524
        49.900          46.800
 119278213.563 7  92944107.33446  22697873.988    22697873.4924   22697874.6344
        43.800          40.7004
 108272758.333 8  84368485.85147  20603583.754    20603583.4064   20603583.7094
        49.400          42.6004
 150750085.350 5                  28686755.190
        33.600
 115388137.507 7  89912981.33847  21957590.590    21957590.1704   21957593.7264
        46.600          47.4004
 132088796.797 6 102926361.39345  25135656.478    25135655.9064   25135658.0234
        39.600          30.6004
 115077967.137 8  89505150.385 7  21497513.829    21497514.543    21497521.285
        49.900          46.300
 107088669.124 8                  20019064.266    20019064.306
        51.000
 126324203.136 7                  24038640.931
        47.900
 152305388.857 5                  28982749.713
        34.700
 109893340.254 7                  20579445.731    20579444.943
        45.100
 138313746.847 6                  26320224.079
        37.700
 128396353.437 6 100049144.65245  24433005.503    24433004.9534   24433008.4484
        40.100          34.4004
 120987780.951 8  94101675.824 6  22625313.649    22625314.184    22625320.948
        48.700          41.900
 131018873.057 6 102092757.80045  24932017.837    24932017.2384   24932021.8184
        38.500          30.4004
 120603413.492 7  93802836.552 7  22577155.922    22577156.534    22577165.562
        45.000          43.400
 131127693.442 7                  24952720.754
        46.400
 117386799.471 8  91300888.295 7  22021459.725    22021460.168    22021466.464
        50.200          43.700
 117869819.020 7  91676588.572 7  22011347.678    22011348.701    22011356.602
        47.300          44.400
 116693957.773 7  90930487.04045  22206068.000    22206066.5654   22206066.8084
        45.500          33.7004
 25  1  1  3  0 15.0000000  0 33E34G25E03G04S31S35R06E21E13S33G12G20
                                E15R22G05G11E02G06G29R07R23E27E09R13
                                E05G09R24G17R12E30R14R08G19
 131175676.220 7                  24961849.950
        46.100
 115677465.559 7  90138369.02246  22012664.637    22012663.6634   22012667.3174
        43.900          41.5004
 148599566.258 6                  28277555.184
        36.200
 133593484.875 6 104098821.71343  25422000.062    25421999.6964   25422003.6814
        40.000          21.7004
 198982964.493 7                  37865200.550
        46.100
 200933582.279 7                  38236385.253
        43.900
 125941313.603 5                  23601336.549    23601335.147
        34.400
 143708197.110 6                  27346750.000
        39.700
 138597189.366 7                  26374151.140
        42.700
 202131484.336 7                  38464319.407
        45.600
 108871815.911 8  84835313.34648  20717568.455    20717567.8254   20717567.7564
        49.300          49.4004
 107895894.491 7  84074775.65746  20531881.192    20531879.9274   20531880.7804
        47.800          39.4004
 123516085.325 8                  23504291.510
        48.500
 114880892.274 8  89351944.155 7  21521017.825    21521017.988    21521023.576
        49.200          46.900
 119225002.170 7  92902643.94746  22687747.859    22687747.3724   22687748.7174
        44.300          40.8004
 108279755.169 8  84373937.92947  20604915.276    20604914.9284   20604915.1534
        49.400          42.6004
 150796586.518 4                  28695604.233
        29.400
 115423242.522 7  89940335.88647  21964271.022    21964270.6024   21964274.0404
        46.700          47.5004
 132042378.324 6 102890191.26245  25126822.837    25126822.2564   25126825.0084
        40.200          31.3004
 115070986.772 8  89499721.227 7  21496210.022    21496210.408    21496217.378
        50.400          46.500
 107089509.548 8                  20019220.972    20019221.242
        51.000
 126320170.312 7                  24037873.681
        47.600
 152309918.699 5                  28983611.648
        34.900
 109925971.036 7                  20585555.455    20585555.625
        45.100
 138289749.212 6                  26315657.632
        36.400
 128387149.541 6 100041972.80845  24431253.916    24431253.3664   24431256.8294
        39.800          34.3004
 120951344.754 8  94073336.588 6  22618500.545    22618500.312    22618507.224
        48.500          41.500
 131058676.139 6 102123773.17645  24939592.579    24939591.9764   24939596.1834
        38.200          30.2004
 120667623.674 7  93852777.777 7  22589177.163    22589177.485    22589185.815
        45.400          43.300
 131163059.426 7                  24959450.761
        46.200
 117354066.403 8  91275429.276 7  22015319.201    22015319.128    22015325.876
        49.700          43.500
 117818076.084 7  91636344.115 7  22001685.204    22001686.110    22001693.359
        47.100          44.300
 116730924.871 7  90959292.55745  22213102.636    22213101.1974   22213101.4264
        45.300          33.8004
 25  1  1  3  0 30.0000000  0 33E34G25E03G04S31S35R06E21E13S33G12G20
                                E15R22G05G11E02G06G29R07R23E27E09R13
                                E05G09R24G17R12E30R14R08G19
 131203557.367 7                  24967155.497
        46.200
 115649544.564 7  90116612.43446  22007351.697    22007350.7234   22007354.0734
        44.100          41.4004
 148562073.202 6                  28270420.052
        36.200
 133599261.417 6 104103322.79643  25423099.932    25423099.5754   25423102.8824
        37.700          20.2004
 198982965.812 7                  37865196.508
        46.100
 200933618.207 7                  38236401.176
        44.400
 125981355.289 5                  23608838.998    23608838.878
        34.300
 143670471.556 6                  27339571.298
        38.900
 138567429.352 7                  26368488.331
        42.400
 202131473.025 7                  38464316.433
        45.500
 108878547.388 8  84840558.65148  20718849.383    20718848.7534   20718848.7014
        49.100          49.4004
 107874333.914 7  84057975.21846  20527778.413    20527777.1484   20527777.9414
        47.700          39.4004
 123513865.816 8                  23503869.243
        48.400
 114914403.533 8  89378008.447 7  21527295.278    21527295.891    21527301.336
        48.800          46.900
 119171855.990 7  92861231.37046  22677634.251    22677633.7694   22677635.2524
        43.700          40.6004
 108286834.021 8  84379453.92047  20606262.414    20606262.0664   20606262.2024
        49.300          42.4004
 150843084.837 5                  28704452.220
        32.100
 115458382.983 7  89967718.05747  21970957.909    21970957.4854   21970961.0434
        46.600          47.3004
 131995951.659 6 102854014.73745  25117987.944    25117987.3504   25117990.1864
        40.700          31.2004
 115064204.051 8  89494445.796 7  21494942.536    21494942.703    21494949.897
        49.400          46.200
 107090410.131 8                  20019389.545    20019389.639
        51.000
 126316244.333 7                  24037126.791
        47.600
 152314551.771 5                  28984493.209
        35.000
 109958775.576 7                  20591699.617    20591698.986
        45.100
 138265821.755 6                  26311104.554
        37.300
 128378070.984 6 100034898.63245  24429526.601    24429526.0604   24429529.6154
        38.800          34.4004
 120914940.603 8  94045022.267 6  22611692.764    22611693.000    22611699.107
        48.500          41.200
 131098511.189 6 102154813.45445  24947173.767    24947173.1824   24947176.3664
        39.600          30.2004
 120731873.539 7  93902749.875 7  22601203.966    22601204.482    22601213.840
        45.100          43.700
 131198496.733 7                  24966194.473
        46.300
 117321505.471 8  91250104.135 7  22009210.657    22009210.404    22009218.136
        48.900          44.000
 117766427.586 7  91596173.123 7  21992040.597    21992040.883    21992048.074
        47.700          44.000
 116767958.322 7  90988149.76745  22220150.054    22220148.6194   22220148.6724
        45.300          33.5004
 25  1  1  3  0 45.0000000  0 33E34G25E03G04S31S35R06E21E13S33G12G20
                                E15R22G05G11E02G06G29R07R23E27E09R13
                                E05G09R24G17R12E30R14R08G19
 131231450.675 7                  24972463.622
        46.600
 115621750.982 7  90094955.12046  22002062.464    22002061.4994   22002065.1054
        44.400          41.4004
 148524565.041 6                  28263282.779
        36.300
 133605158.705 6 104107918.11643  25424221.718    25424221.3564   25424225.1214
        37.600          18.9004
 198982962.713 7                  37865193.400
        45.700
 200933649.649 7                  38236405.308
        44.200
 126021536.395 5                  23616368.016    23616368.402
        33.700
 143632789.822 6                  27332400.928
        39.300
 138537702.409 7                  26362831.265
        43.200
 202131457.820 7                  38464314.117
        45.800
 108885431.230 8  84845922.68448  20720159.422    20720158.7964   20720158.6324
        49.100          49.3004
 107852897.279 7  84041271.35846  20523699.423    20523698.1544   20523698.6954
        47.800          39.2004
 123511693.306 8                  23503455.991
        48.800
 114947933.200 8  89404087.079 7  21533577.265    21533577.305    21533582.383
        49.500          46.800
 119118767.818 7  92819864.00146  22667532.513    22667532.0354   22667532.9904
        44.500          40.8004
 108293987.247 8  84385027.86247  20607623.434    20607623.0954   20607623.4094
        49.400          42.3004
 150889572.566 5                  28713298.865
        35.000
 115493551.229 7  89995121.87247  21977650.206    21977649.7914   21977653.3274
        46.200          47.2004
 131949509.515 6 102817826.16745  25109149.923    25109149.3424   25109152.9454
        40.400          31.6004
 115057610.970 8  89489317.861 7  21493711.615    21493711.508    21493718.385
        49.600          46.400
 107091363.230 8                  20019567.226    20019567.833
        50.400
 126312417.748 7                  24036398.474
        47.900
 152319280.339 5                  28985392.907
        35.500
 109991745.749 7                  20597873.387    20597872.992
        44.800
 138241957.238 6                  26306563.406
        37.900
 128369110.452 6 100027916.43145  24427821.855    24427821.3144   24427824.6224
        38.600          34.1004
 120878560.775 8  94016726.866 6  22604888.999    22604889.842    22604896.208
        48.400          41.700
 131138371.274 6 102185873.22044  24954757.275    24954756.6674   24954761.4104
        38.900          29.7004
 120796155.059 7  93952746.594 7  22613238.666    22613238.780    22613247.062
        45.500          43.300
 131233997.668 7                  24972949.970
        46.500
 117289109.167 8  91224907.045 7  22003133.315    22003133.397    22003140.512
        49.800          44.100
 117714866.541 7  91556070.120 7  21982412.373    21982412.786    21982419.821
        47.900          44.200
 116805050.594 7  91017052.81045  22227208.147    22227206.6994   22227206.9184
        45.900          33.3004
 25  1  1  3  1  0.0000000  0 33E34G25E03G04S31S35R06E21E13S33G12G20
                                E15R22G05G11E02G06G29R07R23E27E09R13
                                E05G09R24G17R12E30R14R08G19
 131259360.286 7                  24977774.465
        46.400
 115594089.249 7  90073400.55246  21996798.558    21996797.5934   21996801.2404
        44.500          41.5004
 148487046.179 6                  28256143.344
        36.400
 133611180.407 6 104112610.22943  25425368.174    25425367.8264   25425371.0634
        37.600          19.4004
 198982960.537 7                  37865196.401
        45.700
 200933681.349 7                  38236405.974
        43.900
 126061860.644 5                  23623924.727    23623925.869
        35.400
 143595156.346 6                  27325238.891
        40.400
 138508012.796 7                  26357181.341
        42.600
 202131442.983 7                  38464313.115
        45.300
 108892471.616 8  84851408.69548  20721499.134    20721498.5084   20721498.3754
        49.200          49.3004
 107831588.981 7  84024667.49946  20519644.327    20519643.0494   20519643.8094
        47.900          39.3004
 123509571.924 8                  23503052.107
        48.700
 114981485.478 8  89430183.317 7  21539862.088    21539862.425    21539868.107
        48.800          47.100
 119065742.534 7  92778545.62346  22657441.409    22657440.9314   22657442.6704
        44.700          40.9004
 108301218.997 8  84390662.99247  20608999.912    20608999.5774   20608999.5684
        49.500          42.3004
 150936053.730 5                  28722144.107
        31.800
 115528751.343 7  90022550.52647  21984349.169    21984348.7584   21984351.6834
        46.500          47.2004
 131903056.280 6 102781628.93245  25100310.223    25100309.6204   25100312.8964
        40.100          31.5004
 115051212.093 8  89484340.971 7  21492516.005    21492515.908    21492523.281
        49.800          46.200
 107092373.084 8                  20019756.694    20019756.513
        50.800
 126308694.876 7                  24035689.944
        47.900
 152324108.563 5                  28986312.192
        35.600
 110024885.403 7                  20604079.603    20604078.799
        45.200
 138218160.148 6                  26302035.021
        38.400
 128360272.370 6 100021029.65045  24426139.706    24426139.1704   24426142.5584
        39.000          34.1004
 120842209.696 8  93988453.834 6  22598091.792    22598091.965    22598098.027
        48.300          41.300
 131178260.461 6 102216955.65245  24962348.146    24962347.5524   24962352.0874
        39.400          30.0004
 120860471.959 7  94002770.842 7  22625278.626    22625278.937    22625286.977
        44.400          43.000
 131269566.302 7                  24979718.446
        46.400
 117256882.156 8  91199841.629 7  21997087.299    21997087.558    21997093.760
        50.000          43.700
 117663397.873 7  91516038.980 7  21972801.345    21972801.087    21972808.095
        47.500          44.200
 116842205.721 7  91046004.83645  22234278.656    22234277.2034   22234277.3184
        45.400          33.2004
 25  1  1  3  1 15.0000000  0 33E34G25E03G04S31S35R06E21E13S33G12G20
                                E15R22G05G11E02G06G29R07R23E27E09R13
                                E05G09R24G17R12E30R14R08G19
 131287287.417 7                  24983088.939
        46.200
 115566560.998 7  90051949.98946  21991559.968    21991559.0034   21991562.8204
        44.700          41.6004
 148449518.204 6                  28249002.351
        36.500
 133617328.281 6 104117400.75743  25426537.699    25426537.3464   25426541.1934
        36.900          18.2004
 198982959.059 7                  37865197.755
        45.900
 200933714.754 7                  38236412.954
        44.200
 126102329.219 5                  23631508.583    23631510.313
        34.900
 143557572.691 6                  27318086.897
        40.000
 138478361.845 7                  26351539.191
        43.000
 202131429.241 7                  38464307.687
        45.400
 108899669.871 8  84857017.72148  20722868.969    20722868.3434   20722868.1764
        49.200          49.4004
 107810410.426 7  84008164.74046  20515614.104    20515612.8214   20515613.6214
        47.600          39.2004
 123507502.948 8                  23502658.360
        48.900
 115015061.722 8  89456298.162 7  21546152.131    21546152.728    21546157.712
        48.700          46.900
 119012781.456 7  92737277.28346  22647363.433    22647362.9464   22647364.5234
        44.400          40.9004
 108308530.395 8  84396360.18147  20610390.972    20610390.6374   20610390.8924
        49.500          42.3004
 150982529.641 5                  28730988.130
        32.500
 115563984.500 7  90050004.92247  21991053.529    21991053.1234   21991056.3314
        46.500          47.1004
 131856593.229 6 102745424.05645  25091469.222    25091468.6144   25091471.3184
        39.200          31.3004
 115045009.226 8  89479516.526 7  21491356.927    21491357.490    21491364.492
        49.800          46.300
 107093441.203 8                  20019956.027    20019956.350
        50.400
 126305077.106 7                  24035001.435
        47.900
 152329038.042 5                  28987249.717
        35.100
 110058195.466 7                  20610317.673    20610317.374
        44.800
 138194431.977 6                  26297519.047
        38.500
 128351558.268 6 100014239.47445  24424481.884    24424481.3574   24424484.1904
        39.800          34.1004
 120805888.605 7  93960204.128 6  22591299.184    22591299.048    22591306.044
        47.700          41.200
 131218179.885 6 102248061.67044  24969944.899    24969944.2964   24969948.5654
        37.000          29.7004
 120924824.932 7  94052823.133 7  22637325.522    22637325.846    22637335.160
        44.200          43.500
 131305203.812 7                  24986500.091
        46.600
 117224826.391 8  91174909.391 7  21991073.390    21991074.174    21991080.430
        49.800          43.500
 117612023.456 8  91476081.135 7  21963207.654    21963207.472    21963214.577
        48.300          44.000
 116879425.074 7  91075006.90945  22241361.230    22241359.7594   22241359.7154
        45.400          33.2004
 25  1  1  3  1 30.0000000  0 33E34G25E03G04S31S35R06E21E13S33G12G20
                                E15R22G05G11E02G06G29R07R23E27E09R13
                                E05G09R24G17R12E30R14R08G19
 131315228.695 7                  24988406.203
        46.400
 115539163.176 7  90030601.06246  21986346.204    21986345.2214   21986349.1404
        44.300          41.7004
 148411978.133 6                  28241858.024
        37.100
 133623598.799 6 104122286.82243  25427731.281    25427730.9104   25427734.3784
        37.300          18.2004
 198982956.085 7                  37865195.538
        46.000
 200933746.190 7                  38236416.992
        44.000
 126142938.425 5                  23639119.195    23639119.682
        34.300
 143520035.814 6                  27310944.139
        40.200
 138448746.247 7                  26345903.471
        43.100
 202131413.694 7                  38464303.376
        45.600
 108907022.631 8  84862747.14348  20724268.054    20724267.4284   20724267.3694
        49.400          49.4004
 107789358.472 7  83991760.63346  20511608.052    20511606.7744   20511607.5174
        47.200          39.2004
 123505482.966 8                  23502274.198
        48.600
 115048658.427 8  89482428.940 7  21552445.619    21552446.515    21552451.780
        48.600          47.100
 118959881.361 7  92696056.45746  22637297.507    22637297.0294   22637297.7434
        44.200          41.0004
 108315918.024 8  84402116.76647  20611797.002    20611796.6634   20611796.7074
        49.700          42.3004
 151028996.701 5                  28739830.677
        32.800
 115599247.210 7  90077482.34747  21997763.394    21997762.9924   21997766.6454
        46.400          47.1004
 131810117.337 6 102709209.17545  25082625.027    25082624.4104   25082627.0384
        39.200          31.4004
 115038999.031 8  89474841.936 7  21490234.429    21490234.710    21490241.614
        49.800          46.200
 107094563.934 8                  20020166.224    20020166.266
        50.600
 126301561.230 7                  24034332.598
        47.800
 152334065.481 5                  28988206.422
        35.200
 110091672.192 7                  20616586.865    20616586.222
        44.900
 138170769.683 6                  26293016.436
        37.100
 128342964.981 6 100007543.42945  24422845.534    24422845.0204   24422848.9004
        39.500          34.3004
 120769594.318 8  93931975.264 6  22584512.271    22584512.292    22584519.038
        48.000          41.200
 131258126.356 6 102279188.76445  24977546.941    24977546.3474   24977550.2294
        39.100          30.0004
 120989210.223 7  94102900.556 7  22649379.749    22649379.082    22649387.775
        44.400          43.400
 131340906.741 7                  24993294.165
        46.300
 117192938.739 8  91150107.928 7  21985092.348    21985092.144    21985098.508
        50.100          43.600
 117560740.502 8  91436194.425 7  21953630.127    21953631.103    21953637.220
        48.200          44.300
 116916705.348 7  91104056.45145  22248455.460    22248453.9854   22248454.1464
        45.300          33.3004
 25  1  1  3  1 45.0000000  0 33E34G25E03G04S31S35R06E21E13S33G12G20
                                E15R22G05G11E02G06G29R07R23E27E09R13
                                E05G09R24G17R12E30R14R08G19
 131343188.595 7                  24993726.560
        46.500
 115511900.605 7  90009357.51746  21981158.520    21981157.5324   21981161.1644
        44.300          41.7004
 148374430.726 6                  28234712.371
        36.300
 133629996.647 6 104127272.16843  25428948.607    25428948.2104   25428952.4264
        36.200          18.0004
 198982956.280 7                  37865194.460
        45.800
 200933780.419 7                  38236424.903
        44.000
 126183692.320 5                  23646757.260    23646757.124
        35.400
 143482550.456 6                  27303810.223
        40.400
 138419170.591 7                  26340275.089
        43.100
 202131401.525 7                  38464305.174
        45.200
 108914534.388 8  84868600.45448  20725697.566    20725696.9454   20725696.7864
        49.100          49.4004
 107768437.877 7  83975458.88046  20507627.025    20507625.7474   20507626.4364
        47.600          39.2004
 123503516.464 8                  23501899.707
        48.900
 115082280.271 8  89508579.231 7  21558745.000    21558745.426    21558750.253
        49.000          47.000
 118907046.974 7  92654886.83846  22627242.729    22627242.2564   22627243.6884
        44.800          41.1004
 108323386.343 8  84407936.24547  20613217.857    20613217.5094   20613217.8694
        49.700          42.3004
 151075459.309 5                  28748672.061
        30.800
 115634543.929 7  90104986.27447  22004480.134    22004479.7234   22004483.4064
        46.400          47.1004
 131763633.191 6 102672987.86045  25073778.644    25073778.0144   25073781.4364
        41.500          32.5004
 115033186.183 8  89470320.831 7  21489148.087    21489148.334    21489155.609
        49.300          45.900
 107095745.781 8                  20020387.142    20020386.968
        50.800
 126298151.871 8                  24033683.904
        48.100
 152339195.239 5                  28989182.579
        35.900
 110125319.927 7                  20622887.683    20622887.087
        44.900
 138147178.106 6                  26288527.454
        37.400
 128334497.366 6 100000945.30845  24421234.226    24421233.7214   24421237.7794
        38.600          34.2004
 120733331.336 8  93903770.710 6  22577730.653    22577730.781    22577737.165
        48.200          41.300
 131298104.184 6 102310340.25945  24985154.530    24985153.9404   24985157.7694
        37.700          30.1004
 121053631.960 7  94153006.310 7  22661439.134    22661438.668    22661447.303
        44.200          43.100
 131376679.514 7                  25000101.188
        46.400
 117161224.190 8  91125441.081 7  21979141.780    21979141.752    21979148.696
        48.900          43.600
 117509554.169 7  91396382.877 7  21944071.159    21944071.829    21944079.154
        47.400          44.200
 116954051.107 7  91133157.02645  22255562.201    22255560.7174   22255560.8874
        45.300          33.1004
 25  1  1  3  2  0.0000000  0 33E34G25E03G04S31S35R06E21E13S33G12G20
                                E15R22G05G11E02G06G29R07R23E27E09R13
                                E05G09R24G17R12E30R14R08G19
 131371163.755 7                  24999050.014
        46.300
 115484770.288 7  89988217.03846  21975995.906    21975994.9364   21975998.4254
        44.600          41.5004
 148336873.064 5                  28227566.317
        35.500
 133636518.275 6 104132353.79342  25430189.479    25430189.1044   25430193.4004
        37.000          17.8004
 198982955.675 7                  37865189.818
        45.700
 200933814.375 7                  38236428.650
        43.800
 126224587.499 5                  23654421.495    23654421.562
        35.200
 143445113.683 6                  27296687.066
        40.000
 138389631.643 7                  26334654.329
        43.200
 202131388.327 7                  38464299.065
        45.400
 108922201.849 8  84874575.09848  20727156.603    20727155.9824   20727155.8544
        49.300          49.3004
 107747645.465 7  83959257.01246  20503670.362    20503669.0844   20503669.7524
        47.500          39.0004
 123501600.131 8                  23501535.288
        48.700
 115115923.914 8  89534746.501 7  21565046.679    21565047.109    21565053.162
        48.100          47.000
 118854275.856 7  92613766.51446  22617200.956    22617200.4784   22617201.6314
        44.600          41.0004
 108330931.985 8  84413815.96747  20614653.713    20614653.3564   20614653.7484
        49.500          42.1004
 151121914.122 5                  28757512.202
        31.100
 115669871.244 7  90132514.04047  22011202.814    22011202.4174   22011205.9774
        46.700          46.9004
 131717137.618 6 102636757.61545  25064930.633    25064930.0074   25064933.0114
        39.800          31.2004
 115027567.636 8  89465950.849 7  21488098.810    21488099.309    21488106.039
        50.000          45.800
 107096983.523 8                  20020617.946    20020618.562
        50.300
 126294845.879 7                  24033054.574
        47.800
 152344424.120 5                  28990177.459
        34.500
 110159134.906 7                  20629220.466    20629219.951
        45.100
 138123654.136 6                  26284050.929
        37.900
 128326152.242 6  99994442.65045  24419646.167    24419645.6854   24419649.8074
        40.100          34.2004
 120697096.297 8  93875587.912 6  22570954.282    22570954.515    22570961.610
        48.400          41.400
 131338110.108 6 102341513.64744  24992767.813    24992767.2374   24992770.5464
        39.200          29.5004
 121118086.325 7  94203137.485 7  22673504.568    22673505.369    22673512.554
        44.400          42.500
 131412518.716 7                  25006921.550
        46.000
 117129679.837 8  91100906.619 7  21973224.697    21973224.378    21973230.924
        49.100          43.800
 117458462.095 8  91356644.636 7  21934530.543    21934530.938    21934537.874
        48.100          44.100
 116991459.126 7  91162306.11045  22262680.935    22262679.4464   22262679.3304
        45.000          32.8004
 25  1  1  3  2 15.0000000  0 33E34G25E03G04S31S35R06E21E13S33G12G20
                                E15R22G05G11E02G06G29R07R23E27E09R13
                                E05G09R24G17R12E30R14R08G19
 131399152.473 7                  25004376.043
        46.800
 115457770.842 7  89967178.52846  21970857.575    21970856.5964   21970860.5494
        44.500          41.8004
 148299303.781 6                  28220417.347
        36.800
 133643162.539 6 104137531.02343  25431454.309    25431453.9384   25431457.5234
        37.000          18.7004
 198982952.606 7                  37865191.746
        46.100
 200933845.466 7                  38236436.547
        44.000
 126265621.684 5                  23662111.279    23662110.839
        35.800
 143407723.993 6                  27289571.634
        40.700
 138360127.743 7                  26329039.662
        43.000
 202131373.222 7                  38464296.642
        45.500
 108930023.382 8  84880669.79748  20728644.793    20728644.1724   20728644.2564
        49.400          49.3004
 107726979.846 7  83943153.94146  20499737.865    20499736.5964   20499737.1974
        47.200          39.1004
 123499732.230 8                  23501179.673
        49.000
 115149587.601 8  89560929.358 7  21571353.875    21571353.993    21571359.424
        49.300          47.100
 118801566.868 7  92572694.60646  22607170.642    22607170.1824   22607171.4204
        44.200          41.1004
 108338553.176 8  84419754.55947  20616104.104    20616103.7474   20616104.0514
        49.500          42.2004
 151168359.419 5                  28766349.576
        34.600
 115705227.351 7  90160064.24647  22017930.962    22017930.5654   22017934.0654
        46.000          46.9004
 131670629.159 6 102600517.34745  25056081.262    25056080.6454   25056082.6464
        39.700          31.6004
 115022141.956 8  89461730.896 7  21487085.725    21487085.548    21487092.246
        50.000          45.700
 107098275.418 8                  20020859.718    20020859.949
        50.500
 126291641.679 8                  24032444.910
        48.000
 152349750.522 5                  28991191.390
        35.900
 110193114.931 7                  20635583.205    20635583.236
        45.100
 138100196.444 6                  26279587.083
        37.700
 128317928.215 6  99988034.33945  24418081.030    24418080.5484   24418084.8294
        39.300          34.2004
 120660887.478 8  93847425.540 7  22564182.933    22564183.186    22564190.170
        48.700          42.000
 131378142.690 6 102372707.79344  25000385.449    25000384.8644   25000388.5594
        37.300          29.9004
 121182571.159 7  94253292.321 7  22685576.330    22685577.001    22685585.318
        45.200          42.900
 131448422.560 7                  25013753.857
        46.400
 117098304.099 8  91076503.294 7  21967338.333    21967338.627    21967345.053
        49.900          44.100
 117407462.854 8  91316978.607 7  21925006.678    21925006.847    21925013.627
        48.200          43.800
 117028927.587 7  91191502.29145  22269810.989    22269809.5054   22269809.4704
        44.900          32.8004
 25  1  1  3  2 30.0000000  0 33E34G25E03G04S31S35R06E21E13S33G12G20
                                E15R22G05G11E02G06G29R07R23E27E09R13
                                E05G09R24G17R12E30R14R08G19
 131427156.507 7                  25009705.236
        46.700
 115430904.418 7  89946243.67546  21965745.366    21965744.3874   21965747.9464
        44.800          41.8004
 148261724.977 6                  28213265.664
        36.100
 133649931.333 6 104142805.40943  25432742.248    25432741.8734   25432745.7624
        38.100          20.5004
 198982949.520 7                  37865190.860
        45.900
 200933877.011 7                  38236445.029
        44.100
 126306796.514 5                  23669827.069    23669826.994
        35.300
 143370383.557 6                  27282466.213
        40.100
 138330660.796 7                  26323432.455
        43.700
 202131357.429 7                  38464291.544
        45.400
 108938000.783 8  84886885.94948  20730162.637    20730162.0034   20730162.3004
        49.400          49.3004
 107706442.926 7  83927151.15946  20495829.929    20495828.6604   20495829.1244
        47.500          39.1004
 123497914.564 8                  23500833.987
        49.000
 115183273.273 8  89587129.326 7  21577664.102    21577664.557    21577669.728
        49.700          47.200
 118748922.301 7  92531672.89246  22597153.013    22597152.5624   22597153.5684
        44.300          41.1004
 108346251.679 8  84425753.39247  20617568.848    20617568.4864   20617569.0174
        49.300          42.2004
 151214796.778 4                  28775186.147
        29.800
 115740613.991 7  90187638.23247  22024664.844    22024664.4514   22024667.9224
        46.300          46.8004
 131624109.769 6 102564268.57145  25047228.431    25047227.8144   25047230.5864
        40.300          31.8004
 115016910.671 8  89457662.140 7  21486107.824    21486108.306    21486115.322
        49.700          46.000
 107099623.236 8                  20021111.692    20021111.760
        50.300
 126288541.249 8                  24031854.888
        48.100
 152355176.383 6                  28992223.604
        37.600
 110227261.637 7                  20641978.127    20641977.795
        44.600
 138076807.145 6                  26275136.434
        38.100
 128309827.377 6  99981722.02345  24416539.578    24416539.0964   24416543.2194
        39.300          33.7004
 120624706.935 8  93819285.146 6  22557417.216    22557417.541    22557424.234
        48.200          41.500
 131418204.010 6 102403924.38844  25008009.183    25008008.5984   25008012.0714
        37.500          29.7004
 121247087.749 7  94303471.905 7  22697654.292    22697654.742    22697662.880
        44.400          42.400
 131484392.756 7                  25020598.548
        46.500
 117067099.486 8  91052233.095 7  21961484.690    21961484.432    21961491.543
        49.900          43.900
 117356558.958 8  91277386.734 7  21915500.428    21915500.652    21915507.936
        48.700          44.000
 117066458.624 7  91220747.23545  22276952.338    22276950.8414   22276951.3674
        45.200          32.9004
 25  1  1  3  2 45.0000000  0 33E34G25E03G04S31S35R06E21E13S33G12G20
                                E15R22G05G11E02G06G29R07R23E27E09R13
                                E05G09R24G17R12E30R14R08G19
 131455178.760 7                  25015037.599
        46.500
 115404174.240 7  89925414.98346  21960658.951    21960657.9684   21960661.3194
        44.900          41.7004
 148224139.932 6                  28206113.557
        37.000
 133656827.396 6 104148178.96443  25434054.436    25434054.0614   25434057.7814
        37.400          18.8004
 198982949.508 7                  37865191.620
        45.800
 200933911.309 7                  38236451.719
        44.100
 126348114.397 5                  23677569.367    23677569.417
        34.300
 143333095.563 6                  27275370.474
        40.800
 138301233.789 7                  26317832.554
        43.200
 202131345.179 7                  38464290.431
        45.300
 108946136.974 8  84893225.83548  20731711.139    20731710.5054   20731710.5644
        49.200          49.3004
 107686037.691 7  83911250.98746  20491946.808    20491945.5394   20491946.1104
        47.600          39.0004
 123496150.034 8                  23500497.942
        48.900
 115216983.858 8  89613348.669 7  21583979.156    21583979.315    21583984.916
        48.800          47.100
 118696345.172 7  92490703.73146  22587147.689    22587147.2334   22587148.4604
        44.900          41.2004
 108354030.350 8  84431814.69547  20619049.444    20619049.0824   20619049.2504
        49.400          42.1004
 151261229.352 5                  28784023.188
        30.200
 115776033.993 7  90215238.22547  22031405.100    22031404.7114   22031408.1284
        46.600          46.7004
 131577582.577 6 102528013.70745  25038373.623    25038373.0244   25038376.0324
        40.900          31.5004
 115011877.366 8  89453747.366 7  21485167.571    21485167.799    21485175.096
        49.800          46.100
 107101029.955 8                  20021374.544    20021374.941
        50.400
 126285547.640 7                  24031285.294
        47.800
 152360704.536 6                  28993275.504
        36.200
 110261577.486 7                  20648404.641    20648404.210
        44.700
 138053489.408 6                  26270699.027
        37.500
 128301852.846 6  99975508.13245  24415022.659    24415022.1684   24415025.2244
        39.900          33.6004
 120588557.733 8  93791169.122 6  22550657.034    22550657.217    22550663.887
        48.600          41.500
 131458296.687 6 102435165.46344  25015638.192    25015637.6074   25015641.4154
        38.100          29.2004
 121311638.738 7  94353678.213 7  22709737.989    22709738.694    22709746.510
        44.500          42.500
 131520432.131 7                  25027456.668
        46.200
 117036069.494 8  91028098.692 7  21955663.572    21955663.319    21955670.273
        49.400          43.800
 117305754.081 8  91237871.875 7  21906012.508    21906013.367    21906019.847
        48.100          43.600
 117104054.776 7  91250042.91745  22284106.877    22284105.3844   22284105.5654
        45.000          32.6004
 25  1  1  3  3  0.0000000  0 33E34G25E03G04S31S35R06E21E13S33G12G20
                                E15R22G05G11E02G06G29R07R23E27E09R13
                                E05G09R24G17R12E30R14R08G19
 131483216.825 7                  25020373.129
        46.300
 115377578.252 7  89904690.86046  21955597.853    21955596.8614   21955600.2654
        45.200          41.7004
 148186546.528 6                  28198959.711
        36.900
 133663848.561 6 104153649.99243  25435390.298    25435389.9234   25435394.3444
        36.800          18.2004
 198982949.991 7                  37865190.851
        46.200
 200933945.911 7                  38236458.239
        44.200
 126389572.883 5                  23685339.756    23685339.469
        35.200
 143295857.924 6                  27268283.824
        40.500
 138271844.404 7                  26312239.950
        42.900
 202131332.879 7                  38464289.648
        45.600
 108954429.736 8  84899687.72248  20733289.479    20733288.8454   20733288.5954
        49.400          49.2004
 107665761.864 7  83895451.65446  20488088.387    20488087.1134   20488087.7664
        47.700          38.9004
 123494436.228 8                  23500172.020
        48.700
 115250716.972 8  89639585.503 7  21590298.558    21590298.540    21590304.110
        48.400          46.900
 118643833.333 7  92449785.43946  22577154.990    22577154.5304   22577155.6404
        44.700          41.2004
 108361886.777 8  84437936.58147  20620544.440    20620544.0834   20620544.3234
        49.300          42.0004
 151307654.479 5                  28792857.392
        34.100
 115811484.908 7  90242862.30347  22038151.274    22038150.8814   22038154.2374
        46.200          46.6004
 131531045.451 6 102491751.09645  25029518.487    25029517.8974   25029520.0504
        41.100          31.9004
 115007039.907 8  89449984.886 7  21484264.354    21484264.397    21484271.095
        50.100          46.000
 107102493.288 8                  20021648.236    20021648.319
        50.300
 126282658.599 7                  24030735.596
        47.800
 152366332.600 6                  28994346.875
        36.400
 110296060.068 7                  20654862.179    20654861.532
        44.800
 138030241.142 6                  26266274.912
        37.500
 128294002.494 6  99969390.99545  24413528.002    24413527.5114   24413531.1214
        39.500          33.9004
 120552437.318 8  93763075.476 6  22543902.128    22543902.218    22543909.228
        48.000          41.600
 131498418.313 6 102466429.02844  25023273.187    25023272.6064   25023276.2374
        38.700          29.7004
 121376221.049 7  94403908.848 7  22721827.711    22721827.945    22721837.138
        44.600          42.600
 131556538.217 7                  25034327.707
        46.000
 117005211.956 8  91004098.404 7  21949874.745    21949874.911    21949880.720
        50.600          43.900
 117255046.486 8  91198432.660 7  21896543.011    21896543.856    21896551.378
        48.300          44.000
 117141713.767 7  91279387.56745  22291273.349    22291271.8564   22291271.8144
        45.000          32.5004
 25  1  1  3  3 15.0000000  0 33E34G25E03G04S31S35R06E21E13S33G12G20
                                E15R22G05G11E02G06G29R07R23E27E09R13
                                E05G09R24G17R12E30R14R08G19
 131511266.967 7                  25025710.912
        46.300
 115351113.044 7  89884068.63846  21950561.261    21950560.2554   21950564.0784
        44.900          41.7004
 148148941.393 6                  28191803.690
        36.300
 133670991.251 6 104159215.81643  25436749.700    25436749.3474   25436753.3914
        37.700          18.7004
 198982946.547 7                  37865194.500
        46.000
 200933977.693 7                  38236465.433
        44.100
 126431167.391 5                  23693134.305    23693134.643
        35.900
 143258667.239 6                  27261206.980
        40.600
 138242489.028 7                  26306653.698
        43.500
 202131317.398 7                  38464286.277
        45.600
 108962875.348 8  84906268.71348  20734896.603    20734895.9734   20734895.7234
        49.100          49.2004
 107645612.007 7  83879750.47646  20484254.066    20484252.7884   20484253.3634
        47.700          38.9004
 123492769.439 8                  23499854.879
        48.700
 115284468.932 8  89665837.051 7  21596621.643    21596621.500    21596627.427
        48.800          46.900
 118591383.653 7  92408915.59346  22567174.038    22567173.5784   22567174.7014
        45.100          41.2004
 108369817.180 8  84444116.12047  20622053.529    20622053.1854   20622053.4204
        49.200          42.0004
 151354068.340 4                  28801689.932
        28.900
 115846962.908 7  90270507.48747  22044902.301    22044901.9124   22044905.5284
        46.200          46.5004
 131484494.748 6 102455477.90245  25020660.512    25020659.9274   25020662.0524
        39.900          31.4004
 115002394.614 8  89446371.893 7  21483396.397    21483396.965    21483403.591
        50.400          46.000
 107104009.555 8                  20021931.716    20021932.030
        50.700
 126279870.552 7                  24030204.909
        47.600
 152372057.079 5                  28995436.101
        34.800
 110330704.760 7                  20661349.066    20661349.387
        44.600
 138007058.990 6                  26261863.430
        37.500
 128286272.899 6  99963367.95445  24412057.299    24412056.7854   24412060.4984
        38.800          33.7004
 120516342.043 8  93735001.390 6  22537152.328    22537152.783    22537159.444
        48.500          41.500
 131538565.253 6 102497712.30044  25030912.683    25030912.1074   25030915.7894
        38.500          29.1004
 121440830.695 7  94454160.780 7  22733923.282    22733923.876    22733932.081
        44.700          42.400
 131592707.239 7                  25041209.983
        45.600
 116974523.480 8  90980229.634 7  21944117.105    21944117.728    21944124.731
        50.200          44.400
 117204433.112 8  91159066.750 7  21887092.174    21887092.791    21887099.531
        48.300          44.300
 117179432.066 7  91308778.42045  22298451.066    22298449.5824   22298449.5784
        44.800          32.5004
 25  1  1  3  3 30.0000000  0 32E34G25E03G04S31S35R06E21E13S33G12G20
                                E15R22G05G11G06G29R07R23E27E09R13E05
                                G09R24G17R12E30R14R08G19
 131539333.289 7                  25031051.706
        46.400
 115324783.075 7  89863551.79946  21945550.990    21945549.9934   21945553.6164
        45.400          41.7004
 148111328.976 6                  28184646.594
        37.200
 133678259.585 6 104164879.55843  25438132.993    25438132.6404   25438136.1554
        37.400          20.2004
 198982945.177 7                  37865191.862
        45.700
 200934009.618 7                  38236466.779
        44.000
 126472902.128 5                  23700955.715    23700955.864
        35.400
 143221527.890 6                  27254139.786
        40.900
 138213171.810 7                  26301074.608
        43.100
 202131303.395 7                  38464283.755
        45.500
 108971477.899 8  84912971.99548  20736533.653    20736533.0234   20736532.7314
        49.500          49.1004
 107625592.427 7  83864150.81646  20480444.288    20480443.0104   20480443.7914
        47.600          38.9004
 123491153.757 8                  23499547.171
        48.800
 115318243.902 8  89692106.451 7  21602948.697    21602948.774    21602954.241
        48.600          46.700
 118539000.720 7  92368097.74846  22557206.160    22557205.6954   22557206.5294
        45.000          41.2004
 108377825.602 8  84450356.44947  20623577.492    20623577.1574   20623577.3944
        49.300          42.0004
 115882472.088 7  90298176.97347  22051659.477    22051659.0844   22051662.7364
        46.300          46.5004
 131437934.689 6 102419197.42145  25011800.287    25011799.7024   25011802.2164
        40.300          32.0004
 114997946.074 8  89442911.911 7  21482565.678    21482565.757    21482572.670
        50.400          46.100
 107105582.814 8                  20022225.903    20022226.083
        50.800
 126277187.778 7                  24029694.448
        47.800
 152377882.407 5                  28996544.872
        35.200
 110365515.640 7                  20667868.386    20667868.485
        45.100
 137983947.301 6                  26257465.347
        37.700
 128278668.373 6  99957442.36645  24410610.580    24410610.0714   24410613.5264
        39.200          33.6004
 120480276.087 8  93706950.130 6  22530407.504    22530407.814    22530414.833
        48.000          41.400
 131578741.991 6 102529018.79644  25038558.598    25038558.0224   25038561.6114
        38.300          29.5004
 121505471.357 7  94504436.853 7  22746023.943    22746023.979    22746031.800
        45.300          42.200
 131628943.205 7                  25048105.762
        46.000
 116944008.697 8  90956495.955 7  21938393.038    21938393.340    21938400.352
        50.200          44.200
 117153918.607 8  91119777.739 7  21877658.839    21877659.501    21877666.339
        48.500          44.100
 117217213.725 7  91338218.65145  22305640.684    22305639.1954   22305639.3484
        44.900          32.5004
 25  1  1  3  3 45.0000000  0 32E34G25E03G04S31S35R06E21E13S33G12G20
                                E15R22G05G11G06G29R07R23E27E09R13E05
                                G09R24G17R12E30R14R08G19
 131567410.716 7                  25036394.806
        46.300
 115298583.575 7  89843136.62046  21940565.691    21940564.6854   21940568.0204
        44.800          41.8004
 148073704.551 6                  28177486.603
        37.600
 133685648.251 5 104170636.94943  25439538.789    25439538.4004   25439541.8824
        35.500          18.1004
 198982940.031 7                  37865189.376
        45.800
 200934038.305 7                  38236474.225
        44.000
 126514771.532 5                  23708802.107    23708801.751
        35.900
 143184435.153 6                  27247081.223
        39.700
 138183887.799 7                  26295502.121
        43.600
 202131285.048 7                  38464280.410
        45.300
 108980232.273 8  84919793.58448  20738199.344    20738198.7184   20738198.6294
        49.500          49.1004
 107605698.307 7  83848648.91546  20476658.703    20476657.4294   20476658.0624
        47.700          39.0004
 123489584.115 8                  23499248.692
        49.000
 115352036.782 8  89718389.799 7  21609279.250    21609279.568    21609284.216
        48.300          46.400
 118486679.751 7  92327328.19046  22547249.419    22547248.9504   22547250.1974
        45.300          41.3004
 108385906.929 8  84456653.58647  20625115.249    20625114.9144   20625115.1944
        49.300          42.0004
 115918007.253 7  90325866.70447  22058421.665    22058421.2724   22058424.8584
        46.500          46.4004
 131391360.570 6 102382905.99345  25002937.506    25002936.9304   25002939.9704
        40.100          32.1004
 114993689.063 8  89439600.918 7  21481770.113    21481770.301    21481777.311
        50.900          46.000
 107107207.953 8                  20022529.927    20022529.872
        50.800
 126274605.343 8                  24029203.173
        48.100
 152383803.481 5                  28997670.752
        33.000
 110400487.330 7                  20674418.176    20674417.449
        44.800
 137960901.367 6                  26253079.660
        36.900
 128271184.132 6  99951610.50745  24409185.799    24409185.2854   24409189.3234
        38.500          33.5004
 120444234.510 8  93678917.827 6  22523667.264    22523667.536    22523674.416
        48.200          41.500
 131618943.346 6 102560344.49144  25046208.579    25046208.0294   25046211.6054
        38.100          29.1004
 121570137.436 7  94554732.683 6  22758130.045    22758130.262    22758138.034
        45.600          41.900
 131665240.967 7                  25055012.905
        46.100
 116913662.853 8  90932893.677 7  21932699.289    21932699.905    21932706.823
        49.700          44.000
 117103498.630 7  91080562.236 7  21868242.904    21868243.091    21868250.269
        47.600          44.000
 117255053.831 7  91367704.43245  22312841.243    22312839.7634   22312839.9844
        45.200          32.4004
 25  1  1  3  4  0.0000000  0 32E34G25E03G04S31S35R06E21E13S33G12G20
                                E15R22G05G11G06G29R07R23E27E09R13E05
                                G09R24G17R12E30R14R08G19
 131595510.289 7                  25041742.094
        46.400
 115272525.956 7  89822832.00046  21935606.625    21935605.6154   21935609.4164
        44.900          41.7004
 148036079.538 6                  28170326.506
        37.100
 133693168.993 6 104176497.39843  25440969.099    25440968.7244   25440972.8994
        36.600          18.4004
 198982941.155 7                  37865190.950
        46.100
 200934074.212 7                  38236480.977
        44.000
 126556786.471 5                  23716673.960    23716675.831
        34.800
 143147400.377 6                  27240034.166
        40.700
 138154648.130 7                  26289938.005
        43.200
 202131273.705 7                  38464278.697
        45.500
 108989149.673 8  84926742.20248  20739896.343    20739895.7134   20739895.5384
        49.800          49.0004
 107585940.914 7  83833253.55146  20472898.981    20472897.7164   20472898.3404
        47.600          38.9004
 123488071.578 8                  23498960.677
        49.100
 115385858.870 8  89744695.841 7  21615615.687    21615615.718    21615620.644
        48.400          46.700
 118434432.134 7  92286615.78146  22537307.010    22537306.5374   22537307.8224
        45.000          41.4004
 108394072.201 8  84463016.13546  20626669.140    20626668.8144   20626669.0114
        49.400          41.9004
 115953579.445 7  90353585.28447  22065190.963    22065190.5744   22065193.9914
        45.800          46.3004
 131344783.883 6 102346612.55345  24994073.929    24994073.3754   24994076.6244
        40.400          32.1004
 114989635.228 8  89436447.942 7  21481012.874    21481012.870    21481019.904
        49.600          45.900
 107108896.294 8                  20022845.248    20022845.502
        50.700
 126272134.492 8                  24028732.897
        48.100
 152389831.242 6                  28998818.218
        36.000
 110435630.420 7                  20680999.039    20680998.658
        45.000
 137937932.482 6                  26248708.998
        38.000
 128263831.459 6  99945881.17145  24407786.676    24407786.1764   24407790.3674
        40.300          33.5004
 120408228.667 8  93650913.282 6  22516934.269    22516934.905    22516941.302
        48.800          41.300
 131659180.400 6 102591697.99944  25053864.748    25053864.1904   25053868.7624
        38.500          29.2004
 121634839.761 7  94605056.679 7  22770241.870    22770242.399    22770251.252
        44.500          42.800
 131701611.513 7                  25061933.818
        46.200
 116883497.662 8  90909431.894 7  21927040.830    21927041.241    21927048.159
        49.100          44.200
 117053185.091 8  91041429.517 7  21858847.417    21858848.069    21858854.428
        48.500          43.500
 117292963.467 7  91397244.38545  22320055.360    22320053.8714   22320053.8474
        45.500          32.4004
 25  1  1  3  4 15.0000000  0 32E34G25E03G04S31S35R06E21E13S33G12G20
                                E15R22G05G11G06G29R07R23E27E09R13E05
                                G09R24G17R12E30R14R08G19
 131623620.708 7                  25047091.334
        46.600
 115246599.242 7  89802629.38546  21930672.971    21930671.9654   21930675.7184
        45.300          41.9004
 147998443.021 6                  28163164.460
        36.800
 133700810.094 5 104182451.61243  25442423.664    25442423.2934   25442426.6334
        35.500          18.5004
 198982939.286 7                  37865192.152
        46.200
 200934106.083 7                  38236487.317
        44.100
 126598935.292 5                  23724574.386    23724573.745
        35.200
 143110412.598 6                  27232995.102
        41.100
 138125441.587 7                  26284380.216
        43.500
 202131259.390 7                  38464276.797
        45.500
 108998218.896 8  84933809.12748  20741621.958    20741621.3284   20741621.3434
        49.500          49.2004
 107566309.315 7  83817956.21846  20469163.124    20469161.8644   20469162.5494
        47.900          39.0004
 123486604.830 8                  23498681.735
        49.000
 115419698.724 8  89771015.720 7  21621954.562    21621954.829    21621960.202
        48.500          46.800
 118382247.314 7  92245952.31446  22527376.694    22527376.2214   22527377.3454
        45.200          41.4004
 108402310.052 8  84469435.23847  20628236.524    20628236.2034   20628236.6414
        49.400          42.1004
 115989177.229 7  90381323.80947  22071965.022    22071964.6564   22071967.9854
        46.100          46.3004
 131298193.021 6 102310308.08045  24985208.083    24985207.5254   24985210.7294
        39.500          32.1004
 114985773.395 8  89433444.290 7  21480291.059    21480291.656    21480298.416
        49.900          46.100
 107110636.312 8                  20023170.597    20023170.539
        50.800
 126269764.040 8                  24028281.790
        48.300
 152395954.626 6                  28999983.109
        37.700
 110470933.375 7                  20687610.547    20687609.952
        45.100
 137915029.747 6                  26244351.056
        39.100
 128256599.373 6  99940245.79945  24406410.604    24406410.0994   24406414.1854
        38.400          33.5004
 120372246.835 8  93622927.420 6  22510206.080    22510206.114    22510212.847
        49.000          41.500
 131699441.795 6 102623070.44244  25061526.591    25061526.0284   25061530.4714
        38.900          29.7004
 121699566.279 7  94655399.529 7  22782358.177    22782359.034    22782367.082
        44.100          42.300
 131738043.456 7                  25068866.786
        46.100
 116853502.051 8  90886101.998 7  21921414.145    21921413.686    21921421.463
        49.300          44.300
 117002967.218 8  91002371.201 7  21849469.147    21849470.071    21849477.074
        48.400          44.100
 117330931.336 7  91426829.71445  22327280.159    22327278.6794   22327278.9434
        45.000          32.3004
 25  1  1  3  4 30.0000000  0 32E34G25E03G04S31S35R06E21E13S33G12G20
                                E15R22G05G11G06G29R07R23E27E09R13E05
                                G09R24G17R12E30R14R08G19
 131651743.943 7                  25052442.741
        46.300
 115220805.752 7  89782530.57146  21925764.776    21925763.7664   21925767.4514
        44.700          41.9004
 147960797.280 6                  28156001.306
        37.200
 133708573.753 6 104188501.29143  25443901.348    25443900.9554   25443904.2764
        36.600          19.2004
 198982934.782 7                  37865189.492
        45.700
 200934135.854 7                  38236492.053
        43.900
 126641219.835 5                  23732497.207    23732498.010
        35.500
 143073474.094 6                  27225965.690
        41.400
 138096270.256 7                  26278829.245
        43.900
 202131243.553 7                  38464278.921
        45.400
 109007441.795 8  84940995.79548  20743377.220    20743376.5904   20743376.3884
        49.700          49.1004
 107546805.366 8  83802758.34646  20465451.531    20465450.2664   20465451.0764
        48.000          39.1004
 123485185.872 8                  23498411.745
        49.200
 115453558.431 7  89797351.047 7  21628297.033    21628297.736    21628303.413
        47.300          46.600
 118330127.697 7  92205339.64846  22517458.287    22517457.8144   22517459.3764
        45.200          41.4004
 108410622.459 8  84475912.43647  20629818.434    20629818.1134   20629818.4284
        49.300          42.1004
 116024802.621 7  90409083.83847  22078744.287    22078743.9164   22078747.3314
        46.400          46.4004
 131251590.266 7 102273994.33545  24976339.979    24976339.4254   24976342.3564
        42.200          32.4004
 114982105.594 8  89430591.577 7  21479606.338    21479606.335    21479613.623
        50.000          46.300
 107112430.260 8                  20023506.336    20023506.179
        51.100
 126267496.155 8                  24027850.058
        48.600
 152402175.587 6                  29001167.208
        39.200
 110506397.550 7                  20694251.412    20694250.996
        45.100
 137892195.416 6                  26240005.056
        38.000
 128249490.069 6  99934706.09445  24405057.725    24405057.2164   24405061.2784
        39.200          33.6004
 120336291.385 8  93594962.113 6  22503481.885    22503482.529    22503488.998
        49.200          41.700
 131739729.788 6 102654463.60244  25069193.352    25069192.7854   25069196.8044
        38.600          29.1004
