     2.11           OBSERVATION DATA    M (MIXED)           RINEX VERSION / TYPE
teqc  2019Feb25                         20260317 16:20:08UTCPGM / RUN BY / DATE
Linux 2.4.21-27.ELsmp|Opteron|gcc -static|Linux 64|=+       COMMENT
BIT 2 OF LLI FLAGS DATA COLLECTED UNDER A/S CONDITION       COMMENT
-Unknown-                                                   MARKER NAME
-Unknown-           -Unknown-                               OBSERVER / AGENCY
-Unknown-           -Unknown-           -Unknown-           REC # / TYPE / VERS
-Unknown-           -Unknown-                               ANT # / TYPE
        0.0000        0.0000        0.0000                  APPROX POSITION XYZ
        0.0000        0.0000        0.0000                  ANTENNA: DELTA H/E/N
     1     1                                                WAVELENGTH FACT L1/2
     7    L1    L2    C1    P1    P2    S1    S2            # / TYPES OF OBSERV
 SNR is mapped to RINEX snr flag value [0-9]                COMMENT
  L1 & L2: min(max(int(snr_dBHz/6), 0), 9)                  COMMENT
  2025     1     1     2     0    0.0000000     GPS         TIME OF FIRST OBS
    18                                                      LEAP SECONDS
                                                            END OF HEADER
 25  1  1  2  0  0.0000000  0 33E34G25R21R11S31S35R06G03E13G24S33G12
                                G20E15R22G05G11E02G06E36R07R23E27R13
                                G09R24G17R12E30R14R08G14G19
 125233044.892 8                  23831004.290
        48.600
 125550702.926 6  97831787.59745  23891489.727    23891488.7754   23891494.6204
        38.600          30.2004
 127705409.056 7  99326584.258 6  23864760.327    23864760.622    23864768.189
        43.200          40.800
 129339440.701 6 100597484.629 6  24204071.961    24204072.484    24204081.840
        40.500          40.000
 198982839.892 7                  37865173.260
        45.500
 200925035.396 7                  38234769.673
        44.000
 121200450.377 6                  22712902.884    22712903.642
        36.600
 133495213.455 5 104022351.10244  25403261.587    25403261.2794   25403264.9104
        35.400          26.5004
 146829118.462 6                  27940645.734
        37.900
 129018478.031 6 100534021.11045  24551349.809    24551349.3854   24551355.8724
        37.400          33.1004
 202134230.056 7                  38464840.476
        45.000
 111680523.781 8  87023914.84848  21252049.467    21252048.8594   21252048.9614
        49.600          48.3004
 116404821.362 7  90705102.85345  22151080.708    22151079.4484   22151081.2584
        44.300          32.4004
 125751785.420 8                  23929732.817
        48.100
 107693693.474 8  83761902.164 8  20174612.216    20174612.835    20174617.470
        52.300          48.700
 133061158.664 5 103684050.77444  25320691.136    25320690.6584   25320694.8294
        35.100          25.9004
 109157497.540 8  85057891.61046  20771944.929    20771944.5274   20771945.6214
        48.400          40.7004
 139811010.876 6                  26605115.538
        39.900
 108347395.463 8  84426690.03248  20617781.106    20617780.7354   20617783.8794
        49.500          51.5004
 145818638.693 6                  27748320.664
        38.300
 121677407.928 7  94638041.808 7  22730351.203    22730351.075    22730358.975
        47.000          43.100
 108748345.776 8                  20329324.670    20329324.876
        50.300
 130030886.638 7                  24744001.641
        47.100
 107642373.997 7                  20157912.387    20157911.874
        47.800
 133561529.327 5 104073947.08443  25415913.659    25415913.1634   25415918.9264
        34.300          23.2004
 130613230.938 7 101588120.369 6  24425333.772    24425333.889    24425344.391
        44.600          37.000
 122344977.693 7  95333886.56646  23281424.228    23281423.6204   23281425.8664
        43.200          38.4004
 107501011.626 8  83612084.064 8  20124356.350    20124356.948    20124363.704
        51.100          48.100
 124919597.848 8                  23771358.132
        48.400
 129128623.043 7 100433412.386 6  24224200.629    24224199.873    24224208.293
        44.300          38.500
 131596522.074 6 102352899.756 6  24574722.635    24574722.769    24574733.962
        39.500          37.400
 132272600.420 5 103069652.56742  25170612.872    25170612.5464   25170618.5894
        33.200          15.0004
 109703705.578 7  85483539.59546  20875865.438    20875863.9814   20875863.6824
        47.900          38.6004
 25  1  1  2  0 15.0000000  0 33E34G25R21R11S31S35R06G03E13G24S33G12
                                G20E15R22G05G11E02G06E36R07R23E27R13
                                G09R24G17R12E30R14R08G14G19
 125253120.337 8                  23834824.532
        48.300
 125499903.935 6  97792204.09345  23881822.498    23881821.5684   23881828.1264
        39.100          30.2004
 127751986.254 7  99362811.021 6  23873465.902    23873465.454    23873472.650
        44.100          40.700
 129408022.351 6 100650825.884 6  24216906.632    24216907.177    24216916.675
        40.400          39.200
 198982840.993 7                  37865173.336
        45.400
 200925071.196 7                  38234778.254
        44.000
 121198181.581 5                  22712478.112    22712477.626
        35.300
 133546125.027 6 104062022.47544  25412949.580    25412949.2634   25412953.1954
        38.500          27.3004
 146790889.888 6                  27933370.367
        37.000
 129057910.121 6 100564747.41145  24558852.910    24558852.4814   24558859.5724
        38.200          33.2004
 202134219.535 7                  38464838.518
        45.100
 111652045.192 8  87001723.76148  21246630.018    21246629.4104   21246629.6364
        49.700          48.2004
 116358158.206 7  90668741.99545  22142200.853    22142199.5974   22142201.6094
        45.200          32.3004
 125734782.893 7                  23926497.202
        47.600
 107718526.507 8  83781216.741 8  20179264.878    20179264.990    20179269.348
        52.800          48.900
 133002685.953 6 103638487.89444  25309565.081    25309564.5994   25309568.2204
        37.200          27.3004
 109142236.830 8  85046000.16046  20769041.210    20769040.7994   20769041.5664
        48.600          40.7004
 139854048.266 6                  26613305.161
        39.100
 108368927.877 8  84443468.53948  20621878.734    20621878.3684   20621881.3704
        49.500          51.3004
 145858103.000 6                  27755830.384
        37.500
 121633453.842 7  94603855.372 7  22722139.798    22722139.843    22722147.721
        47.600          42.800
 108732711.033 8                  20326401.750    20326402.108
        50.500
 130005484.481 7                  24739167.979
        46.800
 107627491.206 7                  20155125.241    20155124.698
        47.900
 133530631.455 5 104049870.85443  25410032.546    25410032.0234   25410039.2074
        32.800          23.4004
 130569350.532 7 101553991.270 6  24417127.702    24417128.636    24417139.916
        44.200          37.300
 122377459.399 7  95359196.97146  23287605.602    23287604.9814   23287606.9004
        42.900          38.0004
 107541052.079 8  83643226.640 8  20131852.254    20131852.671    20131859.467
        51.300          48.200
 124935091.519 8                  23774306.356
        48.200
 129068131.099 7 100386363.041 6  24212852.307    24212851.807    24212860.840
        43.900          38.700
 131539122.481 5 102308255.630 6  24564005.550    24564004.308    24564016.212
        35.700          36.500
 132329677.410 5 103114128.13943  25181474.483    25181474.1664   25181480.1164
        35.300          18.0004
 109724950.728 7  85500094.26246  20879907.970    20879906.5084   20879906.5124
        47.500          38.4004
 25  1  1  2  0 30.0000000  0 33E34G25R21R11S31S35R06G03E13G24S33G12
                                G20E15R22G05G11E02G06E36R07R23E27R13
                                G09R24G17R12E30R14R08G14G19
 125273246.769 8                  23838654.411
        48.800
 125449160.438 6  97752663.83044  23872166.127    23872165.1974   23872171.3624
        38.900          29.8004
 127798545.136 7  99399023.520 6  23882164.675    23882166.028    23882172.880
        44.500          41.000
 129476596.052 6 100704160.877 6  24229740.820    24229741.087    24229748.725
        41.400          38.100
 198982842.140 7                  37865174.463
        45.500
 200925107.748 7                  38234780.499
        43.800
 121196099.277 6                  22712088.203    22712087.679
        36.200
 133597094.540 6 104101738.98744  25422648.461    25422648.1534   25422652.5874
        37.100          28.0004
 146752691.629 6                  27926101.853
        37.300
 129097378.584 6 100595502.04945  24566363.659    24566363.2354   24566370.3604
        38.200          33.0004
 202134209.186 7                  38464842.037
        44.900
 111623689.347 8  86979628.32048  21241234.051    21241233.4484   21241233.7124
        49.700          48.2004
 116311567.563 7  90632437.63345  22133334.294    22133333.0344   22133335.5844
        45.700          32.3004
 125717849.667 8                  23923274.946
        48.300
 107743415.650 8  83800574.950 8  20183927.071    20183927.547    20183931.721
        52.500          49.000
 132944196.950 6 103592912.30044  25298434.024    25298433.5594   25298438.5214
        38.100          28.5004
 109127079.025 8  85034188.89346  20766156.711    20766156.3054   20766157.1504
        48.800          40.7004
 139897120.089 6                  26621501.073
        40.500
 108390544.338 8  84460312.54048  20625992.161    20625991.7814   20625994.8384
        49.800          51.2004
 145897561.057 6                  27763338.592
        37.900
 121589598.524 7  94569745.721 7  22713946.991    22713947.075    22713955.329
        47.200          42.700
 108717158.505 8                  20323494.489    20323494.484
        50.400
 129980152.559 7                  24734347.402
        47.200
 107612808.847 7                  20152375.660    20152375.375
        47.800
 133499785.758 5 104025835.26243  25404163.243    25404162.7474   25404169.5454
        33.300          22.7004
 130525502.143 7 101519887.110 6  24408927.326    24408928.342    24408939.792
        43.700          36.800
 122409971.185 7  95384530.81346  23293792.544    23293791.9414   23293793.4974
        42.700          37.8004
 107581253.319 8  83674494.239 8  20139378.175    20139378.228    20139385.454
        51.600          48.300
 124950677.131 8                  23777272.237
        48.600
 129007697.101 7 100339358.623 6  24201513.643    24201514.477    24201523.922
        43.600          39.000
 131481684.899 6 102263581.959 6  24553277.756    24553277.525    24553288.400
        38.200          36.500
 132386760.320 5 103158608.34042  25192336.597    25192336.2844   25192342.5594
        31.200          12.8004
 109746262.069 8  85516700.50146  20883963.800    20883962.3434   20883961.9164
        48.100          38.3004
 25  1  1  2  0 45.0000000  0 33E34G25R21R11S31S35R06G03E13G24S33G12
                                G20E15R22G05G11E02G06E36R07R23E27R13
                                G09R24G17R12E30R14R08G14G19
 125293427.750 8                  23842494.818
        48.500
 125398476.495 6  97713169.96245  23862521.255    23862520.3214   23862526.2604
        39.400          30.2004
 127845089.537 7  99435224.775 6  23890863.484    23890863.701    23890870.432
        43.600          40.800
 129545165.202 6 100757492.384 6  24242570.714    24242571.120    24242581.043
        40.800          38.800
 198982847.578 7                  37865175.044
        45.400
 200925147.164 7                  38234793.498
        44.000
 121194207.221 6                  22711734.165    22711733.414
        36.500
 133648125.520 5 104141503.19944  25432359.584    25432359.2894   25432363.3594
        33.100          25.3004
 146714527.461 6                  27918839.145
        37.300
 129136886.712 6 100626287.58745  24573881.384    24573880.9464   24573888.5974
        37.200          32.7004
 202134203.387 7                  38464843.678
        45.200
 111595460.162 8  86957631.57948  21235862.415    21235861.8074   21235861.8844
        49.700          48.2004
 116265053.352 7  90596192.83245  22124483.071    22124481.8024   22124484.1284
        44.900          32.4004
 125700989.435 8                  23920066.694
        48.100
 107768364.388 8  83819979.538 8  20188600.590    20188601.264    20188605.685
        52.500          48.900
 132885695.600 6 103547327.05944  25287301.633    25287301.1604   25287305.6934
        37.200          27.6004
 109112027.813 8  85022460.69346  20763292.526    20763292.1154   20763293.0094
        48.500          40.6004
 139940229.920 6                  26629704.784
        39.300
 108412248.336 8  84477224.74748  20630122.094    20630121.7144   20630124.9724
        49.400          51.2004
 145937016.509 6                  27770846.921
        38.200
 121545846.291 7  94535716.248 7  22705774.072    22705773.673    22705782.075
        47.500          43.000
 108701691.775 8                  20320603.135    20320603.325
        50.300
 129954894.769 7                  24729541.143
        47.200
 107598330.606 8                  20149664.389    20149663.926
        48.100
 133468996.346 5 104001843.54143  25398305.011    25398304.5204   25398310.2804
        34.200          23.6004
 130481689.428 7 101485810.671 6  24400734.202    24400734.492    24400746.085
        42.900          37.800
 122442516.916 7  95409891.11746  23299985.549    23299984.9554   23299986.6634
        42.500          37.6004
 107621618.390 8  83705889.294 8  20146934.404    20146934.779    20146941.615
        51.400          48.300
 124966358.416 8                  23780256.171
        48.500
 128947325.500 7 100292402.604 6  24190189.964    24190189.405    24190197.865
        43.900          37.900
 131424213.630 6 102218882.074 6  24542545.704    24542546.842    24542556.260
        38.300          36.200
 132443852.830 5 103203095.96742  25203200.889    25203200.5904   25203206.8764
        35.500          16.9004
 109767643.306 7  85533361.20446  20888032.409    20888030.9434   20888030.6454
        47.800          38.3004
 25  1  1  2  1  0.0000000  0 33E34G25R21R11S31S35R06G03E13G24S33G12
                                G20E15R22G05G11E02G06E36R07R23E27R13
                                G09R24G17R12E30R14R08G14G19
 125313658.230 8                  23846344.298
        48.300
 125347847.536 6  97673718.93545  23852886.446    23852885.5344   23852892.0464
        38.800          30.5004
 127891614.235 7  99471410.708 6  23899556.774    23899557.514    23899564.948
        43.400          41.000
 129613724.322 6 100810816.056 6  24255400.487    24255400.840    24255411.452
        39.400          38.900
 198982851.926 7                  37865173.296
        45.600
 200925186.845 7                  38234795.738
        43.900
 121192500.562 6                  22711414.771    22711414.221
        36.600
 133699212.871 6 104181311.28444  25442081.210    25442080.9384   25442085.0424
        37.700          28.6004
 146676392.579 6                  27911582.635
        37.400
 129176429.249 6 100657099.94845  24581406.698    24581406.2694   24581413.1044
        37.200          32.5004
 202134196.422 7                  38464834.542
        45.200
 111567353.087 8  86935729.98148  21230513.632    21230513.0294   21230513.2834
        49.900          48.1004
 116218611.117 7  90560004.11845  22115645.740    22115644.4664   22115646.4764
        45.700          32.5004
 125684197.241 8                  23916871.030
        48.000
 107793367.623 8  83839426.498 8  20193284.764    20193284.976    20193289.785
        52.500          48.900
 132827177.436 6 103501728.72144  25276165.539    25276165.0484   25276169.4484
        37.900          27.8004
 109097078.267 8  85010811.70646  20760447.898    20760447.4964   20760448.1944
        48.900          40.7004
 139983372.674 6                  26637914.804
        39.400
 108434034.758 8  84494201.18448  20634267.995    20634267.6154   20634270.7924
        49.400          51.1004
 145976464.287 6                  27778353.698
        37.100
 121502192.800 7  94501763.601 7  22697618.585    22697618.959    22697627.436
        47.100          43.000
 108686305.925 8                  20317727.103    20317726.963
        50.400
 129929706.432 7                  24724747.641
        47.000
 107584051.910 7                  20146990.422    20146989.918
        47.600
 133438258.646 5 103977892.16444  25392455.858    25392455.3894   25392460.7004
        34.100          24.6004
 130437907.331 7 101451758.032 6  24392547.693    24392547.948    24392558.361
        44.300          38.000
 122475091.659 7  95435274.01746  23306184.662    23306184.0594   23306185.5754
        42.400          37.5004
 107662142.082 8  83737407.712 8  20154520.494    20154520.757    20154527.862
        50.900          48.300
 124982130.413 8                  23783257.407
        48.300
 128887012.303 7 100245492.194 6  24178874.772    24178874.509    24178883.104
        44.000          38.100
 131366704.167 6 102174152.401 6  24531804.895    24531805.906    24531816.411
        39.200          39.000
 132500949.610 5 103247586.97842  25214066.073    25214065.7924   25214071.9034
        33.500          13.6004
 109789089.495 8  85550072.52146  20892113.379    20892111.9174   20892111.6814
        48.000          38.3004
 25  1  1  2  1 15.0000000  0 32E34G25R21R11S31S35R06E13G24S33G12G20
                                E15R22G05G11E02G06E36R07R23E27R13G09
                                R24G17R12E30R14R08G14G19
 125333936.933 8                  23850203.355
        48.500
 125297272.824 6  97634310.18145  23843262.376    23843261.4694   23843267.9704
        38.900          30.4004
 127938118.272 7  99507580.566 6  23908247.307    23908247.956    23908256.002
        42.700          41.500
 129682271.936 6 100864130.774 6  24268229.760    24268229.567    24268239.017
        40.800          39.000
 198982854.700 7                  37865173.492
        45.600
 200925224.413 7                  38234800.335
        43.600
 121190978.360 6                  22711128.141    22711128.319
        36.100
 146638285.940 6                  27904331.048
        38.300
 129216004.731 6 100687937.97745  24588937.674    24588937.2854   24588943.8794
        37.800          32.6004
 202134187.118 7                  38464833.000
        45.200
 111539367.423 8  86913922.99548  21225187.916    21225187.3044   21225187.7504
        49.600          48.1004
 116172239.992 7  90523870.81445  22106821.364    22106820.0904   22106822.2964
        45.300          32.6004
 125667471.979 8                  23913688.428
        48.000
 107818423.930 8  83858914.736 8  20197978.901    20197979.129    20197983.321
        52.900          48.900
 132768641.896 6 103456116.81544  25265027.168    25265026.6774   25265030.1444
        37.600          27.6004
 109082229.234 8  84999241.04246  20757621.711    20757621.2964   20757622.5454
        48.700          40.7004
 140026547.138 6                  26646130.350
        39.800
 108455902.232 8  84511240.77748  20638429.267    20638428.8834   20638432.0304
        49.400          51.1004
 146015903.202 6                  27785858.473
        38.000
 121458637.641 7  94467887.431 7  22689481.880    22689482.394    22689490.737
        47.600          42.900
 108670999.462 8                  20314865.407    20314865.567
        50.600
 129904586.600 7                  24719967.441
        46.900
 107569971.714 7                  20144353.338    20144353.253
        47.700
 133407571.887 5 103953980.45144  25386614.974    25386614.5014   25386621.5974
        33.100          24.2004
 130394154.858 7 101417728.481 6  24384365.559    24384365.308    24384377.000
        43.600          38.400
 122507694.380 7  95460678.72146  23312388.451    23312387.8434   23312389.6564
        42.100          37.3004
 107702822.729 8  83769048.205 8  20162135.953    20162136.471    20162143.366
        51.600          48.100
 124997992.036 8                  23786276.079
        48.400
 128826756.856 7 100198626.846 6  24167569.805    24167570.247    24167579.759
        42.300          38.600
 131309155.485 5 102129392.371 6  24521058.056    24521058.791    24521070.382
        35.900          37.200
 132558049.393 5 103292080.28542  25224931.095    25224930.7604   25224937.5084
        33.700          13.7004
 109810599.540 7  85566833.59546  20896206.458    20896204.9924   20896204.9154
        47.700          38.2004
 25  1  1  2  1 30.0000000  0 32E34G25R21R11S31S35R06E13G24S33G12G20
                                E15R22G05G11E02G06E36R07R23E27R13G09
                                R24G17R12E30R14R08G14G19
 125354266.074 8                  23854071.888
        48.400
 125246755.043 6  97594945.78045  23833650.000    23833649.0844   23833654.4874
        39.500          30.3004
 127984603.892 7  99543736.073 6  23916934.191    23916934.696    23916942.527
        43.000          40.900
 129750810.062 6 100917438.094 6  24281054.750    24281055.804    24281064.721
        40.900          37.800
 198982857.473 7                  37865175.679
        45.600
 200925262.441 7                  38234810.884
        43.800
 121189643.226 6                  22710877.292    22710877.689
        36.100
 146600209.954 6                  27897084.725
        37.500
 129255615.098 6 100718803.18745  24596474.505    24596474.1034   24596481.3764
        38.500          32.2004
 202134179.495 7                  38464831.050
        45.400
 111511505.938 8  86892212.77148  21219886.040    21219885.4324   21219885.8324
        49.400          48.1004
 116125942.755 7  90487795.08245  22098011.392    22098010.1144   22098012.1364
        45.400          32.6004
 125650815.967 7                  23910518.860
        47.700
 107843535.596 8  83878446.021 8  20202682.680    20202682.976    20202687.643
        52.200          48.700
 132710091.297 6 103410493.15444  25253885.039    25253884.5394   25253887.5314
        37.600          27.3004
 109067483.060 8  84987750.53046  20754815.775    20754815.3604   20754816.3874
        48.600          40.7004
 140069755.549 6                  26654352.703
        39.500
 108477852.905 8  84528345.19848  20642606.485    20642606.1144   20642609.0944
        49.100          51.1004
 146055335.457 6                  27793362.155
        37.700
 121415183.720 7  94434089.978 7  22681364.040    22681364.494    22681373.101
        47.300          42.900
 108655774.794 8                  20312019.598    20312019.532
        50.700
 129879537.864 7                  24715201.076
        47.100
 107556092.892 7                  20141754.432    20141754.154
        47.700
 133376938.827 5 103930110.58843  25380787.329    25380786.8424   25380792.3504
        31.900          22.5004
 130350434.395 7 101383723.778 6  24376189.066    24376189.509    24376199.587
        43.500          37.100
 122540327.548 6  95486107.15446  23318598.722    23318598.1234   23318599.4434
        41.400          37.1004
 107743662.390 8  83800812.370 8  20169781.405    20169781.689    20169788.432
        51.600          48.400
 125013945.627 8                  23789311.741
        48.500
 128766561.935 7 100151808.526 6  24156279.568    24156278.685    24156286.971
        43.600          38.200
 131251570.907 6 102084604.343 5  24510306.507    24510307.745    24510316.818
        38.100          35.500
 132615154.304 5 103336577.62742  25235798.605    25235798.2754   25235804.1504
        33.700          15.2004
 109832175.882 7  85583646.33146  20900312.552    20900311.0814   20900310.7454
        47.700          38.1004
 25  1  1  2  1 45.0000000  0 32E34G25R21R11S31S35R06E13G24S33G12G20
                                E15R22G05G11E02G06E36R07R23E27R13G09
                                R24G17R12E30R14R08G14G19
 125374644.281 8                  23857949.722
        48.300
 125196293.292 6  97555625.04545  23824046.981    23824046.0384   23824052.1204
        40.200          31.0004
 128031069.726 7  99579876.250 6  23925618.065    23925618.511    23925625.269
        42.900          40.800
 129819336.993 6 100970736.765 6  24293878.209    24293879.206    24293888.848
        40.700          39.100
 198982859.414 7                  37865175.482
        45.600
 200925299.359 7                  38234821.817
        44.200
 121188493.774 6                  22710662.466    22710662.112
        36.400
 146562163.539 6                  27889845.192
        36.800
 129295258.810 6 100749694.38645  24604018.525    24604018.1194   24604025.3164
        37.500          32.4004
 202134169.479 7                  38464826.534
        45.500
 111483767.377 8  86870598.33048  21214607.713    21214607.1054   21214607.3414
        50.000          48.2004
 116079718.593 7  90451776.29145  22089214.997    22089213.7194   22089215.8684
        46.000          32.9004
 125634227.968 8                  23907362.406
        48.000
 107868701.137 8  83898019.234 8  20207397.635    20207397.618    20207401.900
        52.900          48.800
 132651524.789 6 103364857.08044  25242739.527    25242739.0404   25242742.8354
        37.300          27.8004
 109052838.492 8  84976339.18846  20752029.142    20752028.7274   20752029.6094
        48.900          40.9004
 140112996.513 6                  26662581.469
        39.800
 108499885.340 8  84545513.33148  20646799.120    20646798.7494   20646801.7234
        49.400          51.2004
 146094759.873 6                  27800864.533
        37.900
 121371830.152 7  94400370.603 7  22673265.817    22673265.572    22673273.853
        47.300          42.900
 108640630.626 8                  20309188.400    20309188.342
        50.400
 129854559.193 7                  24710447.548
        47.400
 107542414.100 7                  20139192.854    20139192.504
        47.900
 133346358.661 5 103906281.90744  25374967.644    25374967.1444   25374973.1824
        34.900          24.6004
 130306744.712 7 101349743.075 6  24368019.227    24368018.165    24368030.009
        43.500          37.600
 122572989.930 7  95511558.33946  23324814.354    23324813.7734   23324814.9454
        42.000          37.0004
 107784659.467 8  83832698.981 8  20177456.111    20177456.241    20177463.552
        51.400          48.500
 125029989.951 8                  23792364.855
        48.500
 128706426.561 7 100105036.570 6  24144996.751    24144997.729    24145006.503
        44.200          39.100
 131193949.571 6 102039787.756 6  24499546.740    24499546.906    24499556.744
        41.900          38.200
 132672262.933 4 103381077.83441  25246667.245    25246666.9154   25246671.7224
        29.400          11.5004
 109853817.338 7  85600509.80346  20904430.699    20904429.2284   20904428.9754
        47.900          38.2004
 25  1  1  2  2  0.0000000  0 32E34G25R21R11S31S35R06E13G24S33G12G20
                                E15R22G05G11E02G06E36R07R23E27R13G09
                                R24G17R12E30R14R08G14G19
 125395070.358 8                  23861836.611
        48.500
 125145886.950 6  97516347.47445  23814454.503    23814453.5564   23814459.9574
        38.700          31.0004
 128077514.619 7  99616000.105 6  23934297.162    23934297.049    23934305.135
        42.400          40.800
 129887851.255 6 101024025.552 6  24306699.172    24306699.893    24306709.124
        38.700          36.900
 198982859.282 7                  37865171.668
        45.400
 200925334.663 7                  38234825.434
        44.000
 121187529.225 5                  22710482.931    22710481.503
        35.800
 146524145.735 6                  27882610.178
        37.400
 129334934.437 6 100780610.45845  24611569.218    24611568.8164   24611575.0564
        38.200          32.7004
 202134158.586 7                  38464830.366
        45.300
 111456151.044 8  86849079.13148  21209352.499    21209351.8874   21209352.1074
        49.500          48.3004
 116033566.762 7  90415813.86045  22080432.691    22080431.4134   22080433.4544
        46.000          32.9004
 125617706.913 8                  23904218.365
        48.100
 107893919.307 8  83917633.377 8  20212121.478    20212121.887    20212126.563
        53.100          48.800
 132592941.547 6 103319207.96244  25231591.884    25231591.4114   25231594.9954
        38.400          28.5004
 109038294.484 8  84965006.20846  20749261.448    20749261.0334   20749261.9744
        48.500          41.0004
 140156268.861 6                  26670815.736
        39.700
 108521998.275 8  84562744.19248  20651006.798    20651006.4234   20651009.6634
        49.300          51.2004
 146134175.212 6                  27808364.760
        36.800
 121328576.534 7  94366728.984 7  22665185.202    22665185.466    22665194.123
        47.300          42.800
 108625565.775 8                  20306371.747    20306372.096
        50.300
 129829649.753 7                  24705707.658
        47.100
 107528934.498 8                  20136669.108    20136668.211
        48.000
 133315830.643 5 103882493.88544  25369157.813    25369157.2904   25369163.8284
        33.000          24.3004
 130263085.106 7 101315785.759 6  24359853.936    24359854.024    24359865.573
        43.100          37.500
 122605680.682 6  95537031.63346  23331035.235    23331034.6504   23331035.9384
        41.500          37.1004
 107825812.355 8  83864706.783 8  20185159.629    20185160.194    20185167.469
        51.100          48.500
 125046123.966 8                  23795435.012
        48.500
 128646349.851 7 100058310.114 6  24133725.747    24133727.666    24133736.132
        44.300          38.900
 131136290.560 6 101994941.884 6  24488777.573    24488778.572    24488788.893
        39.500          36.000
 132729374.014 5 103425579.94742  25257532.843    25257532.5754   25257539.5634
        35.000          15.1004
 109875522.886 7  85617423.21946  20908561.177    20908559.7114   20908559.3954
        47.600          38.2004
 25  1  1  2  2 15.0000000  0 32E34G25R21R11S31S35R06E13G24S33G12G20
                                E15R22G05G11E02G06E36R07R23E27R13G09
                                R24G17R12E30R14R08G14G19
 125415546.456 8                  23865733.252
        48.400
 125095538.631 6  97477115.10645  23804874.141    23804873.1944   23804878.4954
        38.800          30.3004
 128123941.008 7  99652109.556 6  23942972.701    23942972.829    23942981.755
        42.900          41.600
 129956354.775 6 101077306.022 6  24319522.135    24319521.895    24319529.860
        40.700          39.000
 198982860.749 7                  37865171.945
        45.800
 200925370.481 7                  38234837.003
        44.600
 121186751.825 6                  22710336.409    22710335.586
        36.000
 146486158.869 6                  27875381.457
        36.500
 129374643.944 6 100811552.91445  24619125.203    24619124.7924   24619131.5574
        38.100          32.0004
 202134147.118 7                  38464827.070
        45.600
 111428659.614 8  86827657.25948  21204121.197    21204120.5854   21204120.6534
        49.200          48.0004
 115987489.784 7  90379909.76045  22071664.794    22071663.5254   22071665.3224
        45.600          32.6004
 125601255.092 8                  23901087.646
        48.100
 107919192.223 8  83937290.063 8  20216855.508    20216856.083    20216860.723
        52.300          48.800
 132534344.443 6 103273548.02044  25220440.291    25220439.8224   25220444.1994
        37.700          28.1004
 109023853.297 8  84953753.34546  20746513.535    20746513.1294   20746513.8944
        48.800          40.7004
 140199574.764 6                  26679056.341
        39.700
 108544193.777 8  84580039.38948  20655230.464    20655230.0894   20655233.3294
        49.300          50.9004
 146173583.684 6                  27815863.842
        38.000
 121285426.137 7  94333167.601 7  22657124.509    22657125.166    22657133.625
        47.800          43.100
 108610582.792 8                  20303570.983    20303571.344
        50.200
 129804812.045 7                  24700981.020
        47.500
 107515656.840 7                  20134182.191    20134181.788
        47.800
 133285357.532 5 103858748.68043  25363359.231    25363358.6994   25363364.7294
        33.600          23.2004
 130219457.454 7 101281853.272 6  24351694.832    24351695.209    24351707.853
        43.100          38.100
 122638401.957 6  95562528.71046  23337261.716    23337261.1624   23337262.4494
        41.500          36.6004
 107867123.120 8  83896837.365 8  20192893.600    20192893.990    20192900.787
        51.300          48.600
 125062349.964 8                  23798522.843
        48.600
 128586335.289 7 100011632.086 6  24122468.531    24122468.514    24122477.337
        43.500          38.800
 131078596.894 6 101950069.064 6  24478003.294    24478005.141    24478015.462
        39.700          36.800
 132786489.439 5 103470085.46442  25268402.372    25268402.0734   25268408.1634
        32.600          15.0004
 109897295.007 7  85634388.50546  20912704.346    20912702.8804   20912702.5064
        47.300          37.8004
 25  1  1  2  2 30.0000000  0 32E34G25R21R11S31S35R06E13G24S33G12G20
                                E15R22G05G11E02G06E36R07R23E27R13G09
                                R24G17R12E30R14R08G14G19
 125436073.480 8                  23869639.235
        48.400
 125045249.724 6  97437929.03845  23795303.980    23795303.0064   23795308.8564
        40.400          31.0004
 128170349.772 7  99688205.290 6  23951645.031    23951645.701    23951653.345
        42.900          41.100
 130024848.223 6 101130578.582 6  24332337.594    24332338.124    24332348.213
        40.100          38.900
 198982862.778 7                  37865172.737
        45.500
 200925407.637 7                  38234839.547
        44.100
 121186162.992 6                  22710225.721    22710226.246
        37.200
 146448204.093 6                  27868159.456
        36.700
 129414387.973 6 100842522.28845  24626688.057    24626687.6334   24626694.1894
        37.600          32.1004
 202134139.246 7                  38464822.406
        45.500
 111401294.416 8  86806333.75448  21198913.466    21198912.8634   21198913.1944
        49.500          48.0004
 115941489.026 7  90344065.05345  22062910.809    22062909.5224   22062911.6344
        46.100          32.8004
 125584873.503 8                  23897970.397
        48.000
 107944520.811 8  83956990.071 8  20221601.009    20221600.936    20221605.803
        52.600          48.700
 132475735.184 6 103227878.58544  25209287.919    25209287.4544   25209290.7614
        38.100          28.1004
 109009515.954 8  84942581.40046  20743785.090    20743784.6884   20743785.5744
        48.900          40.7004
 140242915.149 6                  26687303.689
        39.100
 108566472.684 8  84597399.57848  20659469.947    20659469.5674   20659472.8574
        49.700          51.0004
 146212986.266 6                  27823361.865
        37.700
 121242379.951 7  94299687.293 7  22649083.388    22649083.332    22649091.729
        47.300          42.800
 108595682.240 8                  20300785.758    20300785.609
        49.900
 129780047.309 7                  24696268.368
        47.400
 107502582.290 7                  20131733.369    20131733.015
        47.300
 133254940.600 5 103835047.23344  25357571.539    25357570.9984   25357576.3394
        33.300          24.0004
 130175863.133 7 101247946.699 6  24343542.836    24343542.435    24343554.448
        44.300          38.300
 122671154.855 7  95588050.43046  23343493.986    23343493.4144   23343495.1804
        42.600          36.6004
 107908592.262 8  83929091.124 8  20200656.369    20200656.629    20200664.002
        50.900          48.600
 125078668.994 8                  23801628.293
        48.500
 128526383.999 7  99965003.064 6  24111221.557    24111223.028    24111231.591
        44.200          38.500
 131020870.020 6 101905170.465 6  24467223.787    24467224.238    24467235.091
        39.300          38.200
 132843610.166 5 103514595.07441  25279272.182    25279271.8874   25279277.7924
        31.700          10.6004
 109919134.675 7  85651406.43146  20916860.248    20916858.7824   20916858.4854
        47.700          37.8004
 25  1  1  2  2 45.0000000  0 32E34G25R21R11S31S35R06E13G24S33G12G20
                                E15R22G05G11E02G06E36R07R23E27R13G09
                                R24G17R12E30R14R08G14G19
 125456649.738 8                  23873554.926
        48.500
 124995019.088 6  97398788.37645  23785745.000    23785744.0174   23785750.3074
        39.700          31.0004
 128216739.555 7  99724286.266 6  23960314.780    23960315.704    23960322.918
        42.900          41.500
 130093329.565 6 101183841.761 6  24345153.288    24345153.200    24345163.830
        38.900          38.900
 198982865.546 7                  37865174.033
        45.600
 200925445.209 7                  38234847.408
        44.100
 121185761.179 6                  22710149.513    22710151.216
        37.000
 146410279.981 6                  27860942.215
        37.100
 129454164.623 6 100873517.07845  24634257.841    24634257.4304   24634263.6764
        37.300          32.2004
 202134129.206 7                  38464816.298
        45.100
 111374054.195 8  86785107.62848  21193729.958    21193729.3594   21193729.5284
        49.600          48.1004
 115895563.390 7  90308278.88045  22054171.248    22054169.9564   22054172.2324
        46.200          32.9004
 125568560.625 7                  23894866.175
        47.900
 107969903.256 8  83976731.995 8  20226355.927    20226356.189    20226360.667
        52.400          48.700
 132417111.794 6 103182198.11644  25198132.174    25198131.7014   25198134.9254
        38.500          28.2004
 108995280.927 8  84931489.18246  20741076.333    20741075.9314   20741076.7234
        48.500          40.8004
 140286288.330 6                  26695557.767
        39.300
 108588833.240 8  84614823.38548  20663725.064    20663724.6894   20663727.9144
        49.500          51.0004
 146252381.390 6                  27830858.424
        37.300
 121199437.504 7  94266287.677 7  22641061.153    22641061.479    22641069.420
        47.400          42.800
 108580862.604 8                  20298015.203    20298015.367
        50.200
 129755354.229 7                  24691569.150
        47.300
 107489709.512 8                  20129322.834    20129322.637
        48.100
 133224578.867 5 103811388.79244  25351793.760    25351793.2154   25351798.6494
        34.300          24.2004
 130132300.552 7 101214064.818 6  24335396.740    24335397.298    24335407.702
        44.600          38.500
 122703937.962 6  95613595.69646  23349732.435    23349731.8634   23349733.6924
        40.900          36.5004
 107950217.838 8  83961466.564 8  20208449.257    20208449.585    20208456.145
        51.600          48.200
 125095079.486 8                  23804751.049
        48.500
 128466495.256 7  99918422.750 6  24099987.352    24099987.754    24099996.787
        43.100          38.700
 130963109.098 6 101860245.359 6  24456437.317    24456438.658    24456447.955
        41.500          37.600
 132900734.466 5 103559107.46842  25290142.621    25290142.3004   25290148.2134
        32.700          12.7004
 109941040.164 7  85668475.64246  20921028.622    20921027.1384   20921026.9864
        47.900          37.9004
 25  1  1  2  3  0.0000000  0 32E34G25R21R11S31S35R06E13G24S33G12G20
                                E15R22G05G11E02G06E36R07R23E27R13G09
                                R24G17R12E30R14R08G14G19
 125477273.495 8                  23877479.177
        48.400
 124944845.446 6  97359692.12945  23776197.436    23776196.4354   23776202.7044
        39.500          31.0004
 128263108.392 7  99760350.969 6  23968979.878    23968979.835    23968987.250
        42.700          40.800
 130161796.930 6 101237094.037 6  24357965.802    24357965.686    24357975.977
        38.800          38.200
 198982866.342 7                  37865179.435
        45.500
 200925481.208 7                  38234853.261
        43.900
 121185544.683 6                  22710109.970    22710109.590
        36.100
 146372384.982 6                  27853731.366
        37.100
 129493971.964 6 100904535.77645  24641832.486    24641832.0974   24641839.0294
        38.200          31.9004
 202134118.660 7                  38464823.242
        45.300
 111346937.597 8  86763977.83548  21188569.535    21188568.9324   21188569.3874
        49.600          48.0004
 115849711.504 7  90272550.17445  22045446.092    22045444.8004   22045446.8404
        46.100          32.9004
 125552314.804 8                  23891774.632
        48.000
 107995337.785 8  83996514.388 8  20231120.207    20231120.774    20231125.441
        52.100          48.600
 132358473.156 6 103136505.76644  25186973.262    25186972.7804   25186976.6444
        38.300          28.4004
 108981146.568 8  84920475.40546  20738386.774    20738386.3814   20738387.0294
        48.800          40.8004
 140329692.568 6                  26703817.052
        38.800
 108611273.592 8  84632309.37648  20667995.299    20667994.9284   20667998.1664
        49.500          51.0004
 146291767.277 6                  27838353.284
        37.400
 121156597.663 7  94232967.854 7  22633058.142    22633058.795    22633066.861
        46.600          42.800
 108566122.045 8                  20295259.607    20295259.806
        50.100
 129730731.409 7                  24686883.854
        47.400
 107477036.816 8                  20126949.674    20126949.640
        48.000
 133194271.046 5 103787772.35244  25346026.133    25346025.5614   25346031.0794
        34.500          24.4004
 130088768.089 7 101180206.387 6  24327255.085    24327255.059    24327267.118
        43.600          37.900
 122736749.548 6  95639163.14446  23355976.441    23355975.8654   23355977.5494
        40.800          36.2004
 107991997.937 8  83993962.180 8  20216270.413    20216270.672    20216277.477
        51.700          48.200
 125111579.847 8                  23807890.926
        48.700
 128406668.002 7  99871890.440 6  24088764.822    24088763.445    24088772.880
        43.000          39.800
 130905312.756 6 101815292.727 6  24445644.735    24445644.626    24445655.492
        40.500          38.400
 132957860.536 5 103603621.25542  25301013.505    25301013.1254   25301018.9064
        32.000          14.2004
 109963009.975 7  85685594.97446  20925209.044    20925207.5604   20925207.7654
        47.600          37.8004
 25  1  1  2  3 15.0000000  0 32E34G25R21R11S31S35R06E13G24S33G12G20
                                E15R22G05G11E02G06E36R07R23E27R13G09
                                R24G17R12E30R14R08G14G19
 125497952.714 8                  23881414.556
        48.500
 124894737.276 6  97320646.88545  23766661.925    23766660.9244   23766667.3054
        38.500          31.0004
 128309464.745 7  99796405.931 6  23977642.295    23977642.110    23977650.835
        43.100          40.900
 130230258.146 6 101290341.545 6  24370778.111    24370778.338    24370786.961
        40.000          37.100
 198982873.784 7                  37865179.001
        45.600
 200925523.426 7                  38234868.210
        44.200
 121185522.086 6                  22710106.084    22710106.120
        36.800
 146334527.341 6                  27846526.611
        37.600
 129533817.724 6 100935584.42045  24649414.810    24649414.4484   24649421.5154
        37.800          32.2004
 202134114.449 7                  38464822.800
        45.400
 111319953.080 8  86742950.96048  21183434.922    21183434.3194   21183434.3914
        49.000          48.0004
 115803942.087 7  90236885.73045  22036736.481    22036735.1804   22036737.1974
        45.900          33.0004
 125536144.151 8                  23888697.458
        48.300
 108020832.416 8  84016343.527 8  20235896.812    20235896.776    20235901.366
        52.200          48.600
 132299827.881 6 103090808.23344  25175813.893    25175813.4204   25175817.0304
        37.200          28.7004
 108967120.942 8  84909546.35846  20735717.643    20735717.2544   20735718.0514
        48.200          40.8004
 140373135.847 6                  26712084.374
        39.600
 108633801.660 8  84649863.71648  20672282.405    20672282.0344   20672285.1204
        49.000          51.1004
 146331151.954 6                  27845847.828
        38.000
 121113869.187 7  94199734.644 7  22625076.269    22625076.152    22625084.652
        47.100          42.700
 108551468.929 8                  20292520.588    20292520.584
        50.200
 129706187.148 7                  24682213.151
        47.500
 107464572.993 7                  20124615.360    20124615.279
        47.500
 133164025.571 5 103764204.52143  25340270.829    25340270.2534   25340275.8464
        32.400          23.6004
 130045273.990 7 101146377.758 6  24319121.932    24319121.616    24319133.223
        43.300          37.900
 122769597.689 6  95664759.07946  23362227.904    23362227.3464   23362228.1394
        40.900          36.1004
 108033940.286 8  84026583.994 8  20224122.116    20224122.483    20224129.481
        51.800          48.200
 125128178.170 8                  23811049.600
        48.500
 128346910.999 7  99825412.843 6  24077553.803    24077552.962    24077562.835
        43.300          40.000
 130847489.757 6 101770319.344 6  24434845.778    24434846.418    24434857.910
        40.000          38.000
 133014996.176 5 103648142.50942  25311886.635    25311886.2554   25311891.3214
        32.600          13.2004
 109985052.311 7  85702770.81646  20929403.624    20929402.1314   20929402.3084
        46.800          37.7004
 25  1  1  2  3 30.0000000  0 32E34G25R21R11S31S35R06E13G24S33G12G20
                                E15R22G05G11E02G06E36R07R23E27R13G09
                                R24G17R12E30R14R08G14G19
 125518674.687 8                  23885357.761
        48.300
 124844682.378 6  97281643.15745  23757137.139    23757136.1384   23757142.1544
        38.200          31.3004
 128355795.715 6  99832441.184 6  23986301.313    23986300.548    23986307.754
        41.900          40.500
 130298699.920 6 101343573.994 6  24383585.331    24383585.959    24383595.105
        39.200          38.100
 198982875.452 7                  37865184.189
        45.800
 200925560.064 7                  38234867.119
        44.000
 121185680.589 6                  22710135.458    22710135.288
        36.600
 146296694.537 6                  27839327.959
        37.400
 129573689.000 6 100966652.93845  24657002.227    24657001.8614   24657008.5574
        36.800          32.2004
 202134104.868 7                  38464821.065
        45.600
 111293088.406 8  86722017.47148  21178322.843    21178322.2494   21178322.2084
        48.900          48.1004
 115758242.552 7  90201275.73645  22028040.066    22028038.7704   22028040.7724
        45.400          33.1004
 125520036.075 8                  23885632.148
        48.200
 108046374.253 8  84036209.403 8  20240681.121    20240681.555    20240686.418
        52.100          48.600
 132241163.946 6 103045096.15644  25164650.311    25164649.8464   25164653.8304
        38.400          28.8004
 108953191.507 8  84898692.26446  20733066.905    20733066.5214   20733067.3674
        48.400          40.9004
 140416605.452 6                  26720356.309
        39.400
 108656404.674 8  84667476.45148  20676583.694    20676583.3374   20676586.3244
        49.100          51.1004
 146370522.780 6                  27853340.152
        37.700
 121071239.622 7  94166578.392 7  22617112.305    22617112.586    22617121.055
        47.900          42.900
 108536890.298 8                  20289794.768    20289795.152
        50.000
 129681709.113 7                  24677555.081
        47.200
 107452305.321 7                  20122318.639    20122318.153
        47.700
 133133830.318 5 103740675.79844  25334524.657    25334524.0814   25334529.7974
        32.700          24.1004
 130001805.788 7 101112569.274 6  24310993.777    24310993.610    24311003.674
        44.100          37.700
 122802469.965 6  95690373.81846  23368482.425    23368481.8584   23368483.5644
        41.200          36.1004
 108076031.678 8  84059321.748 8  20232001.568    20232002.019    20232008.887
        51.500          48.100
 125144861.880 8                  23814224.289
        48.400
 128287211.738 6  99778980.130 6  24066353.484    24066353.041    24066364.015
        40.500          40.300
 130789627.855 6 101725315.678 6  24424040.567    24424041.690    24424052.681
        41.900          39.200
 133072128.534 5 103692661.23241  25322756.772    25322756.4194   25322763.0924
        33.000          11.3004
 110007154.621 7  85719993.39546  20933609.786    20933608.2974   20933608.2134
        46.800          37.7004
 25  1  1  2  3 45.0000000  0 32E34G25R21R11S31S35R06E13G24S33G12G20
                                E15R22G05G11E02G06E36R07R23E27R13G09
                                R24G17R12E30R14R08G14G19
 125539445.496 8                  23889310.459
        48.400
 124794687.349 6  97242686.08945  23747623.061    23747622.0824   23747628.5494
        39.700          31.9004
 128402107.452 7  99868461.458 6  23994953.906    23994955.159    23994962.485
        42.800          40.600
 130367128.255 6 101396795.939 6  24396390.359    24396390.424    24396401.099
        37.300          36.600
 198982877.546 7                  37865182.945
        45.600
 200925597.169 7                  38234876.487
        44.200
 121186026.667 6                  22710200.819    22710199.966
        36.700
 146258892.890 6                  27832133.802
        37.200
 129613591.596 6 100997745.86945  24664596.119    24664595.7534   24664601.9044
        37.900          32.3004
 202134095.464 7                  38464816.611
        45.600
 111266350.035 8  86701182.40148  21173234.496    21173233.9064   21173234.0254
        49.300          48.1004
 115712619.548 7  90165725.38545  22019358.572    22019357.2984   22019358.8804
        46.000          33.2004
 125503996.786 7                  23882580.105
        47.900
 108071969.375 8  84056116.702 8  20245476.493    20245476.583    20245481.290
        52.300          48.700
 132182487.742 6 102999374.48944  25153484.162    25153483.7204   25153487.7464
        38.600          28.8004
 108939364.441 8  84887917.93546  20730435.627    20730435.2434   20730436.0954
        48.800          41.0004
 140460107.497 6                  26728634.184
        39.000
 108679088.607 8  84685152.24648  20680900.129    20680899.7674   20680902.9344
        49.500          51.3004
 146409885.920 6                  27860830.524
        38.100
 121028716.031 7  94133504.536 7  22609168.755    22609169.200    22609177.244
        47.800          43.000
 108522392.444 8                  20287084.489    20287084.821
        50.100
 129657303.724 7                  24672911.022
        47.300
 107440240.277 8                  20120058.756    20120058.696
        48.200
 133103691.871 5 103717191.34944  25328789.095    25328788.5374   25328794.5844
        33.300          24.7004
 129958369.507 7 101078785.616 6  24302869.602    24302870.045    24302881.267
        42.900          38.400
 122835372.807 6  95716012.38646  23374743.547    23374742.9664   23374744.7564
        40.800          36.1004
 108118278.127 8  84092180.076 8  20239910.244    20239910.732    20239917.555
        51.600          48.100
 125161637.214 8                  23817416.581
        48.400
 128227576.953 6  99732597.454 6  24055166.500    24055165.752    24055175.559
        41.200          39.100
 130731733.696 6 101680286.971 6  24413229.259    24413229.633    24413240.629
        38.900          37.100
 133129263.786 5 103737182.19642  25333629.767    25333629.3654   25333635.5384
        31.500          12.1004
 110029323.267 7  85737267.66346  20937828.170    20937826.6814   20937826.7514
        47.000          37.8004
 25  1  1  2  4  0.0000000  0 32E34G25R21R11S31S35R06E13G24S33G12G20
                                E15R22G05G11E02G06E36R07R23E27R13G09
                                R24G17R12E30R14R08G14G19
 125560265.033 8                  23893272.143
        48.400
 124744752.556 6  97203775.94645  23738120.828    23738119.8494   23738126.0294
        38.600          31.0004
 128448400.107 7  99904466.891 6  24003606.761    24003606.126    24003614.011
        42.200          40.900
 130435542.992 6 101450007.305 6  24409194.467    24409193.703    24409204.324
        38.300          38.500
 198982880.003 7                  37865180.558
        45.700
 200925634.647 7                  38234877.922
        43.800
 121186560.571 6                  22710301.302    22710300.300
        36.000
 146221122.517 6                  27824946.464
        37.000
 129653525.282 6 101028863.02145  24672194.925    24672194.5454   24672201.0694
        38.000          32.1004
 202134086.261 7                  38464815.922
        45.400
 111239738.440 8  86680446.11648  21168170.395    21168169.8054   21168169.9934
        49.500          48.2004
 115667073.443 7  90130234.94845  22010691.124    22010689.8504   22010691.7574
        46.100          33.4004
 125488026.297 8                  23879540.806
        48.200
 108097617.603 8  84076065.337 8  20250280.793    20250281.033    20250286.120
        52.100          48.700
 132123799.612 6 102953643.52944  25142316.263    25142315.8074   25142319.2694
        37.800          28.4004
 108925639.774 8  84877223.39946  20727823.845    20727823.4614   20727824.3814
        48.900          41.1004
 140503641.905 6                  26736918.805
        38.400
 108701853.309 8  84702890.97748  20685232.164    20685231.8024   20685234.9034
        49.600          51.4004
 146449241.281 6                  27868319.205
        37.200
 120986299.043 7  94100513.610 7  22601244.418    22601244.864    22601252.966
        47.100          43.000
 108507975.083 8                  20284389.395    20284389.765
        50.100
 129632971.225 7                  24668280.520
        47.500
 107428378.151 7                  20117837.460    20117837.163
        47.800
 133073610.694 5 103693751.54544  25323064.242    25323063.6794   25323070.3974
        35.300          25.4004
 129914965.410 7 101045026.946 6  24294753.596    24294753.844    24294763.797
        45.100          38.200
 122868306.180 6  95741674.73446  23381010.644    23381010.0594   23381011.9774
        41.100          36.3004
 108160679.145 8  84125158.632 8  20247847.898    20247848.130    20247855.280
        51.700          48.400
 125178504.190 8                  23820626.256
        48.600
 128168007.232 7  99686265.285 6  24043991.772    24043992.111    24044000.831
        43.400          38.900
 130673807.970 7 101635233.687 6  24402412.471    24402413.869    24402422.495
        42.000          36.800
 133186401.828 5 103781705.33541  25344503.659    25344503.1944   25344508.5254
        31.200          10.7004
 110051558.236 7  85754593.61046  20942059.553    20942058.0644   20942057.9034
        47.000          37.8004
 25  1  1  2  4 15.0000000  0 32E34G25R21R11S31S35R06E13G24S33G12G20
                                E15R22G05G11E02G06E36R07R23E27R13G09
                                R24G17R12E30R14R08G14G19
 125581132.620 8                  23897243.068
        48.500
 124694877.840 6  97164912.60245  23728630.058    23728629.0844   23728634.8634
        39.200          31.9004
 128494672.999 7  99940456.964 6  24012253.170    24012252.625    24012260.890
        42.000          41.100
 130503942.972 6 101503207.190 6  24421994.992    24421994.483    24422004.518
        39.500          38.200
 198982881.854 7                  37865180.826
        45.500
 200925671.168 7                  38234887.760
        43.800
 121187281.591 6                  22710435.824    22710435.420
        36.400
 146183382.985 6                  27817765.110
        37.300
 129693489.076 6 101060003.63545  24679799.473    24679799.0844   24679806.0434
        37.300          32.3004
 202134076.390 7                  38464814.187
        45.400
 111213253.260 8  86659808.33448  21163130.411    21163129.8174   21163129.9914
        49.200          48.2004
 115621604.023 7  90094804.27045  22002038.788    22002037.5194   22002039.1994
        45.300          33.4004
 125472124.047 8                  23876514.736
        48.100
 108123318.337 8  84096054.776 8  20255095.451    20255095.848    20255100.649
        52.300          48.800
 132065099.329 6 102907903.09144  25131145.755    25131145.2824   25131148.9334
        37.900          28.7004
 108912016.916 8  84866608.19846  20725231.458    20725231.0744   20725232.0214
        48.700          41.1004
 140547207.960 6                  26745209.436
        39.500
 108724698.004 8  84720692.03948  20689579.466    20689579.1044   20689582.1074
        49.600          51.4004
 146488588.323 6                  27875806.846
        36.800
 120943988.547 7  94067605.515 7  22593340.708    22593340.895    22593349.480
        46.800          43.700
 108493637.941 8                  20281709.209    20281709.582
        49.800
 129608711.275 7                  24663664.113
        47.500
 107416718.524 8                  20115654.085    20115653.844
        48.100
 133043586.587 5 103670356.19644  25317351.391    25317350.8244   25317356.7634
        34.000          25.5004
 129871592.807 7 101011292.778 6  24286641.524    24286641.820    24286653.481
        43.500          39.100
 122901269.491 6  95767360.41046  23387283.736    23387283.1784   23387284.7564
        40.400          36.2004
 108203233.935 8  84158256.792 8  20255814.331    20255814.514    20255821.346
        51.400          48.000
 125195462.247 8                  23823853.342
        48.500
 128108502.839 7  99639983.980 6  24032828.452    24032829.054    24032837.922
        43.100          38.700
 130615850.576 6 101590155.753 6  24391587.779    24391589.354    24391600.372
        41.600          39.200
 133243541.621 5 103826229.81342  25355376.208    25355375.7394   25355381.9604
        31.900          13.7004
 110073858.932 7  85771970.77446  20946303.190    20946301.6884   20946301.6384
        46.500          37.8004
 25  1  1  2  4 30.0000000  0 32E34G25R21R11S31S35R06E13G24S33G12G20
                                E15R22G05G11E02G06E36R07R23E27R13G09
                                R24G17R12E30R14R08G14G19
 125602049.164 8                  23901223.502
        48.200
 124645064.605 6  97126097.19445  23719150.560    23719149.5684   23719156.0784
        39.300          31.6004
 128540927.308 7  99976432.555 6  24020896.463    24020896.741    24020904.639
        43.200          41.200
 130572328.885 6 101556396.143 6  24434791.318    24434792.320    24434802.020
        38.900          37.600
 198982885.194 7                  37865182.816
        45.400
 200925709.635 7                  38234896.395
        43.900
 121188191.039 6                  22710606.263    22710606.218
        36.600
 146145675.418 6                  27810589.752
        37.400
 129733483.727 6 101091168.29845  24687410.854    24687410.4924   24687416.5614
        37.500          32.0004
 202134068.114 7                  38464813.517
        45.200
 111186895.835 8  86639270.10548  21158114.769    21158114.1794   21158114.3024
        49.100          48.1004
 115576212.728 7  90059434.46845  21993400.860    21993399.6174   21993401.5044
