     2.11           OBSERVATION DATA    M (MIXED)           RINEX VERSION / TYPE
teqc  2019Feb25                         20260317 16:20:09UTCPGM / RUN BY / DATE
Linux 2.4.21-27.ELsmp|Opteron|gcc -static|Linux 64|=+       COMMENT
BIT 2 OF LLI FLAGS DATA COLLECTED UNDER A/S CONDITION       COMMENT
-Unknown-                                                   MARKER NAME
-Unknown-           -Unknown-                               OBSERVER / AGENCY
-Unknown-           -Unknown-           -Unknown-           REC # / TYPE / VERS
-Unknown-           -Unknown-                               ANT # / TYPE
        0.0000        0.0000        0.0000                  APPROX POSITION XYZ
        0.0000        0.0000        0.0000                  ANTENNA: DELTA H/E/N
     1     1                                                WAVELENGTH FACT L1/2
     7    L1    L2    C1    P1    P2    S1    S2            # / TYPES OF OBSERV
 SNR is mapped to RINEX snr flag value [0-9]                COMMENT
  L1 & L2: min(max(int(snr_dBHz/6), 0), 9)                  COMMENT
  2025     1     1    17     0    0.0000000     GPS         TIME OF FIRST OBS
    18                                                      LEAP SECONDS
                                                            END OF HEADER
 25  1  1 17  0  0.0000000  0 28G09G26E19R18G08S31S35G07G03R06S48S33
                                E29E04E31G16G27E21G04E06R07R17R08R10
                                R16G31R09E09
 110020501.160 8  85730273.58548  20936202.821    20936202.2094   20936204.8844
        48.800          50.1004
 117733092.867 7  91740099.46347  22403859.026    22403858.3334   22403863.6604
        44.600          43.0004
 126233020.514 7                  24021350.967
        42.700
 126067121.761 7  98052416.757 7  23616561.395    23616561.547    23616574.893
        43.100          42.900
 122266961.377 6  95273050.61345  23266612.586    23266611.8084   23266627.1944
        41.000          34.1004
 198980457.315 7                  37864725.968
        45.800
 200918530.369 7                  38233532.407
        43.500
 125032679.589 7  97428105.69846  23792911.103    23792910.4554   23792912.5064
        43.500          37.0004
 122970557.775 7  95821193.35246  23400542.186    23400541.9584   23400553.5464
        42.000          38.1004
 109102193.497 6                  20445712.801    20445712.191
        39.600
 412807446.832 5                  78554457.282
        33.300
 202116032.300 7                  38461387.042
        45.600
 148282536.507 6                  28217284.950
        36.400
 124203890.386 8                  23635215.157
        48.500
 137488808.697 7                  26163212.283
        42.000
 106496600.009 8  82984434.33846  20265604.625    20265603.6194   20265604.4634
        48.800          40.4004
 115544647.988 7  90034943.40547  21987362.046    21987361.3184   21987368.9664
        44.700          44.3004
 131199207.259 7                  24966370.702
        46.400
 105027961.215 8  81839974.06847  19986156.571    19986156.1744   19986157.9764
        49.400          43.0004
 131889627.164 7                  25097760.125
        44.600
 103641883.144 8  80610377.012 8  19361169.813    19361170.029    19361176.611
        53.100          48.700
 128397075.561 7  99864433.154 6  23994068.909    23994068.686    23994082.581
        42.800          40.200
 119794913.176 7  93173839.287 7  22370853.975    22370853.997    22370860.285
        46.700          42.600
 113766668.247 7                  21342294.404    21342293.440
        44.400
 115732202.412 8  90013976.295 7  21665308.082    21665308.567    21665315.333
        49.600          45.000
 124185222.205 7  96767690.59646  23631674.213    23631673.7404   23631677.6004
        42.800          38.5004
 103879298.768 8  80795104.143 8  19453232.510    19453232.556    19453237.564
        52.500          50.100
 143649736.927 6                  27335634.407
        39.700
 25  1  1 17  0 15.0000000  0 28G09G26E19R18G08S31S35G07G03R06S48S33
                                E29E04E31G16G27E21G04E06R07R17R08R10
                                R16G31R09E09
 109989711.895 8  85706281.95548  20930343.805    20930343.1844   20930345.8874
        48.800          49.7004
 117779345.529 7  91776140.45247  22412661.291    22412660.5814   22412665.1864
        44.600          42.7004
 126259978.748 7                  24026481.144
        43.100
 126034224.275 7  98026830.149 7  23610398.495    23610398.744    23610411.871
        42.900          42.800
 122212523.773 6  95230631.95845  23256253.546    23256252.7774   23256267.9334
        41.200          34.1004
 198980454.839 7                  37864724.099
        45.400
 200918495.042 7                  38233525.802
        43.500
 124999051.377 7  97401901.92946  23786511.815    23786511.1544   23786513.2304
        43.500          36.6004
 123021256.054 6  95860698.23246  23410190.489    23410190.2664   23410201.4744
        41.100          37.4004
 109150432.250 6                  20454751.487    20454752.045
        39.200
 412808058.971 5                  78554490.198
        33.100
 202116049.940 7                  38461395.292
        45.000
 148324248.029 6                  28225222.069
        37.200
 124187927.527 8                  23632177.152
        48.600
 137450114.594 7                  26155848.786
        42.100
 106519744.449 8  83002468.97646  20270008.699    20270007.6934   20270008.7384
        48.900          40.1004
 115505598.708 7  90004515.48747  21979931.157    21979930.4424   21979938.0414
        45.000          44.0004
 131228788.970 7                  24971999.779
        46.500
 105022847.389 8  81835989.25247  19985183.299    19985182.8934   19985184.8984
        49.800          42.6004
 131857855.970 7                  25091714.489
        44.900
 103631289.114 8  80602137.208 8  19359190.549    19359190.880    19359197.600
        53.100          48.700
 128401836.295 7  99868135.453 6  23994959.576    23994958.883    23994973.029
        43.500          41.900
 119737802.317 7  93129419.763 7  22360188.715    22360189.562    22360195.501
        46.900          43.000
 113731295.777 7                  21335657.948    21335657.279
        44.500
 115778548.924 8  90050023.404 7  21673983.889    21673984.503    21673991.823
        49.400          45.200
 124226095.362 7  96799539.65546  23639452.256    23639451.7834   23639455.6754
        43.500          38.2004
 103882029.069 8  80797227.714 8  19453743.288    19453743.766    19453748.961
        52.500          50.200
 143609758.751 6                  27328026.591
        39.200
 25  1  1 17  0 30.0000000  0 28G09G26E19R18G08S31S35G07G03R06S48S33
                                E29E04E31G16G27E21G04E06R07R17R08R10
                                R16G31R09E09
 109959022.857 8  85682368.41848  20924503.816    20924503.1954   20924505.9574
        48.800          49.6004
 117825642.047 7  91812215.64247  22421471.067    22421470.3704   22421475.2404
        44.600          42.5004
 126287003.129 7                  24031623.653
        42.900
 126001449.825 7  98001339.218 7  23604259.506    23604260.212    23604271.591
        44.900          42.700
 122158109.057 6  95188231.13845  23245899.010    23245898.2594   23245912.9574
        41.100          33.8004
 198980449.985 7                  37864722.270
        45.600
 200918456.611 7                  38233522.931
        44.000
 124965427.603 7  97375701.61946  23780113.614    23780112.9574   23780114.8214
        43.400          36.6004
 123071979.253 7  95900222.51846  23419842.802    23419842.5884   23419854.2224
        42.000          37.5004
 109198806.688 6                  20463818.052    20463817.768
        39.600
 412807069.138 5                  78554515.708
        33.300
 202116065.798 7                  38461391.670
        45.300
 148365978.250 6                  28233163.350
        37.000
 124172032.016 8                  23629152.478
        48.500
 137411462.980 7                  26148493.806
        42.300
 106543015.460 8  83020602.22846  20274437.271    20274436.2704   20274437.0354
        49.000          40.1004
 115466651.341 7  89974166.98547  21972519.390    21972518.6804   21972526.5194
        45.100          43.9004
 131258418.360 7                  24977637.867
        46.500
 105017860.735 8  81832103.52247  19984234.412    19984233.9924   19984235.9794
        49.900          42.6004
 131826123.060 7                  25085675.978
        44.100
 103620888.990 8  80594048.215 8  19357247.939    19357248.072    19357254.694
        53.400          48.700
 128406771.313 7  99871973.163 7  23995881.905    23995882.815    23995896.186
        45.000          42.800
 119680767.734 7  93085059.461 7  22349538.444    22349539.221    22349544.158
        47.700          42.700
 113696011.560 7                  21329039.142    21329038.035
        44.400
 115824914.086 8  90086085.156 7  21682663.476    21682664.026    21682671.824
        48.900          45.300
 124266982.023 7  96831399.24946  23647232.598    23647232.1204   23647236.2754
        43.300          38.2004
 103884860.403 8  80799429.874 8  19454273.602    19454274.051    19454279.206
        52.200          50.100
 143569788.432 6                  27320421.138
        38.800
 25  1  1 17  0 45.0000000  0 29G09G26E19R18G08S31S35G07G03R06S48S33
                                R19E29E04E31G16G27E21G04E06R07R17R08
                                R10R16G31R09E09
 109928435.907 8  85658534.43148  20918683.328    20918682.7164   20918685.4564
        48.900          49.5004
 117871983.624 7  91848325.92847  22430289.787    22430289.0904   22430293.8254
        44.500          42.5004
 126314095.285 7                  24036779.236
        42.900
 125968800.374 7  97975945.528 7  23598142.253    23598142.053    23598154.509
        43.000          42.400
 122103719.122 6  95145849.60845  23235548.502    23235547.7604   23235562.4924
        41.000          33.9004
 198980444.145 7                  37864720.902
        45.600
 200918417.282 7                  38233509.499
        43.700
 124931809.798 7  97349505.96046  23773716.597    23773715.9454   23773717.4134
        43.400          36.5004
 123122728.561 7  95939767.14846  23429500.284    23429500.0834   23429511.8094
        42.300          37.4004
 109247317.994 6                  20472908.523    20472909.051
        39.700
 412807678.969 5                  78554544.447
        32.500
 202116079.674 7                  38461397.260
        45.500
 132288344.802 5 102891061.329 5  24729908.682                    24729939.560
        30.500          34.900
 148407728.583 6                  28241108.171
        37.000
 124156205.552 8                  23626140.613
        48.600
 137372855.500 7                  26141146.779
        42.300
 106566414.328 8  83038835.10546  20278889.945    20278888.9484   20278889.6854
        49.100          40.0004
 115427807.804 7  89943899.38647  21965127.821    21965127.1114   21965134.8024
        44.800          43.9004
 131288096.650 7                  24983285.829
        46.500
 105013002.968 8  81828318.23147  19983310.177    19983309.7624   19983311.5834
        50.000          42.6004
 131794430.099 7                  25079644.934
        44.400
 103610684.356 8  80586111.272 8  19355341.436    19355341.685    19355348.481
        53.300          48.700
 128411881.492 7  99875946.595 7  23996837.392    23996837.426    23996851.732
        44.100          42.800
 119623811.445 7  93040760.134 7  22338901.852    22338901.938    22338908.744
        46.300          43.400
 113660816.651 7                  21322436.644    21322435.747
        44.500
 115871298.848 8  90122162.119 7  21691347.412    21691347.505    21691354.646
        48.600          45.100
 124307883.598 7  96863270.46346  23655016.523    23655016.0504   23655019.6494
        43.700          38.0004
 103887793.778 8  80801711.387 8  19454822.885    19454823.381    19454828.585
        52.300          50.200
 143529827.774 6                  27312816.773
        39.400
 25  1  1 17  1  0.0000000  0 29G09G26E19R18G08S31S35G07G03R06S48S33
                                R19E29E04E31G16G27E21G04E06R07R17R08
                                R10R16G31R09E09
 109897953.066 8  85634781.57648  20912882.913    20912882.3054   20912884.7784
        48.500          49.3004
 117918371.763 7  91884472.50247  22439116.850    22439116.1574   22439121.2374
        44.600          42.3004
 126341257.070 7                  24041947.867
        42.800
 125936278.205 7  97950650.831 7  23592050.135    23592050.492    23592061.275
        43.900          42.200
 122049356.095 6  95103489.06245  23225203.644    23225202.9024   23225217.6444
        41.600          33.9004
 198980438.351 7                  37864720.517
        45.300
 200918379.098 7                  38233506.122
        44.000
 124898199.656 7  97323316.27946  23767320.530    23767319.8824   23767321.6384
        42.700          36.6004
 123173505.310 6  95979333.17046  23439163.001    23439162.7964   23439174.4454
        41.700          36.9004
 109295967.486 6                  20482026.233    20482025.634
        39.700
 412808289.751 5                  78554581.589
        33.500
 202116094.773 7                  38461401.570
        45.500
 132236755.475 4 102850936.314 5  24720262.112    24720266.377    24720295.433
        28.900          34.900
 148449500.647 6                  28249056.993
        36.600
 124140450.005 8                  23623142.729
        48.300
 137334293.997 6                  26133808.635
        41.900
 106589942.186 8  83057168.50246  20283367.025    20283366.0244   20283366.8664
        48.900          39.9004
 115389070.215 7  89913714.34247  21957756.092    21957755.3774   21957763.1314
        44.700          43.7004
 131317825.376 7                  24988942.927
        46.200
 105008275.973 8  81824634.85047  19982410.742    19982410.3224   19982412.1304
        49.400          42.5004
 131762779.063 7                  25073621.991
        44.300
 103600677.233 8  80578327.944 8  19353472.028    19353472.368    19353479.084
        53.200          48.700
 128417169.514 7  99880058.365 6  23997826.055    23997826.620    23997841.101
        44.300          41.700
 119566935.808 7  92996523.472 7  22328281.087    22328281.530    22328286.923
        46.900          42.900
 113625713.011 7                  21315850.472    21315850.473
        44.400
 115917705.256 8  90158255.934 7  21700034.569    21700034.822    21700042.602
        49.500          45.300
 124348802.033 7  96895154.81446  23662802.453    23662801.9934   23662806.2734
        43.200          37.9004
 103890831.154 8  80804073.801 8  19455391.860    19455391.988    19455397.430
        52.400          50.200
 143489878.511 6                  27305214.248
        38.900
 25  1  1 17  1 15.0000000  0 29G09G26E19R18G08S31S35G07G03R06S48S33
                                R19E29E04E31G16G27E21G04E06R07R17R08
                                R10R16G31R09E09
 109867575.833 8  85611110.99548  20907102.214    20907101.5974   20907104.2004
        48.900          49.5004
 117964807.391 7  91920656.09047  22447953.389    22447952.7104   22447957.6914
        44.400          42.5004
 126368489.490 7                  24047130.060
        42.600
 125903885.136 7  97925456.503 7  23585980.738    23585981.686    23585993.918
        43.600          42.900
 121995021.636 7  95061150.76245  23214863.821    23214863.0844   23214877.8174
        42.000          34.1004
 198980435.461 7                  37864719.614
        45.500
 200918342.489 7                  38233497.734
        44.200
 124864598.292 7  97297133.43246  23760926.604    23760925.9614   23760927.4424
        43.200          36.5004
 123224310.278 7  96018921.18246  23448831.028    23448830.8274   23448842.6074
        42.300          37.2004
 109344756.039 6                  20491169.610    20491168.917
        39.900
 412808902.308 5                  78554623.836
        32.800
 202116111.807 7                  38461402.621
        45.400
 132185177.847 5 102810820.193 5  24710625.804    24710623.524    24710653.358
        32.600          34.200
 148491295.586 6                  28257010.401
        36.900
 124124766.737 8                  23620158.093
        48.400
 137295779.757 7                  26126479.628
        42.400
 106613600.042 8  83075603.19046  20287868.909    20287867.9084   20287868.7974
        49.100          40.0004
 115350440.285 7  89883613.19747  21950405.276    21950404.5574   21950411.8954
        45.600          43.9004
 131347605.794 7                  24994609.963
        46.200
 105003681.083 8  81821054.40147  19981536.193    19981535.7694   19981537.7754
        49.800          42.7004
 131731171.322 7                  25067607.197
        44.300
 103590869.313 8  80570699.538 8  19351639.895    19351640.412    19351646.890
        53.100          48.900
 128422637.407 7  99884310.319 6  23998848.572    23998849.455    23998863.926
        44.900          41.900
 119510142.674 7  92952351.015 7  22317675.636    22317676.397    22317682.211
        47.400          43.600
 113590701.847 7                  21309283.137    21309282.514
        44.500
 115964133.892 8  90194367.026 7  21708725.961    21708726.109    21708734.153
        48.700          45.300
 124389738.359 7  96927053.09246  23670592.608    23670592.1434   23670596.2824
        43.800          38.0004
 103893973.204 8  80806517.614 8  19455980.207    19455980.494    19455985.859
        52.500          50.200
 143449942.186 6                  27297615.258
        39.300
 25  1  1 17  1 30.0000000  0 29G09G26E19R18G08S31S35G07G03R06S48S33
                                R19E29E04E31G16G27E21G04E06R07R17R08
                                R10R16G31R09E09
 109837301.684 8  85587520.73848  20901341.051    20901340.4304   20901343.2304
        48.800          49.6004
 118011287.431 7  91956874.29947  22456798.393    22456797.7094   22456802.5834
        44.800          42.5004
 126395789.853 7                  24052325.147
        42.800
 125871618.582 7  97900360.593 7  23579936.459    23579936.795    23579949.179
        43.300          43.000
 121940713.300 6  95018832.80945  23204528.609    23204527.8544   23204542.7974
        41.700          34.1004
 198980431.252 7                  37864720.486
        45.700
 200918305.199 7                  38233494.988
        44.100
 124831002.804 7  97270955.16746  23754533.040    23754532.3884   23754534.3404
        43.300          36.6004
 123275140.303 7  96058528.71146  23458503.543    23458503.3334   23458515.2364
        42.000          37.1004
 109393680.327 6                  20500337.327    20500336.960
        39.800
 412807914.223 5                  78554658.402
        32.700
 202116127.615 7                  38461404.455
        45.200
 132133609.409 4 102770711.429 5  24700984.743                    24701014.042
        29.100          33.100
 148533110.447 6                  28264967.798
        36.700
 124109153.134 8                  23617186.938
        48.300
 137257310.130 7                  26119158.888
        42.200
 106637384.805 8  83094136.76946  20292395.136    20292394.1304   20292394.8974
        49.100          40.0004
 115311915.520 7  89853593.99447  21943073.943    21943073.2284   21943080.7554
        44.900          43.9004
 131377434.772 7                  25000286.202
        46.300
 104999215.651 8  81817574.82747  19980686.533    19980686.1134   19980688.0204
        49.800          42.8004
 131699604.287 7                  25061600.170
        44.400
 103581257.724 8  80563223.857 8  19349844.508    19349844.796    19349851.212
        53.500          48.800
 128428282.548 7  99888700.779 6  23999904.610    23999904.740    23999918.984
        44.800          41.400
 119453429.622 7  92908240.854 7  22307084.362    22307085.368    22307090.507
        47.300          43.000
 113555780.398 7                  21302731.549    21302730.840
        43.900
 116010582.130 8  90230493.630 7  21717421.433    21717421.577    21717429.192
        48.800          45.200
 124430689.730 7  96958963.10446  23678385.415    23678384.9464   23678389.1674
        44.100          38.1004
 103897217.253 8  80809040.783 8  19456587.712    19456587.857    19456593.244
        52.500          50.100
 143410016.130 6                  27290017.376
        39.500
 25  1  1 17  1 45.0000000  0 29G09G26E19R18G08S31S35G07G03R06S48S33
                                R19E29E04E31G16G27E21G04E06R07R17R08
                                R10R16G31R09E09
 109807130.922 8  85564011.03848  20895599.893    20895599.2724   20895601.9484
        48.900          49.7004
 118057811.573 7  91993126.89247  22465651.487    22465650.7994   22465655.8144
        44.200          42.6004
 126423157.833 7                  24057533.218
        42.500
 125839479.048 7  97875363.452 7  23573915.219    23573916.305    23573927.285
        44.200          42.500
 121886431.446 7  94976535.49745  23194199.349    23194198.6034   23194213.2194
        42.000          34.6004
 198980426.174 7                  37864722.623
        45.800
 200918267.010 7                  38233488.021
        44.200
 124797413.333 7  97244781.58646  23748141.569    23748140.9124   23748142.3974
        43.500          36.6004
 123325994.956 7  96098155.44246  23468181.651    23468181.4464   23468192.8294
        42.100          37.4004
 109442739.929 6                  20509531.017    20509530.773
        39.500
 412808525.169 5                  78554694.578
        32.800
 202116143.323 7                  38461407.191
        45.600
 132082051.214 5 102730610.586 6  24691345.475    24691346.422    24691375.442
        32.300          36.700
 148574945.054 6                  28272929.087
        36.000
 124093609.287 8                  23614229.152
        48.100
 137218885.187 7                  26111846.585
        42.200
 106661296.398 8  83112769.16146  20296945.343    20296944.3374   20296945.1364
        49.200          40.1004
 115273496.287 7  89823657.03047  21935763.106    21935762.3874   21935769.6524
        45.300          44.1004
 131407312.087 7                  25005971.907
        46.100
 104994879.801 8  81814196.23347  19979861.388    19979860.9684   19979862.9384
        49.900          43.0004
 131668078.111 7                  25055601.058
        44.200
 103571842.535 8  80555900.922 8  19348085.607    19348085.892    19348092.469
        53.000          48.700
 128434104.177 7  99893228.517 6  24000992.138    24000992.216    24001007.157
        45.400          40.800
 119396796.981 7  92864193.278 7  22296508.770    22296509.462    22296515.298
        47.600          43.000
 113520948.839 7                  21296197.292    21296196.789
        44.900
 116057048.815 8  90266634.408 7  21726120.004    21726119.978    21726127.629
        49.100          45.400
 124471656.141 7  96990884.83346  23686181.396    23686180.9234   23686185.0164
        43.400          38.2004
 103900562.703 8  80811642.803 8  19457214.151    19457214.371    19457219.763
        52.400          50.300
 143370100.451 6                  27282421.445
        38.600
 25  1  1 17  2  0.0000000  0 29G09G26E19R18G08S31S35G07G03R06S48S33
                                R19E29E04E31G16G27E21G04E06R07R17R08
                                R10R16G31R09E09
 109777062.564 8  85540581.12848  20889878.086    20889877.4744   20889880.1494
        48.700          49.7004
 118104378.219 7  92029412.58747  22474512.690    22474512.0024   22474517.1304
        44.800          42.6004
 126450592.282 7                  24062753.801
        42.400
 125807465.853 7  97850464.586 7  23567917.988    23567918.840    23567930.249
        43.800          42.700
 121832175.296 6  94934258.20745  23183874.315    23183873.5644   23183888.5384
        41.500          34.5004
 198980419.123 7                  37864718.125
        45.700
 200918226.858 7                  38233477.616
        43.900
 124763828.835 7  97218611.88346  23741750.226    23741749.5694   23741751.3984
        43.200          36.9004
 123376872.570 7  96137800.04946  23477862.995    23477862.7904   23477874.9474
        42.400          37.3004
 109491933.173 6                  20518750.128    20518749.979
        39.800
 412809134.172 5                  78554738.878
        33.400
 202116156.352 7                  38461405.639
        44.800
 132030502.261 5 102690516.872 5  24681710.288    24681709.105    24681738.465
        30.000          32.400
 148616798.167 6                  28280892.778
        36.500
 124078134.131 8                  23611284.307
        48.100
 137180503.736 7                  26104542.746
        42.200
 106685333.131 8  83131499.08246  20301519.491    20301518.4854   20301519.1674
        49.000          40.1004
 115235181.785 7  89793801.65947  21928471.656    21928470.9324   21928478.5734
        45.200          44.2004
 131437236.400 7                  25011666.125
        46.000
 104990672.411 8  81810917.72347  19979060.905    19979060.4854   19979062.3344
        49.600          43.0004
 131636591.701 7                  25049609.544
        44.300
 103562623.036 8  80548730.200 8  19346363.337    19346363.615    19346370.170
        53.000          48.800
 128440101.369 7  99897893.236 7  24002112.204    24002112.939    24002126.919
        45.600          42.400
 119340244.078 8  92820207.629 7  22285948.182    22285948.563    22285954.439
        48.000          43.000
 113486205.328 7                  21289679.472    21289678.822
        44.200
 116103532.528 8  90302788.194 7  21734822.789    21734822.288    21734830.077
        49.100          45.600
 124512636.231 7  97022817.21146  23693980.049    23693979.5584   23693983.5344
        43.500          38.2004
 103904008.189 8  80814322.640 8  19457859.447    19457859.716    19457865.045
        52.900          50.300
 143330194.010 6                  27274827.449
        39.300
 25  1  1 17  2 15.0000000  0 29G09G26E19R18G08S31S35G07G03R06S48S33
                                R19E29E04E31G16G27E21G04E06R07R17R08
                                R10R16G31R09E09
 109747103.304 8  85517236.22948  20884176.833    20884176.2164   20884179.1304
        48.900          49.7004
 118150993.482 7  92065736.15347  22483383.168    22483382.4714   22483387.6404
        44.400          42.6004
 126478099.694 7                  24067988.409
        42.400
 125775585.860 7  97825669.326 7  23561945.051    23561944.917    23561958.384
        42.800          42.900
 121777951.598 7  94892006.20745  23173556.247    23173555.4964   23173569.7464
        42.200          34.6004
 198980416.055 7                  37864713.255
        44.900
 200918190.720 7                  38233471.494
        43.700
 124730255.548 7  97192450.90446  23735362.001    23735361.3404   23735362.5994
        43.000          36.8004
 123427779.155 6  96177467.22646  23487550.614    23487550.4094   23487562.5484
        41.600          37.1004
 109541266.104 6                  20527995.237    20527994.894
        40.100
 412808047.114 5                  78554769.759
        33.300
 202116173.942 7                  38461415.061
        45.400
 131978969.616 5 102650435.777 6  24672075.466    24672075.835    24672105.700
        32.800          37.900
 148658675.980 5                  28288861.805
        35.500
 124062734.205 8                  23608353.611
        48.000
 137142172.339 7                  26097248.570
        42.100
 106709501.058 8  83150331.23746  20306118.400    20306117.3944   20306118.1334
        49.100          40.1004
 115196978.831 7  89764033.22747  21921202.243    21921201.5244   21921208.7614
        44.800          44.1004
 131467213.700 7                  25017370.660
        46.000
 104986600.053 8  81807744.44547  19978285.847    19978285.4324   19978287.4164
        49.800          43.0004
 131605151.651 7                  25043626.493
        44.100
 103553605.675 8  80541716.663 8  19344678.893    19344679.236    19344685.688
        53.100          48.800
 128446280.112 7  99902699.201 6  24003266.856    24003267.601    24003281.765
        46.000          41.800
 119283777.733 7  92776289.325 7  22275402.901    22275403.614    22275409.517
        47.700          43.200
 113451557.050 7                  21283178.468    21283178.903
        44.500
 116150039.892 8  90338960.431 7  21743528.476    21743528.854    21743535.977
        49.300          45.800
 124553636.423 7  97054765.24546  23701782.275    23701781.7884   23701785.7874
        43.900          38.2004
 103907559.990 8  80817085.147 8  19458524.309    19458524.727    19458530.070
        52.300          50.400
 143290303.406 6                  27267236.789
        39.900
 25  1  1 17  2 30.0000000  0 29G09G26E19R18G08S31S35G07G03R06S48S33
                                R19E29E04E31G16G27E21G04E06R07R17R08
                                R10R16G31R09E09
 109717243.471 8  85493968.83148  20878494.524    20878493.9074   20878496.9864
        48.700          49.6004
 118197647.115 7  92102089.61847  22492261.424    22492260.7274   22492265.5954
        44.200          42.4004
 126505669.799 7                  24073235.002
        42.200
 125743829.409 7  97800970.126 7  23555997.237    23555997.011    23556008.510
        42.900          42.800
 121723750.737 6  94849771.99845  23163241.909    23163241.1494   23163255.4124
        41.700          34.5004
 198980407.478 7                  37864714.860
        45.700
 200918148.516 7                  38233464.478
        43.900
 124696683.411 7  97166290.83046  23728972.947    23728972.2954   23728974.1354
        43.300          36.7004
 123478704.286 7  96217148.86246  23497241.748    23497241.5524   23497253.2784
        42.100          36.9004
 109590728.225 6                  20537265.327    20537264.424
        39.600
 412808655.181 5                  78554797.823
        32.100
 202116185.850 7                  38461418.576
        45.300
 131927443.404 4 102610359.812 5  24662442.400    24662443.320    24662473.517
        29.500          34.400
 148700568.396 6                  28296834.398
        36.200
 124047399.657 8                  23605435.822
        48.100
 137103881.028 7                  26089962.057
        42.100
 106733789.898 8  83169257.60846  20310740.310    20310739.3094   20310740.1764
        49.200          40.0004
 115158877.751 7  89734344.17647  21913951.545    21913950.8264   21913958.2224
        45.400          44.1004
 131497234.108 7                  25023083.263
        45.800
 104982652.801 8  81804668.64147  19977534.892    19977534.4814   19977536.2904
        49.800          43.0004
 131573748.083 7                  25037650.597
        44.100
 103544780.530 8  80534852.645 8  19343030.511    19343030.647    19343037.072
        53.100          48.800
 128452629.350 7  99907637.458 6  24004453.032    24004454.178    24004468.439
        45.600          41.200
 119227388.848 7  92732431.281 7  22264873.410    22264873.399    22264879.660
        47.300          43.300
 113416993.805 7                  21276695.032    21276694.634
        44.200
 116196561.141 8  90375143.786 7  21752236.367    21752236.883    21752244.856
        48.900          45.600
 124594646.668 7  97086721.12946  23709586.265    23709585.7964   23709589.8374
        43.600          38.0004
 103911207.873 8  80819922.387 8  19459207.531    19459207.910    19459213.114
        52.300          50.300
 143250418.646 6                  27259646.439
        39.600
 25  1  1 17  2 45.0000000  0 29G09G26E19R18G08S31S35G07G03R06S48S33
                                R19E29E04E31G16G27E21G04E06R07R17R08
                                R10R16G31R09E09
 109687497.720 8  85470790.31648  20872834.180    20872833.5634   20872836.5424
        48.500          49.5004
 118244353.199 7  92138483.94747  22501148.960    22501148.2634   22501153.4954
        44.200          42.2004
 126533317.045 7                  24078495.948
        42.500
 125712211.532 7  97776378.705 7  23550073.083    23550073.301    23550084.509
        43.800          42.200
 121669587.514 6  94807567.11745  23152935.003    23152934.2664   23152948.1884
        41.100          34.7004
 198980407.686 7                  37864713.805
        45.700
 200918115.947 7                  38233457.198
        43.700
 124663126.875 7  97140142.91246  23722586.949    23722586.3194   23722588.4474
        43.700          36.7004
 123529661.997 7  96256855.89046  23506938.625    23506938.4334   23506950.4924
        42.400          36.8004
 109640333.719 6                  20546560.821    20546560.266
        39.800
 412809273.299 5                  78554836.355
        32.800
 202116206.176 7                  38461415.316
        45.300
 131875939.031 5 102570300.749 5  24652815.428    24652815.358    24652845.223
        31.600          34.900
 148742489.675 6                  28304811.206
        36.300
 124032145.056 8                  23602532.733
        48.100
 137065644.337 6                  26082685.724
        41.900
 106758213.774 8  83188289.19646  20315388.295    20315387.2854   20315387.9144
        48.800          39.8004
 115120893.367 7  89704746.04747  21906722.997    21906722.2824   21906729.8354
        45.100          43.9004
 131527311.441 7                  25028806.817
        45.800
 104978845.260 8  81801701.71847  19976810.347    19976809.9364   19976811.7404
        49.700          42.9004
 131542395.654 7                  25031684.235
        44.200
 103536162.528 8  80528149.740 8  19341420.714    19341420.765    19341427.181
        53.100          49.000
 128459164.740 7  99912720.650 6  24005675.409    24005676.210    24005688.839
        44.300          39.800
 119171092.168 8  92688645.050 7  22254360.083    22254360.896    22254366.526
        48.000          43.500
 113382529.693 7                  21270230.052    21270229.406
        43.600
 116243109.121 8  90411347.586 7  21760951.200    21760951.476    21760958.962
        49.300          45.800
 124635681.128 7  97118695.87846  23717394.981    23717394.5084   23717398.3684
        43.000          37.8004
 103914966.100 8  80822845.459 8  19459911.640    19459911.757    19459917.024
        53.000          50.300
 143210554.449 6                  27252060.459
        39.600
 25  1  1 17  3  0.0000000  0 29G09G26E19R18G08S31S35G07G03R06S48S33
                                R19E29E04E31G16G27E21G04E06R07R17R08
                                R10R16G31R09E09
 109657852.787 8  85447690.35448  20867192.958    20867192.3414   20867195.3174
        48.400          49.6004
 118291097.958 7  92174908.40547  22510044.324    22510043.6314   22510048.6884
        44.000          42.2004
 126561027.764 7                  24083769.276
        42.800
 125680719.126 7  97751884.870 7  23544173.009    23544173.160    23544185.276
        43.100          42.400
 121615448.843 7  94765381.37045  23142632.466    23142631.7334   23142645.7574
        42.200          34.8004
 198980402.852 7                  37864713.608
        45.700
 200918077.889 7                  38233447.866
        43.800
 124629572.379 7  97113996.57446  23716201.467    23716200.8504   23716203.2214
        42.500          36.6004
 123580638.374 6  96296577.46046  23516639.377    23516639.1994   23516651.3694
        41.800          36.9004
 109690068.351 6                  20555881.285    20555880.612
        39.900
 412809886.026 5                  78554874.927
        33.400
 202116221.583 7                  38461419.899
        45.100
 131824443.592 5 102530248.702 6  24643187.982    24643188.921    24643218.455
        31.600          36.300
 148784426.268 6                  28312791.391
        36.700
 124016957.085 8                  23599642.697
        48.300
 137027448.866 7                  26075417.563
        42.500
 106782758.902 8  83207415.26446  20320058.907    20320057.8974   20320058.6674
        49.100          39.7004
 115083012.594 7  89675228.65647  21899514.816    21899514.1014   21899521.2494
        44.500          44.0004
 131557432.279 7                  25034538.847
        46.400
 104975164.068 8  81798833.25647  19976109.880    19976109.4744   19976111.2524
        50.000          43.1004
 131511081.086 7                  25025725.246
        44.600
 103527738.190 8  80521597.492 8  19339846.632    19339846.865    19339853.366
        53.300          48.800
 128465871.711 7  99917937.006 6  24006928.608    24006929.163    24006943.478
        45.400          40.300
 119114874.388 7  92644920.197 7  22243861.885    22243862.390    22243868.480
        47.900          43.500
 113348151.460 7                  21263780.745    21263780.079
        43.800
 116289671.101 8  90447562.413 7  21769667.930    21769667.666    21769675.567
        49.400          45.800
 124676726.502 7  97150679.12246  23725206.113    23725205.6624   23725209.3984
        42.800          37.8004
 103918820.912 8  80825843.652 8  19460633.129    19460633.741    19460638.771
        52.700          50.200
 143170697.207 6                  27244476.336
        39.700
 25  1  1 17  3 15.0000000  0 29G09G26E19R18G08S31S35G07G03R06S48S33
                                R19E29E04E31G16G27E21G04E06R07R17R08
                                R10R16G31R09E09
 109628314.841 8  85424673.75948  20861572.394    20861571.7954   20861574.4704
        48.700          49.6004
 118337886.920 7  92211367.30947  22518948.133    22518947.4544   22518952.2744
        44.300          42.0004
 126588807.791 7                  24089055.706
        42.800
 125649358.366 7  97727493.426 7  23538298.966    23538299.796    23538309.752
        44.100          42.300
 121561340.877 7  94723219.53945  23132335.783    23132335.0504   23132349.2244
        42.200          34.9004
 198980399.031 7                  37864715.621
        45.700
 200918040.817 7                  38233443.296
        44.000
 124596025.821 6  97087856.42246  23709818.828    23709818.2204   23709819.3404
        41.900          36.6004
 123631638.822 6  96336317.79146  23526344.538    23526344.3644   23526356.6104
        41.600          36.7004
 109739937.678 6                  20565225.870    20565225.842
        39.200
 412808899.458 5                  78554911.536
        33.100
 202116237.934 7                  38461425.256
        45.400
 131772962.749 5 102490207.874 5  24633565.931    24633565.828    24633594.414
        32.800          34.500
 148826383.764 6                  28320775.814
        36.900
 124001841.609 8                  23596766.347
        48.500
 136989300.481 7                  26068157.820
        42.400
 106807430.766 8  83226640.09246  20324753.798    20324752.7924   20324753.5354
        48.900          39.6004
 115045241.590 7  89645796.80547  21892327.405    21892326.6954   21892333.5634
        44.800          43.9004
 131587602.225 7                  25040279.779
        46.200
 104971615.122 8  81796067.83047  19975434.411    19975433.9964   19975435.9474
        50.200          43.0004
 131479810.222 7                  25019774.560
        44.200
 103519513.311 8  80515200.353 8  19338310.239    19338310.478    19338316.966
        53.200          48.800
 128472755.689 7  99923290.628 6  24008215.080    24008215.501    24008230.697
        44.600          39.700
 119058742.143 8  92601261.875 7  22233379.419    22233380.222    22233385.298
        48.300          43.400
 113313865.035 7                  21257348.586    21257347.967
        44.200
 116336252.001 8  90483791.881 7  21778387.522    21778388.358    21778395.862
        49.100          46.100
 124717788.515 7  97182675.34146  23733020.230    23733019.7924   23733023.5454
        43.600          37.8004
 103922777.986 8  80828921.383 8  19461374.238    19461374.693    19461379.719
        52.700          50.200
 143130853.286 6                  27236894.356
        39.700
 25  1  1 17  3 30.0000000  0 29G09G26E19R18G08S31S35G07G03R06S48S33
                                R19E29E04E31G16G27E21G04E06R07R17R08
                                R10R16G31R09E09
 109598880.845 8  85401738.17648  20855971.053    20855970.4504   20855973.3924
        48.600          49.5004
 118384716.516 7  92247857.88646  22527859.274    22527858.5994   22527863.7354
        44.200          41.9004
 126616653.709 7                  24094354.731
        42.600
 125618126.487 7  97703202.245 7  23532446.167    23532446.741    23532459.108
        42.900          42.500
 121507260.753 6  94681079.40945  23122044.478    23122043.7594   23122058.0714
        41.900          35.0004
 198980392.935 7                  37864711.301
        45.900
 200918001.921 7                  38233431.071
        43.900
 124562483.849 7  97061719.83546  23703436.309    23703435.7064   23703436.4434
        43.000          36.6004
 123682659.635 7  96376074.00046  23536054.026    23536053.8614   23536065.7504
        42.500          36.7004
 109789937.968 6                  20574596.026    20574596.557
        39.400
 412809510.857 5                  78554944.246
        33.400
 202116252.100 7                  38461430.533
        45.600
 131721494.173 5 102450176.681 5  24623942.657    24623944.551    24623973.401
        32.000          35.100
 148868358.805 6                  28328763.086
        36.800
 123986795.535 8                  23593903.133
        48.200
 136951196.014 7                  26060906.616
        42.200
 106832225.739 8  83245960.83846  20329472.178    20329471.1724   20329471.8264
        49.000          39.5004
 115007577.485 7  89616448.26147  21885159.755    21885159.0364   21885166.2004
        44.700          44.0004
 131617817.647 7                  25046029.787
        45.900
 104968195.260 8  81793402.99047  19974783.830    19974783.4154   19974785.1874
        50.000          43.1004
 131448580.058 7                  25013831.925
        44.500
 103511484.909 8  80508956.026 8  19336810.252    19336810.531    19336817.175
        53.300          48.900
 128479816.055 7  99928782.317 6  24009534.578    24009534.536    24009549.607
        44.000          41.300
 119002692.236 8  92557667.516 7  22222912.775    22222912.959    22222919.291
        48.200          43.500
 113279666.934 7                  21250932.816    21250932.173
        44.000
 116382848.612 8  90520033.550 7  21787111.040    21787110.951    21787118.768
        49.300          45.900
 124758863.839 7  97214681.93346  23740836.002    23740835.5694   23740840.0044
        43.700          37.7004
 103926833.529 8  80832075.687 8  19462134.017    19462134.153    19462139.237
        52.900          50.000
 143091019.446 6                  27229313.940
        39.700
 25  1  1 17  3 45.0000000  0 29G09G26E19R18G08S31S35G07G03R06S48S33
                                R19E29E04E31G16G27E21G04E06R07R17R08
                                R10R16G31R09E09
 109569555.563 8  85378887.29648  20850390.715    20850390.1124   20850392.9774
        48.500          49.4004
 118431590.908 7  92284383.35246  22536779.234    22536778.5594   22536783.6384
        44.000          41.7004
 126644570.134 7                  24099667.118
        42.500
 125587028.419 7  97679015.096 7  23526621.391    23526620.969    23526632.910
        43.200          42.300
 121453213.380 6  94638964.79145  23111759.210    23111758.4914   23111772.7224
        41.800          34.9004
 198980388.979 7                  37864714.355
        45.500
 200917964.292 7                  38233427.757
        44.100
 124528950.954 7  97035590.33746  23697054.531    23697053.9284   23697055.4074
        43.900          36.7004
 123733704.922 6  96415849.25346  23545767.241    23545767.0674   23545779.9524
        41.800          36.5004
 109840073.141 6                  20583991.835    20583991.628
        39.800
 412810125.198 5                  78554977.815
        32.900
 202116267.779 7                  38461433.717
        45.200
 131670042.666 5 102410158.699 5  24614325.519    24614325.241    24614355.728
        32.100          35.300
 148910355.783 6                  28336755.094
        36.600
 123971823.529 8                  23591053.970
        48.200
 136913140.070 7                  26053664.793
        42.400
 106857148.392 8  83265381.07846  20334214.710    20334213.7044   20334214.4384
        48.900          39.4004
 114970025.148 7  89587186.81447  21878013.541    21878012.8224   21878020.1274
        45.000          43.9004
 131648082.953 7                  25051789.018
        46.200
 104964909.135 8  81790842.36247  19974158.451    19974158.0364   19974159.8764
        50.000          43.0004
 131417395.216 7                  25007897.607
        44.500
 103503657.799 8  80502868.265 8  19335348.050    19335348.467    19335355.098
        53.300          49.000
 128487054.379 7  99934411.718 6  24010887.247    24010887.667    24010902.707
        44.800          41.800
 118946729.950 7  92514141.311 7  22212461.803    22212462.593    22212468.541
        47.900          43.800
 113245561.782 7                  21244535.312    21244534.716
        44.200
 116429465.541 8  90556291.129 7  21795837.830    21795838.128    21795845.814
        48.900          45.700
 124799956.911 7  97246702.33946  23748655.919    23748655.4774   23748659.9154
        43.100          37.5004
 103930991.978 8  80835310.035 8  19462912.487    19462912.873    19462918.006
        52.600          50.200
 143051200.252 6                  27221736.910
        39.900
 25  1  1 17  4  0.0000000  0 29G09G26E19R18G08S31S35G07G03R06S48S33
                                R19E29E04E31G16G27E21G04E06R07R17R08
                                R10R16G31R09E09
 109540334.087 8  85356117.31348  20844830.093    20844829.4944   20844832.3084
        48.700          49.4004
 118478504.670 7  92320939.51646  22545706.855    22545706.1804   22545711.0764
        44.000          41.6004
 126672551.668 7                  24104991.755
        42.800
 125556059.350 7  97654928.294 7  23520820.476    23520819.624    23520830.806
        42.500          42.000
 121399193.881 7  94596871.89245  23101479.303    23101478.5704   23101492.8654
        42.100          34.9004
 198980381.811 7                  37864704.012
        45.400
 200917924.010 7                  38233423.008
        43.900
 124495421.951 7  97009463.85946  23690674.081    23690673.4694   23690674.9334
        43.000          36.6004
 123784769.031 6  96455639.17246  23555485.245    23555485.0894   23555497.6874
        41.100          36.4004
 109890337.607 6                  20593411.512    20593410.949
        38.900
 412810737.720 5                  78555009.831
        33.600
 202116281.161 7                  38461437.075
        45.400
 131618603.592 5 102370150.402 5  24604707.268    24604709.692    24604739.731
        31.200          35.100
 148952369.360 5                  28344749.823
        35.600
 123956920.489 8                  23588218.149
        48.500
 136875127.464 7                  26046431.278
        42.700
 106882192.738 8  83284896.14646  20338980.665    20338979.6594   20338980.2214
        48.900          39.4004
 114932579.727 7  89558008.67647  21870887.963    21870887.2394   21870894.3914
        44.800          43.8004
 131678392.752 7                  25057556.853
        46.300
 104961751.621 8  81788381.96047  19973557.371    19973556.9564   19973559.0024
        50.200          43.0004
 131386250.677 7                  25001970.944
        44.700
 103496026.602 8  80496932.875 8  19333922.569    19333922.905    19333929.553
        53.200          48.900
 128494467.831 7  99940178.129 6  24012272.569    24012273.557    24012287.519
        45.400          40.500
 118890850.707 8  92470679.750 7  22202027.407    22202027.664    22202033.366
        48.100          43.600
 113211544.215 7                  21238152.787    21238152.128
        43.600
 116476096.878 8  90592559.982 7  21804567.617    21804567.468    21804574.985
        48.900          45.200
 124841062.265 7  97278732.30946  23756478.006    23756477.5644   23756482.2184
        43.800          37.5004
 103935248.086 8  80838620.361 8  19463709.521    19463709.886    19463715.073
        52.700          50.300
 143011390.640 6                  27214161.135
        40.100
 25  1  1 17  4 15.0000000  0 29G09G26E19R18G08S31S35G07G03R06S48S33
                                R19E29E04E31G16G27E21G04E06R07R17R08
                                R10R16G31R09E09
 109511224.060 8  85333434.17148  20839290.704    20839290.1054   20839292.8404
        48.900          49.5004
 118525464.788 7  92357531.80046  22554643.198    22554642.5194   22554647.3324
        44.100          41.6004
 126700605.615 7                  24110330.310
        42.800
 125525227.279 7  97630948.059 7  23515043.856    23515043.625    23515054.999
        43.400          42.200
 121345210.087 6  94554806.82045  23091206.890    23091206.1664   23091220.3314
        41.400          35.0004
 198980378.924 7                  37864710.143
        45.800
 200917888.110 7                  38233410.720
        43.800
 124461904.226 7  96983346.16746  23684295.781    23684295.1644   23684296.7454
        43.300          36.7004
 123835858.965 7  96495449.22146  23565207.136    23565206.9894   23565219.5044
        42.000          36.1004
 109940738.505 6                  20602856.647    20602856.840
        39.500
 412809755.158 5                  78555054.248
        34.000
 202116298.477 7                  38461442.678
        45.400
 131567184.785 5 102330157.848 5  24595097.680    24595097.304    24595127.326
        30.800          34.500
 148994406.705 5                  28352750.079
        35.400
 123942093.947 8                  23585396.794
        48.700
 136837165.733 7                  26039207.201
        42.500
 106907366.050 8  83304511.71446  20343770.665    20343769.6594   20343770.5594
        48.700          39.4004
 114895248.977 7  89528919.87647  21863784.253    21863783.5344   21863790.4724
        45.100          43.9004
 131708754.211 7                  25063334.287
        46.400
 104958730.239 8  81786027.62547  19972982.606    19972982.1954   19972984.0584
        50.100          43.0004
 131355153.928 7                  24996053.671
        44.800
 103488599.309 8  80491156.086 8  19332534.991    19332535.414    19332542.036
        53.200          48.800
 128502061.918 7  99946084.833 6  24013690.927    24013691.231    24013706.418
        44.400          40.700
 118835062.098 8  92427288.581 7  22191608.647    22191609.530    22191615.134
        48.400          43.500
 113177622.106 7                  21231789.999    21231789.398
        44.800
 116522749.951 8  90628845.751 7  21813300.484    21813300.780    21813308.430
        49.000          45.800
 124882187.299 7  97310777.62446  23764303.794    23764303.3474   23764308.2244
        43.500          37.5004
 103939608.868 8  80842012.111 8  19464526.129    19464526.624    19464531.636
        52.900          50.400
 142971598.205 6                  27206588.674
        39.600
 25  1  1 17  4 30.0000000  0 29G09G26E19R18G08S31S35G07G03R06S48S33
                                R19E29E04E31G16G27E21G04E06R07R17R08
                                R10R16G31R09E09
 109482219.869 8  85310833.48548  20833771.532    20833770.9334   20833773.5304
        48.300          49.4004
 118572465.207 7  92394155.49346  22563587.048    22563586.3734   22563591.1724
        43.300          41.4004
 126728726.007 7                  24115681.483
        43.100
 125494526.591 7  97607069.969 6  23509291.918    23509292.832    23509303.231
        43.800          41.600
 121291256.413 7  94512765.21545  23080939.421    23080938.6884   23080952.7704
        42.700          35.1004
 198980374.530 7                  37864708.399
        45.700
 200917850.354 7                  38233407.572
        44.300
 124428391.852 7  96957232.64546  23677918.567    23677917.9594   23677919.7734
        43.100          36.7004
 123886968.381 7  96535274.44546  23574933.218    23574933.0664   23574945.5654
        42.100          36.3004
 109991269.306 6                  20612326.572    20612326.042
        39.000
 412810370.535 5                  78555088.067
        33.400
 202116313.464 7                  38461442.150
        45.300
 131515781.494 5 102290177.374 5  24585486.806    24585487.483    24585518.556
        31.300          35.100
 149036461.910 5                  28360752.180
        35.500
 123927338.142 8                  23582588.722
        48.700
 136799249.023 7                  26031991.687
        43.000
 106932662.082 8  83324222.90846  20348584.476    20348583.4754   20348584.2344
        48.600          39.3004
 114858027.381 7  89499916.13147  21856701.187    21856700.4544   21856707.3824
        45.300          43.9004
 131739161.142 7                  25069120.502
        46.500
 104955839.222 8  81783774.86947  19972432.365    19972431.9454   19972433.9104
        50.100          43.1004
 131324099.333 7                  24990143.899
        45.100
 103481369.839 8  80485533.138 8  19331184.584    19331184.966    19331191.601
        53.200          48.900
 128509829.702 7  99952125.857 6  24015143.796    24015143.789    24015158.582
        45.100          41.100
 118779358.795 7  92383963.754 7  22181206.394    22181206.868    22181213.089
        47.400          43.600
 113143788.878 7                  21225442.287    21225442.068
        44.800
 116569418.229 8  90665143.276 7  21822037.219    21822037.297    21822044.818
        49.100          45.600
 124923326.199 7  97342833.74146  23772132.520    23772132.0734   23772136.7074
        43.600          37.2004
 103944068.230 8  80845480.508 8  19465361.279    19465361.574    19465366.863
        52.700          50.400
 142931817.184 6                  27199018.653
        40.000
 25  1  1 17  4 45.0000000  0 29G09G26E19R18G08S31S35G07G03R06S48S33
                                R19E29E04E31G16G27E21G04E06R07R17R08
                                R10R16G31R09E09
 109453323.059 8  85288316.50148  20828272.522    20828271.9284   20828274.6554
        48.400          49.5004
 118619506.801 7  92430811.28046  22572538.932    22572538.2804   22572542.9764
        43.000          41.4004
 126756914.171 7                  24121045.454
        42.900
 125463959.034 7  97583295.408 7  23503565.134    23503565.582    23503576.952
        42.700          42.100
 121237334.616 7  94470748.45145  23070678.060    23070677.3184   23070691.7434
        42.100          35.3004
 198980370.049 7                  37864708.077
        45.600
 200917812.572 7                  38233403.673
        44.300
 124394886.019 7  96931124.22446  23671542.972    23671542.3644   23671543.7224
        43.300          36.8004
 123938098.235 6  96575115.60346  23584662.996    23584662.8404   23584675.2794
        41.100          36.0004
 110041930.830 6                  20621821.056    20621820.281
        39.100
 412810984.864 5                  78555122.950
        33.300
 202116329.498 7                  38461443.206
        45.400
 131464394.917 5 102250209.889 5  24575882.834    24575883.180    24575911.753
        33.300          35.400
 149078536.070 6                  28368759.133
        36.200
 123912654.497 8                  23579794.571
        48.700
 136761378.723 7                  26024785.146
        42.800
 106958081.755 8  83344030.44046  20353421.859    20353420.8584   20353421.3984
        48.700          39.4004
 114820916.622 7  89470998.75847  21849638.960    21849638.2234   21849645.2774
        44.900          44.0004
 131769614.622 7                  25074915.748
        46.600
 104953079.961 8  81781624.78647  19971907.293    19971906.8734   19971908.8394
        50.000          43.2004
 131293088.369 7                  24984242.775
        45.000
 103474339.677 8  80480065.205 8  19329871.305    19329871.637    19329878.326
        52.900          48.800
 128517775.648 7  99958306.338 6  24016627.969    24016629.092    24016642.759
        45.400          40.600
 118723742.615 7  92340706.762 7  22170820.752    22170821.145    22170826.945
        47.800          43.600
 113110046.417 7                  21219112.432    21219112.080
        45.100
 116616103.037 8  90701453.678 7  21830776.551    21830776.663    21830784.582
        48.800          45.300
 124964480.168 7  97374901.60546  23779963.954    23779963.4894   23779968.2084
        43.400          37.1004
 103948627.202 8  80849026.385 8  19466215.118    19466215.372    19466220.563
        52.800          50.100
 142892048.837 6                  27191451.138
        39.900
 25  1  1 17  5  0.0000000  0 29G09G26E19R18G08S31S35G07G03R06S48S33
                                R19E29E04E31G16G27E21G04E06R07R17R08
                                R10R16G31R09E09
 109424533.707 8  85265883.23448  20822793.846    20822793.2524   20822796.2114
        48.600          49.6004
 118666589.160 7  92467498.84046  22581498.115    22581497.4634   22581502.3374
        43.400          41.3004
 126785169.765 7                  24126422.667
        42.800
 125433524.814 7  97559624.563 6  23497863.595    23497864.367    23497875.083
        43.000          41.500
 121183444.814 6  94428756.62445  23060423.576    23060422.8344   23060436.7474
        41.300          35.6004
 198980364.303 7                  37864704.611
        45.500
 200917774.131 7                  38233392.820
        44.100
 124361386.620 7  96905020.81346  23665167.956    23665167.3484   23665168.7624
        43.800          36.8004
 123989247.831 7  96614972.12546  23594397.032    23594396.8804   23594409.0714
        42.200          36.2004
 110092722.539 6                  20631337.821    20631338.612
        39.000
 412811599.378 5                  78555158.347
        33.000
 202116344.196 7                  38461447.476
        45.000
 131413025.319 5 102210255.612 5  24566278.791    24566279.566    24566308.841
        33.300          35.000
 149120628.915 6                  28376769.011
        36.000
 123898042.984 8                  23577014.125
        48.800
 136723554.727 7                  26017587.605
        43.000
 106983624.666 8  83363934.00146  20358282.489    20358281.4924   20358282.0834
        48.700          39.3004
 114783916.907 7  89442167.91647  21842598.000    21842597.2724   21842604.3984
        44.900          44.2004
 131800114.297 7                  25080719.663
        46.500
 104950452.372 8  81779577.29947  19971407.342    19971406.9224   19971408.8444
        50.000          43.3004
 131262120.952 7                  24978349.728
        45.200
 103467509.010 8  80474752.449 8  19328595.487    19328595.660    19328602.241
        52.900          48.600
 128525897.163 7  99964623.078 6  24018145.341    24018145.647    24018161.054
        44.000          40.700
 118668213.774 8  92297517.620 7  22160451.177    22160451.627    22160457.038
        48.300          43.200
 113076393.899 7                  21212799.331    21212798.650
        44.500
 116662803.784 8  90737776.397 7  21839519.185    21839519.374    21839526.971
        48.300          45.500
 125005649.040 7  97406981.07346  23787798.347    23787797.8694   23787802.6794
        43.700          37.2004
 103953285.468 8  80852649.472 8  19467087.570    19467087.813    19467092.856
        52.700          50.100
 142852293.319 6                  27183885.983
        40.800
 25  1  1 17  5 15.0000000  0 29G09G26E19R18G08S31S35G07G03R06S48S33
                                R19E29E04E31G16G27E21G04E06R07R17R08
                                R10R16G31R09E09
