     2.11           OBSERVATION DATA    M (MIXED)           RINEX VERSION / TYPE
teqc  2019Feb25                         20260317 16:20:08UTCPGM / RUN BY / DATE
Linux 2.4.21-27.ELsmp|Opteron|gcc -static|Linux 64|=+       COMMENT
BIT 2 OF LLI FLAGS DATA COLLECTED UNDER A/S CONDITION       COMMENT
-Unknown-                                                   MARKER NAME
-Unknown-           -Unknown-                               OBSERVER / AGENCY
-Unknown-           -Unknown-           -Unknown-           REC # / TYPE / VERS
-Unknown-           -Unknown-                               ANT # / TYPE
        0.0000        0.0000        0.0000                  APPROX POSITION XYZ
        0.0000        0.0000        0.0000                  ANTENNA: DELTA H/E/N
     1     1                                                WAVELENGTH FACT L1/2
     7    L1    L2    C1    P1    P2    S1    S2            # / TYPES OF OBSERV
 SNR is mapped to RINEX snr flag value [0-9]                COMMENT
  L1 & L2: min(max(int(snr_dBHz/6), 0), 9)                  COMMENT
  2025     1     1     6     0    0.0000000     GPS         TIME OF FIRST OBS
    18                                                      LEAP SECONDS
                                                            END OF HEADER
 25  1  1  6  0  0.0000000  0 31G25E03E08S31S35G13E21E13S48S33R02G16
                                G20E15G23G05G11G26G18E07G29G15R23E27
                                R15E26R24R16R17R01R08
 129152212.328 6 100638169.23945  24576826.057    24576825.1054   24576828.4184
        39.400          31.3004
 133535198.887 7                  25410887.548
        44.100
 129964363.228 7                  24731388.355
        45.700
 198977646.692 7                  37864183.144
        45.900
 200949396.014 7                  38239413.672
        44.200
 111521971.661 7  86900261.85345  21221916.032    21221915.4334   21221915.7454
        47.600          35.2004
 138440899.231 7                  26344412.769
        42.200
 124918680.057 8                  23771212.565
        48.500
 412847644.074 5                  78562352.696
        33.100
 202117699.588 7                  38461691.501
        45.400
 109441639.339 8  85121316.710 7  20509312.412    20509312.409    20509318.832
        50.500          47.300
 133433277.573 5 103973991.33841  25391508.955    25391507.9494   25391510.6164
        32.200          10.3004
 120728719.364 7  94074381.36844  22973885.530    22973884.1494   22973884.3394
        43.000          29.3004
 130454603.452 7                  24824647.251
        45.300
 124564557.780 6  97063295.33944  23703846.285    23703845.9234   23703847.7984
        41.100          26.9004
 109075291.558 8  84993785.37948  20756317.327    20756316.8764   20756316.1254
        48.900          49.2004
 126821704.248 6  98822204.19344  24133334.870    24133334.5174   24133336.5974
        40.300          24.6004
 130225820.576 6 101474693.80245  24781145.422    24781144.7924   24781149.5204
        37.700          30.6004
 119165087.618 7  92855915.18045  22676357.695    22676357.2984   22676357.9934
        44.800          32.7004
 143993832.554 6                  27401117.264
        39.300
 107161631.431 8  83502609.13148  20392163.902    20392163.2814   20392163.3664
        49.900          51.4004
 112094260.167 7  87346194.43347  21330821.262    21330820.8204   21330821.3364
        47.800          46.0004
 122429266.315 7                  22886832.839    22886832.556
        42.400
 145743603.871 6                  27734034.796
        38.500
 127829136.787 7  99422708.626 6  23921479.244    23921479.826    23921486.736
        43.600          38.900
 141807482.072 6                  26985067.871
        41.200
 104580104.692 8  81340157.432 8  19556989.764    19556990.180    19556995.602
        52.700          48.000
 128100287.033 7  99633616.936 6  23980638.184    23980637.821    23980645.605
        42.500          38.800
 113101861.222 8  87968158.641 7  21135781.488    21135781.849    21135787.328
        50.700          46.100
 103162369.749 8  80237452.947 7  19298639.942    19298640.126    19298647.502
        49.200          42.200
 122912582.380 7  95598743.527 6  22953044.947    22953045.566    22953050.601
        43.600          41.800
 25  1  1  6  0 15.0000000  0 31G25E03E08S31S35G13E21E13S48S33R02G16
                                G20E15G23G05G11G26G18E07G29G15R23E27
                                R15E26R24R16R17R01R08
 129198322.774 6 100674099.43445  24585599.590    24585598.6024   24585603.6064
        39.100          31.0004
 133546219.020 7                  25412984.595
        44.400
 129935630.131 7                  24725920.461
        46.000
 198977638.123 7                  37864184.642
        46.000
 200949407.908 7                  38239414.531
        44.600
 111500599.656 7  86883608.36345  21217848.911    21217848.3124   21217848.7694
        47.700          35.2004
 138467717.273 7                  26349516.191
        42.400
 124908177.932 8                  23769213.863
        48.700
 412847399.082 5                  78562322.356
        33.100
 202117677.617 7                  38461688.277
        45.400
 109393831.472 8  85084132.818 7  20500353.516    20500353.388    20500359.663
        51.000          47.400
 133407796.566 5 103954135.96441  25386661.112    25386660.0394   25386661.7054
        34.300          10.6004
 120770138.301 7  94106655.87244  22981767.122    22981765.7594   22981766.0484
        44.000          29.3004
 130473147.942 7                  24828176.424
        45.600
 124521486.005 6  97029732.92044  23695650.288    23695649.9044   23695651.3234
        41.300          26.9004
 109101806.978 8  85014446.74748  20761362.900    20761362.4494   20761361.8194
        49.300          49.0004
 126860596.303 6  98852509.63144  24140735.473    24140735.1294   24140737.4504
        40.200          24.5004
 130228464.076 6 101476753.60545  24781649.076    24781648.4424   24781652.3054
        37.500          30.5004
 119128853.157 7  92827680.54145  22669462.248    22669461.8464   22669462.6614
        45.400          32.7004
 143946795.611 6                  27392166.259
        39.600
 107159954.751 8  83501302.62548  20391844.839    20391844.2134   20391844.3294
        49.800          51.2004
 112050093.464 7  87311778.87547  21322416.218    21322415.7714   21322416.6044
        47.600          45.9004
 122474024.169 6                  22895197.485    22895198.425
        40.900
 145786282.867 6                  27742156.100
        38.700
 127868764.518 7  99453530.159 6  23928895.661    23928895.883    23928901.907
        43.900          38.700
 141777388.868 6                  26979341.005
        41.100
 104581930.591 8  81341577.588 8  19557331.265    19557331.570    19557336.984
        52.400          48.000
 128103234.519 7  99635909.416 6  23981190.594    23981190.826    23981198.338
        44.600          39.500
 113057833.233 8  87933914.648 7  21127553.987    21127554.193    21127559.950
        50.600          46.000
 103173705.145 8  80246269.359 7  19300760.899    19300760.592    19300768.088
        49.000          42.300
 122972476.788 7  95645328.084 6  22964229.435    22964229.532    22964235.649
        42.400          41.800
 25  1  1  6  0 30.0000000  0 31G25E03E08S31S35G13E21E13S48S33R02G16
                                G20E15G23G05G11G26G18E07G29G15R23E27
                                R15E26R24R16R17R01R08
 129244423.372 6 100710021.97245  24594372.766    24594371.7744   24594376.1704
        39.500          31.4004
 133557341.159 7                  25415101.210
        44.500
 129906977.414 7                  24720468.304
        46.400
 198977627.320 7                  37864178.963
        46.000
 200949417.536 7                  38239412.577
        44.400
 111479370.850 7  86867066.45545  21213809.179    21213808.5764   21213808.9984
        47.400          35.3004
 138494604.947 7                  26354632.868
        42.100
 124897697.807 8                  23767219.808
        48.800
 412847151.985 5                  78562289.235
        32.900
 202117652.793 7                  38461677.626
        45.200
 109346156.087 8  85047051.994 7  20491418.898    20491418.862    20491425.169
        51.200          47.900
 133382434.394 6 103934373.23842  25381833.870    25381832.7934   25381835.4344
        37.100          15.0004
 120811571.631 7  94138941.54744  22989651.266    22989649.8984   22989650.4854
        43.400          29.2004
 130491717.017 7                  24831709.817
        45.500
 124478458.346 7  96996204.88344  23687462.025    23687461.6454   23687463.3704
        42.100          27.2004
 109128397.457 8  85035166.58748  20766422.793    20766422.3464   20766421.7774
        49.100          49.1004
 126899515.415 6  98882836.16544  24148142.099    24148141.7604   24148143.9514
        40.000          24.5004
 130231227.700 6 101478907.00245  24782174.599    24782173.9784   24782178.2794
        38.000          30.6004
 119092636.800 7  92799460.01245  22662570.757    22662570.3554   22662570.8944
        44.600          32.8004
 143899755.717 6                  27383214.631
        39.500
 107158421.385 8  83500107.80448  20391553.237    20391552.6164   20391552.5514
        49.800          51.4004
 112006025.475 7  87277440.23747  21314030.701    21314030.2544   21314030.7654
        47.700          46.2004
 122518846.119 6                  22903578.821    22903577.906
        41.100
 145828946.795 6                  27750274.951
        39.000
 127908478.219 7  99484418.615 6  23936327.653    23936327.505    23936333.605
        44.200          38.100
 141747291.135 6                  26973613.233
        41.300
 104583868.840 8  81343085.108 8  19557693.442    19557693.937    19557699.530
        52.500          48.100
 128106352.779 7  99638334.734 6  23981773.277    23981773.380    23981780.338
        43.100          37.800
 113013837.357 8  87899695.640 7  21119332.237    21119332.659    21119338.272
        50.500          46.000
 103185229.779 8  80255232.967 7  19302916.831    19302916.602    19302923.755
        49.200          42.000
 123032426.081 7  95691955.299 6  22975425.565    22975425.844    22975430.714
        43.500          41.800
 25  1  1  6  0 45.0000000  0 31G25E03E08S31S35G13E21E13S48S33R02G16
                                G20E15G23G05G11G26G18E07G29G15R23E27
                                R15E26R24R16R17R01R08
 129290516.044 6 100745938.33145  24603143.818    24603142.8214   24603147.1374
        38.800          31.5004
 133568567.489 7                  25417237.647
        44.900
 129878407.563 7                  24715031.475
        46.600
 198977616.663 7                  37864177.720
        45.900
 200949427.237 7                  38239414.527
        44.500
 111458287.813 7  86850638.13145  21209797.505    21209796.9024   21209797.0314
        47.200          35.6004
 138521564.340 7                  26359763.321
        42.600
 124887241.963 8                  23765229.867
        49.100
 412846904.291 5                  78562269.001
        33.100
 202117627.991 7                  38461679.750
        45.600
 109298616.028 8  85010076.404 7  20482509.944    20482510.420    20482516.561
        51.200          47.600
 133357193.551 5 103914705.05842  25377030.324    25377029.2744   25377032.3484
        35.200          15.2004
 120853021.453 7  94171240.09944  22997539.493    22997538.1304   22997538.2844
        43.900          29.8004
 130510313.007 7                  24835248.525
        46.100
 124435477.169 6  96962713.07144  23679283.154    23679282.7654   23679284.3934
        41.300          27.3004
 109155064.838 8  85055946.36548  20771497.555    20771497.1084   20771496.3944
        49.200          49.2004
 126938463.829 6  98913185.52244  24155554.040    24155553.7144   24155555.5404
        40.100          24.8004
 130234113.609 6 101481155.70345  24782723.199    24782722.5734   24782727.5734
        37.800          30.6004
 119056440.900 7  92771255.42145  22655683.010    22655682.6134   22655683.1114
        45.100          33.1004
 143852715.304 6                  27374263.469
        40.000
 107157033.526 8  83499026.36048  20391289.117    20391288.4964   20391288.4574
        49.400          51.6004
 111962058.630 7  87243180.37647  21305664.164    21305663.7224   21305664.1404
        47.400          46.4004
 122563734.335 6                  22911969.226    22911969.089
        41.400
 145871597.634 6                  27758390.663
        38.800
 127948279.922 7  99515375.488 6  23943775.520    23943775.162    23943782.689
        43.300          39.000
 141717191.160 6                  26967885.768
        41.800
 104585922.017 8  81344682.039 8  19558077.547    19558077.987    19558083.521
        52.300          48.200
 128109644.263 7  99640894.788 6  23982390.190    23982390.066    23982397.355
        43.400          38.800
 112969876.508 8  87865503.856 7  21111117.332    21111117.421    21111123.222
        50.700          45.900
 103196945.610 8  80264345.284 7  19305108.656    19305108.167    19305115.583
        49.000          42.100
 123092431.828 7  95738626.451 6  22986629.914    22986630.760    22986636.095
        42.900          41.600
 25  1  1  6  1  0.0000000  0 31G25E03E08S31S35G13E21E13S48S33R02G16
                                G20E15G23G05G11G26G18E07G29G15R23E27
                                R15E26R24R16R17R01R08
 129336602.942 6 100781850.19045  24611914.027    24611913.0264   24611917.3434
        37.900          31.2004
 133579900.467 7                  25419394.048
        45.000
 129849923.278 7                  24709611.119
        46.800
 198977608.118 7                  37864177.595
        46.000
 200949439.005 7                  38239415.260
        44.500
 111437353.439 7  86834325.65145  21205814.154    21205813.5464   21205813.3754
        47.300          35.7004
 138548597.725 7                  26364907.541
        42.600
 124876813.025 8                  23763245.366
        49.100
 412846660.389 5                  78562239.161
        32.800
 202117605.082 7                  38461673.467
        45.200
 109251214.297 8  84973208.426 7  20473626.738    20473626.884    20473633.218
        51.100          47.800
 133332076.607 5 103895133.43642  25372251.323    25372250.2824   25372252.7064
        35.600          14.4004
 120894490.370 7  94203553.57144  23005430.497    23005429.1254   23005429.5394
        43.100          29.8004
 130528938.453 7                  24838792.986
        46.000
 124392545.059 6  96929259.48044  23671113.414    23671113.0174   23671114.6004
        41.700          27.3004
 109181811.231 8  85076787.73748  20776587.012    20776586.5614   20776586.0574
        48.800          49.2004
 126977444.029 6  98943559.64744  24162971.438    24162971.1034   24162973.1434
        40.300          24.7004
 130237124.177 6 101483501.52945  24783296.606    24783295.9944   24783299.9104
        38.300          30.3004
 119020268.045 7  92743068.77945  22648799.347    22648798.9364   22648799.6914
        45.000          33.4004
 143805677.160 6                  27365311.831
        40.200
 107155794.042 8  83498060.52948  20391053.261    20391052.6494   20391052.5794
        49.800          51.6004
 111918195.837 8  87209001.56847  21297317.382    21297316.9404   21297317.3114
        48.000          46.5004
 122608691.557 6                  22920374.029    22920373.320
        41.300
 145914237.727 6                  27766505.016
        38.800
 127988171.569 7  99546402.306 6  23951242.320    23951242.369    23951247.249
        44.600          38.600
 141687091.387 6                  26962157.702
        41.600
 104588092.763 8  81346370.411 8  19558483.704    19558483.849    19558489.397
        52.500          48.200
 128113111.347 7  99643591.437 6  23983039.559    23983039.735    23983046.210
        44.800          39.500
 112925953.455 8  87831341.475 7  21102909.020    21102909.355    21102915.174
        50.700          46.100
 103208854.921 8  80273608.069 7  19307336.636    19307336.126    19307343.507
        49.300          42.100
 123152496.196 7  95785343.136 6  22997847.326    22997847.638    22997852.691
        43.000          41.800
 25  1  1  6  1 15.0000000  0 31G25E03E08S31S35G13E21E13S48S33R02G16
                                G20E15G23G05G11G26G18E07G29G15R23E27
                                R15E26R24R16R17R01R08
 129382677.930 6 100817752.77245  24620681.924    24620680.9274   24620685.2074
        38.700          31.9004
 133591334.188 7                  25421569.808
        44.800
 129821518.922 7                  24704206.045
        46.700
 198977595.778 7                  37864174.264
        45.800
 200949447.036 7                  38239419.280
        44.600
 111416561.784 7  86818124.37945  21201857.341    21201856.7244   21201856.8564
        47.500          35.7004
 138575699.094 7                  26370064.537
        42.500
 124866405.187 8                  23761264.821
        49.200
 412846413.110 5                  78562203.295
        33.100
 202117579.406 7                  38461669.412
        45.100
 109203945.197 8  84936443.565 7  20464768.570    20464768.806    20464775.095
        51.200          47.900
 133307078.014 5 103875654.09142  25367494.418    25367493.4444   25367495.5624
        35.100          12.4004
 120935972.207 7  94235877.05544  23013324.385    23013323.0044   23013323.2684
        43.700          29.6004
 130547587.635 7                  24842341.841
        46.000
 124349656.331 6  96895839.69244  23662951.874    23662951.4724   23662953.0304
        41.200          27.4004
 109208631.245 8  85097686.44448  20781690.982    20781690.5264   20781689.7084
        48.600          49.1004
 127016450.212 6  98973954.03544  24170394.930    24170394.5824   24170395.7464
        39.600          24.7004
 130240253.560 6 101485939.95545  24783892.905    24783892.2714   24783894.9174
        37.700          30.1004
 118984112.597 7  92714895.69445  22641919.065    22641918.6594   22641919.6174
        44.400          33.3004
 143758635.696 6                  27356360.435
        39.700
 107154697.254 8  83497205.88748  20390844.384    20390843.7634   20390843.8754
        49.400          51.7004
 111874431.858 7  87174899.80547  21288989.082    21288988.6494   21288989.3254
        46.900          46.5004
 122653711.563 6                  22928789.362    22928789.594
        41.400
 145956861.036 6                  27774616.480
        38.800
 128028146.715 7  99577494.121 6  23958721.217    23958721.601    23958728.707
        42.400          38.400
 141656986.014 6                  26956428.738
        41.900
 104590375.269 8  81348145.667 8  19558910.056    19558910.675    19558916.460
        52.500          48.200
 128116748.055 7  99646420.008 6  23983720.748    23983720.070    23983727.748
        44.800          39.600
 112882062.525 8  87797204.108 7  21094706.977    21094707.465    21094712.882
        51.100          46.000
 103220951.585 8  80283016.607 6  19309599.244    19309598.995    19309606.434
        49.100          41.900
 123212612.648 7  95832100.343 6  23009075.070    23009073.811    23009079.120
        43.900          41.800
 25  1  1  6  1 30.0000000  0 31G25E03E08S31S35G13E21E13S48S33R02G16
                                G20E15G23G05G11G26G18E07G29G15R23E27
                                R15E26R24R16R17R01R08
 129428747.655 6 100853651.24845  24629448.763    24629447.7754   24629452.2794
        39.200          31.4004
 133602875.560 7                  25423766.128
        44.800
 129793201.666 7                  24698817.301
        46.700
 198977587.683 7                  37864169.479
        45.800
 200949459.347 7                  38239424.266
        44.300
 111395920.570 7  86802040.33445  21197929.323    21197928.7024   21197928.8764
        47.500          35.5004
 138602875.188 7                  26375236.168
        42.600
 124856025.580 8                  23759289.766
        49.000
 412846167.646 5                  78562191.235
        33.400
 202117556.546 7                  38461666.644
        45.300
 109156816.395 8  84899787.857 7  20455936.422    20455936.636    20455942.938
        50.800          47.700
 133282205.155 5 103856272.67142  25362761.019    25362759.9694   25362762.5334
        35.100          12.9004
 120977473.855 7  94268215.94644  23021221.657    23021220.2714   23021220.9634
        43.300          29.4004
 130566267.560 7                  24845896.174
        45.800
 124306818.049 6  96862459.22944  23654800.163    23654799.7574   23654801.2674
        41.300          27.6004
 109235531.236 8  85118647.45648  20786809.633    20786809.1734   20786808.6164
        48.800          48.8004
 127055489.330 6  99004374.07144  24177822.886    24177822.5384   24177824.3544
        40.500          24.6004
 130243508.606 6 101488476.32045  24784511.982    24784511.3434   24784514.8724
        38.500          30.8004
 118947981.611 7  92686741.67145  22635043.481    22635043.0664   22635044.1804
        45.300          33.3004
 143711598.105 6                  27347409.236
        40.300
 107153750.079 8  83496467.83048  20390664.238    20390663.6174   20390663.6384
        49.700          51.5004
 111830773.997 7  87140880.75647  21280681.325    21280680.8964   21280681.4894
        47.700          46.5004
 122698801.460 7                  22937219.180    22937219.313
        42.200
 145999474.278 6                  27782725.379
        38.500
 128068212.013 7  99608656.017 6  23966220.129    23966220.100    23966226.000
        44.000          38.400
 141626881.962 7                  26950699.967
        42.000
 104592776.965 8  81350013.659 8  19559359.568    19559359.751    19559365.402
        52.400          48.100
 128120561.267 7  99649385.889 6  23984433.092    23984432.762    23984441.817
        42.800          40.300
 112838211.105 8  87763097.469 7  21086512.120    21086512.778    21086518.137
        51.700          45.800
 103233242.385 8  80292576.110 6  19311898.484    19311898.241    19311905.653
        48.800          41.800
 123272788.063 7  95878903.462 6  23020310.054    23020310.807    23020316.508
        43.400          41.900
 25  1  1  6  1 45.0000000  0 31G25E03E08S31S35G13E21E13S48S33R02G16
                                G20E15G23G05G11G26G18E07G29G15R23E27
                                R15E26R24R16R17R01R08
 129474805.488 6 100889540.47045  24638213.035    24638212.0384   24638216.0784
        37.500          30.5004
 133614518.239 7                  25425981.533
        44.500
 129764965.450 7                  24693444.089
        46.500
 198977576.495 7                  37864170.807
        46.000
 200949468.106 7                  38239422.088
        44.300
 111375423.631 7  86786068.71345  21194029.003    21194028.3914   21194028.3604
        47.200          35.3004
 138630119.542 7                  26380420.455
        43.100
 124845667.910 8                  23757318.754
        49.000
 412845918.713 5                  78562148.964
        32.600
 202117531.855 7                  38461659.145
        45.400
 109109821.930 8  84863236.623 7  20447129.536    20447130.057    20447136.543
        51.000          47.900
 133257451.894 5 103836984.47542  25358050.653    25358049.6524   25358052.1484
        34.100          12.3004
 121018989.022 7  94300565.43044  23029121.933    23029120.5474   23029120.8934
        43.900          29.4004
 130584971.990 7                  24849455.583
        45.900
 124264024.012 6  96829113.22244  23646656.725    23646656.3104   23646657.9634
        41.900          27.6004
 109262504.861 8  85139665.85048  20791942.454    20791941.9894   20791941.5474
        48.700          48.7004
 127094555.123 6  99034814.90644  24185257.431    24185257.1014   24185258.3554
        39.500          24.3004
 130246882.945 6 101491105.65045  24785153.649    24785152.9924   24785157.2524
        38.000          30.3004
 118911868.984 7  92658601.98345  22628171.923    22628171.5084   22628172.0974
        44.800          33.1004
 143664558.366 6                  27338458.150
        39.600
 107152946.447 8  83495841.61948  20390511.094    20390510.4734   20390510.7174
        49.700          51.4004
 111787216.245 7  87106939.67147  21272392.436    21272392.0164   21272392.6704
        47.600          46.4004
 122743954.821 6                  22945659.751    22945659.331
        41.100
 146042070.960 6                  27790830.973
        39.000
 128108360.461 7  99639882.564 6  23973731.641    23973732.637    23973738.800
        44.100          38.400
 141596772.973 6                  26944970.230
        41.500
 104595291.773 8  81351969.642 8  19559829.743    19559830.058    19559835.566
        52.600          48.100
 128124544.622 7  99652484.038 6  23985180.533    23985179.769    23985186.682
        43.500          39.300
 112794393.323 8  87729016.982 7  21078323.477    21078324.191    21078329.487
        51.200          46.100
 103245720.974 8  80302281.681 6  19314232.765    19314232.473    19314239.969
        48.700          41.800
 123333015.666 7  95925747.159 7  23031557.638    23031558.449    23031563.860
        43.600          42.300
 25  1  1  6  2  0.0000000  0 31G25E03E08S31S35G13E21E13S48S33R02G16
                                G20E15G23G05G11G26G18E07G29G15R23E27
                                R15E26R24R16R17R01R08
 129520856.155 6 100925424.11445  24646976.619    24646975.6364   24646979.2204
        38.600          30.8004
 133626267.246 7                  25428217.452
        44.600
 129736815.563 7                  24688087.325
        46.500
 198977567.790 7                  37864166.532
        46.000
 200949479.561 7                  38239426.180
        44.200
 111355076.282 7  86770213.64645  21190157.215    21190156.6034   21190156.3514
        47.700          35.3004
 138657436.995 7                  26385618.861
        42.600
 124835337.322 8                  23755352.765
        48.800
 412845672.321 5                  78562118.522
        33.300
 202117508.956 7                  38461653.023
        45.200
 109062967.194 8  84826794.072 7  20438349.422    20438349.436    20438355.542
        51.500          47.700
 133232823.332 6 103817793.45842  25353364.048    25353363.0244   25353365.3204
        36.000          12.4004
 121060522.372 7  94332929.05944  23037025.259    23037023.8644   23037024.3164
        43.300          29.1004
 130603706.100 7                  24853020.781
        45.400
 124221279.404 7  96795805.74844  23638522.642    23638522.2364   23638523.7064
        42.500          27.3004
 109289556.808 8  85160745.27048  20797090.767    20797090.3074   20797089.3864
        49.000          48.6004
 127133652.671 6  99065280.48244  24192697.736    24192697.4234   24192698.5094
        40.400          24.6004
 130250381.516 6 101493831.79245  24785819.127    24785818.4574   24785823.3054
        37.700          30.3004
 118875779.843 7  92630480.58245  22621303.989    22621303.5744   22621304.4984
        45.700          32.9004
 143617521.752 6                  27329507.688
        38.900
 107152291.529 8  83495331.28948  20390386.344    20390385.7144   20390386.1114
        49.900          51.3004
 111743764.024 8  87073080.81047  21264123.692    21264123.2724   21264123.9654
        48.200          46.4004
 122789176.659 7                  22954113.392    22954113.649
        42.100
 146084655.946 6                  27798934.635
        38.400
 128148597.075 7  99671177.711 6  23981261.855    23981262.853    23981268.717
        44.100          38.400
 141566664.270 6                  26939240.889
        41.400
 104597924.793 8  81354017.545 8  19560322.162    19560322.460    19560328.106
        52.400          48.300
 128128703.161 7  99655718.437 6  23985957.404    23985957.581    23985964.704
        43.800          38.400
 112750614.491 8  87694966.800 7  21070142.395    21070143.027    21070148.537
        50.900          46.400
 103258392.180 8  80312137.045 6  19316603.100    19316603.005    19316610.372
        48.800          41.900
 123393300.101 7  95972635.140 7  23042815.013    23042815.732    23042821.595
        42.900          42.300
 25  1  1  6  2 15.0000000  0 31G25E03E08S31S35G13E21E13S48S33R02G16
                                G20E15G23G05G11G26G18E07G29G15R23E27
                                R15E26R24R16R17R01R08
 129566895.454 6 100961298.87545  24655736.849    24655735.8664   24655740.5324
        38.800          31.2004
 133638118.634 7                  25430472.467
        44.700
 129708748.303 7                  24682746.417
        46.400
 198977557.652 7                  37864167.592
        46.200
 200949489.750 7                  38239431.402
        44.600
 111334874.772 8  86754472.23245  21186312.832    21186312.2334   21186312.1864
        48.000          35.2004
 138684823.539 7                  26390830.309
        42.100
 124825030.073 8                  23753391.450
        48.600
 412845425.114 5                  78562091.875
        33.200
 202117485.011 7                  38461652.938
        45.300
 109016248.701 8  84790457.493 7  20429594.153    20429594.518    20429600.543
        51.100          47.900
 133208315.974 5 103798696.86842  25348699.796    25348698.8444   25348701.5344
        34.900          13.0004
 121102070.060 7  94365303.85444  23044931.776    23044930.3864   23044930.6414
        43.900          29.1004
 130622466.052 7                  24856590.580
        45.300
 124178580.513 7  96762533.89644  23630396.804    23630396.3844   23630398.4554
        42.500          27.6004
 109316683.290 8  85181882.77748  20802252.271    20802251.8114   20802251.4314
        49.300          48.6004
 127172778.083 6  99095767.76944  24200142.363    24200142.0424   24200144.3564
        40.900          24.6004
 130254000.402 6 101496651.68645  24786508.134    24786507.4684   24786512.3014
        37.700          30.3004
 118839710.540 7  92602374.65945  22614440.201    22614439.7814   22614440.8044
        45.700          33.1004
 143570484.692 6                  27320556.388
        39.600
 107151781.481 8  83494933.84548  20390289.488    20390288.8674   20390289.0774
        49.700          51.3004
 111700413.710 8  87039301.27847  21255874.602    21255874.1694   21255874.6714
        48.200          46.4004
 122834462.964 6                  22962579.099    22962579.870
        41.400
 146127225.182 6                  27807034.913
        38.800
 128188916.904 7  99702537.569 6  23988806.799    23988808.395    23988813.932
        44.200          38.600
 141536551.997 6                  26933510.852
        41.500
 104600672.512 8  81356154.632 8  19560836.302    19560836.276    19560842.043
        52.300          48.300
 128133032.645 7  99659085.837 6  23986768.937    23986768.796    23986775.521
        44.300          38.900
 112706871.178 8  87660944.260 7  21061968.342    21061968.735    21061974.384
        51.000          46.300
 103271251.872 8  80322139.058 6  19319008.831    19319008.783    19319016.020
        48.900          41.700
 123453636.701 7  96019563.596 7  23054082.773    23054082.897    23054088.648
        43.400          42.200
 25  1  1  6  2 30.0000000  0 31G25E03E08S31S35G13E21E13S48S33R02G16
                                G20E15G23G05G11G26G18E07G29G15R23E27
                                R15E26R24R16R17R01R08
 129612926.582 6 100997167.28645  24664496.562    24664495.5884   24664499.9894
        39.100          31.5004
 133650075.872 7                  25432747.848
        44.600
 129680767.452 7                  24677421.727
        46.900
 198977549.761 7                  37864161.944
        46.200
 200949501.987 7                  38239427.087
        44.500
 111314823.155 7  86738847.61245  21182496.961    21182496.3584   21182496.4214
        47.600          35.3004
 138712282.445 7                  26396055.531
        42.800
 124814749.761 8                  23751435.129
        48.900
 412845180.393 5                  78562055.879
        32.500
 202117462.874 7                  38461647.192
        45.500
 108969670.436 8  84754229.963 8  20420865.361    20420865.553    20420872.124
        51.000          48.000
 133183933.611 5 103779697.70042  25344060.648    25344059.6244   25344061.5864
        35.700          13.6004
 121143635.602 7  94397692.55544  23052841.453    23052840.0584   23052840.5444
        43.700          29.3004
 130641255.442 7                  24860165.909
        45.800
 124135930.917 7  96729300.45744  23622281.607    23622281.2014   23622282.9164
        42.100          28.0004
 109343887.568 8  85203080.92748  20807429.228    20807428.7684   20807428.2334
        49.300          48.6004
 127211934.959 6  99126279.57144  24207593.616    24207593.2904   24207595.8764
        41.000          24.4004
 130257742.964 6 101499567.93545  24787220.521    24787219.8644   24787224.1434
        38.000          30.1004
 118803664.621 7  92574286.94145  22607581.021    22607580.5884   22607581.3884
        45.100          33.3004
 143523450.931 6                  27311606.408
        39.800
 107151419.773 8  83494651.98948  20390220.791    20390220.1744   20390220.2724
        49.800          51.4004
 111657169.403 8  87005604.34347  21247645.708    21247645.2844   21247645.5714
        48.200          46.6004
 122879817.394 6                  22971058.073    22971058.286
        41.300
 146169781.946 6                  27815133.653
        38.000
 128229323.220 7  99733964.715 6  23996369.624    23996368.907    23996375.039
        43.800          38.000
 141506439.591 6                  26927780.644
        41.900
 104603538.826 8  81358383.985 8  19561372.055    19561372.285    19561378.061
        52.200          48.200
 128137536.859 7  99662589.127 6  23987610.934    23987610.798    23987619.195
        42.900          39.700
 112663166.947 8  87626952.057 7  21053801.041    21053801.089    21053806.800
        50.800          46.000
 103284303.231 8  80332290.118 6  19321450.586    19321450.311    19321457.558
        48.800          41.800
 123514028.756 7  96066535.123 7  23065360.982    23065361.036    23065366.693
        42.400          42.200
 25  1  1  6  2 45.0000000  0 31G25E03E08S31S35G13E21E13S48S33R02G16
                                G20E15G23G05G11G26G18E07G29G15R23E27
                                R15E26R24R16R17R01R08
 129658945.477 6 101033026.14545  24673253.867    24673252.8884   24673257.3314
        38.700          31.3004
 133662135.104 7                  25435042.768
        44.600
 129652869.428 7                  24672112.929
        46.700
 198977540.317 7                  37864163.272
        46.300
 200949512.217 7                  38239430.678
        44.700
 111294917.585 7  86723336.79445  21178709.184    21178708.5814   21178708.5454
        47.600          35.5004
 138739809.772 7                  26401293.811
        42.400
 124804492.660 8                  23749483.205
        49.000
 412844933.288 5                  78562036.941
        33.300
 202117438.956 7                  38461642.667
        45.500
 108923228.782 8  84718108.695 7  20412162.199    20412162.465    20412168.674
        51.200          47.900
 133159672.490 5 103760792.98342  25339443.614    25339442.5954   25339444.8504
        35.900          14.0004
 121185215.056 7  94430092.12744  23060753.505    23060752.1064   23060752.8294
        43.800          29.5004
 130660070.603 7                  24863746.576
        45.600
 124093326.970 7  96696102.58044  23614173.728    23614173.3174   23614175.5704
        42.400          28.2004
 109371165.690 8  85224336.60948  20812619.999    20812619.5344   20812619.1214
        48.900          48.7004
 127251119.478 6  99156812.92444  24215050.255    24215049.9204   24215052.3524
        40.100          24.4004
 130261605.365 6 101502577.55445  24787955.242    24787954.5944   24787959.0734
        37.800          30.5004
 118767638.474 7  92546214.63445  22600725.265    22600724.8234   22600725.8364
        45.600          33.4004
 143476416.926 6                  27302656.167
        39.800
 107151202.889 8  83494482.99148  20390179.111    20390178.4944   20390179.0214
        49.500          51.6004
 111614027.775 8  86971987.41447  21239435.818    21239435.3894   21239436.0924
        48.200          46.8004
 122925236.062 6                  22979549.937    22979549.633
        41.300
 146212322.259 6                  27823228.675
        38.700
 128269811.713 7  99765455.747 6  24003945.595    24003946.970    24003952.140
        43.900          37.200
 141476323.400 6                  26922049.433
        41.400
 104606519.817 8  81360702.550 8  19561929.462    19561929.628    19561935.668
        51.800          48.400
 128142211.687 7  99666225.146 6  23988486.755    23988486.409    23988494.426
        43.200          40.200
 112619498.501 8  87592987.705 7  21045640.184    21045641.164    21045646.344
        51.300          46.200
 103297542.335 8  80342587.197 6  19323926.928    19323926.777    19323934.389
        48.700          41.500
 123574471.906 7  96113546.388 6  23076647.731    23076648.381    23076653.743
        43.000          41.700
 25  1  1  6  3  0.0000000  0 31G25E03E08S31S35G13E21E13S48S33R02G16
                                G20E15G23G05G11G26G18E07G29G15R23E27
                                R15E26R24R16R17R01R08
 129704953.433 6 101068876.49645  24682008.798    24682007.8244   24682012.1694
        38.700          31.8004
 133674297.975 7                  25437357.418
        44.200
 129625056.094 7                  24666819.954
        46.700
 198977530.197 7                  37864162.852
        46.100
 200949522.682 7                  38239433.616
        44.300
 111275160.264 8  86707941.49545  21174949.362    21174948.7684   21174948.7924
        48.100          35.5004
 138767406.949 7                  26406545.566
        42.300
 124794260.555 8                  23747536.031
        48.600
 412844685.792 5                  78562000.887
        32.700
 202117414.924 7                  38461638.920
        45.200
 108876926.133 8  84682095.558 8  20403485.013    20403485.443    20403491.562
        51.600          48.100
 133135534.825 5 103741984.53942  25334849.668    25334848.6444   25334851.5824
        34.900          12.1004
 121226809.820 7  94462503.62144  23068669.121    23068667.7004   23068667.9414
        43.000          29.4004
 130678913.257 7                  24867332.099
        45.500
 124050770.481 7  96662941.68444  23606075.839    23606075.4244   23606077.2384
        42.100          28.4004
 109398518.918 8  85245650.80448  20817825.401    20817824.9364   20817824.2864
        49.300          48.8004
 127290333.282 6  99187369.07844  24222512.234    24222511.9044   24222514.5284
        41.200          24.8004
 130265589.144 6 101505681.76645  24788713.636    24788712.9934   24788717.2504
        37.900          30.2004
 118731633.888 7  92518159.12445  22593873.927    22593873.4944   22593874.4214
        45.000          33.5004
 143429384.640 6                  27293705.896
        40.000
 107151132.804 8  83494428.36448  20390165.857    20390165.2404   20390165.6824
        49.700          51.6004
 111570990.714 8  86938451.95647  21231246.352    21231245.9194   21231246.5304
        48.400          46.8004
 122970720.528 7                  22988051.997    22988051.847
        42.000
 146254847.596 6                  27831320.564
        38.300
 128310383.493 7  99797011.590 6  24011539.007    24011538.707    24011544.781
        42.800          38.200
 141446205.139 6                  26916318.263
        41.400
 104609617.567 8  81363111.921 8  19562508.756    19562508.900    19562514.868
        52.000          48.400
 128147058.856 7  99669995.195 6  23989393.929    23989393.853    23989401.455
        43.200          39.900
 112575867.930 8  87559052.876 7  21037486.684    21037486.933    21037493.087
        51.000          46.400
 103310970.611 8  80353031.404 6  19326439.109    19326438.903    19326446.225
        48.800          41.700
 123634967.540 7  96160598.490 7  23087944.359    23087945.484    23087951.803
        42.900          42.400
 25  1  1  6  3 15.0000000  0 31G25E03E08S31S35G13E21E13S48S33R02G16
                                G20E15G23G05G11G26G18E07G29G15R23E27
                                R15E26R24R16R17R01R08
 129750952.563 6 101104719.95045  24690762.635    24690761.6704   24690765.9514
        38.200          31.7004
 133686566.795 7                  25439691.895
        44.400
 129597330.061 7                  24661543.864
        46.500
 198977523.710 7                  37864151.499
        45.400
 200949535.896 7                  38239442.385
        44.300
 111255553.796 7  86692663.75045  21171218.225    21171217.6224   21171217.8274
        47.400          35.5004
 138795076.230 7                  26411811.052
        42.500
 124784055.900 8                  23745594.214
        48.700
 412844440.893 5                  78561977.809
        33.200
 202117393.362 7                  38461633.357
        45.200
 108830765.389 8  84646192.811 8  20394834.391    20394834.668    20394841.288
        50.900          48.000
 133111522.811 5 103723273.94941  25330280.813    25330279.8034   25330282.2274
        34.300          11.5004
 121268422.367 7  94494928.96344  23076587.849    23076586.4414   23076586.5854
        42.900          29.4004
 130697785.854 7                  24870923.242
        45.400
 124008263.897 6  96629819.69244  23597987.343    23597986.9414   23597988.4394
        40.900          28.3004
 109425949.165 8  85267025.04348  20823045.050    20823044.5814   20823044.0964
        48.400          48.8004
 127329578.818 6  99217949.96744  24229981.020    24229980.6634   24229982.8224
        40.100          24.7004
 130269696.677 6 101508882.37345  24789495.013    24789494.3794   24789499.0644
        37.700          30.9004
 118695653.440 7  92490122.41945  22587027.145    22587026.7254   22587027.5624
        45.200          33.7004
 143382356.646 6                  27284756.857
        39.200
 107151211.947 8  83494490.02648  20390180.969    20390180.3574   20390180.7474
        49.400          51.7004
 111528061.119 8  86905000.31647  21223077.006    21223076.5734   21223077.3674
        48.000          46.8004
 123016273.124 6                  22996567.142    22996566.616
        40.700
 146297360.147 6                  27839411.607
        38.400
 128351040.726 7  99828633.908 6  24019147.963    24019146.646    24019154.070
        42.100          38.300
 141416087.260 6                  26910587.093
        41.500
 104612834.758 8  81365614.184 8  19563110.580    19563110.423    19563116.436
        52.100          48.400
 128152080.655 7  99673901.085 6  23990333.631    23990333.730    23990340.723
        42.500          39.100
 112532277.742 8  87525149.378 7  21029340.829    21029341.349    21029347.307
        50.800          46.300
 103324590.371 8  80363624.587 6  19328987.261    19328986.708    19328993.928
        48.500          41.500
 123695517.532 7  96207692.855 6  23099252.513    23099253.042    23099258.167
        42.700          41.900
 25  1  1  6  3 30.0000000  0 31G25E03E08S31S35G13E21E13S48S33R02G16
                                G20E15G23G05G11G26G18E07G29G15R23E27
                                R15E26R24R16R17R01R08
 129796936.085 6 101140551.26545  24699512.088    24699511.1234   24699515.9024
        38.400          30.9004
 133698935.037 7                  25442045.569
        44.700
 129569685.061 7                  24656283.268
        46.800
 198977512.505 7                  37864157.728
        45.200
 200949544.385 7                  38239439.831
        44.200
 111236091.914 7  86677498.65945  21167515.092    21167514.4934   21167514.3214
        47.600          35.5004
 138822810.930 7                  26417088.014
        42.700
 124773872.293 8                  23743656.318
        49.000
 412845792.316 5                  78561952.316
        33.000
 202117368.992 7                  38461629.288
        44.900
 108784739.911 8  84610395.237 7  20386209.372    20386209.669    20386215.582
        51.200          47.700
 133087630.218 5 103704656.38441  25325734.482    25325733.4904   25325735.2364
        34.400          11.6004
 121310046.157 7  94527363.08144  23084508.465    23084507.0664   23084507.2554
        43.400          29.4004
 130716682.031 7                  24874519.310
        46.000
 123965800.927 7  96596731.66244  23589906.952    23589906.5594   23589908.1634
        42.400          28.6004
 109453450.159 8  85288454.38048  20828278.508    20828278.0434   20828277.3794
        48.700          48.9004
 127368849.643 6  99248550.55044  24237453.951    24237453.6124   24237455.7584
        40.100          24.5004
 130273921.307 6 101512174.21145  24790299.517    24790298.8874   24790303.2984
        38.600          30.8004
 118659690.758 7  92462099.55045  22580183.754    22580183.3344   22580184.1504
        44.800          33.8004
 143335326.787 6                  27275807.204
        40.000
 107151433.810 8  83494662.90548  20390223.444    20390222.8324   20390222.9684
        49.600          51.8004
 111485233.174 8  86871628.00647  21214927.118    21214926.6894   21214927.4244
        48.400          47.0004
 123061887.163 6                  23005094.829    23005094.372
        41.200
 146339853.247 6                  27847496.868
        38.300
 128391776.319 7  99860317.132 6  24026770.591    24026770.874    24026777.140
        44.100          39.200
 141385963.253 6                  26904854.544
        41.500
 104616164.768 8  81368204.189 8  19563733.243    19563733.271    19563739.199
        52.000          48.400
 128157270.329 7  99677937.523 6  23991306.061    23991305.785    23991312.872
        44.100          39.500
 112488721.949 8  87491272.658 7  21021201.750    21021202.097    21021207.836
        51.000          46.200
 103338394.612 8  80374361.209 6  19331569.633    19331569.240    19331576.325
        48.800          41.400
 123756114.973 7  96254824.127 7  23110568.148    23110568.389    23110575.061
        42.200          42.400
 25  1  1  6  3 45.0000000  0 31G25E03E08S31S35G13E21E13S48S33R02G16
                                G20E15G23G05G11G26G18E07G29G15R23E27
                                R15E26R24R16R17R01R08
 129842907.566 6 101176373.19245  24708260.825    24708259.8914   24708263.8224
        38.100          31.0004
 133711406.638 7                  25444418.753
        44.700
 129542125.307 7                  24651038.921
        46.700
 198977501.057 7                  37864154.687
        45.400
 200949553.137 7                  38239439.076
        43.700
 111216778.902 7  86662449.57745  21163839.791    21163839.1974   21163839.1404
        47.600          35.3004
 138850614.758 7                  26422379.383
        42.500
 124763713.785 8                  23741723.181
        48.700
 412845544.394 5                  78561917.003
        33.200
 202117342.809 7                  38461621.932
        44.900
 108738854.363 8  84574706.520 7  20377610.763    20377610.779    20377616.894
        51.100          47.900
 133063861.376 5 103686135.26142  25321211.419    25321210.3644   25321211.9934
        35.200          12.1004
 121351684.950 7  94559808.87344  23092432.073    23092430.6874   23092430.9484
        43.400          29.2004
 130735605.828 7                  24878120.337
        45.700
 123923385.557 7  96563680.74244  23581835.447    23581835.0584   23581836.7014
        42.000          28.5004
 109481025.614 8  85309941.74548  20833525.951    20833525.4914   20833524.8374
        48.800          48.7004
 127408149.719 6  99279173.93444  24244932.439    24244932.0954   24244934.2654
        39.400          24.3004
 130278266.935 6 101515560.33545  24791125.820    24791125.1814   24791130.2044
        38.000          30.7004
 118623749.953 7  92434093.74445  22573344.859    22573344.4394   22573344.7634
        45.000          33.7004
 143288299.279 6                  27266858.258
        39.500
 107151802.508 8  83494950.20148  20390293.743    20390293.1354   20390293.1284
        49.700          51.7004
 111442510.965 8  86838338.06147  21206797.212    21206796.7834   21206797.5584
        48.000          46.9004
 123107566.765 6                  23013633.419    23013633.507
        41.200
 146382330.644 6                  27855579.937
        37.700
 128432593.483 7  99892063.823 6  24034408.954    24034409.121    24034414.537
        43.600          37.400
 141355837.103 6                  26899121.732
        41.600
 104619611.992 8  81370885.361 8  19564377.998    19564377.815    19564383.859
        52.100          48.400
 128162631.837 7  99682107.598 6  23992309.269    23992309.964    23992316.398
        44.900          40.100
 112445204.858 8  87457426.056 7  21013069.193    21013069.338    21013075.537
        50.500          46.400
 103352387.292 8  80385244.384 6  19334186.882    19334186.749    19334193.812
        49.100          41.500
 123816763.799 7  96301995.494 7  23121894.992    23121894.950    23121900.630
        42.500          42.100
 25  1  1  6  4  0.0000000  0 32G25E03E08S31S35G13E21E13S48S33R02G16
                                G20E15G23G05G11G26G18E07G29G15R23E27
                                R15E26R24R16R17R03R01R08
 129888868.030 6 101212186.53045  24717006.699    24717005.7604   24717009.4974
        38.300          30.7004
 133723982.772 7                  25446812.072
        44.300
 129514652.254 7                  24645810.818
        46.400
 198977491.294 7                  37864155.156
        45.700
 200949563.248 7                  38239440.346
        44.600
 111197616.309 7  86647517.70645  21160193.223    21160192.6244   21160192.6164
        47.300          35.1004
 138878488.907 7                  26427683.699
        42.300
 124753581.776 8                  23739795.192
        48.400
 412845297.736 5                  78561895.025
        33.100
 202117318.545 7                  38461615.685
        44.800
 108693110.420 8  84539127.939 7  20369038.015    20369038.173    20369044.248
        51.000          47.500
 133040217.920 5 103667711.87942  25316711.496    25316710.4054   25316712.5884
        35.000          12.7004
 121393340.002 7  94592267.36944  23100358.657    23100357.2854   23100357.8074
        43.500          29.1004
 130754558.596 7                  24881726.936
        45.400
 123881019.297 7  96530668.08644  23573773.073    23573772.6934   23573774.7154
        42.000          28.5004
 109508676.469 8  85331487.87648  20838787.537    20838787.0724   20838786.6364
        49.200          48.7004
 127447480.353 6  99309821.13444  24252417.142    24252416.8124   24252418.6834
        39.900          24.3004
 130282734.781 6 101519041.66845  24791976.767    24791976.1334   24791980.1084
        37.700          30.1004
 118587832.526 7  92406106.18045  22566509.690    22566509.2754   22566509.7774
        45.700          33.5004
 143241275.617 6                  27257910.215
        39.000
 107152319.395 8  83495352.97148  20390391.868    20390391.2564   20390391.5044
        49.700          51.6004
 111399896.163 8  86805131.81247  21198688.023    21198687.5944   21198688.1504
        48.200          46.8004
 123153313.110 6                  23022185.757    23022185.280
        41.400
 146424793.401 6                  27863660.590
        37.700
 128473493.425 7  99923874.891 6  24042062.392    24042062.231    24042068.855
        42.500          38.600
 141325710.205 6                  26893388.735
        41.400
 104623177.964 8  81373658.882 8  19565044.699    19565044.740    19565050.717
        52.000          48.400
 128168166.281 7  99686412.105 6  23993344.977    23993345.355    23993352.062
        43.900          39.200
 112401728.227 8  87423610.882 7  21004945.403    21004944.852    21004950.617
        50.600          46.200
 131837605.207 6 102540388.307 6  24628370.271    24628371.253    24628378.742
        37.400          38.100
 103366569.389 8  80396274.934 6  19336839.984    19336839.736    19336847.067
        49.100          41.800
 123877463.905 7  96349206.515 7  23133229.638    23133230.201    23133236.457
        43.100          42.400
 25  1  1  6  4 15.0000000  0 32G25E03E08S31S35G13E21E13S48S33R02G16
                                G20E15G23G05G11G26G18E07G29G15R23E27
                                R15E26R24R16R17R03R01R08
 129934812.261 6 101247987.21545  24725749.888    24725748.9584   24725752.3474
        39.500          30.8004
 133736658.482 7                  25449224.019
        43.900
 129487261.191 7                  24640598.526
        46.000
 198977478.338 7                  37864151.472
        46.000
 200949569.735 7                  38239441.450
        44.200
 111178599.495 7  86632699.42445  21156574.345    21156573.7514   21156573.8314
        47.700          35.1004
 138906428.192 6                  26433000.387
        41.900
 124743471.396 8                  23737871.191
        48.300
 412845046.804 5                  78561865.548
        32.900
 202117291.000 7                  38461612.533
        44.700
 108647503.655 8  84503656.052 7  20360491.549    20360491.726    20360497.814
        51.000          47.800
 133016694.955 6 103649382.34142  25312235.315    25312234.2204   25312236.3374
        36.400          13.5004
 121435006.070 7  94624734.39844  23108287.483    23108286.1204   23108286.6654
        43.500          29.1004
 130773535.476 7                  24885338.048
        45.400
 123838697.304 7  96497689.92744  23565719.889    23565719.5144   23565721.0774
        42.800          28.7004
 109536397.868 8  85353088.95848  20844062.590    20844062.1174   20844061.8544
        48.900          48.6004
 127486836.620 6  99340488.29344  24259906.241    24259905.8934   24259908.3384
        39.500          24.3004
 130287319.793 6 101522614.29545  24792849.458    24792848.8154   24792853.1344
        38.200          31.0004
 118551933.582 7  92378133.00745  22559678.226    22559677.8114   22559678.5104
        45.500          33.7004
 143194251.152 6                  27248962.154
        39.400
 107152979.696 8  83495867.49148  20390517.429    20390516.8174   20390517.1524
        50.100          51.7004
 111357384.207 8  86772005.72847  21190597.986    21190597.5574   21190598.3004
        48.200          47.0004
 123199121.168 6                  23030749.434    23030748.960
        40.700
 146467236.418 6                  27871737.040
        37.100
 128514470.368 7  99955745.831 6  24049731.095    24049730.760    24049737.035
        43.600          37.700
 141295577.565 6                  26887654.712
        41.700
 104626858.021 8  81376521.161 8  19565733.152    19565732.860    19565738.998
        51.700          48.400
 128173868.878 7  99690847.479 6  23994413.801    23994413.335    23994420.024
        44.400          38.800
 112358287.262 8  87389823.486 7  20996827.001    20996826.965    20996832.883
        50.400          46.400
 131771303.805 5 102488820.579 5  24615984.575    24615985.708    24615993.139
        34.700          35.700
 103380935.649 8  80407448.702 6  19339527.341    19339527.387    19339534.360
        48.900          41.900
 123938210.669 7  96396454.028 6  23144573.352    23144575.011    23144579.631
        42.800          41.600
 25  1  1  6  4 30.0000000  0 32G25E03E08S31S35G13E21E13S48S33R02G16
                                G20E15G23G05G11G26G18E07G29G15R23E27
                                R15E26R24R16R17R03R01R08
 129980747.729 6 101283781.08145  24734490.756    24734489.8264   24734493.9084
        39.300          31.8004
 133749441.542 7                  25451656.648
        44.300
 129459960.207 7                  24635403.354
        46.700
 198977469.139 7                  37864152.764
        46.100
 200949580.424 7                  38239444.334
        44.400
 111159736.514 7  86618001.01445  21152984.909    21152984.3154   21152984.2584
        47.500          35.0004
 138934440.238 7                  26438331.044
        42.200
 124733390.541 8                  23735952.992
        48.600
 412844800.689 5                  78561838.580
        32.700
 202117267.672 7                  38461610.932
        44.700
 108602042.281 8  84468297.220 7  20351971.732    20351972.020    20351978.296
        51.200          47.800
 132993300.735 6 103631153.13942  25307783.553    25307782.4094   25307784.3944
        36.500          14.6004
 121476690.896 7  94657216.01144  23116220.092    23116218.7334   23116218.9474
        43.100          28.7004
 130792544.399 7                  24888955.278
        45.800
 123796427.460 7  96464752.39844  23557676.045    23557675.6654   23557677.3254
        42.800          28.6004
 109564197.319 8  85374750.88548  20849352.703    20849352.2304   20849351.9404
        48.900          48.7004
 127526226.376 6  99371181.55744  24267401.871    24267401.5454   24267403.7034
        40.200          24.5004
 130292029.760 6 101526284.30345  24793745.509    24793744.8754   24793749.9274
        38.100          30.9004
 118516061.096 7  92350180.45245  22552851.855    22552851.4404   22552852.3014
        45.400          33.8004
 143147234.007 6                  27240014.561
        39.700
 107153791.426 8  83496500.00248  20390672.066    20390671.4494   20390671.6244
        50.000          51.6004
 111314983.034 8  86738965.95747  21182529.549    21182529.1254   21182529.4994
        48.400          47.0004
 123244998.778 6                  23039324.889    23039324.862
        41.000
 146509667.342 6                  27879811.550
        38.200
 128555531.860 7  99987682.542 6  24057414.859    24057415.194    24057420.432
        43.200          38.000
 141265447.125 6                  26881920.997
        41.800
 104630660.044 8  81379478.276 8  19566443.774    19566443.763    19566450.022
        51.600          48.400
 128179747.175 7  99695419.491 6  23995514.092    23995514.320    23995521.081
        44.400          40.100
 112314890.267 8  87356070.256 7  20988716.981    20988717.284    20988723.036
        50.900          46.500
 131705013.715 6 102437261.717 6  24603600.606    24603601.688    24603609.915
        37.400          38.900
 103395493.938 8  80418771.817 6  19342251.137    19342250.784    19342257.820
        49.100          41.900
 123999011.544 7  96443743.655 7  23155927.357    23155928.126    23155934.350
        42.700          42.500
 25  1  1  6  4 45.0000000  0 32G25E03E08S31S35G13E21E13S48S33R02G16
                                G20E15G23G05G11G26G18E07G29G15R23E27
                                R15E26R24R16R17R03R01R08
 130026666.187 6 101319561.68145  24743228.424    24743227.4944   24743231.9644
        38.800          31.1004
 133762323.954 7                  25454108.083
        44.600
 129432741.560 7                  24630223.706
        46.600
 198977456.319 7                  37864144.425
        45.700
 200949587.977 7                  38239446.204
        44.200
 111141019.547 7  86603416.37745  21149423.084    21149422.4904   21149422.5214
        47.100          35.1004
 138962516.946 7                  26443673.759
        42.500
 124723331.439 8                  23734038.772
        48.800
 412844551.871 5                  78561802.964
        33.000
 202117241.061 7                  38461604.430
        44.900
 108556718.761 8  84433045.646 7  20343478.197    20343478.406    20343484.234
        50.900          47.700
