     2.11           OBSERVATION DATA    M (MIXED)           RINEX VERSION / TYPE
teqc  2019Feb25                         20260317 16:20:08UTCPGM / RUN BY / DATE
Linux 2.4.21-27.ELsmp|Opteron|gcc -static|Linux 64|=+       COMMENT
BIT 2 OF LLI FLAGS DATA COLLECTED UNDER A/S CONDITION       COMMENT
-Unknown-                                                   MARKER NAME
-Unknown-           -Unknown-                               OBSERVER / AGENCY
-Unknown-           -Unknown-           -Unknown-           REC # / TYPE / VERS
-Unknown-           -Unknown-                               ANT # / TYPE
        0.0000        0.0000        0.0000                  APPROX POSITION XYZ
        0.0000        0.0000        0.0000                  ANTENNA: DELTA H/E/N
     1     1                                                WAVELENGTH FACT L1/2
     7    L1    L2    C1    P1    P2    S1    S2            # / TYPES OF OBSERV
 SNR is mapped to RINEX snr flag value [0-9]                COMMENT
  L1 & L2: min(max(int(snr_dBHz/6), 0), 9)                  COMMENT
  2025     1     1     4     0    0.0000000     GPS         TIME OF FIRST OBS
    18                                                      LEAP SECONDS
                                                            END OF HEADER
 25  1  1  4  0  0.0000000  0 31E34G25E03E08S31S35G13E21E13S33G12G20
                                E15R22G05G11G06G29R07R23E27R15R13E05
                                G09R24E30R14R01R08G19
 138104343.146 7                  26280332.762
        43.200
 113122504.900 7  88147492.75447  21526470.006    21526469.0144   21526472.5534
        47.000          46.1004
 139894128.933 6                  26620958.735
        41.100
 149060925.722 6                  28365350.813
        36.400
 198982189.123 7                  37865043.534
        45.800
 200940665.584 7                  38237745.158
        44.600
 131940976.945 6 102811162.34642  25107533.929    25107533.3664   25107535.5184
        36.500          12.2004
 136520672.374 7                  25979004.670
        43.600
 132494471.983 7                  25212839.471
        45.200
 202127623.744 7                  38463580.239
        45.400
 114617473.934 8  89312447.69147  21810932.222    21810931.5794   21810931.6184
        48.200          45.8004
 106468386.576 7  82962433.47746  20260234.475    20260233.2104   20260233.7494
        47.400          40.8004
 124221743.834 8                  23638573.741
        49.300
 123465578.365 7  96028918.391 7  23129221.391    23129221.478    23129228.014
        43.700          42.100
 108962497.487 8  84905891.61648  20734854.914    20734854.4234   20734854.6294
        49.100          49.4004
 111895053.440 8  87191053.16646  21292883.959    21292883.6334   21292883.9614
        48.200          38.8004
 124417242.893 6  96948645.39646  23675774.061    23675773.7574   23675777.6134
        41.700          37.3004
 120903027.576 7  94210187.59346  23007067.321    23007066.7364   23007067.1434
        46.500          41.5004
 118950997.890 8  92517508.123 7  22221028.557    22221028.919    22221035.617
        49.300          44.600
 108817514.563 8                  20342253.057    20342253.232
        49.600
 128363457.289 8                  24426698.695
        48.000
 125846823.258 7  97880908.748 6  23550517.639    23550517.964    23550524.650
        45.400          41.700
 121473099.017 6                  22747965.093    22747964.134
        39.400
 134895183.732 6                  25669689.291
        39.700
 129903937.485 6 101223887.23545  24719887.623    24719887.0654   24719890.2344
        38.600          31.5004
 113031290.666 8  87913299.369 7  21137406.088    21137406.454    21137412.422
        50.300          45.100
 141131729.763 7                  26856428.031
        42.100
 114868419.075 8  89342151.216 7  21549015.830    21549015.592    21549021.401
        49.200          44.400
 118680003.627 7  92306714.230 6  22201541.733    22201541.834    22201551.387
        43.700          36.600
 109266577.430 8  84985185.076 7  20404748.665    20404749.281    20404754.902
        49.500          47.000
 127212748.950 6  99126938.70143  24207734.061    24207732.6224   24207735.6324
        37.700          22.8004
 25  1  1  4  0 15.0000000  0 31E34G25E03E08S31S35G13E21E13S33G12G20
                                E15R22G05G11G06G29R07R23E27R15R13E05
                                G09R24E30R14R01R08G19
 138133820.650 7                  26285941.994
        43.100
 113129959.824 7  88153301.78747  21527888.867    21527887.8794   21527891.1394
        46.700          46.0004
 139861261.301 6                  26614704.167
        41.500
 149019548.906 5                  28357477.216
        35.800
 198982185.224 7                  37865043.006
        45.700
 200940692.134 7                  38237747.300
        44.600
 131892655.277 6 102773509.09042  25098337.591    25098337.0414   25098340.2174
        37.100          15.0004
 136500178.414 7                  25975105.006
        43.400
 132472896.531 7                  25208733.669
        45.400
 202127607.017 7                  38463574.242
        45.600
 114656832.892 8  89343116.99347  21818422.114    21818421.4664   21818421.4294
        48.200          45.7004
 106477789.907 7  82969760.74746  20262023.719    20262022.4454   20262023.1134
        47.200          40.7004
 124229043.458 8                  23639962.782
        49.300
 123503887.470 7  96058714.342 7  23136398.023    23136398.513    23136404.771
        45.300          42.200
 108932380.437 8  84882423.80248  20729123.607    20729123.1074   20729123.5384
        49.200          49.3004
 111917064.332 8  87208204.50946  21297072.498    21297072.1774   21297072.4804
        48.600          38.7004
 124456356.387 6  96979123.44046  23683217.133    23683216.8294   23683220.6654
        41.000          37.0004
 120857761.272 7  94174915.16246  22998453.181    22998452.5784   22998453.1624
        46.100          41.4004
 118988947.349 8  92547024.375 7  22228118.165    22228118.757    22228124.815
        49.300          44.500
 108830995.129 8                  20344772.864    20344773.072
        49.900
 128384273.452 8                  24430659.962
        48.200
 125810333.017 7  97852527.403 6  23543688.032    23543688.777    23543695.025
        45.300          40.900
 121531829.493 6                  22758962.632    22758962.515
        40.000
 134892208.652 6                  25669123.351
        40.300
 129925935.306 6 101241028.32645  24724073.550    24724072.9834   24724076.3744
        37.200          31.0004
 113001490.545 8  87890121.517 7  21131833.497    21131833.658    21131839.832
        50.000          45.000
 141177796.087 6                  26865194.491
        41.900
 114881089.727 8  89352006.165 7  21551392.644    21551392.514    21551398.431
        49.300          44.400
 118616337.807 7  92257196.415 6  22189632.618    22189631.766    22189640.398
        43.300          36.400
 109251147.635 8  84973184.144 7  20401867.784    20401868.053    20401873.411
        49.500          47.000
 127262598.071 6  99165782.12243  24217220.420    24217219.0164   24217221.4774
        37.800          22.1004
 25  1  1  4  0 30.0000000  0 31E34G25E03E08S31S35G13E21E13S33G12G20
                                E15R22G05G11G06G29R07R23E27R15R13E05
                                G09R24E30R14R01R08G19
 138163297.955 7                  26291551.214
        43.200
 113137563.995 7  88159227.11747  21529335.802    21529334.8144   21529338.1884
        47.200          45.9004
 139828443.470 6                  26608459.119
        41.600
 148978139.936 5                  28349597.101
        35.800
 198982180.405 7                  37865042.675
        45.800
 200940718.787 7                  38237750.587
        44.600
 131844296.001 6 102735826.55742  25089135.800    25089135.2154   25089138.0604
        36.600          14.2004
 136479777.632 7                  25971222.787
        43.600
 132451350.226 7                  25204633.601
        45.300
 202127588.940 7                  38463570.280
        45.500
 114696295.040 8  89373866.71047  21825931.775    21825931.1234   21825930.8574
        48.000          45.6004
 106487312.350 7  82977180.83246  20263836.049    20263834.7804   20263835.1894
        47.100          40.6004
 124236372.100 8                  23641357.318
        49.200
 123542216.988 7  96088526.154 7  23143578.908    23143579.080    23143585.289
        44.600          42.200
 108902386.946 8  84859052.26648  20723416.301    20723415.8054   20723415.9514
        49.300          49.2004
 111939122.632 8  87225392.79346  21301269.877    21301269.5514   21301270.0604
        48.500          38.6004
 124495475.239 6  97009605.65146  23690661.017    23690660.7094   23690664.7724
        41.000          36.8004
 120812521.155 7  94139663.13746  22989844.303    22989843.7094   22989844.1934
        45.600          41.3004
 119027053.449 8  92576662.470 7  22235235.787    22235236.574    22235243.147
        48.900          44.500
 108844528.193 8                  20347303.205    20347303.214
        49.400
 128405184.497 7                  24434639.138
        47.700
 125773991.831 7  97824262.033 6  23536887.625    23536887.376    23536894.483
        45.400          41.500
 121590600.653 6                  22769968.567    22769968.774
        41.000
 134889334.936 6                  25668576.124
        40.200
 129948056.834 6 101258265.76645  24728283.837    24728283.2704   24728286.0674
        38.200          31.1004
 112971720.038 8  87866966.684 7  21126266.385    21126266.542    21126272.318
        50.700          45.300
 141223880.636 6                  26873963.961
        41.300
 114893945.715 8  89362005.284 7  21553804.731    21553804.400    21553810.428
        50.000          44.500
 118552725.111 7  92207719.905 6  22177731.092    22177731.826    22177741.741
        43.600          37.300
 109235914.993 8  84961336.554 7  20399023.025    20399023.417    20399028.752
        49.500          47.100
 127312487.164 6  99204656.71643  24226713.116    24226711.7214   24226714.9954
        38.300          22.6004
 25  1  1  4  0 45.0000000  0 31E34G25E03E08S31S35G13E21E13S33G12G20
                                E15R22G05G11G06G29R07R23E27R15R13E05
                                G09R24E30R14R01R08G19
 138192774.093 7                  26297160.560
        43.500
 113145316.422 7  88165267.96947  21530810.961    21530809.9784   21530813.4564
        46.300          46.1004
 139795674.780 6                  26602223.213
        40.700
 148936698.087 6                  28341711.119
        36.200
 198982174.602 7                  37865044.692
        46.000
 200940743.489 7                  38237756.440
        44.600
 131795898.309 6 102698114.06742  25079926.159    25079925.5514   25079928.5704
        38.200          15.0004
 136459469.228 7                  25967358.207
        43.900
 132429832.123 7                  25200538.766
        45.400
 202127569.490 7                  38463566.645
        45.500
 114735859.168 7  89404695.88847  21833460.206    21833459.5544   21833459.6614
        47.800          45.7004
 106496952.650 7  82984692.75646  20265670.360    20265669.0864   20265669.6414
        47.300          40.7004
 124243728.728 8                  23642757.121
        49.100
 123580565.942 7  96118353.104 7  23150762.331    23150762.916    23150769.420
        44.900          42.200
 108872516.548 8  84835776.64848  20717732.072    20717731.5724   20717731.7854
        49.000          49.3004
 111961227.306 8  87242617.21346  21305476.364    21305476.0384   21305476.4344
        48.000          38.8004
 124534598.492 6  97040091.30546  23698106.036    23698105.7234   23698109.7104
        40.500          37.0004
 120767306.574 7  94104431.01046  22981240.581    22981239.9914   22981240.1384
        45.500          41.6004
 119065315.098 8  92606421.543 7  22242383.992    22242384.280    22242390.629
        48.600          44.400
 108858113.178 8                  20349842.944    20349842.698
        49.600
 128426189.394 7                  24438636.218
        47.700
 125737799.164 7  97796112.144 6  23530115.332    23530114.590    23530122.126
        44.400          41.100
 121649410.877 6                  22780982.585    22780982.224
        40.500
 134886561.707 6                  25668048.596
        40.500
 129970300.850 6 101275598.60044  24732516.493    24732515.9304   24732518.5794
        36.800          29.8004
 112941978.225 8  87843834.184 7  21120704.185    21120704.420    21120710.643
        50.500          45.300
 141269982.211 6                  26882736.715
        41.600
 114906985.818 8  89372147.593 7  21556251.177    21556250.543    21556256.697
        49.600          44.400
 118489165.322 7  92158284.545 6  22165841.144    22165842.036    22165850.651
        44.500          36.600
 109220878.588 8  84949641.604 7  20396214.885    20396215.229    20396220.779
        49.000          46.900
 127362415.131 6  99243561.60343  24236214.716    24236213.2774   24236216.0844
        38.600          22.9004
 25  1  1  4  1  0.0000000  0 31E34G25E03E08S31S35G13E21E13S33G12G20
                                E15R22G05G11G06G29R07R23E27R15R13E05
                                G09R24E30R14R01R08G19
 138222253.637 7                  26302770.163
        43.300
 113153221.573 7  88171427.82747  21532315.177    21532314.1984   21532317.7554
        46.700          46.1004
 139762960.066 6                  26595997.904
        41.300
 148895228.213 5                  28333819.625
        35.800
 198982171.430 7                  37865039.026
        45.900
 200940771.350 7                  38237762.208
        44.600
 131747467.236 6 102660375.56142  25070709.121    25070708.4734   25070712.4934
        36.800          13.6004
 136439257.938 7                  25963511.912
        43.800
 132408346.747 7                  25196450.070
        45.300
 202127553.276 7                  38463562.021
        45.600
 114775529.495 7  89435607.82047  21841009.459    21841008.7984   21841008.6544
        47.600          45.7004
 106506715.375 7  82992300.07546  20267527.710    20267526.4274   20267527.4134
        47.100          40.7004
 124251117.883 8                  23644163.314
        49.200
 123618939.117 7  96148198.870 7  23157951.191    23157951.850    23157957.867
        44.600          42.300
 108842773.732 8  84812600.44648  20712072.278    20712071.7874   20712071.8824
        48.700          49.4004
 111983382.852 8  87259881.27346  21309692.559    21309692.2384   21309692.4864
        48.200          38.9004
 124573730.666 6  97070583.90346  23705552.367    23705552.0374   23705556.3704
        41.500          37.1004
 120722122.013 7  94069222.26746  22972642.125    22972641.5354   22972641.8474
        45.800          41.7004
 119103736.568 8  92636304.909 7  22249561.407    22249562.034    22249568.383
        49.000          44.600
 108871754.744 8                  20352392.938    20352392.842
        49.400
 128447292.607 7                  24442652.036
        47.800
 125701760.277 7  97768081.874 6  23523371.530    23523370.453    23523378.400
        45.100          41.800
 121708264.229 6                  22792003.801    22792003.334
        40.400
 134883893.648 6                  25667540.569
        39.600
 129992671.970 6 101293030.45945  24736773.301    24736772.7294   24736775.7744
        36.300          30.1004
 112912269.826 8  87820727.648 7  21115148.704    21115149.073    21115155.207
        50.700          45.600
 141316105.223 6                  26891513.525
        41.600
 114920214.490 8  89382436.547 7  21558732.839    21558732.620    21558738.143
        50.500          44.600
 118425663.522 7  92108894.289 6  22153962.448    22153962.464    22153971.969
        44.200          36.600
 109206043.273 8  84938103.028 7  20393444.759    20393444.836    20393450.394
        49.200          47.000
 127412386.199 6  99282500.01943  24245724.000    24245722.5744   24245725.8754
        37.400          22.9004
 25  1  1  4  1 15.0000000  0 31E34G25E03E08S31S35G13E21E13S33G12G20
                                E15R22G05G11G06G29R07R23E27R15R13E05
                                G09R24E30R14R01R08G19
 138251730.470 7                  26308379.576
        43.400
 113161273.213 7  88177701.83447  21533847.366    21533846.3874   21533849.9214
        47.100          46.0004
 139730293.524 6                  26589781.543
        41.100
 148853724.414 6                  28325922.079
        36.500
 198982165.585 7                  37865039.684
        46.100
 200940796.439 7                  38237772.699
        44.600
 131698996.932 6 102622606.47942  25061486.211    25061485.5544   25061488.8694
        37.500          14.9004
 136419137.864 7                  25959683.482
        43.500
 132386888.000 7                  25192366.942
        45.400
 202127533.084 7                  38463560.429
        45.800
 114815299.597 8  89466597.49547  21848577.275    21848576.6144   21848576.7014
        48.200          45.7004
 106516594.203 7  82999997.86546  20269407.900    20269406.6044   20269407.2834
        47.700          40.7004
 124258533.427 8                  23645574.550
        49.000
 123657330.298 7  96178058.657 7  23165142.121    23165142.255    23165149.930
        44.100          42.400
 108813152.704 8  84789519.13848  20706435.514    20706435.0274   20706435.1614
        49.300          49.3004
 112005583.101 8  87277180.16746  21313917.012    21313916.6914   21313916.9804
        48.300          38.8004
 124612865.660 6  97101078.69646  23712999.695    23712999.3694   23713003.5674
        41.600          37.0004
 120676961.819 7  94034032.51446  22964048.016    22964047.4404   22964048.0374
        45.800          41.6004
 119142311.282 8  92666307.483 7  22256767.047    22256767.714    22256774.054
        49.100          44.300
 108885446.497 8                  20354952.332    20354952.318
        49.400
 128468487.907 7                  24446685.505
        47.700
 125665868.983 7  97740166.379 6  23516654.706    23516655.333    23516660.709
        46.500          41.100
 121767154.319 6                  22803031.842    22803031.795
        40.900
 134881324.730 6                  25667052.094
        40.000
 130015163.812 6 101310556.33444  24741053.572    24741053.0054   24741056.3954
        36.900          29.7004
 112882588.624 8  87797642.276 7  21109598.588    21109598.609    21109604.796
        50.700          45.600
 141362243.323 7                  26900293.613
        42.100
 114933625.264 8  89392867.139 7  21561248.232    21561248.373    21561254.057
        49.300          44.300
 118362214.128 7  92059544.786 6  22142092.535    22142092.726    22142100.951
        44.100          36.000
 109191403.224 8  84926716.338 7  20390710.624    20390711.042    20390716.467
        49.400          47.000
 127462394.321 6  99321467.26943  24255239.674    24255238.2264   24255241.9264
        39.600          22.6004
 25  1  1  4  1 30.0000000  0 31E34G25E03E08S31S35G13E21E13S33G12G20
                                E15R22G05G11G06G29R07R23E27R15R13E05
                                G09R24E30R14R01R08G19
 138281205.583 7                  26313988.638
        43.200
 113169472.200 7  88184090.65747  21535407.460    21535406.4774   21535410.1374
        47.100          46.2004
 139697676.338 6                  26583575.041
        41.500
 148812187.881 6                  28318017.251
        37.200
 198982157.541 7                  37865038.642
        45.800
 200940819.042 7                  38237774.335
        44.800
 131650488.752 6 102584807.89042  25052255.251    25052254.5944   25052257.8704
        37.400          13.6004
 136399110.029 7                  25955872.087
        43.100
 132365456.747 7                  25188288.421
        45.400
 202127512.458 7                  38463559.119
        45.800
 114855170.062 7  89497665.37447  21856164.190    21856163.5334   21856163.8374
        47.700          45.8004
 106526589.779 7  83007786.62246  20271309.856    20271308.5514   20271309.3724
        47.200          40.8004
 124265976.219 8                  23646990.709
        49.200
 123695740.509 7  96207933.246 7  23172338.991    23172338.991    23172345.625
        44.300          42.300
 108783654.110 8  84766533.23748  20700822.002    20700821.5024   20700821.7544
        49.400          49.5004
 112027828.891 8  87294514.55246  21318150.225    21318149.9044   21318150.2204
        48.300          39.0004
 124652004.376 6  97131576.39446  23720447.786    23720447.4694   23720451.3944
        40.500          37.1004
 120631827.264 7  93998862.74446  22955459.760    22955459.1884   22955459.3874
        45.800          41.9004
 119181039.821 8  92696429.692 7  22264002.663    22264003.166    22264008.970
        49.300          44.400
 108899189.379 8                  20357521.802    20357521.444
        49.400
 128489776.100 7                  24450736.456
        47.800
 125630126.888 7  97712366.949 6  23509966.534    23509966.308    23509972.910
        44.300          41.200
 121826081.058 6                  22814066.634    22814066.838
        40.600
 134878855.943 6                  25666582.172
        40.200
 130037777.317 6 101328177.01945  24745357.859    24745357.3054   24745360.2834
        37.400          31.1004
 112852935.717 8  87774578.920 7  21104053.153    21104053.421    21104059.264
        50.500          45.800
 141408397.304 6                  26909076.117
        41.400
 114947218.841 8  89403439.928 7  21563798.691    21563798.535    21563804.648
        49.600          44.400
 118298818.649 7  92010237.210 6  22130233.535    22130233.482    22130242.235
        44.600          36.900
 109176959.620 8  84915482.448 7  20388013.264    20388013.853    20388019.327
        49.100          47.000
 127512440.457 6  99360464.14743  24264763.437    24264762.0024   24264765.4314
        38.300          23.1004
 25  1  1  4  1 45.0000000  0 31E34G25E03E08S31S35G13E21E13S33G12G20
                                E15R22G05G11G06G29R07R23E27R15R13E05
                                G09R24E30R14R01R08G19
 138310687.350 7                  26319598.802
        42.600
 113177826.834 7  88190600.76147  21536997.370    21536996.3784   21536999.9734
        46.700          46.1004
 139665117.208 6                  26577378.839
        41.300
 148770627.234 6                  28310108.692
        36.400
 198982155.573 7                  37865039.004
        46.100
 200940847.973 7                  38237779.835
        44.900
 131601951.482 6 102546986.60642  25043019.723    25043019.0624   25043021.3274
        37.300          13.6004
 136379183.086 7                  25952080.159
        43.300
 132344061.411 7                  25184217.311
        45.000
 202127496.724 7                  38463557.272
        46.000
 114895148.904 7  89528817.70447  21863772.155    21863771.4944   21863771.6064
        47.600          45.8004
 106536710.710 7  83015673.06346  20273235.875    20273234.5704   20273235.3184
        46.900          40.7004
 124273454.648 8                  23648413.848
        48.800
 123734178.345 7  96237829.295 7  23179540.419    23179540.584    23179546.158
        45.300          42.300
 108754287.199 8  84743649.94448  20695233.657    20695233.1614   20695233.3754
        48.900          49.5004
 112050128.573 8  87311890.92146  21322393.489    21322393.1724   21322393.7544
        48.500          39.0004
 124691155.184 6  97162083.50846  23727898.255    23727897.9474   23727901.5384
        41.000          37.0004
 120586727.007 7  93963719.71047  22946877.054    22946876.4824   22946877.0964
        46.400          42.0004
 119219930.218 8  92726677.787 7  22271267.563    22271267.997    22271274.373
        49.100          44.500
 108912992.519 8                  20360102.241    20360101.857
        49.400
 128511165.515 7                  24454806.535
        47.500
 125594543.127 7  97684690.700 6  23503306.153    23503305.974    23503312.920
        45.200          40.600
 121885052.684 6                  22825110.655    22825110.695
        40.300
 134876495.807 6                  25666133.250
        39.400
 130060520.880 6 101345899.08244  24749685.058    24749684.5264   24749688.2104
        36.500          29.2004
 112823319.981 8  87751544.465 7  21098514.859    21098514.624    21098520.596
        50.000          45.400
 141454575.314 6                  26917863.452
        41.400
 114961003.701 8  89414161.495 7  21566384.205    21566384.667    21566390.637
        50.700          44.800
 118235486.195 7  91960978.677 6  22118385.285    22118385.712    22118394.550
        44.300          37.200
 109162721.088 8  84904408.043 7  20385354.696    20385354.928    20385360.491
        48.900          47.100
 127562532.804 6  99399497.03543  24274296.627    24274295.1884   24274297.7684
        38.800          22.7004
 25  1  1  4  2  0.0000000  0 31E34G25E03E08S31S35G13E21E13S33G12G20
                                E15R22G05G11G06G29R07R23E27R15R13E05
                                G09R24E30R14R01R08G19
 138340164.121 7                  26325208.162
        43.500
 113186325.413 7  88197223.03347  21538614.793    21538613.8194   21538617.1894
        46.200          46.0004
 139632604.747 6                  26571192.049
        41.500
 148729031.163 5                  28302192.942
        35.700
 198982148.529 7                  37865039.558
        46.200
 200940871.868 7                  38237782.223
        44.800
 131553373.826 6 102509133.84642  25033775.108    25033774.4204   25033777.2624
        36.000          13.5004
 136359345.540 7                  25948305.283
        43.200
 132322690.369 7                  25180150.090
        45.400
 202127476.399 7                  38463547.748
        45.700
 114935224.009 7  89560045.04147  21871398.241    21871397.5804   21871397.6674
        47.700          45.6004
 106546945.138 7  83023647.94446  20275183.607    20275182.3024   20275182.8044
        46.800          40.5004
 124280957.048 8                  23649841.698
        49.000
 123772631.995 7  96267737.686 7  23186743.216    23186743.769    23186750.242
        43.900          42.200
 108725040.272 8  84720860.14648  20689668.193    20689667.6974   20689667.8374
        48.700          49.3004
 112072470.450 8  87329300.17646  21326645.175    21326644.8544   21326645.2664
        48.200          38.9004
 124730306.424 6  97192590.96246  23735348.230    23735347.9134   23735351.7664
        41.200          37.0004
 120541649.748 7  93928594.58546  22938298.832    22938298.2514   22938299.0034
        45.800          41.7004
 119258970.414 8  92757042.418 7  22278559.785    22278560.337    22278567.142
        48.500          44.400
 108926843.838 8                  20362691.138    20362691.378
        50.100
 128532644.404 7                  24458894.094
        47.600
 125559105.844 7  97657128.394 6  23496675.623    23496675.837    23496682.188
        46.000          40.900
 121944056.879 6                  22836160.688    22836160.294
        41.000
 134874232.744 6                  25665702.837
        39.900
 130083383.033 6 101363713.78645  24754036.261    24754035.7114   24754038.9564
        37.600          30.8004
 112793729.180 8  87728529.412 7  21092981.070    21092981.349    21092987.209
        50.800          45.600
 141500765.574 6                  26926653.425
        41.800
 114974967.410 8  89425022.151 7  21569004.378    21569004.260    21569009.966
        50.100          44.800
 118172205.618 7  91911760.480 6  22106547.730    22106547.494    22106556.157
        43.900          36.200
 109148676.227 8  84893484.280 7  20382732.083    20382732.098    20382737.675
        49.600          46.800
 127612659.679 6  99438556.89143  24283834.747    24283833.3304   24283836.0974
        39.500          22.5004
 25  1  1  4  2 15.0000000  0 31E34G25E03E08S31S35G13E21E13S33G12G20
                                E15R22G05G11G06G29R07R23E27R15R13E05
                                G09R24E30R14R01R08G19
 138369646.039 7                  26330818.309
        43.300
 113194977.906 7  88203965.23547  21540261.213    21540260.2394   21540263.6944
        46.800          46.0004
 139600149.374 7                  26565015.777
        42.100
 148687409.949 6                  28294273.601
        37.100
 198982146.718 7                  37865038.382
        46.200
 200940900.427 7                  38237788.166
        44.700
 131504766.344 6 102471257.89742  25024524.871    25024524.1834   25024527.6044
        37.900          14.2004
 136339607.643 7                  25944549.320
        43.700
 132301353.650 7                  25176090.155
        45.700
 202127461.146 7                  38463547.824
        45.800
 114975405.568 7  89591355.33847  21879044.656    21879043.9954   21879043.9634
        47.400          45.7004
 106557302.946 7  83031718.96646  20277154.598    20277153.2934   20277153.8234
        46.800          40.6004
 124288493.454 8                  23651275.653
        49.200
 123811111.825 7  96297666.402 7  23193951.934    23193952.458    23193958.922
        44.500          42.400
 108695923.604 8  84698171.84648  20684127.530    20684127.0394   20684127.1034
        49.100          49.4004
 112094864.543 8  87346750.12046  21330906.778    21330906.4574   21330906.7354
        48.300          38.9004
 124769468.190 6  97223106.62246  23742800.250    23742799.9244   23742803.9894
        41.100          37.0004
 120496605.708 7  93893495.34946  22929727.605    22929727.0064   22929727.3814
        46.200          41.9004
 119298170.230 8  92787531.144 7  22285883.635    22285883.929    22285890.189
        49.300          44.500
 108940753.632 8                  20365291.253    20365291.425
        49.900
 128554222.751 7                  24463000.181
        47.900
 125523825.693 7  97629688.262 6  23490072.833    23490072.932    23490080.097
        45.200          41.100
 122003103.282 6                  22847217.097    22847217.315
        41.000
 134872076.938 6                  25665292.064
        40.500
 130106373.096 6 101381628.09545  24758411.090    24758410.5324   24758413.8394
        37.100          31.0004
 112764173.927 8  87705541.993 7  21087454.060    21087454.155    21087460.503
        51.100          45.800
 141546977.960 6                  26935447.063
        41.900
 114989120.322 8  89436029.958 7  21571658.926    21571659.223    21571665.166
        49.900          44.500
 118108987.718 7  91862591.022 6  22094722.034    22094722.011    22094730.254
        44.100          36.600
 109134835.340 8  84882719.158 7  20380146.690    20380147.308    20380152.929
        49.300          46.900
 127662831.006 6  99477651.39743  24293381.611    24293380.1454   24293383.5524
        38.400          23.0004
 25  1  1  4  2 30.0000000  0 31E34G25E03E08S31S35G13E21E13S33G12G20
                                E15R22G05G11G06G29R07R23E27R15R13E05
                                G09R24E30R14R01R08G19
 138399125.513 7                  26336428.022
        43.300
 113203776.673 7  88210821.41747  21541935.625    21541934.6464   21541938.0534
        47.000          45.8004
 139567743.772 6                  26558849.183
        41.800
 148645756.303 6                  28286346.823
        36.800
 198982141.787 7                  37865036.433
        46.100
 200940926.222 7                  38237791.989
        44.400
 131456121.762 6 102433353.05642  25015268.160    25015267.4504   25015270.9604
        37.000          16.1004
 136319962.024 7                  25940810.876
        43.800
 132280043.712 7                  25172034.827
        45.400
 202127442.802 7                  38463543.343
        45.600
 115015685.628 7  89622742.38547  21886709.524    21886708.8674   21886709.0354
        47.400          45.5004
 106567776.334 7  83039880.05146  20279147.396    20279146.0914   20279146.8354
        46.900          40.4004
 124296056.277 8                  23652714.954
        49.400
 123849610.199 7  96327609.582 6  23201164.044    23201164.358    23201170.075
        44.800          41.600
 108666929.802 8  84675579.28248  20678610.356    20678609.8744   20678609.7524
        48.800          49.3004
 112117303.225 8  87364234.80646  21335176.454    21335176.1334   21335176.6304
        48.700          38.8004
 124808632.891 6  97253624.56446  23750252.671    23750252.3364   23750256.6864
        40.600          36.9004
 120451587.610 7  93858416.32246  22921160.543    22921159.9404   22921160.7904
        45.400          41.8004
 119337521.394 8  92818137.628 7  22293234.482    22293234.749    22293241.245
        48.900          44.400
 108954714.495 8                  20367901.445    20367901.185
        49.700
 128575892.889 7                  24467123.939
        47.900
 125488695.489 7  97602364.772 6  23483498.362    23483498.681    23483505.479
        45.300          40.800
 122062183.847 6                  22858282.376    22858281.598
        40.800
 134870020.899 6                  25664900.972
        40.500
 130129483.507 6 101399636.09244  24762808.774    24762808.2074   24762811.3584
        36.600          29.3004
 112734646.763 8  87682576.441 7  21081931.511    21081932.707    21081938.425
        50.600          45.300
 141593204.715 7                  26944243.815
        42.000
 115003454.375 8  89447178.672 7  21574347.871    21574348.242    21574354.297
        49.900          44.500
 118045825.418 7  91813464.839 6  22082905.584    22082905.265    22082914.237
        43.500          37.500
 109121191.042 8  84872106.949 7  20377599.030    20377599.481    20377604.941
        49.400          46.900
 127713039.038 6  99516774.51843  24302936.664    24302935.2294   24302937.8094
        39.600          22.9004
 25  1  1  4  2 45.0000000  0 31E34G25E03E08S31S35G13E21E13S33G12G20
                                E15R22G05G11G06G29R07R23E27R15R13E05
                                G09R24E30R14R01R08G19
 138428607.780 7                  26342038.367
        43.400
 113212726.804 7  88217795.54647  21543638.516    21543637.5334   21543641.2004
        46.600          45.8004
 139535393.443 6                  26552692.969
        41.700
 148604075.663 6                  28278414.867
        36.400
 198982139.438 7                  37865038.637
        46.100
 200940954.904 7                  38237799.457
        44.600
 131407445.660 6 102395423.62742  25006005.264    25006004.5624   25006008.2004
        37.300          15.8004
 136300414.063 7                  25937090.516
        43.700
 132258765.716 7                  25167985.781
        45.400
 202127427.496 7                  38463545.543
        45.700
 115056068.934 7  89654209.88647  21894394.152    21894393.5004   21894393.7824
        47.400          45.4004
 106578370.327 7  83048135.11146  20281163.322    20281162.0174   20281162.7634
        47.100          40.4004
 124303650.685 8                  23654159.944
        49.200
 123888132.480 7  96357571.306 6  23208380.045    23208380.470    23208386.867
        43.600          41.800
 108638064.152 8  84653086.58748  20673117.221    20673116.7434   20673116.7884
        49.200          49.2004
 112139791.647 8  87381758.24946  21339455.767    21339455.4374   21339456.0444
        48.700          38.8004
 124847805.705 6  97284148.82846  23757707.505    23757707.1754   23757711.2794
        41.400          37.1004
 120406600.872 7  93823361.74346  22912600.392    22912599.7934   22912600.1734
        46.300          41.8004
 119377029.112 8  92848865.858 7  22300613.824    22300615.050    22300621.645
        48.400          44.300
 108968731.516 8                  20370521.291    20370521.721
        50.000
 128597659.929 7                  24471266.000
        47.900
 125453720.977 7  97575162.320 6  23476953.589    23476953.728    23476960.530
        45.000          40.700
 122121302.969 6                  22869352.451    22869352.348
        41.800
 134868069.934 6                  25664529.970
        40.100
 130152719.677 6 101417742.25245  24767230.436    24767229.8644   24767233.4754
        38.400          31.6004
 112705152.872 8  87659636.750 7  21076416.763    21076417.229    21076423.063
        50.500          45.500
 141639450.884 6                  26953044.156
        41.700
 115017974.956 8  89458472.441 7  21577071.610    21577071.858    21577078.472
        49.500          44.700
 117982724.469 7  91764386.364 6  22071101.390    22071101.568    22071109.431
        44.100          37.000
 109107748.935 8  84861651.976 7  20375088.939    20375089.210    20375094.728
        49.500          47.200
 127763288.879 6  99555930.17643  24312498.292    24312496.8354   24312499.9044
        38.700          22.6004
 25  1  1  4  3  0.0000000  0 31E34G25E03E08S31S35G13E21E13S33G12G20
                                E15R22G05G11G06G29R07R23E27R15R13E05
                                G09R24E30R14R01R08G19
 138458083.432 7                  26347647.313
        42.600
 113221818.783 7  88224880.21047  21545368.779    21545367.7914   21545371.3384
        47.000          46.0004
 139503089.247 6                  26546546.102
        41.500
 148562358.863 6                  28270476.451
        36.200
 198982130.552 7                  37865034.148
        45.800
 200940976.523 7                  38237801.925
        44.400
 131358728.934 6 102357462.49342  24996735.834    24996735.1414   24996737.4354
        37.300          15.8004
 136280954.512 7                  25933387.518
        43.400
 132237510.267 7                  25163941.069
        45.100
 202127405.065 7                  38463537.848
        45.300
 115096545.700 7  89685750.20847  21902096.882    21902096.2394   21902096.3044
        47.600          45.5004
 106589075.474 7  83056476.78446  20283200.603    20283199.2984   20283199.8374
        47.300          40.5004
 124311267.222 8                  23655609.485
        49.100
 123926669.104 7  96387544.210 6  23215600.168    23215600.111    23215605.998
        44.500          41.400
 108609317.298 8  84630686.45748  20667646.783    20667646.3104   20667646.4074
        49.000          49.4004
 112162320.300 8  87399313.04446  21343743.058    21343742.7284   21343743.1094
        48.800          38.9004
 124886977.209 7  97314672.07346  23765161.405    23765161.0754   23765165.4384
        42.200          37.2004
 120361636.388 7  93788324.49147  22904043.667    22904043.0644   22904043.7364
        46.300          42.0004
 119416683.378 8  92879708.091 7  22308022.123    22308022.476    22308029.545
        48.700          44.700
 108982795.381 8                  20373150.510    20373150.704
        49.800
 128619514.327 7                  24475424.920
        47.700
 125418892.879 7  97548073.787 6  23470436.528    23470436.369    23470442.470
        45.400          40.100
 122180451.044 6                  22880428.799    22880429.107
        40.900
 134866214.672 6                  25664176.262
        39.500
 130176071.711 6 101435938.66145  24771673.967    24771673.3774   24771677.4954
        37.300          30.9004
 112675682.762 8  87636715.575 7  21070905.877    21070905.874    21070912.226
        50.300          45.700
 141685706.772 6                  26961846.487
        41.600
 115032671.842 8  89469903.371 7  21579829.500    21579829.463    21579834.588
        50.100          44.200
 117919675.754 7  91715348.518 6  22059306.416    22059306.568    22059315.670
        44.300          37.400
 109094499.680 8  84851347.023 7  20372614.707    20372614.963    20372620.396
        49.700          47.000
 127813570.978 6  99595110.94943  24322067.202    24322065.7494   24322068.6314
        38.400          22.6004
 25  1  1  4  3 15.0000000  0 31E34G25E03E08S31S35G13E21E13S33G12G20
                                E15R22G05G11G06G29R07R23E27R15R13E05
                                G09R24E30R14R01R08G19
 138487564.698 7                  26353257.533
        43.500
 113231064.771 7  88232084.87447  21547128.065    21547127.0734   21547130.7654
        47.400          46.0004
 139470843.704 6                  26540409.594
        41.600
 148520618.387 6                  28262533.270
        36.300
 198982127.176 7                  37865031.858
        45.700
 200941004.045 7                  38237804.309
        44.500
 131309984.210 6 102319479.56642  24987459.336    24987458.6394   24987461.6854
        36.700          15.1004
 136261595.748 7                  25929703.813
        44.000
 132216289.556 7                  25159903.037
        45.400
 202127387.911 7                  38463532.061
        45.500
 115137127.724 7  89717372.55247  21909819.263    21909818.6154   21909818.8144
        47.300          45.5004
 106599903.920 7  83064914.53846  20285261.179    20285259.8694   20285260.4194
        47.700          40.5004
 124318918.090 8                  23657065.286
        49.200
 123965232.626 7  96417538.023 7  23222824.950    23222825.551    23222830.794
        45.500          42.200
 108580701.774 8  84608388.66248  20662201.490    20662201.0084   20662201.0264
        49.500          49.4004
 112184901.356 8  87416908.67146  21348040.075    21348039.7404   21348040.1604
        49.100          39.0004
 124926159.640 6  97345203.83246  23772617.860    23772617.5214   23772621.3454
        41.300          36.9004
 120316706.791 7  93753314.43947  22895493.849    22895493.2504   22895493.9994
        45.800          42.0004
 119456496.181 7  92910673.589 7  22315459.763    22315459.733    22315466.761
        47.900          44.600
 108996918.424 8                  20375790.633    20375790.876
        49.600
 128641468.207 7                  24479602.474
        47.600
 125384223.936 7  97521108.971 6  23463948.299    23463948.586    23463955.156
        45.300          40.700
 122239639.710 6                  22891513.098    22891512.703
        40.400
 134864467.454 6                  25663844.247
        40.200
 130199551.694 6 101454234.72145  24776141.797    24776141.2124   24776145.7634
        37.800          31.2004
 112646249.060 8  87613822.686 7  21065401.569    21065401.727    21065407.735
        50.700          45.700
 141731984.512 6                  26970653.165
        41.300
 115047557.658 8  89481481.212 7  21582621.487    21582621.661    21582627.810
        49.900          44.500
 117856692.636 7  91666361.687 6  22047524.694    22047524.290    22047533.315
        43.900          37.000
 109081455.736 8  84841201.752 7  20370178.638    20370178.984    20370184.681
        49.400          47.200
 127863897.700 6  99634326.51143  24331644.516    24331643.0724   24331645.4474
        38.300          22.0004
 25  1  1  4  3 30.0000000  0 31E34G25E03E08S31S35G13E21E13S33G12G20
                                E15R22G05G11G06G29R07R23E27R15R13E05
                                G09R24E30R14R01R08G19
 138517042.282 7                  26358866.968
        43.400
 113240455.317 7  88239402.18447  21548915.404    21548914.4124   21548917.7204
        46.800          45.7004
 139438647.780 6                  26534283.138
        41.700
 148478845.196 6                  28254584.264
        36.800
 198982120.082 7                  37865030.266
        45.900
 200941027.353 7                  38237809.201
        44.600
 131261202.722 6 102281468.04642  24978176.866    24978176.1644   24978178.9944
        37.500          14.9004
 136242328.686 7                  25926037.623
        43.700
 132195094.283 7                  25155869.676
        45.600
 202127367.860 7                  38463535.169
        45.400
 115177805.445 8  89749069.46747  21917559.937    21917559.2894   21917559.5514
        48.100          45.3004
 106610846.159 7  83073440.95946  20287343.290    20287341.9804   20287342.6174
        47.300          40.3004
 124326593.947 8                  23658526.003
        49.200
 124003813.605 7  96447545.452 6  23230051.915    23230051.992    23230057.482
        44.400          41.500
 108552208.630 8  84586186.22548  20656779.343    20656778.8654   20656778.9604
        49.300          49.2004
 112207525.472 8  87434537.85146  21352345.220    21352344.8904   21352345.3844
        48.500          38.8004
 124965343.648 6  97375736.83346  23780074.176    23780073.8464   23780077.5974
        40.900          36.7004
 120271802.972 7  93718324.46846  22886948.968    22886948.3694   22886948.9204
        46.400          41.8004
 119496457.698 8  92941754.772 7  22322924.480    22322925.455    22322931.697
        48.600          44.800
 109011091.457 8                  20378440.486    20378440.232
        49.500
 128663512.169 7                  24483797.317
        47.800
 125349705.148 7  97494260.985 6  23457488.682    23457488.786    23457495.978
        45.400          40.700
 122298858.974 6                  22902601.984    22902602.054
        40.100
 134862819.052 6                  25663530.590
        39.800
 130223150.673 6 101472623.67545  24780632.880    24780632.2864   24780636.3104
        36.500          30.2004
 112616842.539 8  87590950.952 7  21059902.010    21059902.879    21059908.592
        50.900          45.800
 141778274.572 6                  26979461.945
        41.100
 115062622.351 8  89493198.186 7  21585447.998    21585447.901    21585453.768
        50.000          44.400
 117793766.200 7  91617418.927 6  22035752.578    22035753.061    22035761.362
        44.600          37.200
 109068607.911 8  84831209.010 7  20367779.288    20367779.798    20367785.231
        49.300          47.300
 127914259.458 6  99673569.39943  24341228.231    24341226.7744   24341229.1854
        37.900          22.7004
 25  1  1  4  3 45.0000000  0 31E34G25E03E08S31S35G13E21E13S33G12G20
                                E15R22G05G11G06G29R07R23E27R15R13E05
                                G09R24E30R14R01R08G19
 138546522.459 7                  26364476.711
        43.600
 113249996.605 7  88246836.95747  21550731.032    21550730.0404   21550733.3644
        46.800          45.6004
 139406508.002 6                  26528167.269
        41.500
 148437045.763 6                  28246630.741
        36.800
 198982115.389 7                  37865029.350
        46.000
 200941053.212 7                  38237814.884
        44.600
 131212390.936 6 102243432.88542  24968887.784    24968887.0784   24968890.4414
        38.000          15.4004
 136223159.692 7                  25922389.991
        44.000
 132173930.668 7                  25151842.352
        45.600
 202127349.333 7                  38463530.595
        45.900
 115218585.036 7  89780845.75847  21925319.895    21925319.2384   21925319.6984
        47.900          45.2004
 106621908.334 7  83082060.84146  20289448.304    20289446.9944   20289447.6824
        47.500          40.2004
 124334300.989 8                  23659992.715
        49.000
 124042418.452 7  96477571.392 6  23237284.232    23237284.261    23237289.978
        44.500          41.500
 108523844.208 8  84564084.09848  20651381.589    20651381.1114   20651381.3634
        49.500          49.2004
 112230198.800 8  87452205.37346  21356659.970    21356659.6494   21356659.9774
        49.000          38.8004
 125004535.470 6  97406275.90846  23787532.009    23787531.6794   23787535.7274
        41.600          36.8004
 120226931.318 7  93683359.55346  22878409.846    22878409.2524   22878410.0664
        46.200          41.8004
 119536573.730 8  92972956.161 7  22330418.785    22330419.117    22330425.595
        48.300          44.600
 109025320.885 8                  20381100.475    20381100.458
        50.000
 128685652.369 7                  24488010.342
        47.500
 125315343.488 7  97467535.184 6  23451058.546    23451058.969    23451064.729
        45.400          40.200
 122358114.763 6                  22913699.973    22913700.089
        41.200
 134861275.766 6                  25663236.667
        40.000
 130246874.038 6 101491109.45645  24785147.635    24785147.0454   24785150.5254
        38.100          31.6004
 112587469.512 8  87568105.274 7  21054409.417    21054409.611    21054415.713
        50.900          45.600
 141824582.984 6                  26988273.773
        41.500
 115077872.257 8  89505059.220 7  21588308.347    21588308.684    21588314.882
        50.000          44.500
 117730903.120 7  91568525.447 6  22023992.196    22023992.966    22024001.406
        44.200          37.500
 109055962.889 8  84821373.999 7  20365418.545    20365418.455    20365423.861
        49.400          47.400
 127964662.321 6  99712844.28343  24350819.239    24350817.8004   24350820.8734
        38.500          22.3004
 25  1  1  4  4  0.0000000  0 31E34G25E03E08S31S35G13E21E13S33G12G20
                                E15R22G05G11G06G29R07R23E27R15R13E05
                                G09R24E30R14R01R08G19
 138576005.269 7                  26370087.500
        43.700
 113259688.544 7  88254389.11747  21552575.517    21552574.5294   21552577.7074
        47.000          45.6004
 139374424.693 6                  26522061.704
        41.900
 148395220.412 6                  28238671.108
        36.500
 198982112.675 7                  37865030.427
        45.500
 200941081.596 7                  38237822.142
        44.400
 131163549.224 6 102205374.40642  24959593.705    24959593.0264   24959596.2104
        38.100          15.5004
 136204088.998 7                  25918760.856
        43.600
 132152798.751 7                  25147820.922
        45.400
 202127333.325 7                  38463523.172
        45.100
 115259465.978 8  89812701.02647  21933099.484    21933098.8274   21933099.1284
        48.000          45.1004
 106633090.372 8  83090774.11946  20291576.387    20291575.0774   20291575.5224
        48.000          40.1004
 124342039.256 8                  23661464.996
        49.000
 124081047.302 7  96507616.034 6  23244520.262    23244520.938    23244526.427
        45.400          41.400
 108495608.622 8  84542082.35348  20646008.647    20646008.1694   20646008.2744
        49.600          49.1004
 112252921.345 8  87469911.25646  21360983.772    21360983.4424   21360983.9554
        49.200          38.7004
 125043735.139 6  97436821.10146  23794991.618    23794991.2884   23794995.2924
        41.100          36.7004
 120182092.264 7  93648420.05046  22869877.597    22869877.0074   22869877.6294
        46.500          41.7004
 119576844.316 8  93004277.735 7  22337942.401    22337942.175    22337948.470
        48.600          44.300
 109039606.857 8                  20383770.968    20383771.157
        49.700
 128707888.703 7                  24492242.016
        47.800
 125281139.186 7  97440931.817 6  23444658.165    23444658.042    23444664.773
        46.000          41.100
 122417406.405 6                  22924803.580    22924802.650
        40.400
 134859837.789 6                  25662962.944
        40.200
 130270721.654 6 101509691.88545  24789685.136    24789684.5374   24789688.3994
        38.500          30.4004
 112558129.955 8  87545285.609 7  21048923.074    21048923.225    21048928.916
        51.400          45.500
 141870909.638 6                  26997089.961
        41.900
 115093307.073 8  89517064.064 7  21591204.480    21591204.252    21591210.387
        50.100          44.700
 117668104.230 7  91519681.929 6  22012243.920    22012244.672    22012253.564
        44.100          37.600
 109043520.744 8  84811696.803 7  20363094.557    20363094.566    20363100.509
        49.000          47.300
 128015106.365 6  99752151.27143  24360418.440    24360417.0104   24360419.9934
        39.000          21.7004
 25  1  1  4  4 15.0000000  0 31E34G25E03E08S31S35G13E21E13S33G12G20
                                E15R22G05G11G06G29R07R23E27R15R13E05
                                G09R24E30R14R01R08G19
 138605484.144 7                  26375696.697
        43.100
 113269524.456 7  88262053.46747  21554446.933    21554445.9454   21554449.4394
        47.100          45.7004
 139342391.558 6                  26515965.918
        41.700
 148353362.790 6                  28230706.066
        37.400
 198982106.749 7                  37865029.971
        46.200
 200941105.944 7                  38237829.828
        44.600
 131114671.310 6 102167287.70942  24950293.279    24950292.6044   24950294.9314
        37.600          16.2004
 136185110.209 7                  25915149.349
        43.700
 132131691.928 7                  25143804.339
        45.700
 202127313.994 7                  38463512.413
        45.000
 115300441.085 7  89844629.66647  21940896.702    21940896.0504   21940896.4444
        47.900          45.2004
 106644385.459 7  83099575.48746  20293725.750    20293724.4454   20293724.8744
        47.500          40.1004
 124349802.101 8                  23662942.334
        49.000
 124119693.438 7  96537674.128 6  23251760.775    23251760.472    23251766.717
        45.200          41.500
 108467495.358 8  84520175.93148  20640658.896    20640658.4184   20640658.4834
        49.400          49.2004
 112275686.440 8  87487650.28546  21365315.980    21365315.6504   21365315.9744
        48.800          38.8004
 125082936.023 6  97467367.23746  23802451.386    23802451.0734   23802455.0674
        41.100          36.9004
 120137279.480 7  93613501.01047  22861349.927    22861349.3334   22861350.0084
        46.200          42.0004
 119617261.997 8  93035713.747 7  22345492.031    22345492.822    22345498.979
        48.700          44.500
 109053942.599 8                  20386450.934    20386451.050
        49.900
 128730214.487 7                  24496490.376
        47.900
 125247085.775 7  97414445.851 6  23438284.370    23438284.098    23438292.063
        44.800          41.300
 122476726.924 6                  22935912.275    22935912.101
        41.000
 134858498.520 6                  25662708.578
        39.800
 130294687.041 6 101528366.01244  24794245.593    24794245.0084   24794248.8594
        37.200          29.5004
 112528817.622 8  87522487.154 7  21043440.863    21043441.521    21043447.413
        50.900          45.700
 141917247.758 6                  27005907.136
        41.400
 115108920.289 8  89529207.690 7  21594133.443    21594133.031    21594139.989
        49.800          44.500
 117605363.265 7  91470883.444 6  22000507.988    22000508.098    22000516.780
        43.500          37.700
 109031275.271 8  84802172.562 7  20360808.171    20360807.979    20360813.829
        49.600          47.300
 128065584.743 6  99791485.02543  24370024.573    24370023.1204   24370026.0584
        39.500          22.6004
 25  1  1  4  4 30.0000000  0 31E34G25E03E08S31S35G13E21E13S33G12G20
                                E15R22G05G11G06G29R07R23E27R15R13E05
                                G09R24E30R14R01R08G19
 138634961.403 7                  26381306.437
        43.400
 113279506.545 7  88269831.71747  21556346.531    21556345.5484   21556348.9404
        46.600          45.7004
 139310411.238 6                  26509880.621
        41.900
 148311475.437 6                  28222735.015
        37.300
 198982098.708 7                  37865027.382
        45.600
 200941128.498 7                  38237835.641
        44.400
 131065760.036 6 102129175.04942  24940985.048    24940984.3964   24940987.7584
        38.200          16.9004
 136166225.772 7                  25911555.545
        44.200
 132110612.480 7                  25139792.817
        45.900
 202127292.326 7                  38463515.776
        45.300
 115341512.753 7  89876633.55047  21948712.369    21948711.7124   21948712.1474
        47.400          45.3004
 106655795.668 7  83108466.56246  20295896.886    20295895.5764   20295896.1204
        47.700          40.2004
 124357591.814 8                  23664424.689
        49.300
 124158359.350 7  96567747.612 6  23259003.019    23259003.718    23259009.843
        45.100          41.900
 108439507.165 8  84498366.96048  20635332.796    20635332.3234   20635332.4774
        48.800          49.3004
 112298496.351 8  87505424.23946  21369656.495    21369656.1654   21369656.5734
        48.500          38.8004
 125122140.470 6  97497916.14546  23809912.311    23809912.0164   23809915.2324
        40.900          36.7004
 120092495.500 7  93578604.41647  22852827.855    22852827.2524   22852827.9584
        45.800          42.0004
 119657828.910 8  93067265.802 7  22353070.431    22353070.412    22353077.463
        48.500          44.500
 109068330.719 8                  20389140.771    20389140.807
        50.000
 128752631.904 8                  24500756.254
        48.000
 125213186.116 7  97388079.420 6  23431940.885    23431940.569    23431948.257
        44.900          40.500
 122536078.013 6                  22947026.552    22947026.167
        40.500
 134857260.389 6                  25662472.710
        40.000
 130318772.492 5 101547133.72744  24798829.337    24798828.7434   24798832.2554
        35.100          28.6004
 112499534.656 8  87499711.518 7  21037965.046    21037965.273    21037971.701
        50.600          46.200
 141963599.408 6                  27014727.801
        41.100
 115124713.351 8  89541491.195 7  21597095.774    21597095.637    21597102.211
        50.100          44.700
 117542683.265 7  91422132.361 6  21988782.785    21988782.552    21988790.701
        43.600          37.600
 109019228.799 8  84792803.096 7  20358558.199    20358558.422    20358564.030
        49.100          47.500
 128116099.821 6  99830847.42543  24379636.636    24379635.1924   24379638.6434
        38.500          22.4004
 25  1  1  4  4 45.0000000  0 31E34G25E03E08S31S35G13E21E13S33G12G20
                                E15R22G05G11G06G29R07R23E27R15R13E05
                                G09R24E30R14R01R08G19
 138664443.138 7                  26386916.357
        43.400
 113289640.740 7  88277728.49747  21558275.043    21558274.0604   21558277.3544
        46.700          45.5004
 139278489.987 7                  26503805.806
        42.100
 148269564.753 6                  28214759.476
        37.200
 198982095.152 7                  37865027.123
        45.800
 200941155.769 7                  38237836.236
        44.600
 131016821.922 6 102091041.47742  24931673.166    24931672.5234   24931675.3944
        38.100          16.1004
 136147441.922 7                  25907981.094
        44.000
 132089566.478 7                  25135787.953
        45.400
 202127275.789 7                  38463514.193
        45.500
 115382686.802 7  89908717.21447  21956547.690    21956547.0294   21956547.3374
        47.300          45.1004
 106667327.056 7  83117452.06546  20298091.159    20298089.8454   20298090.4394
        47.500          40.0004
 124365414.428 8                  23665913.152
        49.100
 124197051.238 7  96597841.275 6  23266252.706    23266252.603    23266258.061
        44.700          41.800
 108411650.252 8  84476660.29348  20630032.135    20630031.6664   20630031.4674
        48.900          49.2004
 112321357.061 8  87523237.78146  21374006.626    21374006.2964   21374006.8234
        48.600          38.7004
 125161354.537 6  97528472.55846  23817373.860    23817373.5654   23817377.2384
        40.800          36.3004
 120047746.911 7  93543735.39146  22844312.372    22844311.7644   22844312.5044
        46.000          41.9004
 119698550.716 8  93098938.307 7  22360677.881    22360678.296    22360684.453
        48.600          44.900
 109082777.363 8                  20391841.430    20391841.483
        50.200
 128775146.938 7                  24505040.671
        47.800
