     2.11           OBSERVATION DATA    M (MIXED)           RINEX VERSION / TYPE
teqc  2019Feb25                         20260317 16:20:09UTCPGM / RUN BY / DATE
Linux 2.4.21-27.ELsmp|Opteron|gcc -static|Linux 64|=+       COMMENT
BIT 2 OF LLI FLAGS DATA COLLECTED UNDER A/S CONDITION       COMMENT
-Unknown-                                                   MARKER NAME
-Unknown-           -Unknown-                               OBSERVER / AGENCY
-Unknown-           -Unknown-           -Unknown-           REC # / TYPE / VERS
-Unknown-           -Unknown-                               ANT # / TYPE
        0.0000        0.0000        0.0000                  APPROX POSITION XYZ
        0.0000        0.0000        0.0000                  ANTENNA: DELTA H/E/N
     1     1                                                WAVELENGTH FACT L1/2
     7    L1    L2    C1    P1    P2    S1    S2            # / TYPES OF OBSERV
 SNR is mapped to RINEX snr flag value [0-9]                COMMENT
  L1 & L2: min(max(int(snr_dBHz/6), 0), 9)                  COMMENT
  2025     1     1     7     0    0.0000000     GPS         TIME OF FIRST OBS
    18                                                      LEAP SECONDS
                                                            END OF HEADER
 25  1  1  7  0  0.0000000  0 29G10G24E03E08S31S35G13E21E13S48S33R02
                                G16G20E15G23G05G26G18E07G29G15E26G30
                                R24R18R17R03R01
 134607125.130 6 104888681.02244  25614883.709    25614883.1194   25614887.1674
        38.300          29.5004
 132847894.027 6 103517865.06944  25280114.969    25280114.5274   25280120.0814
        37.200          28.9004
 138895954.288 7                  26431006.141
        42.600
 125777867.526 7                  23934722.094
        46.500
 198975614.469 7                  37863795.007
        45.700
 200951088.281 7                  38239730.921
        44.100
 110912373.254 7  86425251.42545  21105912.374    21105911.7574   21105911.8574
        47.700          35.9004
 146395404.710 6                  27858105.932
        36.800
 123247592.670 8                  23453214.723
        48.400
 412810504.839 5                  78555453.725
        33.400
 202111295.614 7                  38460471.111
        44.700
 102497116.437 8  79720023.741 8  19207910.425    19207910.428    19207915.648
        53.000          48.400
 131066491.333 6 102129748.69842  24941119.461    24941118.3884   24941119.5114
        37.800          16.8004
 130881785.137 6 101985857.25943  24905952.133    24905950.7964   24905952.5684
        38.700          19.6004
 135782178.992 7                  25838454.643
        43.100
 115706100.451 7  90160604.57645  22018135.595    22018135.2024   22018136.2144
        46.800          35.2004
 117146880.867 7  91283334.22347  22292290.505    22292290.0584   22292289.9764
        46.100          44.4004
 133968036.226 6 104390705.71644  25493266.748    25493266.0914   25493269.5294
        36.800          28.2004
 111350143.959 8  86766351.35446  21189221.342    21189220.9854   21189220.9794
        48.300          38.6004
 133193105.033 7                  25345803.239
        44.300
 110946180.710 8  86451607.01948  21112341.129    21112340.4814   21112340.6474
        48.300          48.4004
 105086870.532 8  81885893.35848  19997357.316    19997356.8784   19997356.8894
        49.000          50.6004
 134566142.435 7                  25607084.178
        43.600
 135586050.819 6 105651480.27745  25801166.845    25801165.9604   25801170.2794
        38.200          30.1004
 108617555.946 8  84480394.500 7  20312015.426    20312015.861    20312021.950
        51.700          47.000
 120785110.567 7  93944016.497 7  22627114.471    22627114.969    22627120.521
        46.100          42.300
 104304719.247 8  81125938.158 8  19491824.550    19491824.574    19491830.103
        52.700          48.000
 117826175.431 7  91642611.073 7  22010917.918    22010917.982    22010924.818
        46.600          44.200
 110602886.634 8  86024521.422 6  20690542.888    20690543.127    20690550.762
        48.300          41.200
 25  1  1  7  0 15.0000000  0 29G10G24E03E08S31S35G13E21E13S48S33R02
                                G16G20E15G23G05G26G18E07G29G15E26G30
                                R24R18R17R03R01
 134566513.862 6 104857035.86744  25607156.234    25607155.6494   25607159.0544
        36.600          28.2004
 132799913.621 6 103480477.81844  25270984.283    25270983.8454   25270989.8864
        37.200          28.8004
 138928188.829 7                  26437139.990
        42.700
 125772791.082 7                  23933756.028
        46.600
 198975610.414 7                  37863798.178
        45.700
 200951094.155 7                  38239726.793
        44.200
 110929233.548 7  86438389.30345  21109121.053    21109120.4364   21109120.2644
        47.400          35.8004
 146432486.010 6                  27865162.349
        37.800
 123244970.427 8                  23452715.798
        48.400
 412810257.220 5                  78555429.632
        33.100
 202111268.771 7                  38460466.353
        44.800
 102488931.210 8  79713657.464 8  19206375.922    19206376.393    19206381.739
        52.800          48.400
 131072714.841 6 102134598.17642  24942304.073    24942302.9654   24942304.1874
        37.000          16.8004
 130924106.676 6 102018835.01643  24914005.656    24914004.3154   24914006.3724
        37.100          19.0004
 135808476.109 7                  25843458.630
        43.200
 115675800.711 7  90136994.40645  22012369.543    22012369.1374   22012370.3694
        46.200          35.2004
 117185703.509 7  91313585.58447  22299677.857    22299677.4154   22299677.7504
        46.200          44.2004
 133994390.508 5 104411241.52044  25498280.770    25498280.1044   25498285.0394
        35.800          27.8004
 111322800.038 8  86745044.41046  21184018.088    21184017.7224   21184017.6424
        48.300          38.6004
 133152265.964 7                  25338031.751
        44.000
 110978707.307 8  86476952.39548  21118530.709    21118530.0614   21118530.2814
        48.200          48.2004
 105075069.867 8  81876698.03548  19995111.603    19995111.1704   19995111.2854
        49.200          50.5004
 134536258.786 7                  25601397.346
        43.600
 135592817.128 6 105656752.68344  25802454.689    25802453.8094   25802457.5974
        38.700          29.6004
 108650166.335 8  84505758.108 7  20318113.605    20318113.929    20318120.223
        51.000          46.900
 120728881.568 7  93900282.879 7  22616581.080    22616581.592    22616586.979
        46.400          42.500
 104279075.928 8  81105993.359 8  19487032.420    19487032.515    19487038.151
        52.800          48.200
 117770464.029 7  91599279.996 7  22000510.354    22000510.790    22000517.246
        46.900          44.300
 110649722.173 8  86060949.055 6  20699305.058    20699304.560    20699311.878
        48.200          41.300
 25  1  1  7  0 30.0000000  0 29G10G24E03E08S31S35G13E21E13S48S33R02
                                G16G20E15G23G05G26G18E07G29G15E26G30
                                R24R18R17R03R01
 134525923.176 6 104825406.76144  25599431.915    25599431.3164   25599435.1444
        37.800          29.7004
 132751899.406 6 103443064.21844  25261848.034    25261847.5964   25261853.4534
        36.400          29.1004
 138960488.998 7                  26443286.729
        42.700
 125767819.894 7                  23932809.829
        46.800
 198975604.078 7                  37863795.030
        46.000
 200951098.531 7                  38239730.116
        44.200
 110946247.756 7  86451647.11945  21112358.562    21112357.9544   21112357.9434
        47.600          35.8004
 146469577.506 6                  27872219.893
        37.100
 123242389.947 8                  23452224.648
        48.400
 412810008.484 5                  78555390.505
        32.900
 202111239.203 7                  38460461.434
        44.800
 102480921.128 8  79707427.413 8  19204875.210    19204875.390    19204880.660
        52.700          48.300
 131079065.866 6 102139547.05842  24943512.900    24943511.8144   24943512.8664
        36.900          16.5004
 130966421.500 6 102051807.54143  24922058.494    24922057.1494   24922058.4814
        37.200          18.7004
 135834808.623 7                  25848469.572
        43.200
 115645555.879 7  90113427.01945  22006614.616    22006614.2104   22006614.9044
        46.300          35.2004
 117224552.979 7  91343857.88947  22307070.833    22307070.3864   22307070.6304
        46.400          44.3004
 134020809.334 5 104431827.62844  25503308.794    25503308.1334   25503311.9254
        35.700          27.1004
 111295512.582 8  86723781.45646  21178825.285    21178824.9234   21178825.0114
        48.400          38.6004
 133111476.924 7                  25330269.849
        44.200
 111011357.483 8  86502394.08148  21124743.605    21124742.9534   21124743.4574
        48.500          48.2004
 105063424.910 8  81867624.04948  19992895.669    19992895.2364   19992895.3234
        49.200          50.5004
 134506380.664 7                  25595711.883
        43.700
 135599696.373 6 105662113.19945  25803763.920    25803763.0444   25803766.7584
        38.500          30.6004
 108682905.479 8  84531221.867 7  20324236.392    20324236.439    20324243.100
        51.400          47.100
 120672662.253 7  93856556.715 7  22606049.296    22606049.633    22606055.498
        46.000          43.000
 104253553.569 8  81086142.636 8  19482262.501    19482263.042    19482268.651
        52.900          48.100
 117714837.954 7  91556015.305 7  21990119.189    21990119.768    21990126.273
        47.200          44.400
 110696650.573 8  86097448.912 6  20708083.765    20708084.211    20708090.536
        48.500          40.900
 25  1  1  7  0 45.0000000  0 29G10G24E03E08S31S35G13E21E13S48S33R02
                                G16G20E15G23G05G26G18E07G29G15E26G30
                                R24R18R17R03R01
 134485356.926 6 104793796.69744  25591712.165    25591711.5624   25591715.5504
        37.400          29.6004
 132703855.175 6 103405627.04344  25252705.245    25252704.7804   25252711.1054
        36.500          29.0004
 138992858.339 7                  26449446.374
        42.700
 125762957.728 7                  23931884.690
        46.700
 198975600.146 7                  37863792.669
        46.100
 200951105.481 7                  38239732.446
        44.300
 110963419.565 7  86465027.74645  21115626.128    21115625.5204   21115625.6534
        47.600          35.7004
 146506682.652 6                  27879281.321
        37.200
 123239855.173 8                  23451742.313
        48.300
 412809762.292 5                  78555369.184
        33.300
 202111213.467 7                  38460459.480
        45.100
 102473089.834 8  79701336.409 8  19203407.657    19203407.772    19203413.024
        52.600          48.300
 131085548.083 6 102144598.14442  24944745.523    24944744.4554   24944746.1314
        37.800          16.0004
 131008733.402 6 102084777.79143  24930109.816    24930108.4794   24930110.1834
        36.600          18.8004
 135861180.339 7                  25853487.870
        43.200
 115615369.716 7  90089905.34945  22000870.152    22000869.7414   22000870.6084
        46.200          35.3004
 117263433.009 7  91374153.99847  22314469.782    22314469.3354   22314469.2604
        46.100          44.2004
 134047296.145 6 104452466.71744  25508349.015    25508348.3764   25508351.4624
        36.500          26.8004
 111268285.597 8  86702565.62246  21173644.085    21173643.7194   21173643.8944
        48.200          38.6004
 133070741.907 7                  25322518.298
        44.200
 111044134.675 7  86527934.74548  21130980.902    21130980.2454   21130980.7584
        47.900          48.2004
 105051939.294 8  81858674.22248  19990710.176    19990709.7474   19990709.6754
        49.100          50.5004
 134476511.918 7                  25590027.886
        43.500
 135606692.328 6 105667564.61645  25805094.947    25805094.0584   25805098.4344
        38.800          30.3004
 108715777.254 8  84556788.760 7  20330383.150    20330383.686    20330389.904
        51.400          47.000
 120616457.010 7  93812841.500 7  22595520.292    22595520.523    22595526.356
        46.300          42.500
 104228156.362 8  81066389.235 8  19477516.735    19477516.961    19477522.646
        53.100          48.200
 117659301.093 7  91512819.986 7  21979744.547    21979744.311    21979751.147
        46.200          44.200
 110743675.050 8  86134023.498 6  20716880.898    20716880.903    20716887.805
        48.700          41.000
 25  1  1  7  1  0.0000000  0 29G10G24E03E08S31S35G13E21E13S48S33R02
                                G16G20E15G23G05G26G18E07G29G15E26G30
                                R24R18R17R03R01
 134444808.392 6 104762200.44745  25583996.242    25583995.6524   25583999.2604
        39.000          30.0004
 132655774.838 6 103368161.67244  25243555.862    25243555.3894   25243561.3604
        36.300          28.2004
 139025289.908 7                  26455617.744
        42.700
 125758197.857 7                  23930978.969
        46.700
 198975591.983 7                  37863793.362
        45.600
 200951107.192 7                  38239732.392
        44.300
 110980742.052 7  86478525.77645  21118922.591    21118921.9834   21118921.9674
        47.700          35.7004
 146543794.555 6                  27886343.246
        36.600
 123237359.432 8                  23451267.558
        48.300
 412809510.498 5                  78555334.601
        33.100
 202111182.738 7                  38460456.126
        45.000
 102465430.517 8  79695379.180 8  19201972.146    19201972.525    19201977.718
        52.700          48.400
 131092154.608 6 102149746.11442  24946002.919    24946001.8374   24946003.2204
        37.300          16.3004
 131051035.616 6 102117740.51543  24938159.502    24938158.2064   24938159.6894
        36.800          18.9004
 135887584.517 7                  25858512.491
        43.300
 115585235.518 7  90066424.16845  21995136.015    21995135.6134   21995136.1414
        46.600          35.4004
 117302336.395 7  91404468.29847  22321872.829    22321872.3824   22321872.3534
        46.300          44.3004
 134073843.905 6 104473153.27444  25513400.764    25513400.1254   25513403.4614
        36.300          27.2004
 111241112.544 8  86681391.80146  21168473.302    21168472.9364   21168472.9944
        48.300          38.7004
 133030054.386 7                  25314775.398
        44.600
 111077031.912 8  86553568.91248  21137241.243    21137240.5954   21137240.9134
        48.200          48.2004
 105040606.309 8  81849843.33048  19988553.470    19988553.0414   19988553.0744
        49.500          50.5004
 134446645.836 7                  25584344.724
        43.900
 135613798.219 6 105673101.73444  25806446.973    25806446.0934   25806450.4294
        38.000          29.8004
 108748774.645 8  84582453.375 7  20336554.350    20336554.596    20336560.587
        51.700          46.900
 120560259.428 7  93769132.286 7  22584992.145    22584992.651    22584997.957
        45.500          42.600
 104202877.718 8  81046728.067 8  19472792.905    19472793.107    19472798.622
        53.200          48.100
 117603847.311 7  91469689.271 7  21969385.170    21969386.092    21969391.869
        47.500          44.200
 110790788.450 8  86170667.245 6  20725694.260    20725694.185    20725700.751
        48.500          41.100
 25  1  1  7  1 15.0000000  0 29G10G24E03E08S31S35G13E21E13S48S33R02
                                G16G20E15G23G05G26G18E07G29G15E26G30
                                R24R18R17R03R01
 134404283.793 6 104730622.84145  25576284.842    25576284.2484   25576287.4774
        39.300          30.1004
 132607665.278 6 103330673.62244  25234401.043    25234400.5874   25234405.8564
        36.900          28.5004
 139057789.802 7                  26461802.361
        42.600
 125753546.525 7                  23930093.860
        47.100
 198975585.621 7                  37863791.546
        45.800
 200951111.618 7                  38239733.277
        44.200
 110998221.206 8  86492145.88845  21122248.765    21122248.1624   21122248.1934
        48.100          35.7004
 146580919.051 6                  27893407.936
        37.200
 123234909.063 8                  23450801.003
        48.600
 412810860.905 5                  78555303.062
        31.700
 202111153.044 7                  38460448.001
        44.900
 102457949.262 8  79689560.417 8  19200570.120    19200570.403    19200575.784
        52.600          48.500
 131098891.490 6 102154995.59742  24947285.339    24947284.2484   24947284.8554
        37.200          15.7004
 131093334.242 6 102150700.41843  24946209.597    24946208.3104   24946208.9054
        37.200          18.6004
 135914027.474 7                  25863544.613
        43.600
 115555159.500 7  90042988.33045  21989412.664    21989412.2584   21989412.8584
        46.800          35.4004
 117341269.511 7  91434805.77147  22329281.685    22329281.2474   22329281.1214
        46.700          44.3004
 134100458.449 6 104493891.89344  25518464.984    25518464.3364   25518468.9784
        36.900          27.4004
 111213999.880 8  86660265.03746  21163314.059    21163313.6974   21163313.6904
        48.400          38.7004
 132989420.627 7                  25307043.386
        44.600
 111110055.127 8  86579301.26548  21143525.293    21143524.6414   21143525.0724
        48.400          48.2004
 105029432.216 8  81841136.24848  19986427.041    19986426.6174   19986426.7054
        49.300          50.6004
 134416788.781 7                  25578663.024
        44.100
 135621020.142 6 105678729.21844  25807821.141    25807820.2564   25807824.5684
        38.500          29.9004
 108781904.079 8  84608220.667 7  20342749.091    20342749.596    20342756.181
        50.900          46.900
 120504076.011 7  93725434.067 7  22574466.574    22574467.543    22574473.162
        46.000          42.900
 104177724.421 8  81027164.388 8  19468092.351    19468092.614    19468098.182
        53.000          48.100
 117548482.802 7  91426628.020 7  21959042.274    21959042.800    21959049.301
        46.800          44.400
 110837996.401 8  86207384.510 6  20734525.445    20734525.564    20734532.313
        48.300          41.000
 25  1  1  7  1 30.0000000  0 29G10G24E03E08S31S35G13E21E13S48S33R02
                                G16G20E15G23G05G26G18E07G29G15E26G30
                                R24R18R17R03R01
 134363780.283 6 104699061.65945  25568577.113    25568576.5194   25568580.2294
        38.400          30.0004
 132559523.648 6 103293160.63444  25225239.810    25225239.3634   25225244.9054
        37.100          28.0004
 139090354.947 7                  26467999.412
        43.200
 125749000.712 7                  23929228.711
        47.200
 198975577.322 7                  37863783.931
        45.300
 200951113.803 7                  38239733.832
        44.200
 111015853.679 8  86505885.47445  21125604.149    21125603.5324   21125603.6004
        48.100          35.5004
 146618052.981 6                  27900474.171
        36.800
 123232501.140 8                  23450343.002
        48.700
 412810610.287 5                  78555283.454
        32.500
 202111122.424 7                  38460438.767
        44.800
 102450642.994 8  79683877.776 8  19199200.715    19199201.187    19199206.564
        52.800          48.500
 131105755.480 6 102160344.13742  24948591.214    24948590.1104   24948590.9714
        36.500          15.3004
 131135626.271 6 102183655.17943  24954256.631    24954255.3624   24954257.0704
        37.600          18.2004
 135940506.223 7                  25868583.372
        43.500
 115525138.654 7  90019595.47645  21983699.767    21983699.3564   21983700.0704
        46.800          35.1004
 117380229.370 7  91465164.09747  22336695.266    22336694.8194   22336694.9154
        46.300          44.0004
 134127136.516 6 104514680.01344  25523541.962    25523541.3144   25523545.4854
        36.600          26.9004
 111186944.835 8  86639183.18646  21158165.612    21158165.2504   21158165.2964
        48.600          38.4004
 132948837.992 7                  25299320.538
        45.000
 111143201.024 8  86605129.21447  21149832.823    21149832.1804   21149832.5824
        48.100          47.8004
 105018414.181 8  81832550.77548  19984330.381    19984329.9614   19984330.0474
        49.500          50.3004
 134386937.805 7                  25572982.820
        44.300
 135628355.136 6 105684444.76245  25809216.990    25809216.1054   25809220.7564
        38.300          30.2004
 108815162.348 8  84634088.168 7  20348969.046    20348969.225    20348975.488
        51.600          46.600
 120447904.014 7  93681744.718 7  22563943.681    22563944.138    22563950.490
        45.900          42.900
 104152693.962 8  81007696.244 8  19463414.927    19463415.162    19463420.628
        53.500          48.000
 117493205.193 7  91383634.349 7  21948715.347    21948716.089    21948722.500
        46.900          44.300
 110885295.717 8  86244172.854 6  20743374.084    20743373.818    20743380.389
        48.100          40.800
 25  1  1  7  1 45.0000000  0 29G10G24E03E08S31S35G13E21E13S48S33R02
                                G16G20E15G23G05G26G18E07G29G15E26G30
                                R24R18R17R03R01
 134323298.654 6 104667517.53945  25560873.839    25560873.2454   25560876.8304
        39.000          30.1004
 132511351.222 5 103255623.67444  25216073.696    25216073.2584   25216078.2404
        35.200          28.8004
 139122985.787 7                  26474208.647
        42.800
 125744561.327 7                  23928384.048
        46.800
 198975569.432 7                  37863785.599
        45.300
 200951115.619 7                  38239733.841
        44.200
 111033640.261 7  86519745.14145  21128988.752    21128988.1354   21128988.2654
        47.400          35.7004
 146655196.942 6                  27907542.131
        37.400
 123230136.651 8                  23449893.069
        48.400
 412810359.892 5                  78555248.052
        32.100
 202111091.637 7                  38460435.713
        44.900
 102443512.392 8  79678331.748 8  19197864.670    19197864.888    19197870.233
        52.900          48.400
 131112747.318 6 102165792.27442  24949922.577    24949921.5004   24949921.3324
        36.900          15.7004
 131177912.541 6 102216605.48043  24962303.936    24962302.6804   24962304.1484
        37.100          19.4004
 135967021.651 7                  25873628.875
        43.500
 115495173.911 7  89996246.33545  21977997.700    21977997.2894   21977997.9064
        46.000          35.3004
 117419216.570 7  91495543.71747  22344114.253    22344113.8024   22344113.9094
        46.100          44.2004
 134153878.678 6 104535518.06244  25528631.002    25528630.3504   25528634.1744
        36.000          27.4004
 111159948.464 7  86618147.04646  21153028.277    21153027.9114   21153028.1174
        47.900          38.6004
 132908307.584 7                  25291607.987
        45.200
 111176470.375 7  86631053.38148  21156163.718    21156163.0704   21156163.5864
        47.700          48.0004
 105007553.096 8  81824087.59848  19982263.598    19982263.1784   19982263.2404
        48.900          50.5004
 134357093.903 7                  25567303.546
        43.900
 135635804.030 6 105690249.00444  25810635.269    25810634.3804   25810638.2074
        37.600          29.5004
 108848550.144 8  84660056.410 7  20355212.654    20355213.059    20355219.295
        51.400          46.600
 120391745.031 7  93638065.611 7  22553423.805    22553424.243    22553429.742
        46.100          42.600
 104127787.490 8  80988324.516 8  19458760.517    19458760.642    19458766.273
        53.000          48.200
 117438015.459 7  91340709.007 7  21938405.752    21938406.620    21938413.438
        47.300          44.400
 110932686.634 8  86281032.410 6  20752239.333    20752239.302    20752246.302
        48.300          40.600
 25  1  1  7  2  0.0000000  0 29G10G24E03E08S31S35G13E21E13S48S33R02
                                G16G20E15G23G05G26G18E07G29G15E26G30
                                R24R18R17R03R01
 134282842.200 6 104635993.02045  25553174.959    25553174.3784   25553178.2574
        38.300          30.4004
 132463151.636 5 103218065.66444  25206901.215    25206900.7774   25206905.9364
        35.500          28.9004
 139155685.302 7                  26480431.376
        42.700
 125740231.535 7                  23927560.204
        46.800
 198975563.973 7                  37863786.596
        45.800
 200951121.003 7                  38239735.647
        44.400
 111051584.395 7  86533727.57045  21132403.478    21132402.8574   21132402.8854
        47.700          35.6004
 146692353.888 6                  27914613.160
        37.200
 123227818.940 8                  23449452.043
        48.400
 412810112.133 5                  78555215.758
        32.000
 202111063.212 7                  38460432.512
        45.100
 102436560.901 8  79672925.058 8  19196561.705    19196562.125    19196567.480
        52.700          48.600
 131119870.177 6 102171342.51342  24951277.892    24951276.8244   24951276.9994
        37.500          16.6004
 131220196.219 6 102249553.75243  24970350.366    24970349.0974   24970350.4794
        37.400          19.1004
 135993577.001 7                  25878682.480
        43.100
 115465268.417 7  89972943.36945  21972306.985    21972306.5794   21972307.1184
        46.100          35.4004
 117458233.975 7  91525946.89347  22351538.863    22351538.3944   22351538.7304
        46.500          44.2004
 134180687.760 5 104556408.24844  25533732.046    25533731.3854   25533735.9244
        35.900          27.4004
 111133014.201 8  86597159.31146  21147902.923    21147902.5614   21147902.6724
        48.100          38.7004
 132867832.659 7                  25283905.814
        44.900
 111209865.988 8  86657075.93348  21162518.691    21162518.0484   21162518.5894
        48.200          48.1004
 104996852.066 8  81815749.13748  19980227.140    19980226.7204   19980226.9084
        49.200          50.5004
 134327260.352 7                  25561626.397
        44.000
 135643370.558 6 105696145.05545  25812074.484    25812073.5954   25812077.9134
        39.100          30.6004
 108882070.752 8  84686127.979 7  20361481.275    20361481.473    20361487.638
        51.100          46.800
 120335602.081 7  93594398.888 7  22542905.997    22542906.361    22542912.458
        45.800          42.900
 104103008.623 8  80969052.074 8  19454129.701    19454130.178    19454135.702
        53.100          48.100
 117382917.284 7  91297854.880 7  21928113.327    21928113.607    21928120.501
        47.500          44.400
 110980172.016 8  86317965.522 6  20761122.355    20761122.323    20761129.028
        48.000          40.700
 25  1  1  7  2 15.0000000  0 29G10G24E03E08S31S35G13E21E13S48S33R02
                                G16G20E15G23G05G26G18E07G29G15E26G30
                                R24R18R17R03R01
 134242404.417 6 104604483.06545  25545480.058    25545479.4684   25545483.2704
        38.800          30.6004
 132414918.494 5 103180481.49144  25197723.273    25197722.8534   25197727.2064
        34.700          27.5004
 139188446.749 7                  26486665.555
        42.600
 125736004.835 7                  23926755.892
        47.000
 198975555.035 7                  37863785.067
        45.400
 200951122.360 7                  38239733.300
        44.300
 111069679.103 7  86547827.33445  21135846.815    21135846.1814   21135846.2274
        47.500          35.6004
 146729517.052 6                  27921684.429
        37.100
 123225541.558 8                  23449018.639
        48.600
 412809861.700 5                  78555196.732
        32.700
 202111031.286 7                  38460420.264
        45.000
 102429781.753 8  79667652.401 8  19195291.438    19195291.746    19195296.962
        52.600          48.500
 131127117.405 6 102176989.66742  24952656.826    24952655.7584   24952655.9314
        37.400          16.8004
 131262470.774 6 102282494.88943  24978394.822    24978393.5394   24978395.1074
        36.600          19.7004
 136020165.779 7                  25883742.150
        43.400
 115435415.720 7  89949681.53945  21966626.323    21966625.9264   21966626.4714
        46.200          35.3004
 117497275.082 7  91556368.53647  22358968.267    22358967.7984   22358968.0444
        46.000          44.2004
 134207556.965 6 104577345.31144  25538845.566    25538844.9094   25538849.0774
        36.700          27.7004
 111106135.738 7  86576215.06646  21142788.255    21142787.8934   21142787.9014
        47.800          38.8004
 132827406.940 7                  25276213.379
        44.300
 111243381.175 7  86683191.67247  21168896.400    21168895.7524   21168896.3214
        47.800          47.9004
 104986304.887 8  81807530.56048  19978220.006    19978219.5864   19978219.8344
        49.000          50.5004
 134297430.724 7                  25555950.043
        44.200
 135651047.623 6 105702127.23644  25813535.581    25813534.6874   25813538.5014
        38.700          29.4004
 108915717.145 8  84712297.378 7  20367773.265    20367773.346    20367780.029
        51.100          46.600
 120279469.231 7  93550740.006 7  22532390.543    22532391.229    22532397.129
        46.000          43.200
 104078351.290 8  80949874.169 8  19449521.818    19449522.377    19449527.914
        52.900          48.100
 117327904.546 8  91255067.221 7  21917836.705    21917836.700    21917843.496
        48.000          44.400
 111027744.696 7  86354966.473 6  20770022.310    20770021.939    20770028.840
        47.900          40.700
 25  1  1  7  2 30.0000000  0 29G10G24E03E08S31S35G13E21E13S48S33R02
                                G16G20E15G23G05G26G18E07G29G15E26G30
                                R24R18R17R03R01
 134201994.383 6 104572994.74745  25537789.480    25537788.8864   25537793.7334
        39.100          30.7004
 132366661.013 6 103142878.28844  25188539.562    25188539.1564   25188543.9514
        37.400          28.7004
 139221279.143 7                  26492913.450
        42.800
 125731890.236 7                  23925972.941
        46.900
 198975551.149 7                  37863781.405
        45.600
 200951129.227 7                  38239738.151
        44.400
 111087933.339 7  86562051.40845  21139320.689    21139320.0554   21139319.8914
        47.000          35.8004
 146766695.145 6                  27928759.541
        37.000
 123223313.665 8                  23448594.631
        48.400
 412809616.087 5                  78555167.170
        33.300
 202111004.863 7                  38460418.676
        45.100
 102423183.796 8  79662520.659 8  19194055.272    19194055.280    19194060.603
        52.700          48.400
 131134497.814 6 102182740.56142  24954061.341    24954060.2734   24954060.3914
        37.400          15.8004
 131304745.227 6 102315435.95643  24986439.223    24986437.9544   24986439.7714
        36.900          19.2004
 136046797.058 7                  25888809.844
        43.400
 115405624.773 7  89926467.82445  21960956.681    21960956.2704   21960957.3664
        46.500          35.5004
 117536348.562 7  91586815.39547  22366403.661    22366403.1884   22366403.4184
        46.400          44.2004
 134234494.950 6 104598335.95944  25543971.414    25543970.7484   25543974.9344
        37.500          27.2004
 111079322.286 8  86555321.46646  21137685.737    21137685.3844   21137685.4484
        48.000          38.8004
 132787039.756 7                  25268531.753
        45.200
 111277024.578 8  86709407.31848  21175298.502    21175297.8544   21175298.4464
        48.200          48.0004
 104975920.530 8  81799438.85748  19976243.948    19976243.5244   19976243.7574
        49.500          50.6004
 134267614.085 7                  25550275.982
        44.000
 135658844.397 6 105708202.65744  25815018.267    25815017.3644   25815022.4094
        37.000          29.0004
 108949498.751 8  84738571.908 7  20374091.026    20374091.216    20374097.243
        51.600          46.600
 120223355.997 7  93507096.412 7  22521878.726    22521879.209    22521885.279
        46.500          42.800
 104053824.844 8  80930798.030 8  19444938.821    19444938.964    19444944.653
        53.000          48.200
 117272986.278 7  91212353.032 7  21907577.046    21907577.434    21907584.458
        47.700          44.300
 111075413.271 8  86392042.018 6  20778939.322    20778939.110    20778946.244
        48.000          40.700
 25  1  1  7  2 45.0000000  0 29G10G24E03E08S31S35G13E21E13S48S33R02
                                G16G20E15G23G05G26G18E07G29G15E26G30
                                R24R18R17R03R01
 134161602.762 6 104541520.75545  25530104.140    25530103.5504   25530106.9924
        40.000          31.0004
 132318370.385 5 103105249.27344  25179349.410    25179348.9954   25179354.7404
        35.600          28.4004
 139254172.950 7                  26499172.885
        42.800
 125727878.400 7                  23925209.242
        46.900
 198975543.785 7                  37863780.725
        45.500
 200951132.496 7                  38239737.955
        44.100
 111106337.462 7  86576392.27345  21142823.105    21142822.4884   21142822.0574
        47.500          35.7004
 146803878.661 6                  27935835.158
        36.900
 123221126.004 8                  23448178.363
        48.400
 412809365.710 5                  78555132.631
        32.700
 202110974.272 7                  38460411.285
        44.900
 102416757.785 8  79657522.670 8  19192850.559    19192851.001    19192856.324
        52.400          48.400
 131142001.900 6 102188587.81742  24955488.922    24955487.8544   24955488.2704
        37.500          15.3004
 131347010.190 6 102348369.63243  24994482.193    24994480.9504   24994482.5974
        37.100          18.7004
 136073461.520 7                  25893883.849
        43.200
 115375886.276 7  89903294.98745  21955297.923    21955297.5124   21955298.3404
        46.600          35.4004
 117575444.688 7  91617279.89447  22373843.469    22373842.9964   22373843.1164
        46.300          44.2004
 134261492.115 6 104619372.71144  25549108.909    25549108.2664   25549112.1404
        36.400          26.8004
 111052564.695 7  86534471.39046  21132593.993    21132593.6544   21132593.6304
        47.900          38.7004
 132746721.922 7                  25260859.122
        45.300
 111310786.480 7  86735715.26647  21181723.210    21181722.5624   21181723.0724
        47.900          47.9004
 104965689.674 8  81791466.77348  19974297.059    19974296.6264   19974296.8804
        49.400          50.6004
 134237801.230 7                  25544603.167
        44.400
 135666751.426 6 105714363.92544  25816524.233    25816523.3394   25816527.0974
        38.700          29.3004
 108983405.837 8  84764944.065 7  20380430.974    20380431.888    20380437.923
        51.300          46.600
 120167253.053 7  93463460.811 7  22511368.641    22511368.611    22511375.070
        46.800          43.400
 104029420.245 8  80911816.675 8  19440378.291    19440378.450    19440383.911
        53.100          48.200
 117218153.483 7  91169705.330 7  21897333.177    21897334.351    21897341.009
        47.700          44.500
 111123167.931 8  86429184.536 6  20787872.928    20787872.732    20787879.531
        48.000          40.800
 25  1  1  7  3  0.0000000  0 29G10G24E03E08S31S35G13E21E13S48S33R02
                                G16G20E15G23G05G26G18E07G29G15E26G30
                                R24R18R17R03R01
 134121236.009 6 104510066.14645  25522422.489    25522421.9044   25522425.2274
        38.900          30.6004
 132270053.337 6 103067599.63644  25170156.108    25170155.7024   25170160.3604
        36.400          28.7004
 139287134.297 7                  26505445.541
        42.500
 125723975.744 7                  23924466.683
        46.900
 198975538.385 7                  37863780.519
        45.200
 200951137.662 7                  38239742.100
        44.200
 111124897.573 7  86590854.69145  21146354.551    21146353.9344   21146353.9954
        47.600          35.6004
 146841073.663 6                  27942913.338
        36.900
 123218985.077 8                  23447771.108
        48.500
 412809118.328 5                  78555106.959
        33.000
 202110945.965 7                  38460407.605
        44.800
 102410510.110 8  79652663.369 8  19191679.995    19191680.097    19191685.537
        52.800          48.300
 131149635.890 6 102194536.31942  24956942.082    24956941.0544   24956941.2794
        37.500          16.7004
 131389272.007 6 102381300.86843  25002524.234    25002522.9744   25002524.7654
        37.800          19.3004
 136100165.570 7                  25898965.823
        43.200
 115346206.656 7  89880168.01845  21949650.207    21949649.7924   21949650.4084
        46.500          35.5004
 117614570.523 7  91647767.53647  22381288.963    22381288.4854   22381288.5784
        46.100          44.2004
 134288554.507 6 104640460.29244  25554258.828    25554258.1854   25554262.2284
        36.900          27.2004
 111025869.632 8  86513670.05146  21127514.046    21127513.7074   21127513.7104
        48.400          38.9004
 132706460.017 7                  25253197.544
        44.600
 111344673.416 8  86762120.65348  21188171.933    21188171.2854   21188171.5684
        48.200          48.0004
 104955618.872 8  81783619.40048  19972380.673    19972380.2404   19972380.4584
        49.500          50.6004
 134207998.628 7                  25538932.155
        44.300
 135674775.269 6 105720616.20144  25818050.435    25818049.5414   25818053.8704
        38.400          28.8004
 109017444.960 8  84791418.892 7  20386796.748    20386796.988    20386803.711
        50.600          46.800
 120111167.160 7  93419838.333 7  22500862.969    22500862.516    22500868.233
        47.100          43.100
 104005144.243 8  80892935.321 8  19435841.757    19435841.837    19435847.262
        53.100          48.000
 117163413.256 7  91127129.609 7  21887108.094    21887108.475    21887115.110
        47.400          44.900
 111171014.634 8  86466398.633 6  20796823.406    20796823.664    20796829.819
        48.200          40.500
 25  1  1  7  3 15.0000000  0 29G10G24E03E08S31S35G13E21E13S48S33R02
                                G16G20E15G23G05G26G18E07G29G15E26G30
                                R24R18R17R03R01
 134080890.711 6 104478628.25345  25514744.624    25514744.0394   25514748.0334
        40.000          31.7004
 132221706.951 6 103029927.21944  25160954.978    25160954.5854   25160960.2474
        36.500          28.5004
 139320159.443 7                  26511729.785
        43.100
 125720178.817 7                  23923744.254
        47.300
 198975531.859 7                  37863778.386
        45.600
 200951141.968 7                  38239742.717
        44.300
 111143610.042 7  86605435.82245  21149915.377    21149914.7564   21149914.8514
        47.800          35.8004
 146878276.584 6                  27949993.499
        36.100
 123216887.582 8                  23447371.955
        48.800
 412808870.221 5                  78555078.202
        32.600
 202110916.033 7                  38460399.627
        45.000
 102404436.952 8  79647939.806 8  19190541.703    19190542.065    19190547.505
        53.100          48.700
 131157396.274 6 102200583.28542  24958419.340    24958418.3344   24958418.0154
        37.600          16.9004
 131431527.208 6 102414226.94643  25010564.781    25010563.5124   25010565.2614
        37.900          19.3004
 136126905.840 7                  25904054.135
        43.600
 115316582.472 7  89857084.25145  21944012.975    21944012.5694   21944013.0744
        46.000          35.6004
 117653722.254 7  91678275.36747  22388739.228    22388738.7504   22388738.9094
        46.100          44.1004
 134315678.346 6 104661595.75444  25559419.618    25559418.9484   25559423.4734
        36.400          27.3004
 110999233.883 8  86492914.92846  21122445.204    21122444.8604   21122445.1174
        48.200          38.9004
 132666250.789 7                  25245546.210
        44.900
 111378681.556 7  86788620.50847  21194643.262    21194642.6104   21194643.1864
        47.500          47.9004
 104945704.617 8  81775894.00848  19970494.012    19970493.5834   19970493.8234
        49.200          50.6004
 134178202.979 7                  25533261.550
        44.500
 135682912.498 6 105726956.87744  25819599.286    25819598.3884   25819602.3714
        37.800          29.0004
 109051612.367 8  84817993.497 7  20393186.672    20393186.847    20393193.164
        51.600          46.700
 120055095.551 7  93376227.069 7  22490357.296    22490358.089    22490364.530
        45.600          43.200
 103980994.020 8  80874151.821 8  19431328.597    19431328.852    19431334.385
        53.000          48.100
 117108762.075 8  91084623.146 7  21876899.503    21876899.555    21876905.747
        48.100          44.800
 111218949.634 7  86503681.381 6  20805791.024    20805790.832    20805797.533
        47.500          40.400
 25  1  1  7  3 30.0000000  0 29G10G24E03E08S31S35G13E21E13S48S33R02
                                G16G20E15G23G05G26G18E07G29G15E26G30
                                R24R18R17R03R01
 134040569.162 6 104447208.87845  25507071.553    25507070.9724   25507075.4044
        40.300          32.0004
 132173333.606 6 102992233.81844  25151750.376    25151749.9704   25151755.0724
        36.200          28.3004
 139353250.606 7                  26518026.914
        42.500
 125716489.857 7                  23923042.221
        47.100
 198975527.048 7                  37863779.594
        45.600
 200951147.705 7                  38239737.181
        44.000
 111162477.211 8  86620137.50745  21153505.686    21153505.0564   21153505.1394
        48.100          35.8004
 146915489.301 6                  27957074.073
        36.600
 123214835.848 8                  23446981.434
        48.600
 412808623.710 5                  78555052.236
        33.400
 202110888.686 7                  38460398.156
        45.100
 102398540.595 8  79643353.749 8  19189437.212    19189437.114    19189442.544
        53.200          48.500
 131165285.148 6 102206730.35742  24959920.510    24959919.4954   24959919.2374
        38.200          16.9004
 131473777.964 6 102447149.55743  25018605.631    25018604.3754   25018605.5024
        37.900          18.8004
 136153684.600 7                  25909149.801
        43.100
 115287016.017 7  89834045.47545  21938386.672    21938386.2794   21938386.7084
        46.800          35.6004
 117692901.902 7  91708804.92847  22396195.127    22396194.6544   22396194.5124
        45.600          44.1004
 134342865.615 6 104682780.65644  25564593.605    25564592.9574   25564596.7964
        36.400          27.0004
 110972659.863 8  86472207.88846  21117388.650    21117388.3114   21117388.2264
        48.100          39.1004
 132626096.766 7                  25237905.034
        45.200
 111412812.917 8  86815216.40648  21201138.335    21201137.6924   21201138.1914
        48.100          48.0004
 104935949.183 8  81768292.37448  19968637.574    19968637.1414   19968637.4114
        49.100          50.7004
 134148416.564 7                  25527593.859
        44.600
 135691165.447 6 105733387.80945  25821169.297    25821168.3944   25821172.9074
        38.600          30.7004
 109085910.393 8  84844669.698 7  20399600.603    20399600.750    20399607.076
        51.200          46.700
 119999040.872 7  93332629.024 7  22479857.171    22479856.984    22479863.081
        46.300          42.800
 103956972.036 8  80855468.048 8  19426839.462    19426839.776    19426845.470
        53.200          48.100
 117054202.969 8  91042188.296 7  21866707.661    21866707.381    21866713.788
        48.000          44.900
 111266974.627 7  86541034.168 6  20814775.063    20814774.818    20814781.434
        47.500          40.700
 25  1  1  7  3 45.0000000  0 29G10G24E03E08S31S35G13E21E13S48S33R02
                                G16G20E15G23G05G26G18E07G29G15E26G30
                                R24R18R17R03R01
 134000269.255 6 104415806.35545  25499403.281    25499402.7054   25499406.7684
        40.300          32.2004
 132124931.378 6 102954517.80844  25142539.525    25142539.1284   25142544.1464
        36.400          28.7004
 139386405.543 7                  26524335.860
        42.500
 125712906.701 7                  23922360.311
        46.800
 198975520.696 7                  37863780.376
        45.400
 200951151.942 7                  38239738.554
        43.900
 111181496.618 8  86634957.81945  21157125.007    21157124.3594   21157124.4574
        48.000          35.8004
 146952709.458 5                  27964157.673
        35.600
 123212827.831 8                  23446599.400
        48.300
 412808376.360 5                  78555021.167
        32.600
 202110858.991 7                  38460388.801
        44.700
 102392818.879 8  79638903.526 8  19188364.705    19188364.846    19188370.285
        53.300          48.600
 131173300.089 6 102212975.67642  24961445.364    24961444.3544   24961444.8114
        37.900          16.6004
 131516022.214 6 102480067.10343  25026644.348    25026643.0964   25026644.9924
        38.200          19.6004
 136180499.716 7                  25914252.742
        43.300
 115257505.065 7  89811049.94245  21932770.529    21932770.1274   21932770.9764
        47.100          35.5004
 117732106.764 7  91739354.14747  22403655.825    22403655.3564   22403654.9724
        46.300          44.0004
 134370113.767 6 104704012.98744  25569778.580    25569777.9284   25569782.0004
        37.300          26.9004
 110946145.665 8  86451547.46546  21112343.083    21112342.7534   21112342.7604
        48.700          39.0004
 132585995.890 7                  25230273.999
        44.800
 111447064.974 8  86841906.32947  21207656.102    21207655.4544   21207656.1044
        48.100          47.9004
 104926350.558 8  81760812.93148  19966811.158    19966810.7384   19966810.8344
        49.400          50.7004
 134118637.336 7                  25521926.712
        44.600
 135699531.518 6 105739906.73545  25822762.496    25822761.5934   25822765.2974
        39.900          31.5004
 109120336.713 8  84871445.685 7  20406038.791    20406038.769    20406045.197
        51.500          46.800
 119943001.052 7  93289042.582 7  22469359.053    22469358.938    22469365.402
        46.400          43.800
 103933076.498 8  80836882.619 8  19422374.160    19422374.325    19422379.916
        53.200          48.100
 116999733.531 8  90999823.197 7  21856531.651    21856532.038    21856538.486
        48.200          44.600
 111315086.905 7  86578454.818 6  20823775.401    20823775.144    20823781.920
        47.400          40.600
 25  1  1  7  4  0.0000000  0 29G10G24E03E08S31S35G13E21E13S48S33R02
                                G16G20E15G23G05G26G18E07G29G15E26G30
                                R24R18R17R03R01
 133959992.864 6 104384422.16545  25491739.106    25491738.5214   25491742.4384
        39.700          31.7004
 132076502.510 6 102916780.95744  25133324.001    25133323.6304   25133328.8924
        36.400          28.9004
 139419625.430 7                  26530657.610
        42.200
 125709431.261 7                  23921699.007
        46.900
 198975515.459 7                  37863775.927
        45.600
 200951157.758 7                  38239744.371
        44.200
 111200669.877 7  86649898.01945  21160773.706    21160773.0584   21160773.0014
        47.500          35.7004
 146989938.676 5                  27971241.061
        35.400
 123210865.527 8                  23446225.930
        48.400
 412808130.043 5                  78555000.374
        32.900
 202110830.984 7                  38460385.747
        45.100
 102387273.465 8  79634590.434 8  19187325.470    19187325.757    19187331.174
        52.900          48.600
 131181442.895 6 102219320.62042  24962995.712    24962994.7024   24962994.7294
        37.400          17.1004
 131558261.811 6 102512981.02443  25034681.968    25034680.7164   25034683.2884
        37.100          19.2004
 136207353.092 7                  25919362.846
        43.100
 115228051.562 7  89788099.17745  21927165.894    21927165.4924   21927166.1604
        46.300          35.6004
 117771338.973 7  91769924.67147  22411121.230    22411120.7574   22411120.6724
        45.700          43.9004
 134397424.417 6 104725294.03044  25574975.620    25574974.9594   25574979.1394
        36.500          26.7004
 110919693.405 7  86430935.32146  21107309.167    21107308.8324   21107309.0554
        47.900          39.0004
 132545950.302 7                  25222653.626
        45.300
 111481439.387 8  86868691.55847  21214197.491    21214196.8434   21214197.2974
        48.000          47.9004
 104916910.584 8  81753457.11748  19965014.854    19965014.4394   19965014.4764
        49.100          50.7004
 134088867.263 7                  25516261.788
        44.000
 135708013.157 6 105746515.83845  25824375.907    25824375.0004   25824379.3744
        37.900          30.1004
 109154892.994 8  84898322.753 7  20412500.469    20412501.037    20412507.631
        51.700          46.900
 119886978.083 7  93245469.078 7  22458863.808    22458864.008    22458869.591
        46.700          42.900
 103909309.787 8  80818397.388 8  19417932.619    19417932.836    19417938.575
        53.000          48.000
 116945356.107 7  90957529.685 7  21846372.951    21846373.080    21846380.471
        47.500          44.600
 111363287.789 8  86615944.389 6  20832792.911    20832792.613    20832798.844
        48.200          40.800
 25  1  1  7  4 15.0000000  0 29G10G24E03E08S31S35G13E21E13S48S33R02
                                G16G20E15G23G05G26G18E07G29G15E26G30
                                R24R18R17R03R01
 133919736.506 6 104353053.57545  25484078.626    25484078.0454   25484081.8024
        38.500          31.1004
 132028043.919 6 102879020.91244  25124102.648    25124102.2824   25124107.6474
        36.400          29.1004
 139452907.033 7                  26536991.003
        42.400
 125706059.925 7                  23921057.556
        46.800
 198975508.073 7                  37863774.930
        45.700
 200951160.604 7                  38239741.393
        44.100
 111219993.302 7  86664955.22545  21164450.555    21164449.9124   21164450.1284
        47.700          35.5004
 147027173.151 5                  27978326.853
        35.600
 123208945.466 8                  23445860.644
        48.400
 412807881.456 5                  78554966.439
        33.000
 202110800.440 7                  38460380.149
        44.900
 102381900.584 8  79630411.535 8  19186318.652    19186318.868    19186324.124
        53.300          48.600
 131189709.903 6 102225762.33242  24964568.390    24964567.3534   24964567.9314
        37.300          16.2004
 131600492.990 6 102545888.39143  25042717.781    25042716.5614   25042719.2194
        37.700          19.1004
 136234241.205 7                  25924479.638
        43.200
 115198651.893 7  89765190.36345  21921571.494    21921571.1014   21921571.5874
        46.100          35.3004
 117810594.953 7  91800513.72247  22418591.232    22418590.7724   22418590.8714
        45.800          43.6004
 134424793.621 6 104746620.67844  25580184.153    25580183.5014   25580186.9164
        37.100          26.3004
 110893299.672 8  86410368.77646  21102286.756    21102286.4214   21102286.5154
        48.300          38.9004
 132505956.551 7                  25215043.024
        44.500
 111515932.469 7  86895569.30847  21220761.217    21220760.5694   21220761.1694
        47.700          47.7004
 104907625.716 8  81746222.15748  19963247.969    19963247.5544   19963247.6304
        49.200          50.6004
 134059102.913 7                  25510597.967
        44.100
 135716606.273 6 105753211.74144  25826010.689    25826009.7954   25826014.2664
        38.400          28.7004
 109189575.671 8  84925298.153 7  20418986.410    20418986.540    20418993.223
        50.900          47.000
 119830969.039 7  93201906.496 7  22448371.397    22448371.484    22448377.931
        46.500          43.800
 103885668.688 8  80800009.874 8  19413514.776    19413515.003    19413520.487
        53.000          48.100
 116891067.306 8  90915305.084 7  21836231.443    21836231.775    21836238.996
        48.000          44.800
 111411573.405 7  86653499.853 6  20841825.397    20841824.857    20841831.862
        47.800          40.900
 25  1  1  7  4 30.0000000  0 29G10G24E03E08S31S35G13E21E13S48S33R02
                                G16G20E15G23G05G26G18E07G29G15E26G30
                                R24R18R17R03R01
 133879505.691 6 104321704.89845  25476422.770    25476422.1944   25476425.9734
        39.000          31.6004
 131979561.657 6 102841242.52744  25114876.475    25114876.1094   25114882.0504
        36.900          29.1004
 139486255.364 7                  26543336.423
        42.300
 125702798.209 7                  23920436.964
        46.600
 198975503.248 7                  37863771.491
        45.500
 200951166.005 7                  38239744.470
        44.400
 111239472.195 7  86680133.57545  21168157.384    21168156.7454   21168156.8404
        47.500          35.5004
 147064418.123 5                  27985414.341
        35.800
 123207073.259 8                  23445504.201
        48.200
 412807636.203 5                  78554940.034
        33.000
 202110772.449 7                  38460377.385
        45.200
 102376705.725 8  79626371.095 8  19185345.125    19185345.356    19185350.603
        53.000          48.600
 131198106.572 6 102232305.11742  24966166.181    24966165.1574   24966165.6824
        37.800          16.8004
 131642721.158 6 102578793.40743  25050754.647    25050753.4184   25050754.7254
        38.000          18.9004
 136261169.632 7                  25929603.618
        43.000
 115169311.628 7  89742327.84345  21915988.003    21915987.6014   21915988.2704
        46.800          35.6004
 117849879.664 7  91831125.18447  22426066.562    22426066.0894   22426066.5164
        45.800          43.6004
 134452226.612 6 104767997.05044  25585403.827    25585403.1844   25585407.5354
        36.300          26.9004
 110866970.241 7  86389852.33346  21097276.557    21097276.2224   21097276.2324
        47.900          39.0004
 132466020.463 7                  25207443.419
        44.500
 111550549.310 7  86922543.46947  21227348.675    21227348.0234   21227348.5274
        47.500          47.7004
 104898501.783 8  81739112.60548  19961511.623    19961511.2124   19961511.3984
        49.400          50.7004
 134029349.808 7                  25504936.141
        44.200
 135725316.395 6 105759998.65644  25827668.732    25827667.8384   25827671.7094
        38.600          29.0004
 109224390.231 8  84952376.107 7  20425496.865    20425497.584    20425503.664
        51.700          46.900
 119774979.994 7  93158359.492 7  22437882.216    22437883.124    22437889.552
        46.200          42.900
 103862159.005 8  80781724.570 8  19409121.257    19409121.571    19409127.279
        52.200          48.100
 116836873.660 7  90873154.494 7  21826108.083    21826107.901    21826114.626
        47.500          44.800
 111459948.795 8  86691125.148 6  20850875.203    20850874.352    20850881.473
        48.000          40.500
 25  1  1  7  4 45.0000000  0 29G10G24E03E08S31S35G13E21E13S48S33R02
                                G16G20E15G23G05G26G18E07G29G15E26G30
                                R24R18R17R03R01
 133839295.910 6 104290372.61945  25468771.009    25468770.4334   25468774.0474
        39.400          31.7004
 131931051.418 6 102803442.36844  25105645.386    25105645.0244   25105650.5954
        37.000          28.8004
 139519665.745 7                  26549694.633
        42.500
 125699641.571 7                  23919836.122
        46.600
 198975497.000 7                  37863770.588
        45.700
 200951171.098 7                  38239746.594
        44.200
 111259101.577 8  86695429.19045  21171892.752    21171892.1314   21171892.2374
        48.100          35.7004
 147101668.808 6                  27992503.094
        36.800
 123205244.494 8                  23445156.080
        48.400
 412807389.043 5                  78554913.642
        33.100
 202110742.280 7                  38460368.670
        45.100
 102371684.417 8  79622465.628 8  19184404.010    19184404.383    19184409.675
        53.100          48.700
 131206628.026 6 102238945.12342  24967787.652    24967786.6374   24967787.9204
        38.500          17.3004
 131684941.987 6 102611692.71543  25058788.934    25058787.6784   25058789.4574
        38.000          18.9004
 136288133.820 7                  25934734.972
        43.100
 115140026.196 7  89719508.03945  21910415.033    21910414.6184   21910415.4574
        47.000          35.7004
 117889188.699 7  91861755.58547  22433547.273    22433546.8004   22433546.7494
        46.200          43.5004
 134479718.514 6 104789419.29644  25590636.084    25590635.4454   25590639.3204
        36.200          26.8004
 110840700.777 8  86369382.62046  21092277.603    21092277.2734   21092277.3334
        48.600          39.1004
 132426137.710 7                  25199854.003
        44.900
 111585285.018 8  86949610.23647  21233958.634    21233957.9734   21233958.4844
        48.000          47.7004
 104889534.281 8  81732124.94748  19959805.119    19959804.7084   19959804.9504
        49.500          50.7004
 133999603.533 7                  25499275.457
        44.200
 135734139.355 6 105766873.60444  25829347.693    25829346.7954   25829350.9644
        38.600          29.8004
 109259331.665 8  84979552.736 7  20432031.429    20432031.555    20432038.019
        51.500          46.900
 119719006.332 7  93114824.355 7  22427397.452    22427397.719    22427403.235
        46.500          43.300
 103838776.591 8  80763538.237 8  19404751.901    19404752.018    19404757.770
        52.700          48.000
 116782770.485 7  90831074.258 7  21816000.693    21816000.925    21816008.388
        47.400          45.100
 111508409.094 8  86728816.495 6  20859940.333    20859940.402    20859946.941
        48.000          40.600
 25  1  1  7  5  0.0000000  0 29G10G24E03E08S31S35G13E21E13S48S33R02
                                G16G20E15G23G05G26G18E07G29G15E26G30
                                R24R18R17R03R01
 133799109.935 6 104259058.88545  25461124.191    25461123.6104   25461127.0764
        40.000          31.5004
 131882516.268 6 102765622.81544  25096409.477    25096409.1154   25096414.4594
        36.200          28.1004
 139553140.634 7                  26556064.747
        42.000
 125696592.716 7                  23919255.926
        46.900
 198975491.726 7                  37863773.843
        45.400
 200951176.655 7                  38239750.184
        44.100
 111278884.331 8  86710844.31745  21175657.022    21175656.3924   21175656.7704
        48.200          35.5004
 147138927.665 6                  27999592.909
        37.100
 123203461.984 8                  23444817.050
        48.400
 412807143.127 5                  78554881.245
        32.300
 202110713.791 7                  38460363.447
        44.900
 102366839.065 8  79618697.022 8  19183496.036    19183496.362    19183501.663
        53.000          48.700
 131215276.770 6 102245684.32942  24969433.837    24969432.8134   24969433.5444
        37.300          16.6004
