     2.11           OBSERVATION DATA    M (MIXED)           RINEX VERSION / TYPE
teqc  2019Feb25                         20260317 16:20:08UTCPGM / RUN BY / DATE
Linux 2.4.21-27.ELsmp|Opteron|gcc -static|Linux 64|=+       COMMENT
BIT 2 OF LLI FLAGS DATA COLLECTED UNDER A/S CONDITION       COMMENT
-Unknown-                                                   MARKER NAME
-Unknown-           -Unknown-                               OBSERVER / AGENCY
-Unknown-           -Unknown-           -Unknown-           REC # / TYPE / VERS
-Unknown-           -Unknown-                               ANT # / TYPE
        0.0000        0.0000        0.0000                  APPROX POSITION XYZ
        0.0000        0.0000        0.0000                  ANTENNA: DELTA H/E/N
     1     1                                                WAVELENGTH FACT L1/2
     7    L1    L2    C1    P1    P2    S1    S2            # / TYPES OF OBSERV
 SNR is mapped to RINEX snr flag value [0-9]                COMMENT
  L1 & L2: min(max(int(snr_dBHz/6), 0), 9)                  COMMENT
  2025     1     1     0     0    0.0000000     GPS         TIME OF FIRST OBS
    18                                                      LEAP SECONDS
                                                            END OF HEADER
 25  1  1  0  0  0.0000000  0 32E34R21R11S31S35R20G03S48G24S33G12G02
                                E15R22R04G11E02G06E36R23E27R13G30R10
                                E11G17R12E07E30E25G14G19
 124153749.172 8                  23625626.926
        48.700
 106308686.689 8  82684686.269 7  19866273.724    19866274.099    19866282.235
        52.900          47.600
 103718280.754 8  80669926.279 8  19409414.035    19409414.176    19409421.023
        51.900          49.600
 198980218.931 7                  37864685.155
        45.800
 200907024.216 7                  38231351.006
        44.100
 127448638.842 5  99126828.411 6  23833498.433    23833500.377    23833511.881
        34.800          40.300
 121373597.492 7  94576925.08246  23096602.642    23096602.4144   23096609.0994
        42.700          39.0004
 412998799.766 5                  78590932.352
        32.400
 120593994.599 7  93969478.14146  22948231.159    22948230.6774   22948239.7264
        43.200          39.3004
 202136610.295 7                  38465303.785
        45.000
 133726428.673 6 104202480.41544  25447291.967    25447291.4494   25447307.0174
        39.700          29.1004
 134020207.405 6 104431424.82843  25503166.078    25503164.9164   25503168.0914
        38.900          22.1004
 141452923.567 6                  26917580.471
        40.900
 106563863.265 8  82883136.573 8  19962963.253    19962963.535    19962970.598
        52.500          48.900
 131806097.093 5 102515882.211 5  24613856.399    24613856.664    24613864.543
        34.200          35.500
 127224175.201 6  99135792.90844  24209941.760    24209941.3044   24209949.0634
        41.500          25.7004
 125089003.663 7                  23803608.058
        47.900
 110985126.998 7  86482054.40248  21119733.099    21119732.7024   21119738.4054
        47.500          49.1004
 128993607.488 7                  24546625.569
        47.000
 126435342.606 6                  23635747.055    23635746.200
        40.500
 146832829.259 6                  27941340.010
        40.000
 130665530.906 5                  24469452.913    24469453.327
        35.500
 129874620.416 6 101201081.12744  24714303.861    24714302.9094   24714314.1764
        37.700          29.2004
 123420618.359 6                  23153371.708    23153372.289
        41.600
 149974107.109 5                  28539083.329
        34.700
 110087112.080 8  85782301.78948  20948831.165    20948830.5444   20948832.8664
        48.400          48.3004
 109586579.520 8  85234182.245 7  20514786.823    20514787.173    20514796.577
        51.800          47.900
 151173213.511 6                  28767284.473
        36.700
 127088567.268 8                  24184105.538
        48.100
 146014917.145 5                  27785702.610
        35.900
 109962810.564 7  85685412.44246  20925191.839    20925191.5094   20925194.3434
        47.500          37.9004
 107008868.616 8  83383660.09246  20363059.880    20363058.4544   20363059.6874
        48.800          41.4004
 25  1  1  0  0 15.0000000  0 32E34R21R11S31S35R20G03S48G24S33G12G02
                                E15R22R04G11E02G06E36R23E27R13G30R10
                                E11G17R12E07E30E25G14G19
 124134381.696 8                  23621941.371
        48.800
 106340950.884 8  82709780.639 7  19872303.120    19872303.443    19872311.399
        53.000          47.800
 103741251.475 8  80687792.403 8  19413712.357    19413712.599    19413719.705
        51.600          50.000
 198980227.412 7                  37864682.696
        45.600
 200907059.963 7                  38231361.899
        44.100
 127508627.514 5  99173486.483 6  23844716.982    23844717.438    23844729.094
        33.100          38.500
 121365822.839 7  94570866.94846  23095123.057    23095122.8294   23095129.4354
        42.300          39.0004
 412998934.165 5                  78590930.411
        32.200
 120580361.307 7  93958854.87846  22945637.442    22945636.9604   22945645.3894
        43.100          39.2004
 202136608.656 7                  38465307.971
        44.900
 133674135.513 6 104161732.75744  25437340.726    25437340.1994   25437355.9714
        39.500          29.7004
 134071456.818 6 104471359.49043  25512918.136    25512916.9524   25512920.4404
        39.700          22.0004
 141407658.365 6                  26908966.993
        40.400
 106536305.372 8  82861702.692 8  19957801.015    19957801.180    19957808.127
        52.300          48.900
 131809149.390 6 102518256.096 6  24614426.914    24614427.261    24614434.764
        37.500          37.100
 127169859.705 6  99093469.13344  24199605.648    24199605.1884   24199613.1354
        41.200          25.3004
 125105088.424 7                  23806668.922
        47.800
 110949868.979 7  86454580.68948  21113023.688    21113023.2914   21113028.9284
        47.200          49.0004
 129017098.217 7                  24551095.577
        46.700
 126379256.949 6                  23625262.846    23625262.365
        40.400
 146794609.705 6                  27934066.584
        39.700
 130602205.107 6                  24457594.009    24457594.110
        36.500
 129930011.018 6 101244242.64844  24724844.482    24724843.5394   24724854.4704
        36.500          28.7004
 123481439.652 6                  23164781.602    23164781.316
        40.500
 150018044.441 5                  28547444.162
        34.200
 110104971.900 8  85796218.54748  20952229.814    20952229.1934   20952231.4694
        48.400          48.2004
 109542834.405 8  85200158.328 7  20506597.865    20506597.924    20506607.126
        51.800          47.900
 151205920.589 6                  28773508.726
        37.600
 127068191.563 8                  24180228.110
        48.200
 146051591.975 5                  27792682.111
        35.600
 109991177.476 7  85707516.53446  20930589.891    20930589.5614   20930592.3344
        47.100          37.7004
 106998637.701 8  83375687.97846  20361113.292    20361111.8794   20361112.7604
        48.600          41.3004
 25  1  1  0  0 30.0000000  0 32E34R21R11S31S35R20G03S48G24S33G12G02
                                E15R22R04G11E02G06E36R23E27R13G30R10
                                E11G17R12E07E30E25G14G19
 124115108.335 8                  23618273.769
        48.500
 106373321.989 8  82734958.195 7  19878352.601    19878352.730    19878360.888
        52.700          47.700
 103764392.367 8  80705790.887 8  19418043.200    19418043.227    19418050.177
        51.400          49.800
 198980233.966 7                  37864682.182
        45.400
 200907094.061 7                  38231364.287
        43.900
 127568602.756 5  99220134.000 6  23855931.468    23855933.385    23855945.448
        33.300          39.300
 121358189.921 7  94564919.25646  23093670.655    23093670.4324   23093676.9804
        42.700          39.1004
 412999066.858 5                  78590923.507
        32.100
 120566872.477 7  93948344.18146  22943070.191    22943069.6914   22943078.3874
        43.300          39.3004
 202136606.411 7                  38465307.260
        44.800
 133621830.335 6 104120975.72544  25427386.970    25427386.4294   25427402.5914
        37.800          28.7004
 134122706.382 6 104511294.21543  25522670.191    25522668.9844   25522672.7004
        39.300          21.6004
 141362423.170 6                  26900358.586
        39.900
 106508886.455 8  82840376.939 8  19952664.324    19952664.556    19952671.445
        52.300          48.900
 131812370.080 6 102520760.717 6  24615029.243    24615028.452    24615036.408
        38.000          36.500
 127115577.993 6  99051171.70044  24189276.694    24189276.2524   24189283.4414
        41.000          25.5004
 125121234.055 7                  23809741.414
        47.500
 110914724.598 7  86427195.52248  21106335.842    21106335.4494   21106341.0754
        47.500          49.1004
 129040667.998 7                  24555581.042
        46.700
 126323226.951 7                  23614789.319    23614788.953
        42.000
 146756381.190 6                  27926792.032
        38.500
 130538872.909 5                  24445732.966    24445733.265
        34.900
 129985390.430 6 101287395.43544  24735382.638    24735381.7264   24735392.7434
        37.500          29.0004
 123542314.863 6                  23176201.629    23176200.790
        40.600
 150061992.513 5                  28555806.160
        31.500
 110122871.701 8  85810166.45148  20955635.980    20955635.3594   20955637.6834
        48.400          48.3004
 109499196.966 8  85166218.189 8  20498428.631    20498429.052    20498438.089
        52.400          48.100
 151238645.696 5                  28779735.938
        35.700
 127047858.801 7                  24176358.714
        47.900
 146088293.521 6                  27799666.704
        36.300
 110019639.832 7  85729694.99446  20936006.263    20936005.9284   20936008.5784
        47.800          37.9004
 106988474.886 8  83367768.92746  20359179.246    20359177.8474   20359178.8644
        48.900          41.4004
 25  1  1  0  0 45.0000000  0 32E34R21R11S31S35R20G03S48G24S33G12G02
                                E15R22R04G11E02G06E36R23E27R13G30R10
                                E11G17R12E07E30E25G14G19
 124095933.926 8                  23614624.960
        48.700
 106405804.396 8  82760222.277 7  19884422.307    19884422.886    19884430.990
        52.700          47.900
 103787708.291 8  80723925.492 8  19422406.566    19422406.556    19422413.304
        51.900          49.600
 198980243.867 7                  37864688.505
        45.600
 200907131.568 7                  38231371.759
        44.000
 127628569.926 5  99266775.106 6  23867145.156    23867146.229    23867160.264
        32.400          40.800
 121350703.716 7  94559085.87846  23092246.002    23092245.7744   23092252.3714
        43.200          39.2004
 412999202.254 5                  78590915.377
        32.100
 120553533.004 7  93937949.86646  22940531.927    22940531.4314   22940539.8254
        43.200          39.1004
 202136607.400 7                  38465301.514
        44.900
 133569518.181 6 104080213.25544  25417433.389    25417432.8444   25417447.5074
        39.300          28.3004
 134173960.528 6 104551232.54543  25532424.072    25532422.8564   25532426.5304
        38.400          21.7004
 141317222.943 6                  26891757.430
        40.600
 106481611.456 8  82819163.090 8  19947554.736    19947555.083    19947561.981
        52.500          49.000
 131815765.232 6 102523401.140 6  24615662.815    24615663.655    24615671.405
        40.400          37.800
 127061335.119 6  99008904.56044  24178954.159    24178953.7214   24178961.7294
        41.500          25.5004
 125137445.392 7                  23812826.149
        47.900
 110879698.836 7  86399902.79048  21099670.451    21099670.0544   21099675.8094
        47.500          49.1004
 129064321.402 7                  24560082.073
        46.700
 126267257.637 6                  23604324.754    23604325.495
        41.700
 146718148.627 6                  27919516.709
        39.600
 130475539.422 6                  24433873.173    24433872.984
        38.500
 130040763.158 6 101330543.03044  24745919.607    24745918.6954   24745929.4384
        38.000          29.1004
 123603248.348 6                  23187632.902    23187633.222
        41.300
 150105954.226 5                  28564171.861
        33.200
 110140816.235 8  85824149.21948  20959050.912    20959050.2954   20959052.4284
        48.200          48.2004
 109455672.840 8  85132366.149 8  20490280.762    20490280.942    20490290.377
        51.800          48.000
 151271393.202 5                  28785967.466
        35.700
 127027573.857 8                  24172498.837
        48.000
 146125026.546 6                  27806656.349
        37.400
 110048202.374 7  85751951.52546  20941441.257    20941440.9134   20941443.8134
        47.500          37.6004
 106978385.016 8  83359906.72446  20357259.024    20357257.6254   20357258.7944
        49.000          41.3004
 25  1  1  0  1  0.0000000  0 33E34R21R11S31S35R20G03S48G24S33G12G02
                                E15R22R04G11E02G06R05E36R23E27R13G30
                                R10E11G17R12E07E30E25G14G19
 124076853.409 8                  23610994.010
        48.700
 106438392.521 8  82785568.617 7  19890512.186    19890512.570    19890520.656
        52.900          47.800
 103811193.832 8  80742192.026 8  19426801.312    19426801.427    19426808.453
        52.100          49.700
 198980252.684 7                  37864691.465
        45.600
 200907167.572 7                  38231381.480
        44.300
 127688523.427 5  99313405.982 6  23878360.323    23878358.948    23878371.016
        33.300          39.200
 121343359.276 7  94553362.97046  23090848.533    23090848.3054   23090854.7034
        42.700          39.2004
 412999335.751 5                  78590904.350
        31.600
 120540337.850 7  93927668.00446  22938020.550    22938020.0544   22938028.8254
        42.900          39.2004
 202136606.316 7                  38465303.691
        45.000
 133517194.094 6 104039441.47544  25407474.983    25407474.4254   25407490.1964
        38.300          27.5004
 134225214.088 6 104591170.59243  25542177.634    25542176.4544   25542179.8814
        38.000          21.3004
 141272052.727 6                  26883161.438
        40.200
 106454475.235 8  82798057.201 8  19942471.195    19942471.443    19942478.328
        52.200          49.000
 131819328.980 6 102526172.680 5  24616328.478    24616329.310    24616335.897
        39.600          35.700
 127007126.290 6  98966663.94244  24168638.515    24168638.0774   24168645.7904
        41.500          25.4004
 125153717.369 7                  23815922.705
        47.500
 110844786.762 7  86372698.64348  21093027.066    21093026.6694   21093032.1634
        47.600          49.0004
 132051229.569 6 102706539.423 6  24702913.552    24702913.846    24702920.367
        40.800          37.000
 129088053.124 7                  24564597.876
        46.600
 126211343.965 7                  23593872.589    23593873.099
        42.200
 146679906.970 6                  27912238.906
        39.900
 130412199.729 6                  24422010.543    24422011.280
        36.500
 130096123.715 6 101373681.14644  24756454.492    24756453.5714   24756464.0444
        37.900          29.1004
 123664234.910 6                  23199073.936    23199072.750
        40.900
 150149924.910 5                  28572539.147
        33.700
 110158800.291 8  85838162.77948  20962473.257    20962472.6454   20962474.6774
        48.200          48.2004
 109412257.016 8  85098598.348 7  20482153.368    20482153.294    20482162.452
        52.200          47.900
 151304157.990 5                  28792201.977
        33.900
 127007331.795 8                  24168646.779
        48.000
 146161785.930 6                  27813651.165
        36.200
 110076859.955 7  85774282.10746  20946894.728    20946894.3844   20946897.1494
        47.600          37.6004
 106968362.975 8  83352097.37346  20355351.903    20355350.5044   20355351.6294
        48.900          41.3004
 25  1  1  0  1 15.0000000  0 33E34R21R11S31S35R20G03S48G24S33G12G02
                                E15R22R04G11E02G06R05E36R23E27R13G30
                                R10E11G17R12E07E30E25G14G19
 124057864.374 8                  23607380.422
        48.600
 106471083.377 8  82810994.852 7  19896621.203    19896621.790    19896629.992
        53.000          47.800
 103834846.438 8  80760588.507 8  19431227.661    19431227.752    19431234.658
        52.300          49.700
 198980256.765 7                  37864693.021
        45.500
 200907199.531 7                  38231385.505
        44.100
 127748460.272 5  99360023.838 6  23889565.390    23889566.708    23889579.003
        32.100          38.900
 121336154.306 7  94547748.74246  23089477.395    23089477.1634   23089483.6494
        42.900          39.1004
 412999464.985 5                  78590903.474
        32.100
 120527284.610 7  93917496.73946  22935536.891    22935536.4004   22935544.8444
        43.700          39.3004
 202136601.930 7                  38465302.328
        44.800
 133464855.750 6 103998658.57344  25397515.608    25397515.0454   25397529.8004
        39.700          29.0004
 134276463.748 6 104631105.45243  25551930.064    25551928.9204   25551932.2174
        38.400          21.5004
 141226910.275 6                  26874571.164
        40.900
 106427475.316 8  82777057.319 8  19937413.123    19937413.520    19937420.279
        52.100          49.000
 131823059.063 6 102529073.469 6  24617025.633    24617025.931    24617033.211
        39.400          36.000
 126952949.271 6  98924448.15744  24158329.156    24158328.7094   24158336.2224
        41.200          25.2004
 125170047.559 7                  23819030.228
        47.700
 110809986.130 7  86345581.33648  21086404.598    21086404.2014   21086409.7704
        47.900          49.1004
 132020149.161 7 102682365.784 6  24697099.668    24697099.444    24697106.453
        42.900          37.700
 129111860.527 7                  24569128.173
        46.800
 126155483.843 6                  23583430.436    23583430.215
        41.500
 146641653.867 6                  27904959.975
        39.200
 130348851.827 5                  24410147.198    24410148.240
        35.200
 130151469.323 6 101416807.60544  24766986.623    24766985.6984   24766996.0524
        37.000          28.7004
 123725271.633 6                  23210523.344    23210523.328
        40.000
 150193902.896 5                  28580907.676
        34.000
 110176821.019 8  85852204.92048  20965902.177    20965901.5694   20965903.8894
        48.500          48.3004
 109368947.697 8  85064913.390 7  20474045.442    20474045.947    20474055.230
        52.100          47.900
 151336937.225 5                  28798440.282
        33.500
 126987130.341 8                  24164802.511
        48.000
 146198569.149 5                  27820650.542
        35.300
 110105610.044 7  85796684.77746  20952365.658    20952365.3104   20952368.1344
        47.600          37.7004
 106958406.195 8  83344338.87446  20353457.194    20353455.7904   20353456.8914
        49.200          41.4004
 25  1  1  0  1 30.0000000  0 33E34R21R11S31S35R20G03S48G24S33G12G02
                                E15R22R04G11E02G06R05E36R23E27R13G30
                                R10E11G17R12E07E30E25G14G19
 124038975.658 8                  23603786.302
        48.700
 106503885.451 8  82836507.592 7  19902751.414    19902751.539    19902759.755
        52.800          47.900
 103858674.969 8  80779121.821 8  19435686.890    19435687.100    19435693.961
        52.100          49.900
 198980265.620 7                  37864692.194
        45.600
 200907236.099 7                  38231392.673
        44.100
 127808389.282 5  99406635.570 6  23900774.154    23900774.351    23900785.645
        33.900          39.500
 121329097.735 7  94542250.14746  23088134.141    23088133.9134   23088140.8444
        42.700          39.2004
 412997998.582 5                  78590902.647
        31.400
 120514382.168 7  93907442.96446  22933081.029    22933080.5294   22933089.4804
        43.400          39.3004
 202136601.462 7                  38465300.244
        44.800
 133412512.194 6 103957871.61244  25387554.367    25387553.8004   25387569.1364
        39.300          29.4004
 134327718.751 6 104671044.59943  25561683.424    25561682.2754   25561685.7204
        37.800          21.2004
 141181804.512 6                  26865988.154
        40.600
 106400620.717 8  82756170.463 8  19932382.426    19932383.011    19932389.368
        52.300          49.100
 131826964.160 6 102532110.266 6  24617755.870    24617755.959    24617763.369
        39.500          36.700
 126898813.120 6  98882264.20444  24148027.240    24148026.7714   24148034.5304
        41.100          25.4004
 125186444.792 8                  23822150.430
        48.000
 110775305.913 8  86318557.86448  21079804.968    21079804.5624   21079810.2724
        48.100          49.2004
 131989196.055 6 102658291.123 5  24691308.856    24691309.001    24691316.230
        41.000          35.500
 129135752.187 7                  24573674.843
        46.700
 126099686.350 6                  23572998.990    23572998.989
        41.000
 146603398.173 6                  27897679.740
        39.400
 130285504.781 5                  24398284.905    24398283.769
        35.200
 130206808.476 6 101459929.04144  24777517.133    24777516.2484   24777526.7814
        37.100          28.8004
 123786367.188 6                  23221985.274    23221985.062
        40.200
 150237895.500 5                  28589278.995
        34.600
 110194887.265 8  85866282.53148  20969339.981    20969339.3694   20969341.7394
        48.500          48.3004
 109325754.123 8  85031318.479 8  20465959.608    20465960.015    20465968.949
        52.100          48.000
 151369739.537 5                  28804682.224
        35.700
 126966978.391 8                  24160967.630
        48.000
 146235384.927 6                  27827656.549
        36.400
 110134461.391 7  85819166.34846  20957855.527    20957855.1704   20957858.3844
        47.300          37.6004
 106948523.429 8  83336638.04646  20351576.232    20351574.8194   20351576.2654
        49.100          41.4004
 25  1  1  0  1 45.0000000  0 33E34R21R11S31S35R20G03S48G24S33G12G02
                                E15R22R04G11E02G06R05E36R23E27R13G30
                                R10E11G17R12E07E30E25G14G19
 124020183.634 8                  23600210.115
        48.900
 106536794.832 8  82862103.772 7  19908901.145    19908901.688    19908909.560
        52.900          47.700
 103882675.644 8  80797789.010 8  19440178.026    19440178.420    19440185.397
        52.000          49.800
 198980275.687 7                  37864696.191
        46.000
 200907273.398 7                  38231400.601
        44.400
 127868305.795 5  99453237.580 6  23911980.015    23911978.243    23911990.726
        32.400          39.600
 121322186.025 7  94536864.43146  23086819.013    23086818.7904   23086825.3554
        42.500          39.0004
 412998132.334 5                  78590901.386
        31.900
 120501626.922 7  93897503.89246  22930654.344    22930653.8534   22930662.0824
        43.200          39.3004
 202136602.151 7                  38465308.346
        45.300
 133360159.795 6 103917077.76044  25377591.475    25377590.8994   25377606.6604
        36.900          27.6004
 134378975.297 6 104710985.16543  25571437.023    25571435.8834   25571438.9824
        38.200          21.2004
 141136731.921 6                  26857410.711
        40.700
 106373907.741 8  82735393.751 8  19927377.721    19927378.304    19927385.157
        51.900          48.900
 131831042.157 6 102535282.146 5  24618516.318    24618516.886    24618524.734
        37.900          35.600
 126844714.413 6  98840109.48044  24137732.652    24137732.1924   24137740.1664
        41.500          25.4004
 125202905.426 7                  23825282.915
        47.800
 110740742.620 7  86291625.49548  21073227.808    21073227.4064   21073232.9764
        47.700          49.2004
 131958366.925 6 102634312.929 6  24685542.266    24685542.267    24685548.539
        40.600          36.800
 129159724.230 7                  24578236.425
        46.700
 126043947.906 6                  23562579.342    23562579.996
        41.800
 146565136.359 6                  27890398.877
        39.200
 130222155.244 6                  24386420.370    24386421.207
        36.700
 130262137.181 6 101503042.32744  24788045.835    24788044.9904   24788056.0084
        37.600          29.5004
 123847516.924 6                  23233456.650    23233456.241
        39.600
 150281899.433 5                  28597652.128
        33.000
 110212995.228 8  85880392.64448  20972786.010    20972785.4024   20972787.5584
        48.300          48.3004
 109282673.086 8  84997811.086 7  20457894.669    20457894.733    20457903.850
        52.300          47.800
 151402560.889 6                  28810927.785
        36.700
 126946872.403 8                  24157141.753
        48.200
 146272229.503 6                  27834667.956
        36.300
 110163410.238 7  85841723.89746  20963364.702    20963364.3404   20963367.1944
        47.500          37.6004
 106938710.922 8  83328991.96646  20349709.137    20349707.7244   20349708.9964
        48.800          41.4004
 25  1  1  0  2  0.0000000  0 32E34R21R11S31S35R20G03S48G24S33G12G02
                                E15R22R04G11E02G06E36R23E27R13G30R10
                                E11G17R12E07E30E25G14G19
 124001483.346 8                  23596651.320
        48.800
 106569805.812 8  82887778.979 7  19915069.903    19915070.426    19915078.423
        52.900          47.600
 103906843.166 8  80816585.976 8  19444700.807    19444701.158    19444707.929
        52.000          49.700
 198980281.507 7                  37864695.463
        45.800
 200907307.016 7                  38231404.098
        44.300
 127928205.404 5  99499826.437 6  23923178.938    23923178.839    23923191.967
        32.500          39.800
 121315414.343 7  94531587.82746  23085530.506    23085530.2784   23085536.7184
        42.200          39.1004
 412998261.445 5                  78590895.501
        32.200
 120489013.954 7  93887675.68446  22928253.926    22928253.4354   22928261.7244
        43.000          39.2004
 202136598.648 7                  38465307.971
        45.100
 133307793.693 6 103876273.22844  25367627.519    25367626.9474   25367641.3144
        38.500          28.3004
 134430227.647 6 104750922.44943  25581189.274    25581188.1254   25581190.9064
        37.800          20.6004
 141091687.694 6                  26848839.324
        40.600
 106347331.313 8  82714723.235 8  19922399.657    19922399.645    19922406.377
        52.200          48.900
 131835286.195 6 102538583.033 6  24619308.268    24619309.325    24619317.316
        37.300          36.200
 126790648.433 6  98797980.24744  24127444.049    24127443.6024   24127451.4284
        40.600          25.3004
 125219424.529 7                  23828426.176
        47.800
 110706291.460 7  86264780.50648  21066671.931    21066671.5254   21066677.0774
        47.600          49.1004
 129183771.500 7                  24582812.545
        46.600
 125988263.737 6                  23552169.533    23552170.260
        41.800
 146526863.474 6                  27883115.522
        39.400
 130158798.243 6                  24374555.084    24374555.403
        36.000
 130317450.090 6 101546143.32144  24798571.511    24798570.6754   24798581.4434
        36.800          28.7004
 123908715.990 6                  23244937.510    23244937.391
        40.100
 150325908.876 5                  28606026.715
        33.100
 110231139.796 8  85894531.28548  20976238.779    20976238.1764   20976240.3394
        48.100          48.2004
 109239699.906 8  84964387.543 8  20449849.992    20449850.369    20449859.482
        52.500          48.100
 151435396.066 5                  28817176.029
        34.800
 126926807.534 8                  24153323.429
        48.200
 146309097.878 6                  27841683.906
        37.400
 110192451.560 7  85864353.50546  20968890.829    20968890.4544   20968893.6064
        46.800          37.5004
 106928963.838 8  83321396.86746  20347854.228    20347852.8204   20347854.1184
        48.800          41.4004
 25  1  1  0  2 15.0000000  0 32E34R21R11S31S35R20G03S48G24S33G12G02
                                E15R22R04G11E02G06E36R23E27R13G30R10
                                E11G17R12E07E30E25G14G19
 123982881.965 8                  23593111.693
        48.700
 106602925.325 8  82913538.620 7  19921259.125    19921259.634    19921267.734
        52.600          47.700
 103931184.720 8  80835518.316 8  19449256.025    19449256.270    19449263.046
        51.700          49.600
 198980290.526 7                  37864694.680
        45.400
 200907343.871 7                  38231415.594
        44.100
 127988094.568 5  99546407.250 6  23934379.955    23934379.677    23934391.740
        33.200          40.300
 121308789.964 7  94526426.00446  23084269.556    23084269.3114   23084276.2714
        42.300          39.3004
 412998393.242 5                  78590894.701
        31.700
 120476550.453 7  93877963.94246  22925882.053    22925881.5574   22925889.8194
        42.900          39.3004
 202136598.434 7                  38465297.811
        44.900
 133255421.252 6 103835463.75144  25357660.866    25357660.2904   25357675.0824
        38.900          29.1004
 134481482.855 6 104790861.97243  25590942.511    25590941.3444   25590944.0744
        38.400          21.6004
 141046679.132 6                  26840273.977
        40.300
 106320898.755 8  82694164.644 8  19917447.880    19917448.043    19917454.753
        52.200          48.800
 131839703.775 6 102542018.853 5  24620134.597    24620133.990    24620142.259
        36.700          32.900
 126736622.553 6  98755882.29344  24117163.661    24117163.2194   24117170.5994
        40.100          25.6004
 125236009.233 8                  23831582.187
        48.100
 110671959.740 7  86238028.58148  21060138.591    21060138.1894   21060143.9114
        47.000          49.2004
 129207900.869 7                  24587404.267
        46.600
 125932641.601 6                  23541771.799    23541772.486
        41.400
 146488586.732 6                  27875831.507
        39.300
 130095441.874 6                  24362691.316    24362691.451
        37.400
 130372754.047 6 101589237.32144  24809095.678    24809094.8384   24809105.1204
        37.600          28.2004
 123969971.042 6                  23256428.307    23256428.249
        39.600
 150369930.390 5                  28614403.988
        33.100
 110249328.320 8  85908704.17548  20979699.800    20979699.1974   20979701.4784
        48.200          48.3004
 109196842.339 8  84931053.981 8  20441826.792    20441827.169    20441836.452
        52.100          48.100
 151468251.944 5                  28823428.142
        34.500
 126906791.026 8                  24149514.357
        48.100
 146345997.096 6                  27848705.470
        37.600
 110221592.429 7  85887060.67646  20974436.180    20974435.8054   20974438.8654
        46.500          37.5004
 106919289.191 8  83313858.21046  20346013.197    20346011.7764   20346013.0934
        48.800          41.4004
 25  1  1  0  2 30.0000000  0 32E34R21R11S31S35R20G03S48G24S33G12G02
                                E15R22R04G11E02G06E36R23E27R13G30R10
                                E11G17R12E07E30E25G14G19
 123964373.695 8                  23589589.721
        48.600
 106636146.986 8  82939377.683 7  19927467.607    19927467.906    19927475.876
        52.800          47.400
 103955694.273 8  80854581.302 8  19453842.833    19453842.921    19453849.701
        51.900          49.500
 198980296.708 7                  37864701.982
        45.600
 200907377.584 7                  38231422.127
        44.200
 128047966.779 5  99592974.590 6  23945574.422    23945575.940    23945587.118
        32.200          39.600
 121302307.204 7  94521374.53946  23083036.114    23083035.8644   23083042.6624
        42.500          39.3004
 412998521.870 5                  78590892.697
        32.300
 120464230.658 7  93868364.18246  22923537.465    22923536.9784   22923545.2944
        43.200          39.2004
 202136595.156 7                  38465303.902
        45.000
 133203037.047 6 103794645.12844  25347692.365    25347691.7844   25347706.3914
        39.200          29.0004
 134532734.806 6 104830798.92943  25600695.168    25600693.9974   25600697.1434
        38.500          22.0004
 141001700.556 6                  26831714.448
        40.100
 106294604.159 8  82673713.324 8  19912521.574    19912521.965    19912528.751
        52.100          49.000
 131844288.381 6 102545584.208 5  24620991.082    24620991.124    24620998.579
        37.900          32.100
 126682631.186 6  98713811.24744  24106889.194    24106888.7474   24106895.9064
        40.500          25.5004
 125252653.736 7                  23834749.709
        47.800
 110637741.824 7  86211365.34048  21053627.319    21053626.9264   21053632.3614
        47.800          49.1004
 129232106.373 7                  24592010.615
        46.700
 125877075.479 6                  23531384.705    23531384.509
        40.800
 146450300.397 6                  27868545.679
        39.300
 130032080.296 6                  24350824.831    24350824.789
        36.100
 130428042.876 6 101632319.55444  24819616.574    24819615.7074   24819626.0704
        37.100          28.0004
 124031276.076 6                  23267930.311    23267930.559
        41.000
 150413958.353 5                  28622782.156
        31.800
 110267554.493 8  85922906.39948  20983168.412    20983167.8094   20983169.7894
        48.100          48.3004
 109154094.981 8  84897806.116 7  20433824.270    20433824.579    20433833.602
        52.200          47.700
 151501122.484 6                  28829683.038
        36.700
 126886817.237 8                  24145713.472
        48.000
 146382921.274 6                  27855731.703
        36.700
 110250826.933 7  85909840.81646  20979999.499    20979999.1284   20980001.9614
        46.500          37.4004
 106909681.035 8  83306371.36746  20344184.764    20344183.3384   20344184.7184
        48.700          41.4004
 25  1  1  0  2 45.0000000  0 32E34R21R11S31S35R20G03S48G24S33G12G02
                                E15R22R04G11E02G06E36R23E27R13G30R10
                                E11G17R12E07E30E25G14G19
 123945958.761 8                  23586085.340
        49.100
 106669470.621 8  82965296.064 7  19933694.835    19933695.159    19933703.205
        53.000          47.500
 103980371.909 8  80873775.030 8  19458460.651    19458460.802    19458467.832
        51.600          49.500
 198980300.400 7                  37864700.368
        45.700
 200907409.128 7                  38231424.533
        44.000
 128107821.091 5  99639527.755 6  23956768.291    23956767.893    23956780.376
        33.200          39.500
 121295966.390 7  94516433.68146  23081829.741    23081829.4964   23081835.9954
        42.700          39.4004
 412998647.653 5                  78590887.349
        32.300
 120452054.793 7  93858876.56946  22921220.485    22921219.9984   22921228.3324
        43.400          39.4004
 202136589.540 7                  38465296.716
        45.000
 133150640.959 6 103753817.25044  25337721.111    25337720.5264   25337735.5814
        38.700          28.6004
 134583983.752 6 104870733.67843  25610446.607    25610445.4234   25610449.3414
        38.800          21.7004
 140956752.301 6                  26823161.064
        40.700
 106268447.737 8  82653369.490 8  19907622.165    19907622.028    19907628.787
        51.900          49.100
 131849041.398 6 102549280.956 5  24621879.551    24621879.703    24621886.268
        38.800          33.600
 126628674.786 7  98671767.45944  24096621.356    24096620.9144   24096628.1314
        42.000          25.9004
 125269358.235 8                  23837928.240
        48.300
 110603638.044 8  86184791.03548  21047137.078    21047136.6724   21047142.5214
        48.000          49.4004
 129256387.933 7                  24596630.566
        46.900
 125821565.782 7                  23521008.845    23521008.323
        42.500
 146412004.768 6                  27861258.221
        39.700
 129968713.934 6                  24338959.457    24338957.956
        36.900
 130483316.445 6 101675389.87244  24830134.177    24830133.2884   24830144.2344
        36.500          27.7004
 124092630.553 6                  23279439.300    23279439.161
        40.300
 150457994.925 5                  28631161.527
        33.000
 110285818.414 8  85937138.04348  20986643.736    20986643.1424   20986645.2914
        48.600          48.4004
 109111458.336 8  84864644.326 8  20425842.916    20425843.332    20425852.185
        52.600          48.000
 151534007.566 5                  28835940.958
        34.000
 126866886.488 8                  24141920.729
        48.300
 146419870.502 6                  27862763.448
        37.900
 110280155.165 7  85932693.99446  20985580.257    20985579.8914   20985582.9444
        46.900          37.6004
 106900139.502 8  83298936.43146  20342369.088    20342367.6584   20342368.9664
        48.900          41.6004
 25  1  1  0  3  0.0000000  0 32E34R21R11S31S35R20G03S48G24S33G12G02
                                E15R22R04G11E02G06E36R23E27R13G30R10
                                E11G17R12E07E30E25G14G19
 123927644.078 8                  23582600.156
        49.000
 106702902.839 8  82991298.913 7  19939941.996    19939942.905    19939950.728
        52.600          47.500
 104005224.519 8  80893104.844 8  19463111.854    19463111.848    19463118.646
        52.200          49.500
 198980308.457 7                  37864695.118
        45.600
 200907444.876 7                  38231430.011
        44.000
 128167666.670 5  99686074.668 6  23967959.764    23967959.944    23967971.247
        32.900          39.400
 121289774.494 7  94511608.86346  23080651.435    23080651.1994   23080657.6334
        42.900          39.2004
 412998776.949 5                  78590882.153
        32.100
 120440029.765 7  93849506.49546  22918932.318    22918931.8314   22918940.0194
        43.300          39.4004
 202136588.089 7                  38465303.687
        45.100
 133098240.157 6 103712985.70644  25327750.154    25327749.5824   25327763.6344
        39.800          29.1004
 134635235.793 6 104910670.87243  25620199.374    25620198.1984   25620201.7624
        39.300          21.2004
 140911841.420 6                  26814614.462
        40.800
 106242436.563 8  82633138.627 8  19902748.878    19902749.162    19902755.885
        52.200          49.000
 131853969.628 6 102553114.156 5  24622797.451    24622798.912    24622806.447
        36.900          32.500
 126574760.443 6  98629756.45744  24086361.529    24086361.0824   24086368.6824
        41.000          26.0004
 125286129.673 8                  23841119.778
        48.100
 110569655.492 7  86158311.19248  21040670.657    21040670.2514   21040675.7684
        47.900          49.3004
 129280752.243 7                  24601267.492
        46.800
 125766119.787 7                  23510642.382    23510643.013
        42.900
 146373706.743 6                  27853970.465
        40.000
 129905350.172 5                  24327093.176    24327092.130
        34.800
 130538581.248 6 101718453.36544  24840650.947    24840650.0534   24840661.1774
        37.800          28.1004
 124154041.218 6                  23290960.018    23290959.809
        40.000
 150502044.585 5                  28639544.821
        33.200
 110304126.838 8  85951404.36448  20990127.264    20990126.6704   20990129.2304
        48.700          48.2004
 109068940.000 8  84831574.572 8  20417883.313    20417883.446    20417892.349
        52.200          48.000
 151566913.845 5                  28842202.259
        31.600
 126847005.769 8                  24138137.505
        48.400
 146456851.613 6                  27869800.532
        37.700
 110309583.966 7  85955625.53046  20991180.456    20991180.0904   20991183.0794
        46.900          37.3004
 106890671.392 8  83291558.71146  20340567.287    20340565.8394   20340567.2204
        49.200          41.4004
 25  1  1  0  3 15.0000000  0 32E34R21R11S31S35R20G03S48G24S33G12G02
                                E15R22R04G11E02G06E36R23E27R13G30R10
                                E11G17R12E07E30E25G14G19
 123909426.780 8                  23579133.629
        49.100
 106736440.289 8  83017383.601 7  19946209.698    19946210.001    19946217.877
        52.700          47.500
 104030248.975 8  80912568.330 8  19467794.419    19467794.822    19467801.606
        52.100          49.500
 198980318.046 7                  37864704.920
        45.600
 200907481.772 7                  38231443.452
        44.000
 128227497.484 5  99732609.569 6  23979148.084    23979148.748    23979160.185
        32.300          39.900
 121283728.783 7  94506897.95546  23079500.604    23079500.3724   23079507.1834
        42.600          39.0004
 412998907.168 5                  78590880.781
        32.400
 120428152.816 7  93840251.80646  22916672.397    22916671.9194   22916679.8964
        44.100          39.3004
 202136588.582 7                  38465301.939
        45.100
 133045832.067 6 103672148.49744  25317776.216    25317775.6404   25317790.4854
        39.400          29.0004
 134686487.397 6 104950607.38743  25629951.686    25629950.4794   25629953.7584
        38.400          20.7004
 140866965.177 6                  26806074.957
        40.500
 106216567.686 8  82613018.437 8  19897902.623    19897903.108    19897909.666
        52.300          49.000
 131859069.409 5 102557080.824 5  24623750.382    24623751.475    24623759.185
        33.900          32.700
 126520885.564 6  98587776.21744  24076109.323    24076108.8814   24076116.4004
        41.600          25.6004
 125302965.173 8                  23844323.443
        48.100
 110535791.434 7  86131923.67948  21034226.416    21034226.0104   21034231.6194
        47.900          49.1004
 129305196.197 7                  24605918.931
        46.700
 125710734.782 7                  23500289.508    23500289.270
        42.300
 146335403.569 6                  27846680.976
        39.100
 129841986.366 5                  24315226.182    24315224.811
        35.700
 130593834.178 6 101761507.60244  24851166.183    24851165.2984   24851175.6484
        36.500          27.5004
 124215505.128 6                  23302490.873    23302489.566
        39.900
 150546103.088 5                  28647928.738
        33.400
 110322476.806 8  85965703.05348  20993619.394    20993618.7954   20993621.1114
        48.700          48.1004
 109026537.491 8  84798594.919 7  20409945.126    20409945.600    20409954.615
        52.000          47.900
 151599838.223 5                  28848467.883
        34.300
 126827172.335 8                  24134363.296
        48.100
 146493861.609 6                  27876842.961
        36.500
 110339110.365 7  85978633.11946  20996799.064    20996798.7024   20996801.7944
        47.000          37.2004
 106881273.884 8  83284236.00446  20338779.048    20338777.5954   20338778.9204
        48.900          41.3004
 25  1  1  0  3 30.0000000  0 31E34R21R11S31S35R20G03S48G24S33G12G02
                                E15R22G11E02G06E36R23E27R13G30R10E11
                                G17R12E07E30E25G14G19
 123891301.307 8                  23575684.350
        49.200
 106770076.649 8  83043545.216 7  19952495.477    19952495.734    19952503.815
        52.600          47.700
 104055439.433 8  80932160.882 8  19472508.717    19472508.735    19472515.587
        51.800          49.500
 198980322.995 7                  37864701.352
        45.400
 200907514.531 7                  38231452.704
        44.200
 128287309.336 5  99779129.854 6  23990334.421    23990333.886    23990344.880
        32.400          39.000
 121277823.782 7  94502296.68146  23078377.436    23078377.1954   23078383.5004
        43.100          39.1004
 412999032.818 5                  78590881.916
        32.600
 120416418.304 7  93831108.10646  22914438.784    22914438.2974   22914446.8484
        43.600          39.3004
 202136583.871 7                  38465303.186
        45.200
 132993411.118 6 103631301.27844  25307800.998    25307800.4264   25307814.8274
        39.500          28.7004
 134737733.151 6 104990539.30543  25639703.737    25639702.5214   25639705.3434
        38.400          21.2004
 140822118.097 6                  26797540.653
        40.000
 106190835.412 8  82593004.491 8  19893082.355    19893082.552    19893089.195
        52.200          49.100
 126467044.767 6  98545822.54344  24065863.895    24065863.4844   24065870.5674
        41.700          25.5004
 125319859.122 8                  23847538.467
        48.100
 110502040.424 7  86105624.25348  21027803.880    21027803.4784   21027808.9514
        47.800          49.1004
 129329714.002 7                  24610584.264
        46.700
 125655405.252 7                  23489946.475    23489945.996
        43.300
 146297089.710 6                  27839390.158
        39.400
 129778617.486 6                  24303359.334    24303358.211
        36.700
 130649069.200 6 101804547.89644  24861676.419    24861675.5344   24861686.4744
        37.300          27.5004
 124277015.911 6                  23314029.149    23314028.722
        39.100
 150590166.423 5                  28656314.324
        33.100
 110340862.708 8  85980029.74048  20997118.101    20997117.5024   20997119.7814
        48.900          48.1004
 108984245.482 8  84765701.212 8  20402028.447    20402028.382    20402037.428
        52.200          48.100
 151632774.752 5                  28854734.858
        33.900
 126807380.669 8                  24130597.078
        48.300
 146530894.941 6                  27883890.671
        37.200
 110368728.687 7  86001712.33546  21002435.186    21002434.8204   21002437.9974
        47.000          37.0004
 106871941.304 8  83276963.89046  20337003.014    20337001.5574   20337002.9664
        48.900          41.3004
 25  1  1  0  3 45.0000000  0 32E34R21R11S31S35R20G03S48G24S33G12G02
                                E15R22R05G11E02G06E36R23E27R13G30R10
                                E11G17R12E07E30E25G14G19
 123873274.572 8                  23572253.807
        49.200
 106803818.747 8  83069789.078 7  19958800.901    19958801.339    19958809.416
        52.700          47.500
 104080802.818 8  80951887.970 8  19477255.361    19477255.273    19477261.968
        52.400          49.300
 198980331.162 7                  37864704.701
        45.600
 200907550.409 7                  38231457.261
        44.400
 128347108.846 5  99825640.621 6  24001515.597    24001516.489    24001528.189
        33.000          39.500
 121272066.503 7  94497810.52946  23077281.672    23077281.4404   23077287.7914
        42.800          39.2004
 412999160.680 5                  78590871.073
        31.900
 120404833.238 7  93822080.85646  22912234.227    22912233.7364   22912242.3384
        43.600          39.3004
 202136582.863 7                  38465299.537
        45.300
 132940984.272 6 103590449.47844  25297823.943    25297823.3624   25297838.5974
        39.700          28.8004
 134788979.567 6 105030471.53043  25649456.136    25649454.9434   25649456.6194
        38.200          21.0004
 140777307.272 6                  26789013.778
        40.800
 106165246.786 8  82573102.277 8  19888288.497    19888288.878    19888295.445
        51.800          48.800
 131716194.812 7 102445953.298 6  24640237.008    24640237.018    24640243.848
        42.100          37.200
 126413245.181 6  98503900.99844  24055625.845    24055625.4344   24055632.5104
        41.200          25.9004
 125336818.476 8                  23850765.430
        48.100
 110468409.560 8  86079418.45248  21021403.989    21021403.5874   21021409.1564
        48.200          49.2004
 129354312.337 7                  24615265.270
        47.000
 125600138.484 6                  23479614.006    23479613.722
        41.700
 146258772.137 6                  27832098.432
        39.600
 129715250.571 5                  24291490.674    24291490.350
        35.500
 130704292.922 6 101847579.38044  24872184.089    24872183.2004   24872194.9574
        36.900          27.0004
 124338580.290 6                  23325580.072    23325580.068
        40.700
 150634242.374 5                  28664702.017
        34.400
 110359291.268 8  85994389.67948  21000624.871    21000624.2724   21000626.5924
        48.900          48.1004
 108942071.454 8  84732899.287 8  20394133.511    20394133.178    20394142.099
        52.400          48.200
 151665730.090 5                  28861006.699
        35.100
 126787637.853 8                  24126840.054
        48.400
 146567958.352 6                  27890943.650
        36.900
 110398445.755 7  86024868.49546  21008090.222    21008089.8564   21008092.9324
        46.800          37.0004
 106862680.445 8  83269747.66446  20335240.991    20335239.5344   20335240.6904
        48.900          41.3004
 25  1  1  0  4  0.0000000  0 32E34R21R11S31S35R20G03S48G24S33G12G02
                                E15R22R05G11E02G06E36R23E27R13G30R10
                                E11G17R12E07E30E25G14G19
 123855340.528 8                  23568841.437
        48.800
 106837659.773 8  83096109.885 7  19965124.936    19965125.134    19965133.399
        52.400          47.500
 104106332.822 8  80971744.642 8  19482032.774    19482032.844    19482039.508
        52.600          49.500
 198980335.207 7                  37864704.473
        45.700
 200907582.611 7                  38231462.256
        44.100
 128406889.984 5  99872137.249 6  24012696.547    24012695.429    24012707.988
        32.000          39.200
 121266451.004 7  94493434.84646  23076213.117    23076212.8854   23076219.1364
        42.600          39.2004
 412999285.194 5                  78590861.155
        33.100
 120393391.568 7  93813165.34146  22910056.784    22910056.2794   22910065.1104
        43.600          39.6004
 202136577.906 7                  38465296.752
        45.200
 132888545.747 6 103549588.59444  25287844.517    25287843.9454   25287859.8544
        39.100          28.7004
 134840220.780 6 105070399.76943  25659207.077    25659205.9194   25659207.5914
        38.500          21.0004
 140732526.752 6                  26780491.382
        40.800
 106139795.682 8  82553307.038 8  19883520.708    19883521.064    19883527.676
        52.300          48.900
 131686485.244 7 102422845.688 6  24634679.618    24634679.663    24634686.547
        42.200          37.200
 126359480.982 6  98462007.03344  24045395.145    24045394.7304   24045401.3304
        41.500          26.1004
 125353837.153 7                  23854003.953
        47.900
 110434892.910 8  86053301.64648  21015025.866    21015025.4604   21015031.0714
        48.100          49.4004
 129378984.908 7                  24619960.301
        46.600
 125544928.588 6                  23469292.595    23469292.448
        41.500
 146220444.864 6                  27824805.088
        40.100
 129651879.919 5                  24279625.095    24279622.633
        35.200
 130759498.963 6 101890597.09644  24882690.565    24882689.6804   24882700.1584
        37.200          28.0004
 124400191.382 6                  23337136.992    23337136.498
        38.700
 150678323.455 5                  28673090.050
        31.800
 110377756.380 8  86008778.09848  21004138.487    21004137.8844   21004140.3494
        48.500          48.1004
 108900009.661 8  84700184.641 8  20386258.710    20386259.152    20386268.238
        51.900          48.200
 151698697.780 6                  28867280.177
        36.800
 126767937.939 8                  24123091.284
        48.200
 146605045.745 6                  27898000.873
        36.400
 110428255.412 7  86048096.80546  21013762.850    21013762.4844   21013765.5294
        46.700          37.1004
 106853485.318 8  83262582.65446  20333490.946    20333489.4844   20333490.8864
        48.600          41.5004
 25  1  1  0  4 15.0000000  0 32E34R21R11S31S35R20G03S48G24S33G12G02
                                E15R22R05G11E02G06E36R23E27R13G30R10
                                E11G17R12E07E30E25G14G19
 123837507.617 8                  23565447.835
        48.900
 106871607.925 8  83122514.032 7  19971469.189    19971469.325    19971477.272
        52.500          47.300
 104132037.897 8  80991737.496 8  19486842.691    19486843.232    19486849.936
        52.000          49.400
 198980344.534 7                  37864708.274
        45.700
 200907620.010 7                  38231466.759
        44.400
 128466659.139 5  99918624.250 6  24023873.522    24023873.099    24023884.710
        32.000          39.300
 121260985.807 7  94489176.29046  23075173.071    23075172.8484   23075179.1044
        42.800          39.3004
 412997814.771 5                  78590859.505
        32.200
 120382101.769 7  93804368.17246  22907908.637    22907908.1324   22907916.7994
        43.200          39.7004
 202136577.590 7                  38465296.778
        45.100
 132836104.115 6 103508725.30744  25277865.782    25277865.2194   25277879.9484
        38.200          29.0004
 134891464.817 6 105110330.23843  25668958.224    25668957.0664   25668959.1674
        39.000          21.4004
 140687785.128 6                  26771977.479
        40.400
 106114490.598 8  82533625.362 8  19878779.986    19878780.469    19878786.920
        52.300          48.800
 131656907.675 6 102399840.759 6  24629146.234    24629146.544    24629153.249
        40.300          36.800
 126305760.837 6  98420147.40044  24035171.633    24035171.2004   24035178.7944
        41.600          26.3004
 125370923.613 7                  23857255.597
        47.700
 110401499.083 8  86027280.54348  21008671.397    21008670.9774   21008676.3854
        48.000          49.5004
 129403739.902 7                  24624671.031
        46.600
 125489784.148 6                  23458984.404    23458984.262
        41.300
 146182116.386 6                  27817510.691
        39.500
 129588514.407 6                  24267756.688    24267756.386
        36.600
 130814695.354 6 101933607.28444  24893193.689    24893192.8094   24893203.9724
        36.100          27.3004
 124461858.164 6                  23348707.231    23348705.628
        40.100
 150722416.711 5                  28681481.083
        32.400
 110396266.202 8  86023201.35348  21007660.897    21007660.3034   21007662.6104
        48.500          48.2004
 108858069.252 8  84667564.387 8  20378407.460    20378407.761    20378416.628
        52.200          48.300
 151731686.120 5                  28873557.353
        32.900
 126748289.446 8                  24119352.353
        48.200
 146642165.403 6                  27905064.771
        36.200
 110458166.007 7  86071403.77146  21019454.522    21019454.1564   21019457.2654
        46.700          37.2004
 106844364.431 8  83255475.50046  20331755.430    20331753.9824   20331755.2264
        48.600          41.6004
 25  1  1  0  4 30.0000000  0 32E34R21R11S31S35R20G03S48G24S33G12G02
                                E15R22R05G11E02G06E36R23E27R13G30R10
                                E11G17R12E07E30E25G14G19
 123819771.151 8                  23562072.690
        48.800
 106905658.132 8  83148997.543 7  19977832.052    19977832.291    19977840.561
        52.700          47.400
 104157913.104 8  81011862.654 8  19491685.749    19491685.458    19491692.136
        52.100          49.400
 198980354.475 7                  37864705.940
        45.800
 200907657.188 7                  38231478.845
        44.600
 128526412.726 5  99965099.287 6  24035045.023    24035046.637    24035059.112
        32.200          40.000
 121255666.335 7  94485031.28546  23074160.386    23074160.1584   23074166.8854
        43.000          39.1004
 412997943.436 5                  78590864.879
        32.900
 120370959.163 7  93795685.69546  22905788.484    22905787.9884   22905796.2754
        43.300          39.5004
 202136578.419 7                  38465297.735
        45.200
 132783654.745 6 103467856.00544  25267884.759    25267884.1924   25267898.5984
        38.700          28.5004
 134942707.029 6 105150259.38443  25678708.811    25678707.6494   25678710.4974
        39.000          20.8004
 140643077.829 6                  26763469.863
        41.100
 106089326.848 8  82514053.597 8  19874066.363    19874066.825    19874072.882
        52.600          49.000
 131627458.041 6 102376935.330 5  24623637.289    24623637.416    24623644.559
        38.900          35.300
 126252080.276 7  98378318.60744  24024956.594    24024956.1654   24024963.2204
        42.000          26.1004
 125388073.144 7                  23860518.978
        47.500
 110368223.526 8  86001351.60148  21002339.211    21002338.7964   21002344.2014
        48.000          49.4004
 129428572.424 7                  24629396.451
        46.500
 125434700.923 7                  23448686.522    23448686.947
        42.300
 146143782.084 6                  27810216.152
        39.100
 129525149.480 5                  24255889.884    24255888.530
        34.400
 130869877.108 6 101976606.06144  24903694.719    24903693.7984   24903704.3354
        36.100          27.1004
 124523575.128 6                  23360284.690    23360283.942
        40.100
 150766518.638 5                  28689873.704
        32.500
 110414816.120 8  86037655.85348  21011190.795    21011190.2104   21011192.4784
        48.500          48.0004
 108816245.712 8  84635035.034 8  20370577.782    20370578.263    20370587.215
        51.900          48.200
 151764689.990 5                  28879837.572
        35.400
 126728687.847 8                  24115622.159
        48.200
 146679312.603 6                  27912133.797
        36.300
 110488172.742 7  86094785.64646  21025164.725    21025164.3634   21025167.3484
        46.300          37.0004
 106835312.724 8  83248422.24546  20330032.940    20330031.4874   20330032.7264
        48.700          41.5004
 25  1  1  0  4 45.0000000  0 32E34R21R11S31S35R20G03S48G24S33G12G02
                                E15R22R05G11E02G06E36R23E27R13G30R10
                                E11G17R12E07E30E25G14G19
 123802128.117 8                  23558715.129
        48.800
 106939806.653 8  83175557.489 7  19984213.831    19984213.990    19984221.866
        53.000          47.600
 104183955.206 8  81032117.628 8  19496558.806    19496558.834    19496565.623
        51.800          49.400
 198980361.294 7                  37864709.123
        46.000
 200907692.220 7                  38231481.188
        44.500
 128586147.444 5 100011560.004 6  24046216.344    24046217.184    24046229.565
        32.000          39.400
 121250489.674 7  94480997.55546  23073175.839    23073175.6034   23073181.8184
        42.300          38.9004
 412998068.408 5                  78590854.903
        32.800
 120359960.731 7  93787115.55446  22903695.523    22903695.0364   22903703.1854
        42.900          39.5004
 202136575.880 7                  38465297.668
        45.500
