     2.11           OBSERVATION DATA    M (MIXED)           RINEX VERSION / TYPE
teqc  2019Feb25                         20260317 16:20:09UTCPGM / RUN BY / DATE
Linux 2.4.21-27.ELsmp|Opteron|gcc -static|Linux 64|=+       COMMENT
BIT 2 OF LLI FLAGS DATA COLLECTED UNDER A/S CONDITION       COMMENT
-Unknown-                                                   MARKER NAME
-Unknown-           -Unknown-                               OBSERVER / AGENCY
-Unknown-           -Unknown-           -Unknown-           REC # / TYPE / VERS
-Unknown-           -Unknown-                               ANT # / TYPE
        0.0000        0.0000        0.0000                  APPROX POSITION XYZ
        0.0000        0.0000        0.0000                  ANTENNA: DELTA H/E/N
     1     1                                                WAVELENGTH FACT L1/2
     7    L1    L2    C1    P1    P2    S1    S2            # / TYPES OF OBSERV
 SNR is mapped to RINEX snr flag value [0-9]                COMMENT
  L1 & L2: min(max(int(snr_dBHz/6), 0), 9)                  COMMENT
  2025     1     1    16     0    0.0000000     GPS         TIME OF FIRST OBS
    18                                                      LEAP SECONDS
                                                            END OF HEADER
 25  1  1 16  0  0.0000000  0 29G09G26E19E36S31S35G07G03R06S48S33E27
                                E11E29E04E31G16G27E21G04R15E06R07R10
                                R05R16G29G28G31
 119678272.473 7  93255808.16946  22774016.982    22774016.4064   22774019.1874
        43.400          41.5004
 108684598.895 8  84689327.34648  20681986.796    20681986.1534   20681989.9194
        49.100          49.3004
 121784407.082 7                  23174802.864
        43.900
 152277662.795 5                  28977476.642
        34.600
 198981260.924 7                  37864877.865
        45.700
 200927462.510 7                  38235235.947
        44.100
 133325465.843 6 103890000.80444  25370988.261    25370987.6044   25370992.8054
        38.200          27.5004
 112533889.074 7  87688754.13047  21414487.613    21414487.3634   21414491.3994
        47.700          46.2004
 102255938.965 7                  19162720.066    19162719.620
        42.200
 412764658.901 5                  78546439.712
        33.400
 202111098.164 7                  38460443.319
        45.300
 145428768.361 6                  27674175.909
        39.700
 150562500.625 5                  28651097.473
        33.200
 139105400.308 6                  26470895.996
        40.700
 129673889.727 7                  24676121.361
        46.800
 147787374.941 6                  28122990.782
        37.300
 105180456.867 8  81958866.81046  20015151.874    20015150.8684   20015152.2604
        48.100          39.9004
 126949933.018 6  98922141.15645  24157743.537    24157742.7424   24157760.0684
        40.300          34.2004
 125984651.294 7                  23974072.761
        47.300
 109541680.198 7  85357158.41046  20845088.367    20845087.9704   20845089.2704
        47.800          36.6004
 127202075.634 7  98934985.868 7  23804135.796    23804136.761    23804145.795
        43.800          42.400
 140300702.882 6                  26698336.263
        41.800
 111089092.145 8  86402650.927 7  20752371.022    20752371.283    20752377.453
        51.700          47.100
 124692464.115 6                  23391965.537    23391965.085
        39.900
 121631052.219 7  94601891.612 7  22753633.829    22753633.670    22753652.069
        43.800          43.000
 105929265.384 8  82389474.071 8  19830174.452    19830174.598    19830180.787
        52.600          48.300
 132967514.987 6 103611184.14944  25302827.421    25302826.7874   25302831.1614
        38.400          29.6004
 126598695.691 7  98648322.81344  24090940.977    24090940.6154   24090945.5224
        42.100          25.7004
 114972020.030 7  89588584.61547  21878450.584    21878450.0844   21878450.8184
        47.300          45.6004
 25  1  1 16  0 15.0000000  0 29G09G26E19E36S31S35G07G03R06S48S33E27
                                E11E29E04E31G16G27E21G04R15E06R07R10
                                R05R16G29G28G31
 119631493.760 7  93219357.24046  22765115.300    22765114.7334   22765117.5954
        43.500          41.8004
 108710853.433 8  84709785.44548  20686982.583    20686981.9444   20686985.9654
        49.000          49.2004
 121794740.603 7                  23176769.291
        43.800
 152286399.425 5                  28979139.291
        34.700
 198981260.616 7                  37864877.346
        45.700
 200927428.343 7                  38235228.511
        43.800
 133289843.131 6 103862243.01544  25364208.907    25364208.2234   25364214.0004
        38.600          27.3004
 112566494.050 7  87714160.56247  21420692.274    21420692.0154   21420695.9674
        47.600          46.2004
 102263029.775 7                  19164048.707    19164048.837
        42.100
 412765204.165 5                  78546475.100
        32.900
 202111124.115 7                  38460453.130
        45.500
 145469780.026 6                  27681980.799
        39.100
 150593604.972 5                  28657016.703
        32.400
 139139466.142 6                  26477378.403
        41.100
 129645893.009 7                  24670793.802
        46.800
 147741631.906 6                  28114285.425
        36.900
 105167139.877 8  81948489.94146  20012617.750    20012616.7444   20012618.0804
        48.000          39.9004
 126898096.294 6  98881749.10945  24147878.939    24147878.1214   24147895.5704
        40.100          34.4004
 125996913.916 7                  23976406.230
        47.300
 109511538.474 7  85333671.33946  20839352.245    20839351.8434   20839353.4844
        47.400          36.6004
 127260289.603 7  98980263.025 6  23815029.507    23815030.148    23815039.700
        42.800          41.900
 140263877.999 6                  26691328.761
        41.800
 111041774.843 8  86365848.566 7  20743531.675    20743531.896    20743537.972
        51.500          47.300
 124638077.287 6                  23381761.238    23381761.196
        39.000
 121691374.976 7  94648808.957 7  22764919.408    22764919.657    22764936.964
        45.300          43.000
 105961350.357 8  82414429.024 8  19836181.066    19836180.900    19836187.146
        53.100          48.200
 132986176.052 6 103625725.24444  25306378.476    25306377.8194   25306382.3724
        38.400          28.7004
 126639225.994 6  98679904.74644  24098653.651    24098653.3074   24098657.9894
        41.200          25.5004
 115007230.749 7  89616021.52247  21885151.241    21885150.7684   21885151.1334
        47.300          45.5004
 25  1  1 16  0 30.0000000  0 29G09G26E19E36S31S35G07G03R06S48S33E27
                                E11E29E04E31G16G27E21G04R15E06R07R10
                                R05R16G29G28G31
 119584747.684 7  93182931.76446  22756219.562    22756218.9994   22756221.9774
        43.500          41.4004
 108737227.906 8  84730336.99348  20692001.254    20692000.6064   20692004.8564
        49.300          49.0004
 121805139.570 7                  23178748.023
        43.600
 152295233.644 5                  28980820.694
        32.700
 198981260.643 7                  37864875.119
        45.600
 200927394.007 7                  38235223.583
        43.700
 133254230.938 6 103834493.41744  25357432.621    25357431.9424   25357436.9884
        38.200          26.7004
 112599219.091 7  87739660.55947  21426919.676    21426919.4044   21426923.3644
        47.600          46.1004
 102270305.322 6                  19165412.453    19165412.061
        41.700
 412765750.105 5                  78546505.968
        33.300
 202111149.620 7                  38460461.179
        45.600
 145510818.127 6                  27689789.479
        40.400
 150624752.110 5                  28662944.286
        32.100
 139173571.550 6                  26483868.536
        40.800
 129617927.387 7                  24665472.383
        46.600
 147695900.413 6                  28105583.096
        36.300
 105153983.526 7  81938238.25946  20010114.229    20010113.2284   20010114.5574
        47.900          39.9004
 126846262.544 6  98841359.37245  24138015.613    24138014.7864   24138031.6674
        39.700          34.3004
 126009268.341 7                  23978757.274
        47.300
 109481471.487 7  85310242.52846  20833630.889    20833630.4834   20833631.9674
        47.500          36.5004
 127318490.371 7  99025529.855 6  23825922.700    23825923.235    23825931.701
        43.800          41.300
 140227057.322 6                  26684321.692
        41.300
 110994556.850 8  86329123.438 7  20734711.162    20734711.240    20734717.437
        50.900          47.300
 124583751.076 6                  23371570.947    23371570.529
        39.200
 121751763.880 7  94695777.745 7  22776216.208    22776216.818    22776233.789
        44.900          42.400
 105993538.448 8  82439464.219 8  19842206.850    19842206.984    19842212.998
        53.400          48.300
 133004961.921 6 103640363.49344  25309953.838    25309953.1774   25309956.5714
        37.400          28.6004
 126679764.020 6  98711492.71244  24106368.066    24106367.7224   24106372.1824
        41.300          25.1004
 115042475.674 7  89643485.08247  21891858.002    21891857.5374   21891857.9644
        47.500          45.2004
 25  1  1 16  0 45.0000000  0 29G09G26E19E36S31S35G07G03R06S48S33E27
                                E11E29E04E31G16G27E21G04R15E06R07R10
                                R05R16G29G28G31
 119538031.323 7  93146529.44146  22747330.051    22747329.4974   22747332.1104
        43.900          41.5004
 108763718.983 8  84750979.41548  20697042.532    20697041.8844   20697045.9174
        49.100          48.9004
 121815601.017 7                  23180738.922
        43.800
 152304162.126 5                  28982519.707
        32.800
 198981257.429 7                  37864879.944
        46.200
 200927356.990 7                  38235207.959
        43.700
 133218626.233 6 103806749.67944  25350657.260    25350656.5814   25350662.0104
        38.300          27.4004
 112632060.807 7  87765251.48047  21433169.049    21433168.7814   21433172.9534
        47.900          46.1004
 102277762.632 6                  19166809.781    19166809.671
        41.600
 412766293.346 5                  78546533.263
        33.400
 202111173.013 7                  38460459.945
        45.600
 145551879.349 6                  27697603.123
        40.000
 150655938.860 5                  28668879.235
        32.900
 139207713.410 6                  26490365.670
        40.700
 129589989.911 7                  24660155.782
        46.900
 147650177.484 6                  28096882.150
        37.200
 105140984.816 8  81928109.41246  20007640.690    20007639.6804   20007640.9684
        48.100          39.9004
 126794429.151 6  98800969.90745  24128151.890    24128151.0684   24128167.9524
        40.700          34.7004
 126021711.408 7                  23981125.011
        47.500
 109451476.362 7  85286869.70746  20827923.103    20827922.6974   20827924.0664
        47.700          36.5004
 127376674.420 7  99070783.475 6  23836810.470    23836810.366    23836820.500
        42.100          41.200
 140190237.888 6                  26677315.771
        41.200
 110947435.696 8  86292473.626 7  20725909.022    20725908.650    20725914.874
        51.600          47.100
 124529482.787 6                  23361390.425    23361389.525
        38.600
 121812215.651 7  94742795.448 7  22787525.209    22787525.104    22787543.502
        44.400          42.600
 106025826.183 8  82464576.920 8  19848250.731    19848251.016    19848257.236
        53.000          48.300
 133023869.373 6 103655096.39544  25313550.993    25313550.3414   25313554.3984
        39.000          28.9004
 126720306.609 6  98743084.23944  24114083.371    24114083.0234   24114087.2204
        41.500          25.1004
 115077751.772 8  89670972.92847  21898570.732    21898570.2724   21898570.8224
        48.000          45.2004
 25  1  1 16  1  0.0000000  0 29G09G26E19E36S31S35G07G03R06S48S33E27
                                E11E29E04E31G16G27E21G04R15E06R07R10
                                R05R16G29G28G31
 119491350.532 7  93110154.80846  22738446.586    22738446.0284   22738449.1344
        44.700          41.6004
 108790331.967 8  84771716.81848  20702106.857    20702106.2094   20702110.1684
        49.000          48.7004
 121826130.565 7                  23182742.463
        43.700
 152313190.686 4                  28984238.424
        29.700
 198981257.064 7                  37864878.325
        46.000
 200927322.381 7                  38235205.920
        44.000
 133183034.572 6 103779016.08444  25343884.532    25343883.8844   25343888.8704
        38.800          27.2004
 112665024.522 7  87790937.46047  21439441.937    21439441.6694   21439445.7724
        47.800          46.0004
 102285407.569 7                  19168241.988    19168242.455
        42.100
 412765239.231 5                  78546564.841
        33.400
 202111198.518 7                  38460466.290
        45.500
 145592968.889 6                  27705421.851
        39.700
 150687170.587 5                  28674822.042
        31.600
 139241897.355 6                  26496870.826
        40.800
 129562086.347 7                  24654846.047
        47.000
 147604468.902 6                  28088183.646
        37.400
 105128149.336 8  81918107.76146  20005198.125    20005197.1104   20005198.3844
        48.100          39.8004
 126742602.108 6  98760585.36545  24118288.708    24118287.8904   24118305.0784
        40.200          34.6004
 126034248.566 7                  23983510.770
        47.400
 109421558.985 7  85263557.45546  20822229.994    20822229.5834   20822230.9704
        47.500          36.5004
 127434846.270 7  99116027.112 6  23847698.844    23847698.266    23847707.653
        42.400          40.500
 140153425.527 6                  26670310.220
        41.400
 110900417.416 8  86255903.832 7  20717124.986    20717124.912    20717131.297
        51.200          47.000
 124475277.857 6                  23351221.243    23351221.704
        40.000
 121872735.431 7  94789866.013 7  22798847.630    22798847.574    22798865.592
        44.900          43.300
 106058219.108 8  82489771.447 8  19854315.098    19854315.037    19854321.078
        53.300          48.300
 133042904.258 6 103669928.51644  25317173.974    25317173.3134   25317177.2004
        37.000          29.0004
 126760859.394 6  98774683.72944  24121800.395    24121800.0334   24121804.1764
        41.200          25.1004
 115113064.483 8  89698489.28547  21905290.542    21905290.0824   21905290.6114
        48.000          45.0004
 25  1  1 16  1 15.0000000  0 29G09G26E19E36S31S35G07G03R06S48S33E27
                                E11E29E04E31G16G27E21G04R15E06R07R10
                                R05R16G29G28G31
 119444702.484 7  93073805.66346  22729569.797    22729569.2394   22729572.2384
        44.500          41.6004
 108817063.610 8  84792546.68848  20707193.565    20707192.9084   20707196.9884
        49.000          48.7004
 121836725.212 7                  23184758.751
        43.700
 152322317.144 5                  28985974.479
        30.800
 198981255.879 7                  37864877.395
        46.100
 200927286.908 7                  38235197.885
        44.100
 133147452.907 6 103751290.26244  25337112.747    25337112.0594   25337118.1184
        37.200          26.7004
 112698106.801 7  87816715.82347  21445737.254    21445736.9914   21445741.2214
        47.700          46.1004
 102293237.104 6                  19169709.978    19169709.429
        41.400
 412765784.869 5                  78546593.862
        33.200
 202111223.391 7                  38460476.119
        45.700
 145634083.379 6                  27713246.162
        39.900
 150718444.029 5                  28680773.429
        32.600
 139276120.250 6                  26503383.357
        41.000
 129534213.858 7                  24649542.057
        47.300
 147558771.874 6                  28079487.941
        36.200
 105115474.121 7  81908230.98346  20002786.065    20002785.0464   20002786.3734
        47.900          39.8004
 126690778.780 6  98720203.71145  24108427.677    24108426.8864   24108443.2324
        39.800          34.4004
 126046876.636 7                  23985913.943
        47.600
 109391716.592 7  85240303.62346  20816550.942    20816550.5364   20816552.1354
        47.800          36.4004
 127493005.906 7  99161262.352 6  23858582.181    23858583.474    23858591.453
        44.600          41.300
 140116617.262 6                  26663305.503
        41.800
 110853499.675 8  86219412.236 7  20708360.431    20708360.756    20708367.149
        52.000          47.300
 124421133.746 6                  23341062.282    23341062.249
        38.300
 121933319.896 7  94836986.901 7  22810180.930    22810180.951    22810199.063
        44.800          42.700
 106090713.807 8  82515045.123 8  19860397.758    19860398.148    19860404.068
        52.800          48.200
 133062063.800 6 103684857.92044  25320820.224    25320819.5634   25320824.0184
        37.700          29.3004
 126801419.201 6  98806288.64844  24129518.282    24129517.9254   24129522.6174
        41.100          24.8004
 115148410.607 8  89726031.69147  21912016.584    21912016.1154   21912016.7494
        48.000          45.0004
 25  1  1 16  1 30.0000000  0 30G09G26E19E36S31S35G07G03R06S48S33E27
                                E11E29E04E31G16G27E21G04R15E06R07R17
                                R10R05R16G29G28G31
 119398085.956 7  93037481.02446  22720699.037    22720698.4704   22720701.4694
        43.000          41.7004
 108843911.966 8  84813467.48448  20712302.478    20712301.8214   20712306.0454
        48.800          48.7004
 121847383.578 7                  23186786.902
        43.600
 152331538.537 5                  28987729.043
        34.000
 198981252.871 7                  37864875.535
        46.000
 200927250.505 7                  38235187.520
        43.900
 133111879.653 6 103723571.02344  25330344.074    25330343.4134   25330348.7974
        38.200          27.4004
 112731305.908 7  87842585.22647  21452055.013    21452054.7414   21452058.8194
        47.900          46.2004
 102301249.664 7                  19171211.274    19171211.304
        42.000
 412766329.209 5                  78546633.619
        33.300
 202111246.822 7                  38460474.800
        45.800
 145675221.171 6                  27721074.761
        39.600
 150749757.337 5                  28686732.473
        31.500
 139310380.573 6                  26509902.840
        40.700
 129506371.006 7                  24644243.850
        47.100
 147513084.972 6                  28070793.503
        36.600
 105102957.776 8  81898478.00446  20000404.336    20000403.3174   20000404.6084
        48.000          40.0004
 126638958.079 6  98679824.10445  24098566.830    24098566.0434   24098581.5914
        39.800          34.4004
 126059593.963 7                  23988333.894
        47.600
 109361947.973 7  85217107.30646  20810886.371    20810885.9604   20810887.3674
        47.700          36.7004
 127551148.839 7  99206484.317 6  23869462.003    23869463.048    23869472.690
        43.400          41.900
 140079811.634 6                  26656301.903
        41.700
 110806681.336 8  86182997.985 7  20699613.911    20699614.401    20699620.750
        51.700          47.300
 131870728.582 6 102566172.142 6  24643197.697    24643198.229    24643209.687
        41.500          39.500
 124367049.162 6                  23330916.824    23330915.605
        38.600
 121993966.962 7  94884156.470 7  22821526.488    22821526.933    22821544.325
        46.100          42.700
 106123307.923 8  82540396.081 7  19866499.655    19866499.945    19866505.888
        52.900          47.900
 133081345.846 6 103699882.80644  25324489.206    25324488.5544   25324493.5574
        38.300          29.8004
 126841984.530 6  98837897.87544  24137238.240    24137237.8874   24137242.1094
        41.300          25.1004
 115183788.564 7  89753598.89447  21918748.746    21918748.2684   21918748.9784
        47.700          45.1004
 25  1  1 16  1 45.0000000  0 30G09G26E19E36S31S35G07G03R06S48S33E27
                                E11E29E04E31G16G27E21G04R15E06R07R17
                                R10R05R16G29G28G31
 119351505.537 7  93001184.56147  22711835.198    22711834.6444   22711837.5514
        44.700          42.0004
 108870881.006 8  84834482.29948  20717434.710    20717434.0534   20717438.0634
        48.900          48.8004
 121858109.979 7                  23188828.178
        43.500
 152340858.881 5                  28989502.377
        34.600
 198981251.778 7                  37864876.818
        46.000
 200927215.512 7                  38235183.692
        43.800
 133076318.983 6 103695861.50744  25323575.812    25323575.1464   25323581.6944
        39.200          27.8004
 112764625.615 7  87868548.60347  21458395.104    21458394.8414   21458399.3214
        47.800          46.4004
 102309449.815 7                  19172748.044    19172747.990
        42.100
 412766875.547 5                  78546662.215
        33.700
 202111272.103 7                  38460476.951
        45.300
 145716386.307 6                  27728908.770
        39.200
 150781114.594 5                  28692699.320
        33.000
 139344682.491 6                  26516430.505
        40.400
 129478562.211 7                  24638951.997
        47.000
 147467412.654 6                  28062102.226
        37.400
 105090604.596 7  81888852.16346  19998053.639    19998052.6294   19998053.8314
        47.900          40.1004
 126587144.565 6  98639450.08645  24088706.303    24088705.5254   24088721.7934
        40.800          35.0004
 126072404.570 7                  23990771.455
        47.500
 109332257.546 7  85193971.91246  20805236.335    20805235.9204   20805237.4684
        47.600          36.7004
 127609280.300 7  99251697.629 7  23880341.620    23880341.580    23880351.084
        43.500          42.200
 140043012.998 6                  26649299.347
        41.700
 110759966.911 8  86146664.505 7  20690887.669    20690887.832    20690894.181
        51.900          47.300
 131838749.012 6 102541299.017 6  24637220.798    24637221.136    24637233.162
        41.100          38.900
 124313028.700 6                  23320782.198    23320782.072
        38.600
 122054680.757 7  94931377.973 7  22832884.378    22832884.809    22832902.457
        45.000          42.700
 106156005.334 8  82565827.343 8  19872620.692    19872620.827    19872626.864
        52.900          48.100
 133100754.337 6 103715006.17544  25328183.160    25328182.5124   25328186.7014
        38.400          29.7004
 126882559.554 6  98869514.67744  24144959.368    24144959.0024   24144963.3894
        41.400          25.2004
 115219202.406 7  89781194.07147  21925488.006    21925487.5284   21925488.0534
        47.900          45.2004
 25  1  1 16  2  0.0000000  0 29G09G26E19S31S35G07G03R06S48S33E27E11
                                E29E04E31G16G27E21G04R15E06R07R17R10
                                R05R16G29G28G31
 119304960.979 7  92964916.07847  22702977.836    22702977.2784   22702980.2774
        44.000          42.0004
 108897970.021 8  84855590.62348  20722589.627    20722588.9704   20722592.9324
        49.200          48.8004
 121868903.845 7                  23190882.041
        43.600
 198981252.687 7                  37864877.395
        46.200
 200927182.026 7                  38235179.775
        43.900
 133040770.426 6 103668161.50144  25316811.143    25316810.4414   25316816.6164
        38.500          27.3004
 112798065.098 8  87894605.30247  21464758.800    21464758.5374   21464762.7174
        48.200          46.4004
 102317836.719 7                  19174319.721    19174319.542
        42.000
 412765823.707 5                  78546691.285
        33.600
 202111299.619 7                  38460485.809
        45.600
 145757578.689 6                  27736747.033
        39.500
 150812514.833 5                  28698674.208
        32.600
 139379025.425 6                  26522965.699
        41.300
 129450787.050 7                  24633666.494
        46.800
 147421754.596 6                  28053413.991
        36.900
 105078413.972 7  81879352.98946  19995734.081    19995733.0714   19995734.0254
        47.700          40.2004
 126535338.170 6  98599081.61345  24078848.341    24078847.5634   24078863.3724
        39.700          35.0004
 126085307.949 7                  23993227.185
        47.600
 109302645.062 7  85170897.24846  20799601.475    20799601.0604   20799602.3784
        47.400          36.8004
 127667398.576 7  99296900.584 7  23891217.839    23891217.885    23891227.925
        43.800          42.200
 140006220.975 7                  26642298.493
        42.100
 110713356.428 8  86110411.905 7  20682179.938    20682180.676    20682187.150
        51.700          47.400
 131806890.616 6 102516520.166 6  24631267.073    24631267.631    24631280.368
        40.900          39.400
 124259071.693 6                  23310660.836    23310660.340
        39.600
 122115460.471 7  94978650.724 7  22844255.745    22844255.649    22844273.404
        45.800          42.900
 106188805.459 8  82591338.549 8  19878761.048    19878761.233    19878767.198
        53.100          48.300
 133120289.062 6 103730227.97344  25331900.039    25331899.3964   25331903.9614
        38.900          29.7004
 126923143.694 6  98901138.54844  24152682.532    24152682.1704   24152686.3914
        40.800          24.9004
 115254651.449 7  89808816.66647  21932233.885    21932233.4074   21932233.8274
        47.900          45.1004
 25  1  1 16  2 15.0000000  0 29G09G26E19S31S35G07G03R06S48S33E27E11
                                E29E04E31G16G27E21G04R15E06R07R17R10
                                R05R16G29G28G31
 119258444.533 7  92928669.49347  22694126.288    22694125.7344   22694128.6064
        44.100          42.1004
 108925170.733 8  84876785.99348  20727765.412    20727764.7514   20727769.0414
        48.800          48.8004
 121879757.287 7                  23192947.534
        43.500
 198981247.476 7                  37864878.173
        46.100
 200927142.890 7                  38235173.081
        44.100
 133005225.926 6 103640464.65244  25310047.377    25310046.6624   25310052.1834
        38.000          27.3004
 112831616.139 7  87920748.93547  21471143.138    21471142.8704   21471147.3804
        47.800          46.5004
 102326402.664 7                  19175925.322    19175924.899
        42.000
 412766366.009 5                  78546716.675
        33.700
 202111320.833 7                  38460489.046
        45.600
 145798789.863 6                  27744589.836
        39.600
 150843950.058 5                  28704655.862
        32.200
 139413401.395 6                  26529507.466
        40.200
 129423037.786 7                  24628385.970
        46.800
 147376102.943 6                  28044726.282
        36.900
 105066378.115 7  81869974.42646  19993443.672    19993442.6804   19993443.6604
        47.900          40.4004
 126483531.301 6  98558712.75645  24068989.560    24068988.7874   24069004.6654
        39.900          35.2004
 126098295.881 7                  23995698.568
        47.400
 109273102.865 7  85147877.34846  20793979.789    20793979.3744   20793980.7124
        47.300          36.9004
 127725495.789 7  99342087.207 7  23902089.688    23902089.916    23902099.813
        43.600          42.400
 139969427.777 6                  26635296.696
        41.200
 110666842.481 8  86074234.387 7  20673490.882    20673491.401    20673497.772
        51.600          47.400
 131775145.862 6 102491829.800 6  24625335.126    24625335.966    24625347.500
        38.900          37.400
 124205170.554 6                  23300547.308    23300547.251
        38.600
 122176297.605 7  95025968.142 7  22855635.779    22855635.312    22855654.797
        44.500          42.900
 106221699.751 8  82616922.995 8  19884918.803    19884919.033    19884925.087
        53.000          48.000
 133139941.817 6 103745541.75344  25335639.823    25335639.1804   25335643.8924
        38.700          29.6004
 126963729.008 6  98932763.36544  24160405.936    24160405.5744   24160409.8314
        40.400          24.9004
 115290127.779 7  89836460.54147  21938984.736    21938984.2584   21938984.7344
        47.400          45.3004
 25  1  1 16  2 30.0000000  0 29G09G26E19S31S35G07G03R06S48S33E27E11
                                E29E04E31G16G27E21G04R15E06R07R17R10
                                R05R16G29G28G31
 119211966.963 7  92892453.19347  22685281.961    22685281.3984   22685284.4304
        44.800          42.2004
 108952493.389 8  84898076.34148  20732964.882    20732964.2254   20732968.3624
        48.700          48.8004
 121890681.050 7                  23195026.236
        43.300
 198981246.603 7                  37864873.174
        45.500
 200927107.843 7                  38235168.207
        44.100
 132969696.179 6 103612779.28744  25303285.689    25303284.9964   25303291.2064
        38.700          28.2004
 112865288.945 7  87946987.45047  21477551.304    21477551.0324   21477555.1304
        47.700          46.6004
 102335158.339 7                  19177565.757    19177565.806
        42.200
 412766913.319 5                  78546762.223
        33.600
 202111346.831 7                  38460493.589
        45.500
 145840030.592 6                  27752437.624
        38.800
 150875430.392 5                  28710646.965
        32.600
 139447820.937 6                  26536057.682
        40.800
 129395325.181 7                  24623112.503
        47.000
 147330468.347 6                  28036042.438
        36.900
 105054507.574 7  81860724.67446  19991184.593    19991183.6014   19991184.7714
        47.700          40.4004
 126431734.957 6  98518352.08945  24059132.481    24059131.6944   24059148.1404
        39.900          35.5004
 126111378.853 7                  23998188.089
        47.500
 109243641.759 7  85124920.64746  20788373.410    20788372.9904   20788374.4964
        47.600          37.0004
 127783581.911 7  99387265.095 7  23912960.358    23912959.737    23912970.551
        43.600          42.100
 139932644.064 7                  26628296.800
        42.200
 110620436.092 8  86038140.549 7  20664822.200    20664822.204    20664828.499
        51.200          47.500
 131743525.863 6 102467236.372 6  24619426.758    24619428.049    24619438.787
        41.600          39.300
 124151335.912 6                  23290451.399    23290449.715
        39.600
 122237202.591 7  95073338.329 7  22867029.262    22867029.399    22867048.290
        44.600          42.900
 106254698.516 8  82642588.685 8  19891096.157    19891096.445    19891102.584
        52.900          48.100
 133159722.058 6 103760954.66044  25339404.242    25339403.6164   25339407.9034
        38.100          29.8004
 127004325.923 6  98964397.21344  24168130.839    24168130.4684   24168135.3374
        41.600          25.5004
 115325641.770 7  89864133.75247  21945742.756    21945742.2964   21945742.8584
        47.400          45.3004
 25  1  1 16  2 45.0000000  0 30G09G26E19S31S35G07G03R06S48S33E27E11
                                E29E04E31G16G27E21G04R15E06R07R17R10
                                R05R16G29G28G31E09
 119165520.752 7  92856261.34847  22676443.259    22676442.6874   22676445.9104
        43.900          42.0004
 108979929.902 8  84919455.45648  20738186.069    20738185.4084   20738189.3754
        48.900          48.6004
 121901667.300 7                  23197116.687
        43.300
 198981241.765 7                  37864870.889
        45.600
 200927069.011 7                  38235149.886
        43.300
 132934173.060 6 103585099.09544  25296525.713    25296525.0254   25296531.1094
        38.200          28.2004
 112899075.281 7  87973314.42947  21483980.450    21483980.1874   21483984.4744
        47.700          46.3004
 102344095.730 7                  19179241.177    19179240.661
        42.100
 412767457.912 5                  78546784.997
        34.000
 202111368.481 7                  38460498.088
        45.000
 145881292.384 6                  27760289.416
        38.800
 150906947.820 5                  28716644.741
        33.300
 139482276.129 6                  26542614.300
        40.500
 129367641.344 7                  24617844.503
        46.600
 147284843.210 6                  28027359.609
        36.300
 105042794.570 8  81851597.69146  19988955.640    19988954.6524   19988955.8334
        48.000          40.3004
 126379941.651 6  98477993.78045  24049276.420    24049275.6514   24049292.3364
        40.200          35.4004
 126124548.746 7                  24000694.396
        47.500
 109214254.094 7  85102021.16046  20782781.109    20782780.6854   20782782.2364
        47.600          36.8004
 127841649.030 7  99432428.187 6  23923826.264    23923826.947    23923836.406
        44.400          41.200
 139895862.051 6                  26621297.537
        41.800
 110574129.893 8  86002124.639 7  20656171.715    20656171.832    20656178.525
        51.600          47.500
 131712023.051 7 102442734.158 6  24613540.114    24613540.586    24613551.342
        42.500          39.100
 124097560.235 6                  23280361.021    23280360.268
        38.500
 122298166.972 7  95120754.715 7  22878435.029    22878434.823    22878453.387
        44.900          42.700
 106287793.221 8  82668328.994 8  19897291.716    19897291.968    19897297.879
        52.800          48.100
 133179622.512 6 103776461.16344  25343191.691    25343191.0614   25343195.0094
        37.400          29.2004
 127044926.614 6  98996033.99844  24175856.738    24175856.3544   24175861.2954
        40.500          24.8004
 115361185.433 8  89891830.07847  21952506.626    21952506.1664   21952506.6344
        48.100          45.1004
 152798205.607 5                  29076531.101
        31.500
 25  1  1 16  3  0.0000000  0 30G09G26E19S31S35G07G03R06S48S33E27E11
                                E29E04E31G16G27E21G04R15E06R07R17R10
                                R05R16G29G28G31E09
 119119112.863 7  92820099.37747  22667612.385    22667611.8354   22667614.7244
        43.800          42.2004
 109007486.661 8  84940928.26848  20743429.732    20743429.0624   20743433.2474
        48.800          48.8004
 121912722.812 7                  23199220.681
        43.000
 198981240.488 7                  37864874.368
        45.900
 200927033.596 7                  38235150.758
        44.000
 132898663.467 6 103557429.39244  25289768.801    25289768.1044   25289773.7194
        37.300          27.5004
 112932981.575 7  87999734.88547  21490432.874    21490432.6114   21490436.6594
        47.200          46.5004
 102353221.705 6                  19180950.940    19180950.994
        41.900
 412766406.236 5                  78546809.569
        33.000
 202111393.767 7                  38460504.764
        45.800
 145922581.758 6                  27768146.101
        38.100
 150938508.786 5                  28722650.155
        32.400
 139516773.619 6                  26549179.170
        39.800
 129339993.263 7                  24612583.296
        46.500
 147239234.504 5                  28018680.796
        35.700
 105031245.823 8  81842598.69946  19986757.989    19986757.0064   19986758.1464
        48.000          40.5004
 126328158.507 6  98437643.39345  24039422.615    24039421.8464   24039438.1994
        40.700          35.7004
 126137812.284 7                  24003218.263
        47.300
 109184946.880 7  85079184.34246  20777203.992    20777203.5684   20777205.2104
        47.500          37.0004
 127899703.784 7  99477581.719 7  23934690.421    23934691.295    23934700.597
        44.500          42.300
 139859088.624 6                  26614299.764
        41.000
 110527930.987 8  85966192.177 7  20647541.421    20647541.489    20647547.891
        51.500          47.700
 131680644.676 7 102418328.707 6  24607675.700    24607676.648    24607688.173
        42.500          37.400
 124043850.659 6                  23270284.600    23270285.179
        39.700
 122359197.181 7  95168222.288 7  22889851.847    22889852.163    22889870.387
        45.500          42.700
 106320990.580 8  82694149.162 8  19903506.398    19903506.486    19903512.683
        52.900          48.000
 133199649.450 6 103792065.60444  25347003.358    25347002.7244   25347006.7374
        38.200          29.1004
 127085537.690 6  99027678.88544  24183585.713    24183585.3204   24183589.5334
        39.800          24.9004
 115396765.471 7  89919554.76847  21959276.976    21959276.5074   21959277.2924
        47.900          45.2004
 152759306.183 6                  29069129.130
        36.300
 25  1  1 16  3 15.0000000  0 30G09G26E19S31S35G07G03R06S48S33E27E11
                                E29E04E31G16G27E21G04R15E06R07R17R10
                                R05R16G29G28G31E09
 119072740.479 7  92783965.10047  22658787.828    22658787.2744   22658790.0844
        44.600          42.1004
 109035160.176 8  84962492.02848  20748695.856    20748695.1864   20748699.3474
        48.900          48.7004
 121923844.374 7                  23201337.014
        43.400
 198981239.520 7                  37864865.250
        45.400
 200926998.315 7                  38235145.996
        44.000
 132863164.352 6 103529767.92544  25283014.096    25283013.3994   25283018.1974
        38.200          27.6004
 112967004.309 7  88026246.05747  21496906.988    21496906.7294   21496910.9784
        47.800          46.5004
 102362533.216 6                  19182695.593    19182695.897
        41.900
 412766953.608 5                  78546844.184
        34.400
 202111419.261 7                  38460509.075
        45.700
 145963895.340 6                  27776008.286
        39.200
 150970109.833 5                  28728663.842
        32.300
 139551310.260 6                  26555751.622
        40.400
 129312377.965 7                  24607328.237
        46.800
 147193639.146 6                  28010004.951
        37.000
 105019858.187 8  81833725.24346  19984590.884    19984589.8924   19984591.1314
        48.300          40.5004
 126276382.801 6  98397298.79945  24029570.088    24029569.3284   24029585.4614
        40.500          35.7004
 126151166.174 7                  24005759.423
        47.700
 109155717.302 7  85056408.04446  20771641.934    20771641.5014   20771643.0714
        47.500          37.0004
 127957742.137 7  99522722.235 7  23945553.344    23945553.295    23945562.517
        45.300          42.100
 139822320.700 6                  26607303.239
        41.900
 110481837.012 8  85930341.332 7  20638930.301    20638930.802    20638937.500
        52.000          47.700
 131649388.005 6 102394017.882 6  24601835.964    24601835.112    24601847.648
        40.400          38.500
 123990203.791 6                  23260220.445    23260220.219
        38.300
 122420289.965 7  95215738.568 7  22901280.422    22901279.967    22901299.774
        44.600          43.200
 106354286.848 8  82720046.262 8  19909739.513    19909739.758    19909745.615
        52.700          48.100
 133219800.055 6 103807766.97544  25350837.658    25350837.0284   25350841.9224
        37.800          29.1004
 127126155.983 6  99059329.37244  24191314.705    24191314.3124   24191318.8934
        40.800          24.7004
 115432378.506 8  89947305.17047  21966053.976    21966053.4944   21966054.2464
        48.200          45.2004
 152720390.493 5                  29061723.641
        31.600
 25  1  1 16  3 30.0000000  0 30G09G26E19S31S35G07G03R06S48S33E27E11
                                E29E04E31G16G27E21G04R15E06R07R17R10
                                R05R16G29G28G31E09
 119026403.315 7  92747858.26247  22649970.164    22649969.6064   22649972.3624
        43.800          42.2004
 109062949.927 8  84984146.39448  20753984.098    20753983.4284   20753987.5734
        48.700          48.8004
 121935031.833 7                  23203465.777
        43.400
 198981238.041 7                  37864873.183
        45.800
 200926962.433 7                  38235140.366
        44.500
 132827675.034 6 103502114.04444  25276259.825    25276259.1194   25276264.9744
        37.400          27.8004
 113001142.793 7  88052847.42447  21503403.357    21503403.1034   21503407.3564
        47.600          46.4004
 102372029.832 6                  19184475.173    19184475.599
        41.900
 412767502.314 5                  78546867.543
        33.300
 202111443.858 7                  38460511.552
        45.400
 146005231.950 6                  27783874.702
        38.600
 151001750.305 5                  28734685.363
        32.900
 139585885.652 6                  26562331.233
        40.900
 129284795.013 7                  24602079.288
        46.900
 147148056.752 6                  28001329.729
        36.900
 105008631.459 8  81824977.16746  19982454.505    19982453.4994   19982454.7554
        48.300          40.6004
 126224614.579 6  98356960.02245  24019718.907    24019718.1384   24019734.0214
        41.200          35.4004
 126164609.800 7                  24008317.560
        47.800
 109126565.140 7  85033692.05146  20766094.559    20766094.1394   20766095.6434
        47.600          37.0004
 128015764.123 7  99567850.146 7  23956410.353    23956410.592    23956421.280
        44.400          42.400
 139785558.024 7                  26600307.711
        42.100
 110435847.783 8  85894571.922 7  20630339.214    20630339.568    20630346.065
        51.500          47.400
 131618253.126 6 102369801.742 6  24596015.893    24596016.588    24596028.556
        40.800          38.300
 123936619.561 6                  23250168.661    23250168.038
        39.100
 122481444.467 7  95263302.806 7  22912721.982    22912721.785    22912739.687
        45.800          42.200
 106387681.291 8  82746019.716 8  19915990.885    19915991.292    19915997.391
        52.700          48.300
 133240075.900 6 103823566.57044  25354695.720    25354695.0814   25354700.5704
        38.900          29.9004
 127166781.067 6  99090985.13944  24199045.846    24199045.4624   24199049.7574
        40.000          24.5004
 115468024.058 7  89975080.91647  21972836.923    21972836.4454   21972837.4164
        47.900          45.2004
 152681458.287 5                  29054315.006
        35.500
 25  1  1 16  3 45.0000000  0 30G09G26E19S31S35G07G03R06S48S33E27E11
                                E29E04E31G16G27E21G04R15E06R07R17R10
                                R05R16G29G28G31E09
 118980101.994 7  92711779.35647  22641159.611    22641159.0534   22641161.5224
        44.100          42.3004
 109090855.734 8  85005891.15648  20759294.514    20759293.8444   20759297.8574
        49.300          48.7004
 121946285.426 7                  23205607.071
        43.600
 198981235.971 7                  37864870.661
        45.900
 200926926.843 7                  38235132.183
        44.100
 132792195.923 6 103474468.15144  25269509.013    25269508.2714   25269513.1994
        37.800          27.7004
 113035397.000 8  88079538.97447  21509921.881    21509921.6314   21509925.8054
        48.200          46.5004
 102381711.905 6                  19186290.477    19186290.063
        41.800
 412768051.164 5                  78546909.814
        33.200
 202111468.942 7                  38460517.826
        45.300
 146046592.596 6                  27791745.296
        38.600
 151033430.339 5                  28740713.615
        31.600
 139620499.990 6                  26568918.053
        40.500
 129257245.070 7                  24596836.855
        47.000
 147102487.969 6                  27992658.675
        36.700
 104997565.897 8  81816354.67146  19980348.875    19980347.8694   19980349.0424
        48.200          40.6004
 126172854.476 6  98316627.57846  24009868.808    24009868.0354   24009884.6554
        41.400          36.0004
 126178143.405 7                  24010892.954
        47.900
 109097491.025 7  85011036.89046  20760561.947    20760561.5234   20760563.0304
        47.600          37.0004
 128073769.438 7  99612964.871 6  23967265.766    23967266.234    23967275.697
        44.400          41.800
 139748801.072 7                  26593312.955
        42.200
 110389964.257 8  85858884.713 7  20621768.122    20621768.188    20621774.541
        52.000          47.400
 131587240.752 7 102345680.995 6  24590222.220    24590222.098    24590232.765
        42.500          38.500
 123883098.721 6                  23240128.105    23240127.193
        39.200
 122542660.408 7  95310914.852 7  22924174.075    22924173.847    22924192.210
        44.800          42.900
 106421173.755 8  82772069.415 8  19922261.062    19922261.065    19922266.945
        53.000          48.100
 133260475.049 6 103839462.20044  25358577.672    25358577.0244   25358582.3194
        38.900          29.1004
 127207413.220 6  99122646.42344  24206777.817    24206777.4464   24206781.9664
        40.100          24.5004
 115503702.360 7  90002882.16947  21979626.575    21979626.1024   21979626.8154
        47.800          45.2004
 152642510.128 5                  29046903.239
        35.100
 25  1  1 16  4  0.0000000  0 30G09G26E19S31S35G07G03R06S48S33E27E11
                                E29E04E31G16G27E21G04R15E06R07R17R10
                                R05R16G29G28G31E09
 118933839.601 7  92675730.75547  22632355.923    22632355.3564   22632358.0774
        44.600          42.4004
 109118880.321 8  85027728.49348  20764627.547    20764626.8684   20764630.7594
        49.000          48.8004
 121957608.164 7                  23207762.087
        43.100
 198981237.515 7                  37864872.892
        46.100
 200926893.793 7                  38235128.351
        44.500
 132756729.901 6 103446832.44744  25262760.407    25262759.6564   25262763.4194
        36.600          27.1004
 113069769.426 7  88106322.64347  21516462.509    21516462.2464   21516466.6944
        47.900          46.5004
 102391582.530 6                  19188140.118    19188139.772
        41.500
 412767002.445 5                  78546936.621
        32.600
 202111496.722 7                  38460524.998
        45.600
 146087979.911 6                  27799620.744
        38.000
 151065152.518 5                  28746750.478
        32.000
 139655156.125 6                  26575512.948
        40.200
 129229731.068 7                  24591600.988
        47.000
 147056935.787 6                  27983990.285
        36.700
 104986664.397 8  81807860.01346  19978274.394    19978273.3844   19978274.5354
        48.100          40.7004
 126121105.819 6  98276304.04746  24000021.410    24000020.6374   24000037.2574
        40.200          36.0004
 126191769.705 7                  24013486.062
        47.500
 109068498.051 7  84988444.94346  20755044.502    20755044.0694   20755045.8344
        47.700          37.1004
 128131760.770 7  99658068.718 6  23978118.634    23978119.040    23978128.566
        44.400          41.200
 139712052.762 6                  26586319.839
        41.800
 110344189.631 8  85823282.228 7  20613217.182    20613217.068    20613223.806
        51.900          47.800
 131556354.283 7 102321658.175 6  24584449.967    24584450.150    24584462.149
        43.800          40.200
 123829644.478 6                  23230100.379    23230100.456
        40.100
 122603940.551 7  95358576.812 7  22935637.407    22935637.335    22935655.661
        45.000          42.400
 106454766.737 8  82798197.272 8  19928549.508    19928549.790    19928555.885
        52.800          48.100
 133280999.172 6 103855455.06844  25362483.272    25362482.6114   25362487.2354
        37.200          29.4004
 127248055.310 6  99154315.45644  24214511.506    24214511.1314   24214516.1334
        40.300          24.3004
 115539416.138 7  90030711.06147  21986422.825    21986422.3524   21986422.9484
        47.700          45.4004
 152603548.485 5                  29039488.958
        33.900
 25  1  1 16  4 15.0000000  0 30G09G26E19S31S35G07G03R06S48S33E27E11
                                E29E04E31G16G27E21G04R15E06R07R17R10
                                R05R16G29G28G31E09
 118887609.508 7  92639707.31947  22623558.291    22623557.7154   22623560.7684
        44.600          42.3004
 109147016.420 8  85049652.72248  20769981.467    20769980.7974   20769984.9104
        48.700          48.8004
 121968993.230 7                  23209928.484
        42.900
 198981234.753 7                  37864872.512
        45.800
 200926856.585 7                  38235123.790
        44.200
 132721269.989 6 103419201.52644  25256012.273    25256011.5314   25256015.8484
        38.300          28.0004
 113104252.851 7  88133192.79947  21523024.802    21523024.5344   21523028.7024
        47.600          46.5004
 102401634.506 6                  19190023.332    19190023.434
        41.800
 412767548.951 5                  78546969.783
        33.500
 202111520.446 7                  38460524.931
        45.400
 146129386.263 6                  27807500.095
        37.800
 151096909.627 5                  28752794.150
        32.100
 139689847.091 6                  26582114.458
        40.200
 129202246.286 7                  24586370.749
        46.800
 147011393.441 6                  27975323.572
        36.700
 104975920.157 8  81799487.90446  19976229.663    19976228.6574   19976229.9444
        48.100          40.7004
 126069362.058 6  98235984.33545  23990175.095    23990174.3174   23990190.4354
        40.200          35.8004
 126205481.592 7                  24016095.423
        47.500
 109039579.570 7  84965911.05446  20749541.901    20749541.4724   20749542.8724
        47.500          37.1004
 128189730.445 7  99703155.455 6  23988968.067    23988968.051    23988978.104
        44.700          41.500
 139675306.361 6                  26579327.415
        41.400
 110298517.310 8  85787759.300 7  20604685.527    20604685.181    20604691.727
        51.900          47.600
 131525587.090 7 102297728.096 6  24578700.315    24578700.784    24578711.714
        44.000          39.000
 123776249.750 6                  23220083.886    23220082.859
        40.100
 122665277.597 7  95406283.064 7  22947111.443    22947111.625    22947131.084
        44.400          42.700
 106488452.947 8  82824397.695 8  19934855.627    19934855.721    19934861.995
        52.900          48.200
 133301642.938 6 103871541.25044  25366410.628    25366409.9804   25366415.9584
        38.300          29.1004
 127288700.271 6  99185986.72344  24222246.709    24222246.3384   24222250.7934
        40.400          24.3004
 115575158.253 8  90058562.03347  21993224.209    21993223.7404   21993224.4874
        48.100          45.3004
 152564566.900 6                  29032071.526
        37.900
 25  1  1 16  4 30.0000000  0 30G09G26E19S31S35G07G03R06S48S33E27E11
                                E29E04E31G16G27E21G04R15E06R07R17R10
                                R05R16G29G28G31E09
 118841414.569 7  92603711.27147  22614767.961    22614767.3804   22614769.9834
        44.500          42.5004
 109175266.309 8  85071665.62248  20775357.431    20775356.7564   20775360.7124
        49.000          48.8004
 121980443.018 7                  23212107.412
        43.100
 198981229.924 7                  37864871.868
        45.500
 200926818.139 7                  38235107.961
        43.800
 132685818.859 6 103391577.42544  25249265.047    25249264.2964   25249270.2444
        38.200          29.0004
 113138849.466 7  88160151.15147  21529608.056    21529607.7934   21529612.2894
        47.700          46.4004
 102411870.536 7                  19191941.527    19191941.845
        42.000
 412768094.353 5                  78547002.434
        34.000
 202111542.846 7                  38460532.238
        45.400
 146170813.890 6                  27815383.870
        38.200
 151128704.012 5                  28758843.451
        31.900
 139724575.423 6                  26588723.615
        39.700
 129174793.473 7                  24581146.752
        46.700
 146965863.720 6                  27966659.292
        36.600
 104965335.812 7  81791240.37446  19974215.724    19974214.7234   19974215.8134
        47.700          40.8004
 126017626.171 6  98195670.76046  23980329.982    23980329.2004   23980345.3714
        40.700          36.1004
 126219281.546 7                  24018721.513
        47.500
 109010738.412 7  84943437.42246  20744053.652    20744053.2324   20744054.5734
        47.300          37.2004
 128247682.415 7  99748228.973 6  23999812.610    23999812.956    23999823.372
        44.900          41.800
 139638564.447 6                  26572335.333
        41.000
 110252950.736 8  85752318.609 7  20596172.350    20596172.938    20596179.434
        52.000          47.600
 131494942.150 6 102273893.149 6  24572973.199    24572973.481    24572985.855
        39.900          38.000
 123722917.059 6                  23210078.661    23210077.862
        39.600
 122726673.707 7  95454035.177 7  22958597.787    22958598.271    22958617.023
        45.400          42.700
 106522234.398 8  82850672.132 7  19941179.790    19941179.763    19941185.911
        52.900          47.900
 133322406.868 6 103887720.67944  25370363.047    25370362.4214   25370367.1864
        37.900          29.2004
 127329350.685 6  99217662.25044  24229981.656    24229981.2634   24229986.2304
        40.700          24.0004
 115610931.212 8  90086437.04547  22000031.577    22000031.0994   22000031.8794
        48.300          45.5004
 152525567.849 4                  29024649.866
        29.400
 25  1  1 16  4 45.0000000  0 30G09G26E19S31S35G07G03R06S48S33E27E11
                                E29E04E31G16G27E21G04R15E06R07R17R10
                                R05R16G29G28G31E09
 118795258.503 7  92567745.54847  22605984.517    22605983.9184   22605986.7154
        44.500          42.4004
 109203633.089 8  85093769.59148  20780755.190    20780754.5154   20780758.7394
        49.000          48.8004
 121991961.153 7                  23214299.038
        43.100
 198981227.101 7                  37864871.086
        46.000
 200926781.330 7                  38235099.853
        43.800
 132650379.755 6 103363962.71044  25242520.966    25242520.2154   25242525.9644
        38.800          28.5004
 113173562.391 7  88187200.13947  21536213.720    21536213.4434   21536217.9674
        47.000          46.4004
 102422294.225 6                  19193895.551    19193895.054
        41.700
 412768642.962 5                  78547024.354
        33.300
 202111566.568 7                  38460533.499
        45.400
 146212266.533 6                  27823271.576
        38.400
 151160538.745 5                  28764902.258
        32.200
 139759344.436 6                  26595340.261
        39.800
 129147376.139 7                  24575929.409
        47.000
 146920350.117 6                  27957998.928
        36.500
 104954914.688 8  81783120.03746  19972232.563    19972231.5664   19972232.7254
        48.000          40.7004
 125965902.011 6  98155366.32346  23970486.930    23970486.1434   23970502.7084
        40.900          36.4004
 126233172.780 7                  24021364.855
        47.600
 108981978.266 7  84921026.90946  20738580.482    20738580.0584   20738581.7234
        47.500          37.1004
 128305619.542 7  99793291.283 7  24010654.031    24010654.173    24010665.581
        43.700          42.000
 139601830.678 6                  26565345.392
        41.600
 110207493.816 8  85716963.234 7  20587680.815    20587681.353    20587687.814
        51.800          47.800
 131464423.247 6 102250156.224 6  24567269.494    24567270.718    24567281.219
        41.600          38.100
 123669650.772 6                  23200085.014    23200085.025
        40.000
 122788131.895 7  95501835.644 7  22970095.442    22970095.524    22970114.356
        45.800          42.900
 106556114.295 8  82877023.161 8  19947521.778    19947522.299    19947528.255
        52.900          48.200
 133343295.115 6 103903996.83944  25374338.888    25374338.2624   25374342.0884
        36.400          29.3004
 127370009.931 6  99249344.63143  24237718.888    24237718.4774   24237723.1214
        39.700          23.5004
 115646738.362 7  90114338.68647  22006845.489    22006845.0024   22006845.7384
        47.900          45.3004
 152486554.727 6                  29017226.058
        37.000
 25  1  1 16  5  0.0000000  0 30G09G26E19S31S35G07G03R06S48S33E27E11
                                E29E04E31G16G27E21G04R15E06R07R17R10
                                R05R16G29G28G31E09
 118749141.322 7  92531810.10147  22597209.163    22597208.5604   22597210.8784
        44.100          42.5004
 109232116.293 8  85115964.25348  20786175.477    20786174.7984   20786178.9224
        49.000          48.9004
 122003547.459 7                  23216504.064
        43.300
 198981226.400 7                  37864868.568
        45.400
 200926746.368 7                  38235098.145
        43.700
 132614952.613 6 103336357.29744  25235779.135    25235778.4074   25235783.9434
        38.800          29.1004
 113208391.087 7  88214339.34847  21542841.737    21542841.4604   21542845.6544
        47.400          46.4004
 102432905.246 7                  19195884.501    19195883.621
        42.300
 412769194.195 5                  78547063.485
        32.700
 202111592.134 7                  38460542.017
        45.500
 146253743.798 6                  27831165.087
        38.300
 151192413.489 5                  28770968.088
        32.300
 139794154.000 6                  26601963.974
        40.300
 129119994.293 7                  24570718.623
        47.000
 146874852.764 6                  27949340.976
        36.500
 104944656.613 8  81775126.74246  19970280.656    19970279.6644   19970280.6744
        48.200          40.9004
 125914189.778 6  98115071.17746  23960646.601    23960645.8144   23960661.8564
        40.500          36.2004
 126247155.027 7                  24024025.593
        47.800
 108953299.189 7  84898679.56246  20733123.272    20733122.8484   20733124.2774
        47.100          37.3004
 128363540.969 7  99838341.455 6  24021493.995    24021493.797    24021504.217
        44.100          41.000
 139565104.929 6                  26558356.587
        41.800
 110162146.762 8  85681693.309 7  20579209.564    20579209.990    20579216.419
        52.000          47.900
 131434030.780 7 102226517.648 6  24561589.762    24561590.331    24561602.021
        42.100          38.800
 123616450.565 6                  23190105.516    23190105.195
        39.400
 122849651.779 7  95549684.081 7  22981603.562    22981603.683    22981622.895
        44.800          42.700
 106590092.080 8  82903450.327 8  19953882.823    19953882.820    19953889.125
        52.900          48.100
 133364307.405 6 103920369.62944  25378337.015    25378336.4034   25378340.7914
        38.400          29.8004
 127410677.810 6  99281033.77544  24245457.727    24245457.2944   24245462.1004
        40.000          24.0004
 115682579.350 7  90142266.69747  22013665.744    22013665.2624   22013666.1294
        47.900          45.5004
 152447527.549 5                  29009799.614
        34.800
 25  1  1 16  5 15.0000000  0 30G09G26E19S31S35G07G03R06S48S33E27E11
                                E29E04E31G16G27E21G04R15E06R07R17R10
                                R05R16G29G28G31E09
 118703060.148 7  92495902.73047  22588440.287    22588439.6844   22588441.9914
        44.600          42.6004
