     2.11           OBSERVATION DATA    M (MIXED)           RINEX VERSION / TYPE
teqc  2019Feb25                         20260317 16:20:08UTCPGM / RUN BY / DATE
Linux 2.4.21-27.ELsmp|Opteron|gcc -static|Linux 64|=+       COMMENT
BIT 2 OF LLI FLAGS DATA COLLECTED UNDER A/S CONDITION       COMMENT
-Unknown-                                                   MARKER NAME
-Unknown-           -Unknown-                               OBSERVER / AGENCY
-Unknown-           -Unknown-           -Unknown-           REC # / TYPE / VERS
-Unknown-           -Unknown-                               ANT # / TYPE
        0.0000        0.0000        0.0000                  APPROX POSITION XYZ
        0.0000        0.0000        0.0000                  ANTENNA: DELTA H/E/N
     1     1                                                WAVELENGTH FACT L1/2
     7    L1    L2    C1    P1    P2    S1    S2            # / TYPES OF OBSERV
 SNR is mapped to RINEX snr flag value [0-9]                COMMENT
  L1 & L2: min(max(int(snr_dBHz/6), 0), 9)                  COMMENT
  2025     1     1     1     0    0.0000000     GPS         TIME OF FIRST OBS
    18                                                      LEAP SECONDS
                                                            END OF HEADER
 25  1  1  1  0  0.0000000  0 26E34R21R11S31S35R06G03G24S33G12G20E15
                                R22R05G11E02G06E36R23E27R13G17R12E30
                                G14G19
 122258312.348 8                  23264932.947
        48.700
 116258550.607 8  90423468.487 7  21725644.170    21725644.540    21725652.845
        49.300          45.500
 113692689.048 7  88427796.181 7  21275991.096    21275991.340    21275998.532
        47.800          46.200
 198981820.146 7                  37864984.182
        45.300
 200915863.356 7                  38233035.815
        44.200
 126551915.087 5                  23715769.715    23715769.943
        31.000
 123747850.407 6  96426996.42945  23548404.891    23548404.6194   23548410.1524
        40.400          35.9004
 121474277.273 7  94655421.74546  23115736.848    23115736.4914   23115743.1504
        42.200          38.6004
 202135839.489 7                  38465154.666
        44.800
 121327463.317 7  94540996.58946  23087811.508    23087810.8914   23087814.7364
        44.200          40.0004
 128923355.506 6 100459789.67243  24533289.361    24533288.0334   24533293.8654
        39.200          19.8004
 131842937.222 7                  25088846.616
        44.800
 103901771.108 8  80812627.274 8  19464258.896    19464259.212    19464264.308
        52.000          49.600
 128850745.959 7 100217268.185 6  24104197.519    24104197.877    24104204.255
        44.300          40.600
 115756582.101 7  90200027.61145  22027715.296    22027714.9344   22027717.2124
        46.400          34.9004
 130773037.057 7                  24885243.857
        45.500
 106115467.083 8  82687522.46048  20193061.541    20193061.1754   20193064.7244
        50.100          52.9004
 136473325.964 7                  25969968.567
        43.400
 115053639.753 7                  21508040.269    21508039.939
        47.000
 137698280.918 7                  26203067.509
        43.000
 116235239.716 7                  21767087.788    21767087.646
        43.900
 115376711.881 7  89904070.09747  21955406.945    21955406.3464   21955407.7794
        46.900          44.6004
 103214568.134 8  80278182.454 8  19321926.312    19321926.688    19321933.708
        52.100          48.600
 123803458.698 8                  23558965.410
        48.600
 119329622.613 7  92984223.52644  22707639.878    22707639.5614   22707642.7764
        42.700          29.3004
 106484404.981 8  82974992.20146  20263253.908    20263252.5224   20263252.5714
        48.500          40.7004
 25  1  1  1  0 15.0000000  0 26E34R21R11S31S35R06G03G24S33G12G20E15
                                R22R05G11E02G06E36R23E27R13G17R12E30
                                G14G19
 122261628.836 8                  23265564.243
        48.900
 116305759.149 8  90460186.251 7  21734466.958    21734467.199    21734474.887
        50.600          45.400
 113750118.341 7  88472463.372 7  21286737.846    21286737.946    21286746.117
        47.900          46.200
 198981827.795 7                  37864982.554
        45.200
 200915903.649 7                  38233037.751
        43.800
 126513220.158 5                  23708518.360    23708519.198
        32.500
 123775171.907 6  96448285.92446  23553604.017    23553603.7454   23553609.3844
        41.600          36.2004
 121494367.056 6  94671076.13846  23119559.886    23119559.5334   23119566.0174
        41.800          38.6004
 202135836.925 7                  38465151.187
        44.800
 121278728.002 7  94503021.12046  23078537.564    23078536.9564   23078540.4444
        45.000          40.2004
 128868920.370 6 100417372.72043  24522931.353    24522930.0484   24522934.4714
        39.500          20.5004
 131809468.712 7                  25082477.680
        45.200
 103906220.667 8  80816088.072 8  19465092.539    19465092.884    19465097.859
        52.100          49.600
 128857027.713 7 100222153.969 6  24105372.177    24105373.015    24105379.899
        43.300          40.600
 115717537.975 7  90169603.66245  22020285.357    22020285.0004   22020287.2494
        46.200          35.0004
 130804312.707 7                  24891195.279
        45.400
 106110819.227 8  82683900.78248  20192177.110    20192176.7574   20192180.2324
        50.300          53.0004
 136510233.277 7                  25976991.595
        43.200
 115016382.834 7                  21501075.229    21501075.333
        46.400
 137661671.117 7                  26196100.564
        43.200
 116182693.587 7                  21757247.907    21757247.742
        43.600
 115402427.045 7  89924107.89347  21960300.417    21960299.8144   21960301.1434
        46.700          44.6004
 103208967.549 8  80273826.461 8  19320877.975    19320878.240    19320885.175
        52.200          48.700
 123797903.139 8                  23557908.211
        48.800
 119378081.023 7  93021983.30544  22716860.675    22716860.3494   22716864.0494
        43.000          29.3004
 106490120.166 8  82979445.60546  20264341.310    20264339.9114   20264340.1504
        48.600          40.7004
 25  1  1  1  0 30.0000000  0 26E34R21R11S31S35R06G03G24S33G12G20E15
                                R22R05G11E02G06E36R23E27R13G17R12E30
                                G14G19
 122265029.962 8                  23266211.134
        49.000
 116352986.877 8  90496918.947 7  21743291.685    21743292.250    21743300.435
        50.000          45.400
 113807646.681 7  88517207.602 7  21297503.716    21297503.610    21297511.423
        47.900          46.200
 198981833.007 7                  37864987.379
        45.500
 200915941.318 7                  38233046.677
        44.200
 126474624.084 5                  23701285.461    23701286.863
        33.500
 123802624.844 6  96469677.82746  23558827.440    23558827.1594   23558833.7604
        41.000          36.3004
 121514575.212 7  94686822.76646  23123405.805    23123405.4524   23123411.4114
        42.500          38.6004
 202135832.165 7                  38465152.282
        45.400
 121230036.612 7  94465079.87546  23069271.696    23069271.0974   23069274.7864
        45.200          40.3004
 128814476.123 6 100374948.69243  24512570.479    24512569.1654   24512574.5084
        38.300          20.2004
 131776061.520 7                  25076120.509
        45.000
 103910782.682 8  80819636.329 8  19465947.225    19465947.478    19465952.556
        52.200          49.800
 128863483.305 7 100227174.931 6  24106580.600    24106581.332    24106588.462
        43.700          41.700
 115678579.658 7  90139246.58345  22012871.659    22012871.2934   22012873.7194
        46.400          35.0004
 130835646.455 7                  24897157.825
        45.700
 106106297.555 8  82680377.42548  20191316.512    20191316.1594   20191319.7584
        50.400          52.9004
 136547169.562 7                  25984020.449
        43.400
 114979215.903 7                  21494127.207    21494127.138
        46.400
 137625083.575 7                  26189138.204
        42.900
 116130247.529 7                  21747427.002    21747425.926
        43.700
 115428167.746 7  89944165.59547  21965198.796    21965198.2024   21965199.4164
        46.700          44.5004
 103203561.167 8  80269621.517 8  19319865.785    19319866.079    19319873.073
        52.100          48.800
 123792423.694 8                  23556865.364
        49.000
 119426601.344 7  93059791.31844  22726094.255    22726093.9384   22726096.9794
        42.900          29.1004
 106495897.628 8  82983947.53746  20265440.882    20265439.4784   20265439.5444
        48.100          40.7004
 25  1  1  1  0 45.0000000  0 26E34R21R11S31S35R06G03G24S33G12G20E15
                                R22R05G11E02G06E36R23E27R13G17R12E30
                                G14G19
 122268518.963 8                  23266875.175
        49.100
 116400237.199 8  90533669.197 7  21752121.462    21752122.108    21752130.405
        49.600          45.300
 113865276.970 8  88562031.127 7  21308288.532    21308288.689    21308296.520
        48.000          46.100
 198981840.032 7                  37864992.575
        45.400
 200915980.694 7                  38233054.207
        44.000
 126436130.974 5                  23694074.293    23694073.720
        31.200
 123830212.310 6  96491174.56445  23564077.638    23564077.3704   23564083.2394
        40.500          35.8004
 121534904.833 7  94702664.04446  23127274.093    23127273.7274   23127280.0044
        42.400          38.7004
 202135828.362 7                  38465148.388
        45.100
 121181392.804 7  94427175.70346  23060014.915    23060014.3074   23060018.0894
        44.600          40.4004
 128760026.390 6 100332520.38743  24502209.338    24502208.0424   24502213.2674
        39.500          19.9004
 131742719.021 7                  25069775.546
        45.100
 103915460.254 8  80823274.453 8  19466823.397    19466823.630    19466828.743
        52.100          49.900
 128870116.135 7 100232333.760 6  24107821.067    24107821.693    24107829.203
        43.500          41.200
 115639710.633 7  90108959.08445  22005475.213    22005474.8424   22005477.2264
        46.400          35.2004
 130867041.522 7                  24903132.091
        45.500
 106101905.292 8  82676954.90748  20190480.533    20190480.1714   20190483.9004
        50.400          53.0004
 136584137.935 7                  25991055.327
        43.800
 114942142.492 7                  21487196.868    21487196.794
        46.700
 137588521.789 7                  26182180.687
        43.200
 116077905.292 7                  21737624.686    21737623.356
        43.700
 115453937.423 7  89964245.86747  21970102.464    21970101.8704   21970103.2084
        47.000          44.5004
 103198352.419 8  80265570.280 8  19318890.928    19318891.109    19318897.977
        52.500          48.800
 123787023.801 8                  23555838.005
        48.900
 119475186.670 7  93097649.98244  22735339.206    22735338.8854   22735342.6894
        43.000          29.0004
 106501740.581 8  82988500.50346  20266552.861    20266551.4574   20266551.4174
        48.200          40.8004
 25  1  1  1  1  0.0000000  0 26E34R21R11S31S35R06G03G24S33G12G20E15
                                R22R05G11E02G06E36R23E27R13G17R12E30
                                G14G19
 122272095.310 8                  23267555.758
        49.200
 116447509.263 8  90570436.379 7  21760955.882    21760956.018    21760964.140
        50.200          45.300
 113923008.381 7  88606933.308 7  21319092.361    21319092.232    21319099.826
        47.600          46.200
 198981847.586 7                  37864984.951
        45.200
 200916020.538 7                  38233066.397
        43.900
 126397740.897 5                  23686878.255    23686879.018
        32.400
 123857933.715 6  96512775.67546  23569352.646    23569352.3784   23569358.4084
        40.600          36.0004
 121555355.204 6  94718599.41646  23131165.615    23131165.2494   23131171.5854
        41.800          38.8004
 202135825.414 7                  38465154.317
        45.000
 121132796.802 7  94389308.79246  23050767.234    23050766.6264   23050770.4114
        44.600          40.4004
 128705571.197 6 100290087.81743  24491846.677    24491845.3724   24491850.0944
        38.800          20.1004
 131709440.940 7                  25063442.852
        45.000
 103920252.877 8  80827002.084 8  19467720.746    19467721.487    19467726.516
        51.700          50.000
 128876925.696 7 100237630.033 6  24109095.982    24109096.052    24109102.113
        43.700          39.600
 115600930.677 7  90078740.97945  21998095.479    21998095.1084   21998097.6144
        46.000          35.2004
 130898497.529 7                  24909118.024
        46.000
 106097641.948 8  82673632.84748  20189669.264    20189668.8984   20189672.5874
        50.800          53.0004
 136621137.814 7                  25998096.012
        43.900
 114905162.011 7                  21480283.766    21480283.742
        47.100
 137551985.567 7                  26175228.122
        43.400
 116025667.016 7                  21727841.443    21727841.337
        43.900
 115479735.717 7  89984348.44347  21975011.665    21975011.0714   21975012.4684
        47.100          44.4004
 103193341.152 8  80261672.664 8  19317952.336    19317952.887    19317959.921
        52.400          49.000
 123781703.219 8                  23554825.350
        49.000
 119523836.452 7  93135558.87044  22744597.340    22744597.0054   22744600.3974
        42.600          28.9004
 106507648.616 8  82993104.18446  20267676.997    20267675.5934   20267675.6464
        48.200          40.8004
 25  1  1  1  1 15.0000000  0 26E34R21R11S31S35R06G03G24S33G12G20E15
                                R22R05G11E02G06E36R23E27R13G17R12E30
                                G14G19
 122275758.103 8                  23268252.728
        49.300
 116494802.072 8  90607219.693 7  21769793.444    21769793.733    21769801.940
        49.800          45.600
 113980839.715 8  88651913.208 7  21329914.544    21329915.223    21329922.222
        48.500          46.000
 198981854.048 7                  37864987.375
        45.600
 200916060.455 7                  38233072.634
        44.400
 126359453.451 5                  23679703.575    23679703.329
        32.900
 123885788.005 6  96534480.32645  23574653.360    23574653.0884   23574659.0824
        40.300          35.9004
 121575925.324 7  94734628.09746  23135080.046    23135079.6894   23135086.0214
        43.000          38.9004
 202135821.753 7                  38465147.350
        45.000
 121084247.982 7  94351478.64446  23041528.789    23041528.1774   23041531.8424
        44.900          40.5004
 128651109.917 6 100247650.53543  24481483.445    24481482.1674   24481486.7964
        39.000          20.5004
 131676226.557 7                  25057122.362
        45.200
 103925159.403 8  80830818.294 8  19468640.451    19468640.638    19468645.644
        52.200          50.100
 128883911.455 7 100243063.422 6  24110402.385    24110402.991    24110409.088
        44.300          41.000
 115562239.120 7  90048591.77045  21990733.053    21990732.6964   21990734.8504
        46.600          35.1004
 130930013.586 7                  24915115.398
        45.900
 106093506.660 8  82670410.56848  20188882.173    20188881.7984   20188885.6484
        50.500          53.0004
 136658168.208 7                  26005142.825
        44.000
 114868274.009 7                  21473386.452    21473387.337
        46.800
 137515474.252 7                  26168279.930
        43.400
 115973532.465 7                  21718078.005    21718077.925
        44.300
 115505561.655 7  90004472.55447  21979926.130    21979925.5314   21979926.9564
        46.900          44.4004
 103188526.713 8  80257928.116 8  19317051.354    19317051.533    19317058.602
        52.300          49.000
 123776461.213 8                  23553827.841
        49.200
 119572549.653 7  93173517.18944  22753866.926    22753866.5784   22753870.2144
        43.100          28.8004
 106513620.815 8  82997757.85646  20268813.495    20268812.0914   20268812.1044
        48.200          40.8004
 25  1  1  1  1 30.0000000  0 26E34R21R11S31S35R06G03G24S33G12G20E15
                                R22R05G11E02G06E36R23E27R13G17R12E30
                                G14G19
 122279505.879 8                  23268965.950
        49.400
 116542113.864 8  90644017.734 7  21778634.664    21778635.302    21778643.442
        50.600          45.600
 114038769.062 7  88696969.336 7  21340755.557    21340755.196    21340762.870
        47.800          45.900
 198981860.781 7                  37864983.641
        45.100
 200916098.974 7                  38233077.441
        44.100
 126321267.980 5                  23672547.839    23672547.517
        32.200
 123913773.588 6  96556287.28145  23579978.845    23579978.5684   23579984.3204
        41.300          35.7004
 121596613.492 7  94750748.76446  23139016.528    23139016.1574   23139022.7624
        42.600          38.8004
 202135817.551 7                  38465153.619
        45.000
 121035745.132 7  94313684.32746  23032298.950    23032298.3424   23032301.8774
        44.100          40.4004
 128596641.568 6 100205207.72843  24471118.582    24471117.2994   24471121.8964
        39.300          20.2004
 131643074.586 7                  25050813.656
        45.300
 103930178.221 8  80834721.824 8  19469580.558    19469580.806    19469585.986
        52.200          49.900
 128891071.692 7 100248632.547 6  24111741.244    24111741.701    24111749.385
        42.700          40.300
 115523634.802 7  90018510.52845  21983386.474    21983386.1124   21983388.6184
        46.200          35.1004
 130961588.278 7                  24921123.876
        45.800
 106089497.963 8  82667286.93148  20188119.389    20188119.0144   20188122.7894
        50.500          53.0004
 136695227.597 7                  26012194.819
        44.000
 114831476.985 7                  21466509.791    21466509.016
        46.900
 137478986.669 7                  26161336.545
        43.400
 115921500.514 7                  21708334.708    21708333.785
        44.100
 115531413.880 7  90024617.14847  21984845.808    21984845.2094   21984846.4694
        46.900          44.3004
 103183907.858 8  80254335.678 8  19316186.809    19316187.079    19316193.920
        52.700          48.800
 123771296.580 8                  23552844.964
        49.000
 119621324.738 7  93211523.71944  22763148.728    22763148.3664   22763152.1404
        42.200          28.9004
 106519655.949 8  83002460.57746  20269961.876    20269960.4774   20269960.5694
        48.400          40.8004
 25  1  1  1  1 45.0000000  0 26E34R21R11S31S35R06G03G24S33G12G20E15
                                R22R05G11E02G06E36R23E27R13G17R12E30
                                G14G19
 122283340.088 8                  23269695.583
        49.200
 116589446.097 8  90680831.681 7  21787479.446    21787479.764    21787488.499
        49.800          45.700
 114096797.634 8  88742102.638 7  21351614.923    21351615.023    21351622.416
        48.300          46.000
 198981867.207 7                  37864991.627
        45.800
 200916137.350 7                  38233086.662
        44.100
 126283186.298 5                  23665411.552    23665411.115
        31.900
 123941891.872 6  96578197.65145  23585329.359    23585329.0734   23585334.5894
        41.000          35.9004
 121617421.040 7  94766962.46046  23142976.220    23142975.8494   23142982.1204
        42.700          38.8004
 202135813.425 7                  38465142.659
        44.600
 120987290.322 7  94275927.44246  23023078.140    23023077.5464   23023081.1054
        45.300          40.6004
 128542168.039 6 100162760.87843  24460752.162    24460750.9154   24460755.9694
        39.400          20.4004
 131609986.704 7                  25044517.239
        45.100
 103935310.764 8  80838713.830 8  19470542.001    19470542.218    19470547.443
        52.200          50.000
 128898407.789 7 100254338.475 6  24113114.208    24113113.850    24113121.494
        43.300          41.000
 115485119.430 7  89988498.60545  21976057.292    21976056.9354   21976059.3614
        46.400          35.3004
 130993223.094 7                  24927143.806
        45.800
 106085617.332 8  82664263.08948  20187380.909    20187380.5294   20187384.3054
        50.700          53.0004
 136732317.343 7                  26019252.985
        43.800
 114794772.421 7                  21459647.456    21459647.602
        47.200
 137442524.602 7                  26154398.091
        43.500
 115869573.541 7                  21698610.156    21698609.697
        44.100
 115557293.974 7  90044783.46047  21989770.435    21989769.8364   21989771.2554
        46.800          44.3004
 103179486.185 8  80250896.631 8  19315358.930    19315359.346    19315366.214
        52.600          48.900
 123766211.012 8                  23551877.295
        48.800
 119670163.017 7  93249579.48144  22772442.482    22772442.1254   22772445.6604
        42.700          28.7004
 106525755.535 8  83007213.51646  20271122.471    20271121.0674   20271121.2724
        48.100          40.8004
 25  1  1  1  2  0.0000000  0 26E34R21R11S31S35R06G03G24S33G12G20E15
                                R22R05G11E02G06E36R23E27R13G17R12E30
                                G14G19
 122287258.661 8                  23270441.226
        49.100
 116636796.536 8  90717659.777 7  21796328.717    21796329.342    21796337.138
        50.600          45.500
 114154922.959 8  88787311.179 7  21362492.027    21362492.263    21362499.911
        48.600          45.900
 198981871.190 7                  37864992.132
        45.200
 200916174.438 7                  38233092.023
        44.000
 126245207.332 5                  23658291.497    23658293.853
        33.100
 123970140.601 6  96600209.65646  23590705.115    23590704.8434   23590710.5224
        41.000          36.2004
 121638345.721 7  94783267.42846  23146958.122    23146957.7474   23146964.0374
        43.000          39.2004
 202135807.091 7                  38465148.446
        45.100
 120938881.729 7  94238206.57046  23013866.009    23013865.4334   23013869.1284
        45.500          40.8004
 128487687.710 6 100120308.73743  24450384.942    24450383.7134   24450388.7354
        39.600          21.3004
 131576961.020 7                  25038232.739
        45.100
 103940554.764 8  80842792.512 8  19471524.136    19471524.580    19471529.751
        52.200          50.200
 128905918.171 7 100260179.906 6  24114517.900    24114518.686    24114526.330
        43.600          40.400
 115446691.193 7  89958554.57545  21968744.405    21968744.0434   21968746.7694
        46.600          35.5004
 131024916.054 7                  24933174.685
        45.400
 106081862.741 8  82661337.45848  20186666.435    20186666.0554   20186669.8034
        50.900          53.3004
 136769435.295 7                  26026316.384
        43.400
 114758158.496 7                  21452802.713    21452802.849
        46.800
 137406086.211 7                  26147463.782
        43.200
 115817749.914 7                  21688905.272    21688904.921
        44.600
 115583199.979 7  90064969.96147  21994700.171    21994699.5724   21994700.9824
        46.900          44.5004
 103175259.982 8  80247609.594 8  19314567.975    19314568.048    19314575.050
        52.800          48.900
 123761202.649 8                  23550924.303
        48.800
 119719062.356 7  93287682.82944  22781747.604    22781747.2474   22781750.9194
        42.700          29.0004
 106531917.795 8  83012015.29546  20272295.168    20272293.7554   20272293.8934
        48.600          41.1004
 25  1  1  1  2 15.0000000  0 26E34R21R11S31S35R06G03G24S33G12G20E15
                                R22R05G11E02G06E36R23E27R13G17R12E30
                                G14G19
 122291264.312 8                  23271203.294
        49.200
 116684167.500 8  90754503.870 7  21805180.931    21805181.277    21805189.489
        50.200          45.600
 114213147.504 8  88832596.914 7  21373387.530    21373388.216    21373395.819
        48.300          46.000
 198981876.812 7                  37864990.661
        45.200
 200916212.877 7                  38233100.850
        44.300
 126207334.166 5                  23651194.138    23651195.510
        32.100
 123998522.424 6  96622325.36445  23596105.672    23596105.3914   23596111.8484
        40.600          35.9004
 121659390.108 7  94799665.67146  23150962.756    23150962.3724   23150968.5504
        42.900          38.9004
 202135801.899 7                  38465149.765
        45.000
 120890522.507 7  94200524.16846  23004663.648    23004663.0724   23004666.4094
        45.000          40.6004
 128433203.918 6 100077853.91343  24440016.765    24440015.5674   24440020.6214
        39.400          20.6004
 131544000.459 7                  25031960.323
        45.200
 103945912.898 8  80846959.966 8  19472528.115    19472528.370    19472533.506
        52.300          50.100
 128913604.949 7 100266158.562 6  24115955.890    24115956.420    24115963.787
        43.700          39.900
 115408353.088 7  89928680.77345  21961449.003    21961448.6374   21961451.1784
        46.300          35.4004
 131056669.894 7                  24939217.323
        45.700
 106078236.885 8  82658512.14048  20185976.418    20185976.0344   20185979.7824
        50.400          53.0004
 136806584.089 7                  26033385.379
        43.700
 114721638.209 7                  21445975.695    21445975.835
        47.200
 137369674.539 7                  26140535.124
        43.400
 115766033.063 7                  21679219.966    21679219.632
        43.600
 115609134.663 7  90085178.81347  21999635.543    21999634.9444   21999636.1734
        47.100          44.2004
 103171232.324 8  80244477.001 8  19313813.854    19313814.061    19313820.947
        52.500          48.800
 123756274.459 8                  23549986.386
        49.000
 119768025.373 7  93325835.79244  22791064.928    22791064.5714   22791068.1044
        43.000          28.7004
 106538145.402 8  83016867.99646  20273480.360    20273478.9434   20273478.9584
        48.400          40.8004
 25  1  1  1  2 30.0000000  0 26E34R21R11S31S35R06G03G24S33G12G20E15
                                R22R05G11E02G06E36R23E27R13G17R12E30
                                G14G19
 122295356.010 8                  23271982.076
        49.000
 116731558.066 8  90791363.191 7  21814037.253    21814037.259    21814045.989
        50.100          45.700
 114271469.897 8  88877958.743 7  21384302.607    21384302.508    21384310.335
        48.300          46.100
 198981882.437 7                  37864997.038
        45.600
 200916250.966 7                  38233104.173
        43.800
 126169566.520 5                  23644119.127    23644118.903
        33.600
 124027036.136 6  96644543.85445  23601531.755    23601531.4654   23601537.4604
        41.400          35.7004
 121680552.995 7  94816156.24946  23154989.806    23154989.4174   23154995.6534
        42.700          38.8004
 202135796.265 7                  38465144.515
        44.800
 120842211.986 7  94162879.72246  22995470.323    22995469.7384   22995473.4054
        45.000          40.6004
 128378715.699 6 100035395.63243  24429648.369    24429647.1494   24429651.4874
        39.700          20.4004
 131511104.177 7                  25025700.426
        45.000
 103951383.965 8  80851215.263 8  19473552.698    19473553.225    19473558.401
        52.400          50.200
 128921467.913 7 100272274.237 6  24117427.482    24117427.776    24117435.550
        43.000          40.800
 115370104.320 7  89898876.59145  21954170.511    21954170.1494   21954172.5704
        46.500          35.2004
 131088483.650 7                  24945271.242
        45.400
 106074738.774 8  82655786.36348  20185310.954    20185310.5654   20185314.1014
        50.500          52.9004
 136843762.625 7                  26040460.219
        43.500
 114685210.592 7                  21439166.073    21439165.898
        47.400
 137333288.852 7                  26133610.851
        43.200
 115714422.725 7                  21669555.385    21669555.155
        44.600
 115635097.082 7  90105409.27447  22004575.892    22004575.2934   22004576.6724
        46.500          44.1004
 103167402.387 8  80241498.178 8  19313096.903    19313097.032    19313104.070
        52.500          48.800
 123751425.631 8                  23549063.490
        48.800
 119817050.908 6  93364037.47844  22800394.285    22800393.9324   22800397.5494
        41.600          28.5004
 106544437.271 8  83021770.76546  20274677.650    20274676.2294   20274676.2444
        48.100          40.7004
 25  1  1  1  2 45.0000000  0 26E34R21R11S31S35R06G03G24S33G12G20E15
                                R22R05G11E02G06E36R23E27R13G17R12E30
                                G14G19
 122299534.183 8                  23272777.074
        49.200
 116778968.342 8  90828237.842 7  21822896.553    21822896.786    21822905.270
        49.900          45.600
 114329890.266 8  88923396.791 7  21395234.185    21395235.107    21395242.222
        48.600          45.700
 198981888.436 7                  37864992.723
        45.300
 200916290.033 7                  38233112.365
        44.000
 126131905.492 5                  23637061.479    23637060.224
        32.200
 124055682.101 6  96666865.40046  23606982.767    23606982.4774   23606988.4804
        41.000          36.0004
 121701834.635 7  94832739.36346  23159039.364    23159038.9754   23159045.5704
        42.900          39.1004
 202135792.365 7                  38465141.233
        45.000
 120793951.097 7  94125273.94446  22986286.639    22986286.0634   22986289.2964
        45.200          40.7004
 128324224.067 6  99992934.68543  24419278.556    24419277.3454   24419281.8624
        39.300          20.9004
 131478272.793 7                  25019452.798
        45.400
 103956968.314 8  80855558.673 8  19474599.392    19474599.357    19474604.502
        52.300          50.200
 128929507.298 7 100278527.148 6  24118932.247    24118932.205    24118939.348
        44.400          40.300
 115331945.638 7  89869142.60245  21946909.000    21946908.6164   21946911.2104
        46.400          35.6004
 131120357.811 7                  24951336.767
        45.400
 106071368.844 8  82653160.46648  20184669.564    20184669.1674   20184672.7994
        50.800          53.1004
 136880971.247 7                  26047540.893
        43.300
 114648876.307 7                  21432373.683    21432373.526
        47.500
 137296929.831 7                  26126692.069
        43.100
 115662919.708 7                  21659910.197    21659909.454
        43.800
 115661087.837 7  90125661.81147  22009521.872    22009521.2734   22009522.5244
        46.400          44.2004
 103163770.824 8  80238673.648 8  19312416.997    19312417.265    19312424.155
        52.800          48.700
 123746656.837 8                  23548156.122
        48.900
 119866139.379 6  93402288.19544  22809735.653    22809735.2964   22809739.0014
        41.900          28.6004
 106550794.191 8  83026724.22546  20275887.046    20275885.6254   20275885.9254
        48.300          41.0004
 25  1  1  1  3  0.0000000  0 26E34R21R11S31S35R06G03G24S33G12G20E15
                                R22R05G11E02G06E36R23E27R13G17R12E30
                                G14G19
 122303794.764 8                  23273588.037
        49.100
 116826394.386 8  90865124.750 7  21831759.857    21831759.743    21831768.205
        49.900          45.300
 114388404.141 7  88968907.545 7  21406184.381    21406184.603    21406192.792
        47.800          45.900
 198981891.275 7                  37865001.058
        45.800
 200916325.607 7                  38233119.189
        44.200
 126094347.497 5                  23630022.152    23630023.464
        33.000
 124084456.089 6  96689286.70046  23612458.461    23612458.1664   23612464.1434
        41.600          36.0004
 121723230.773 7  94849411.70046  23163111.110    23163110.7174   23163117.0944
        42.200          39.0004
 202135784.924 7                  38465142.498
        45.200
 120745736.208 7  94087704.00846  22977111.507    22977110.9224   22977114.0814
        45.200          40.7004
 128269725.430 6  99950468.27743  24408907.482    24408906.2624   24408911.1094
        39.100          20.4004
 131445502.447 7                  25013216.688
        44.900
 103962661.684 8  80859986.865 8  19475665.512    19475666.004    19475671.064
        52.400          50.300
 128937719.098 7 100284914.203 6  24120467.075    24120467.353    24120474.331
        42.200          39.400
 115293873.188 7  89839475.81345  21939664.233    21939663.8494   21939666.3054
        46.200          35.4004
 131152288.344 7                  24957413.081
        45.400
 106068123.039 8  82650631.29148  20184051.750    20184051.3394   20184055.1114
        50.800          53.0004
 136918205.810 7                  26054626.322
        43.500
 114612631.349 7                  21425597.816    21425597.770
        47.600
 137260593.727 7                  26119777.471
        43.500
 115611520.821 7                  21650284.713    21650284.286
        44.600
 115687102.989 7  90145933.36847  22014472.259    22014471.6654   22014473.0264
        46.700          44.0004
 103160333.632 8  80236000.287 8  19311773.541    19311773.896    19311780.720
        52.600          48.700
 123741964.230 8                  23547263.175
        48.800
 119915286.541 6  93440584.64744  22819088.256    22819087.9124   22819091.4944
        41.800          28.4004
 106557212.165 8  83031725.26346  20277108.226    20277106.8004   20277107.1884
        48.300          40.7004
 25  1  1  1  3 15.0000000  0 26E34R21R11S31S35R06G03G24S33G12G20E15
                                R22R05G11E02G06E36R23E27R13G17R12E30
                                G14G19
 122308143.948 8                  23274415.584
        49.400
 116873841.973 8  90902028.424 7  21840625.983    21840626.608    21840635.218
        50.200          45.700
 114447017.508 8  89014495.689 7  21417153.708    21417154.187    21417161.562
        48.500          46.000
 198981897.610 7                  37865000.418
        45.600
 200916364.490 7                  38233124.693
        44.000
 126056899.437 5                  23623004.386    23623004.121
        32.500
 124113364.205 6  96711812.49445  23617959.593    23617959.2944   23617965.0794
        40.300          35.4004
 121744747.465 7  94866177.97546  23167205.952    23167205.5594   23167211.5894
        42.800          39.1004
 202135780.232 7                  38465141.913
        44.900
 120697573.969 7  94050175.10646  22967946.348    22967945.7634   22967949.2184
        45.000          40.9004
 128215226.396 6  99908001.56743  24398537.120    24398535.8824   24398540.5364
        39.500          21.2004
 131412799.508 7                  25006993.779
        45.300
 103968470.258 8  80864504.662 8  19476753.684    19476754.205    19476759.247
        52.500          50.200
 128946109.378 7 100291439.961 6  24122037.216    24122037.192    24122045.158
        43.300          40.600
 115255893.447 7  89809881.26145  21932436.845    21932436.4704   21932438.9424
        46.200          35.6004
 131184281.495 7                  24963500.711
        45.100
 106065007.590 8  82648203.69248  20183458.839    20183458.4154   20183462.2464
        50.600          53.1004
 136955472.434 7                  26061718.009
        43.800
 114576482.238 7                  21418840.086    21418840.352
        47.100
 137224287.000 7                  26112868.527
        44.000
 115560232.661 7                  21640680.046    21640680.122
        44.200
 115713148.840 7  90166228.84447  22019428.517    22019427.9184   22019429.3864
        46.200          44.1004
 103157097.454 8  80233483.281 8  19311167.797    19311167.987    19311174.900
        52.700          48.700
 123737354.233 8                  23546385.901
        48.900
 119964498.493 6  93478931.58044  22828452.398    22828452.0724   22828455.9884
        41.900          28.1004
 106563697.411 8  83036778.71646  20278342.483    20278341.0534   20278341.2934
        48.200          40.8004
 25  1  1  1  3 30.0000000  0 26E34R21R11S31S35R06G03G24S33G12G20E15
                                R22R05G11E02G06E36R23E27R13G17R12E30
                                G14G19
 122312577.782 8                  23275259.260
        49.500
 116921307.241 8  90938945.861 7  21849495.843    21849496.237    21849504.891
        49.800          45.600
 114505726.013 8  89060157.828 7  21428139.671    21428140.512    21428147.904
        48.200          45.500
 198981902.651 7                  37864998.388
        45.700
 200916401.996 7                  38233135.698
        44.300
 126019557.936 5                  23616005.849    23616006.135
        33.100
 124142402.386 6  96734439.65945  23623485.499    23623485.2044   23623490.7174
        41.200          35.7004
 121766380.613 7  94883034.99146  23171322.338    23171321.9414   23171328.3044
        43.000          39.2004
 202135774.683 7                  38465138.559
        45.000
 120649461.043 7  94012684.62946  22958790.649    22958790.0644   22958793.3614
        45.000          40.9004
 128160723.415 6  99865531.77843  24388165.321    24388164.0744   24388168.8404
        39.400          21.3004
 131380160.266 7                  25000782.410
        45.200
 103974389.943 8  80869108.867 8  19477862.860    19477862.980    19477868.281
        52.300          50.300
 128954674.287 7 100298101.497 6  24123639.500    24123640.121    24123646.916
        43.600          39.700
 115218002.748 7  89780356.09245  21925226.439    21925226.0684   21925228.5584
        46.500          35.7004
 131216333.381 7                  24969600.378
        45.400
 106062018.547 8  82645874.58848  20182890.116    20182889.6924   20182893.4194
        50.500          53.1004
 136992767.109 7                  26068814.742
        43.900
 114540425.006 7                  21412099.181    21412099.176
        47.200
 137188006.024 7                  26105964.227
        43.500
 115509051.963 7                  21631095.342    21631095.060
        43.800
 115739221.607 7  90186545.29047  22024390.227    22024389.6464   22024390.8754
        46.500          44.1004
 103154058.555 8  80231119.709 8  19310598.810    19310599.005    19310605.913
        52.400          48.700
 123732823.124 8                  23545523.605
        48.900
 120013771.227 7  93517325.88344  22837828.927    22837828.5884   22837832.2124
        42.000          28.4004
 106570246.274 8  83041881.74346  20279588.760    20279587.3344   20279587.4544
        48.100          40.8004
 25  1  1  1  3 45.0000000  0 26E34R21R11S31S35R06G03G24S33G12G20E15
                                R22R05G11E02G06E36R23E27R13G17R12E30
                                G14G19
 122317097.130 8                  23276119.293
        49.400
 116968790.747 8  90975877.465 7  21858369.261    21858370.011    21858378.285
        49.800          45.600
 114564530.281 8  89105894.449 7  21439144.437    21439144.933    21439152.326
        48.100          45.600
 198981907.635 7                  37864998.267
        45.600
 200916440.405 7                  38233144.936
        44.100
 125982324.592 5                  23609029.053    23609027.940
        31.800
 124171571.356 6  96757168.71845  23629036.141    23629035.8554   23629041.4814
        41.200          35.7004
 121788130.878 7  94899983.27046  23175460.968    23175460.5624   23175467.1974
        43.200          39.3004
 202135770.212 7                  38465138.407
        44.900
 120601398.756 7  93975233.61446  22949644.875    22949644.2904   22949647.3504
        45.000          41.0004
 128106217.970 6  99823060.06843  24377793.187    24377791.9404   24377796.7054
        40.100          21.1004
 131347585.739 7                  24994583.802
        45.200
 103980421.401 8  80873800.034 8  19478992.472    19478992.829    19478998.113
        52.100          50.100
 128963415.231 7 100304899.995 6  24125274.601    24125275.336    24125281.254
        43.200          38.600
 115180202.196 7  89750901.17045  21918033.474    21918033.0904   21918035.3184
        46.400          35.8004
 131248444.917 7                  24975710.760
        45.400
 106059156.796 8  82643644.67448  20182345.680    20182345.2514   20182348.8124
        50.500          53.1004
 137030090.591 7                  26075917.172
        43.400
 114504460.758 7                  21405376.535    21405375.832
        47.100
 137151751.954 7                  26099065.260
        43.600
 115457980.158 7                  21621531.450    21621531.073
        44.500
 115765322.223 7  90206883.43947  22029357.088    22029356.4944   22029357.6674
        46.800          44.0004
 103151218.004 8  80228910.407 8  19310067.283    19310067.293    19310074.184
        52.500          48.600
 123728372.009 8                  23544676.598
        48.800
 120063105.534 7  93555768.16444  22847217.034    22847216.7084   22847220.3744
        42.100          28.4004
 106576859.689 8  83047035.07246  20280847.308    20280845.8874   20280845.9114
        48.400          40.8004
 25  1  1  1  4  0.0000000  0 26E34R21R11S31S35R06G03G24S33G12G20E15
                                R22R05G11E02G06E36R23E27R13G17R12E30
                                G14G19
 122321703.040 8                  23276995.746
        49.500
 117016293.392 8  91012823.954 7  21867246.595    21867246.996    21867254.961
        49.700          45.300
 114623431.015 7  89151706.109 7  21450166.775    21450167.022    21450174.956
        47.300          45.300
 198981915.245 7                  37865004.420
        45.500
 200916479.992 7                  38233146.819
        44.000
 125945201.007 5                  23602071.712    23602071.897
        33.000
 124200872.059 6  96780000.43745  23634611.724    23634611.4384   23634617.1384
        41.000          35.7004
 121809999.163 7  94917023.51446  23179622.804    23179622.4024   23179628.5884
        42.800          39.3004
 202135766.619 7                  38465136.337
        45.000
 120553388.196 7  93937822.90646  22940508.430    22940507.8544   22940511.1814
        44.600          41.0004
 128051711.375 6  99780587.46543  24367420.854    24367419.6024   24367424.2584
        40.000          21.1004
 131315077.178 7                  24988397.492
        45.100
 103986565.654 8  80878578.914 8  19480143.431    19480143.847    19480149.211
        52.100          50.100
 128972332.960 7 100311836.088 6  24126943.215    24126943.573    24126950.528
        43.400          39.800
 115142493.097 7  89721517.50945  21910857.478    21910857.1124   21910859.4864
        46.200          35.9004
 131280617.189 7                  24981833.093
        45.500
 106056423.388 8  82641514.76948  20181825.508    20181825.0974   20181828.6504
        50.200          53.1004
 137067443.889 7                  26083025.307
        43.900
 114468590.572 7                  21398671.587    21398671.072
        47.500
 137115526.120 7                  26092171.317
        43.600
 115407018.822 7                  21611987.371    21611987.307
        43.700
 115791451.895 7  90227244.22947  22034329.324    22034328.7344   22034329.9684
        46.200          44.0004
 103148577.199 8  80226856.474 8  19309572.549    19309572.897    19309579.801
        52.500          48.600
 123724002.179 8                  23543845.086
        49.100
 120112502.319 7  93594259.12444  22856616.686    22856616.3734   22856620.3514
        42.100          28.3004
 106583538.847 8  83052239.63146  20282118.081    20282116.6514   20282116.8854
        48.400          40.9004
 25  1  1  1  4 15.0000000  0 26E34R21R11S31S35R06G03G24S33G12G20E15
                                R22R05G11E02G06E36R23E27R13G17R12E30
                                G14G19
 122326392.885 8                  23277888.252
        49.700
 117063812.362 8  91049783.145 7  21876126.139    21876126.587    21876135.680
        48.600          45.800
 114682425.198 8  89197590.435 7  21461206.564    21461207.177    21461214.824
        48.000          45.400
 198981920.529 7                  37865001.433
        45.600
 200916518.234 7                  38233152.104
        44.100
 125908185.274 5                  23595136.101    23595135.659
        32.800
 124230301.748 6  96802932.67845  23640211.819    23640211.5244   23640217.4794
        41.700          35.8004
 121831982.644 7  94934153.52246  23183806.093    23183805.6914   23183811.8044
        43.300          39.3004
 202135760.842 7                  38465137.517
        45.400
 120505427.175 7  93900450.79746  22931381.976    22931381.4094   22931384.4924
        45.300          41.0004
 127997201.450 6  99738112.26743  24357047.784    24357046.5284   24357051.7484
        39.900          21.4004
 131282632.184 7                  24982223.284
        45.500
 103992819.934 8  80883443.385 8  19481314.927    19481315.542    19481320.709
        52.000          50.000
 128981424.859 7 100318907.607 6  24128643.442    24128643.438    24128650.621
        42.900          39.200
 115104873.107 7  89692203.28445  21903698.567    21903698.2054   21903700.5984
        47.100          35.9004
 131312847.654 7                  24987966.249
        45.400
 106053815.724 8  82639482.84348  20181329.344    20181328.9334   20181332.3984
        50.100          53.1004
 137104824.325 7                  26090138.703
        44.000
 114432812.080 7                  21391981.948    21391982.106
        47.800
 137079326.167 7                  26085282.791
        44.000
 115356166.299 7                  21602465.125    21602464.129
        43.300
 115817607.955 7  90247625.57747  22039306.734    22039306.1534   22039307.2864
        46.600          44.0004
 103146133.723 8  80224956.011 8  19309115.349    19309115.589    19309122.314
        52.800          48.600
 123719711.212 8                  23543028.490
        49.200
 120161958.899 7  93632796.68044  22866028.071    22866027.7584   22866031.6904
        42.300          28.3004
 106590280.987 8  83057493.26346  20283401.164    20283399.7384   20283399.8564
        48.400          40.9004
 25  1  1  1  4 30.0000000  0 26E34R21R11S31S35R06G03G24S33G12G20E15
                                R22R05G11E02G06E36R23E27R13G17R12E30
                                G14G19
 122331165.941 8                  23278796.453
        49.600
 117111346.881 8  91086754.394 7  21885009.876    21885009.899    21885018.254
        49.500          45.700
 114741511.727 8  89243546.595 7  21472263.999    21472264.046    21472271.502
        48.000          45.400
 198981924.024 7                  37864999.193
        45.400
 200916554.721 7                  38233162.197
        44.100
 125871277.398 5                  23588219.274    23588219.593
        34.100
 124259859.581 6  96825964.76345  23645836.661    23645836.3714   23645842.1144
        40.700          35.6004
 121854080.461 7  94951372.61246  23188011.007    23188010.6014   23188016.9274
        42.900          39.4004
 202135754.879 7                  38465135.411
        45.300
 120457515.452 7  93863117.10846  22922264.536    22922263.9604   22922267.0464
        45.800          41.1004
 127942688.071 6  99695634.37443  24346674.281    24346673.0384   24346677.8034
        39.700          21.1004
 131250250.187 7                  24976061.215
        45.300
 103999183.348 8  80888392.720 8  19482507.343    19482507.489    19482512.683
        52.100          49.900
 128990690.253 7 100326114.043 6  24130378.027    24130378.105    24130384.274
        43.600          39.900
 115067341.775 7  89662958.14146  21896556.405    21896556.0344   21896558.5404
        47.000          36.0004
 131345135.594 7                  24994110.556
        45.400
 106051333.079 8  82637548.33648  20180856.812    20180856.4104   20180859.9544
        50.400          53.1004
 137142231.047 7                  26097256.944
        43.500
 114397124.478 7                  21385311.083    21385310.597
        46.900
 137043151.709 7                  26078398.889
        43.600
 115305422.315 7                  21592961.999    21592961.837
        43.800
 115843789.799 7  90268027.01947  22044288.649    22044288.0644   22044289.5244
        46.500          43.9004
 103143886.928 8  80223208.510 8  19308694.418    19308694.894    19308701.668
        52.700          48.400
 123715498.643 8                  23542226.755
        48.900
 120211474.398 7  93671380.14344  22875450.575    22875450.2454   22875454.0964
        42.000          28.1004
 106597085.694 8  83062795.64746  20284695.892    20284694.4624   20284694.7714
        48.700          40.8004
 25  1  1  1  4 45.0000000  0 26E34R21R11S31S35R06G03G24S33G12G20E15
                                R22R05G11E02G06E36R23E27R13G17R12E30
                                G14G19
 122336027.005 8                  23279721.377
        49.500
 117158901.658 8  91123741.445 7  21893896.649    21893896.950    21893905.233
        50.000          45.800
 114800695.187 7  89289578.155 7  21483339.140    21483339.343    21483347.416
        47.300          45.200
 198981931.700 7                  37865002.775
        45.300
 200916594.942 7                  38233168.095
        44.200
 125834482.484 5                  23581323.146    23581322.777
        33.200
 124289550.215 6  96849100.33045  23651486.684    23651486.3854   23651492.2414
        40.500          35.5004
 121876297.198 7  94968684.37846  23192238.473    23192238.0584   23192244.5874
        43.000          39.3004
 202135751.281 7                  38465135.880
        45.000
 120409658.351 7  93825825.96946  22913157.415    22913156.8344   22913159.9884
        45.600          41.1004
 127888176.429 6  99653157.84943  24336300.965    24336299.6964   24336305.3744
        40.400          21.8004
 131217936.190 7                  24969912.145
        45.100
 104005660.702 8  80893430.685 8  19483720.765    19483720.962    19483726.093
        52.300          49.900
 129000134.260 7 100333459.370 6  24132143.485    24132143.498    24132150.551
        42.700          39.400
 115029904.142 7  89633786.01246  21889431.737    21889431.3444   21889434.3784
        46.900          36.0004
 131377485.887 7                  25000266.617
        45.400
 106048980.260 8  82635714.99148  20180409.094    20180408.7014   20180412.2154
        50.500          53.1004
 137179668.798 7                  26104381.196
        43.600
 114361533.111 7                  21378657.387    21378657.118
        47.700
 137007007.834 7                  26071521.206
        43.600
 115254792.226 7                  21583480.475    21583480.329
        44.200
 115870002.353 7  90288452.39147  22049277.080    22049276.4994   22049277.6504
        46.500          43.9004
 103141841.954 8  80221617.992 8  19308311.640    19308311.958    19308318.813
        52.400          48.500
 123711369.473 8                  23541441.078
        48.800
 120261053.555 6  93710013.20844  22884885.179    22884884.8264   22884888.8404
        41.900          28.1004
 106603957.744 8  83068150.50446  20286003.598    20286002.1634   20286002.4524
        48.600          40.8004
 25  1  1  1  5  0.0000000  0 26E34R21R11S31S35R06G03G24S33G12G20E15
                                R22R05G11E02G06E36R23E27R13G17R12E30
                                G14G19
 122340969.170 8                  23280661.830
        49.500
 117206469.655 8  91160738.779 7  21902785.484    21902785.815    21902794.322
        49.100          45.500
 114859968.353 7  89335679.481 7  21494431.170    21494431.646    21494439.356
        47.500          45.300
 198981935.028 7                  37865005.024
        45.400
 200916631.219 7                  38233176.948
        44.300
 125797794.435 5                  23574448.703    23574448.511
        33.700
 124319366.615 6  96872333.89945  23657160.608    23657160.3184   23657165.9794
        41.000          35.6004
 121898625.847 7  94986083.34246  23196487.256    23196486.8504   23196493.4244
        42.100          39.3004
 202135744.504 7                  38465130.935
        44.900
 120361849.369 7  93788572.33046  22904059.543    22904058.9624   22904062.1094
        44.400          41.1004
 127833659.821 6  99610677.43743  24325926.516    24325925.2294   24325930.6064
        39.300          21.0004
 131185683.518 7                  24963774.674
        45.400
 104012244.831 8  80898551.698 8  19484954.216    19484954.343    19484959.470
        52.400          50.000
 129009749.577 7 100340937.979 6  24133941.646    24133942.154    24133949.543
        43.000          39.400
 114992553.577 7  89604681.72646  21882324.550    21882324.1444   21882326.8324
        46.800          36.1004
 131409891.668 7                  25006432.979
        45.200
 106046750.388 8  82633977.44748  20179984.730    20179984.3374   20179987.8534
        50.300          53.1004
 137217130.612 7                  26111509.745
        43.100
 114326030.864 7                  21372020.608    21372020.685
        47.700
 136970887.928 7                  26064647.705
        44.000
 115204269.733 7                  21574019.155    21574018.707
        44.000
 115896238.828 7  90308896.40247  22054269.297    22054268.7034   22054270.2614
        46.600          43.9004
 103139992.160 8  80220179.289 8  19307965.551    19307965.756    19307972.597
        52.400          48.500
 123707317.061 8                  23540669.942
        48.900
 120310689.373 6  93748690.43644  22894330.720    22894330.3634   22894334.4854
        41.700          28.1004
 106610890.394 8  83073552.58746  20287322.945    20287321.5104   20287321.6574
        48.500          40.9004
 25  1  1  1  5 15.0000000  0 26E34R21R11S31S35R06G03G24S33G12G20E15
                                R22R05G11E02G06E36R23E27R13G17R12E30
                                G14G19
 122345999.106 8                  23281619.105
        49.100
 117254057.393 8  91197751.434 7  21911678.676    21911679.130    21911686.863
        49.200          45.300
 114919337.502 7  89381855.451 7  21505541.717    21505541.808    21505549.768
        47.200          45.100
 198981941.546 7                  37865006.124
        45.400
 200916670.904 7                  38233180.423
        43.700
 125761220.444 5                  23567594.442    23567593.809
        31.600
 124349315.355 6  96895670.59845  23662859.625    23662859.3304   23662864.6604
        41.300          34.9004
 121921072.850 7  95003574.53346  23200759.508    23200759.1114   23200764.9194
        42.200          39.1004
 202135739.012 7                  38465133.063
        45.100
 120314095.671 7  93751361.77346  22894972.173    22894971.5924   22894974.8244
        45.200          41.0004
 127779145.563 6  99568198.84743  24315553.459    24315552.1904   24315556.7504
        40.000          21.5004
 131153498.996 7                  24957649.970
        44.900
 104018942.399 8  80903760.936 8  19486208.770    19486209.129    19486214.064
        52.600          49.900
 129019543.248 7 100348555.217 6  24135774.498    24135774.661    24135781.205
        43.200          39.100
 114955296.995 7  89575650.67945  21875235.025    21875234.6194   21875236.9814
        46.400          35.9004
 131442359.695 7                  25012611.857
        45.100
 106044650.150 8  82632340.92348  20179585.030    20179584.6464   20179588.1624
        49.800          52.8004
 137254623.102 7                  26118644.446
        42.900
 114290624.862 7                  21365401.266    21365401.454
        47.400
 136934798.968 7                  26057779.978
        43.300
 115153862.385 7                  21564579.334    21564579.277
        44.300
 115922506.108 7  90329364.41847  22059267.929    22059267.3304   22059268.7844
        46.200          43.6004
 103138344.371 8  80218897.689 8  19307657.216    19307657.219    19307663.948
        52.400          48.200
 123703348.289 8                  23539914.606
        48.300
 120360388.415 6  93787416.93244  22903788.048    22903787.6864   22903791.9004
        41.400          27.6004
 106617890.487 8  83079007.21946  20288654.938    20288653.5034   20288653.7094
        48.000          40.6004
 25  1  1  1  5 30.0000000  0 26E34R21R11S31S35R06G03G24S33G12G20E15
                                R22R05G11E02G06E36R23E27R13G17R12E30
                                G14G19
 122351113.467 8                  23282592.149
        49.300
 117301661.286 8  91234776.661 7  21920574.642    21920575.021    21920583.434
        49.200          45.700
 114978798.968 7  89428103.228 7  21516669.267    21516669.396    21516676.958
        47.500          44.900
 198981948.761 7                  37865006.652
        45.600
 200916710.159 7                  38233191.942
        44.400
 125724758.025 5                  23560761.897    23560761.635
        33.000
 124379392.951 6  96919107.70245  23668583.270    23668582.9894   23668588.4264
        40.900          35.3004
 121943634.718 7  95021155.22746  23205052.389    23205051.9924   23205058.4014
        42.800          39.3004
 202135736.004 7                  38465131.038
        45.000
 120266394.319 7  93714191.99846  22885894.865    22885894.2804   22885897.5474
        44.700          41.1004
 127724630.758 6  99525719.83743  24305179.199    24305177.9434   24305182.7964
        39.900          21.8004
 131121379.489 7                  24951537.932
        45.200
 104025749.897 8  80909055.679 8  19487484.093    19487484.253    19487489.429
        52.600          49.900
 129029511.830 7 100356308.494 6  24137639.097    24137639.699    24137646.891
        43.400          39.500
 114918131.328 7  89546690.46946  21868162.626    21868162.2204   21868164.5104
        46.500          36.1004
 131474886.637 7                  25018801.237
        44.900
 106042676.183 8  82630802.78548  20179209.342    20179208.9624   20179212.5054
        50.400          52.9004
 137292142.836 7                  26125784.211
        43.200
 114255311.765 7                  21358799.747    21358799.926
        47.500
 136898737.890 7                  26050917.618
        43.500
 115103567.352 7                  21555160.615    21555160.403
        44.200
 115948800.939 7  90349853.90147  22064271.734    22064271.1314   22064272.4494
        45.700          43.6004
 103136895.587 8  80217770.877 8  19307385.804    19307385.992    19307392.708
        52.800          48.500
 123699460.044 8                  23539174.557
        48.500
 120410147.224 6  93826190.00444  22913256.964    22913256.5934   22913260.6644
        41.500          27.7004
 106624954.774 8  83084511.87646  20289999.433    20289998.0074   20289997.9684
        48.200          40.7004
 25  1  1  1  5 45.0000000  0 26E34R21R11S31S35R06G03G24S33G12G20E15
                                R22R05G11E02G06E36R23E27R13G17R12E30
                                G14G19
 122356311.682 8                  23283581.411
        49.400
 117349280.720 8  91271813.987 7  21929473.240    21929473.286    21929482.025
        49.100          45.700
 115038351.848 7  89474422.086 7  21527813.634    21527813.909    21527821.235
        47.300          44.700
 198981954.948 7                  37865010.623
        45.400
 200916749.483 7                  38233199.669
        44.200
