     2.11           OBSERVATION DATA    M (MIXED)           RINEX VERSION / TYPE
teqc  2019Feb25                         20260317 16:20:09UTCPGM / RUN BY / DATE
Linux 2.4.21-27.ELsmp|Opteron|gcc -static|Linux 64|=+       COMMENT
BIT 2 OF LLI FLAGS DATA COLLECTED UNDER A/S CONDITION       COMMENT
-Unknown-                                                   MARKER NAME
-Unknown-           -Unknown-                               OBSERVER / AGENCY
-Unknown-           -Unknown-           -Unknown-           REC # / TYPE / VERS
-Unknown-           -Unknown-                               ANT # / TYPE
        0.0000        0.0000        0.0000                  APPROX POSITION XYZ
        0.0000        0.0000        0.0000                  ANTENNA: DELTA H/E/N
     1     1                                                WAVELENGTH FACT L1/2
     7    L1    L2    C1    P1    P2    S1    S2            # / TYPES OF OBSERV
 SNR is mapped to RINEX snr flag value [0-9]                COMMENT
  L1 & L2: min(max(int(snr_dBHz/6), 0), 9)                  COMMENT
  2025     1     1     8     0    0.0000000     GPS         TIME OF FIRST OBS
    18                                                      LEAP SECONDS
                                                            END OF HEADER
 25  1  1  8  0  0.0000000  0 31G10G24E03E08R04S31S35G13E13S48S33R02
                                G16E29E15G23G05R19G18E07G29G15R11E33
                                E26G27R24R18R17R03R01
 125533252.133 7  97818130.71446  23888182.855    23888182.2884   23888186.5154
        42.800          39.1004
 121246651.237 6  94477939.87746  23072468.420    23072467.9874   23072472.7624
        41.100          37.8004
 148080639.048 6                  28178798.762
        37.200
 127511658.341 7                  24264651.813
        47.300
 127772999.291 7  99379045.041 6  23860709.183    23860709.725    23860717.336
        42.100          39.600
 198974639.539 7                  37863613.240
        45.200
 200952802.281 7                  38240051.393
        43.600
 118849819.678 7  92610272.79044  22616359.558    22616359.0004   22616359.3414
        43.100          27.3004
 124086609.780 7                  23612875.307
        47.300
 412776497.362 5                  78548803.130
        33.200
 202103975.152 7                  38459081.098
        44.600
 105178898.928 8  81805855.034 8  19710474.817    19710474.713    19710480.121
        53.000          48.600
 135771160.260 5 105795721.39342  25836390.787    25836389.6384   25836391.0584
        35.600          13.3004
 145150216.739 6                  27621167.954
        38.200
 143181564.729 6                  27246517.663
        39.200
 110034782.425 8  85741396.91846  20938918.912    20938918.5284   20938918.6634
        48.200          38.3004
 126996774.203 6  98958568.19945  24166668.369    24166667.8824   24166669.9384
        39.200          32.4004
 128214688.974 5  99722556.204 5  23968376.639    23968377.072    23968385.831
        30.700          35.700
 106941486.118 8  83331033.22647  20350281.875    20350281.4864   20350281.7894
        50.200          44.0004
 125269800.313 7                  23838045.643
        47.600
 121645103.112 7  94788423.15646  23148283.775    23148283.1724   23148284.2814
        42.900          38.6004
 106681888.469 8  83128764.67348  20300878.644    20300878.2114   20300878.4964
        48.900          49.1004
 131743751.378 7 102467388.132 6  24654047.382    24654047.927    24654053.066
        43.800          39.500
 148619358.683 6                  28281322.357
        38.100
 127824145.679 7                  24324123.878
        47.200
 125706337.777 6  97953004.80045  23921118.806    23921118.0374   23921121.0754
        39.500          34.5004
 119812916.404 7  93187888.153 6  22405611.305    22405610.686    22405619.829
        46.000          41.900
 108488658.096 8  84380109.572 8  20323573.966    20323574.387    20323580.351
        51.100          48.100
 102412044.916 8  79653856.398 7  19138133.990    19138134.151    19138140.256
        51.700          47.400
 107538322.037 8  83640951.430 8  20089056.907    20089057.506    20089063.310
        51.400          48.100
 123542334.149 7  96088532.051 6  23111138.281    23111137.563    23111145.359
        43.100          36.100
 25  1  1  8  0 15.0000000  0 32G10G24E03E08R04S31S35G13E13S48S33R02
                                G16E29E15G23G05R19G18E07G29G15R11E33
                                E26G32G27R24R18R17R03R01
 125498309.254 7  97790902.51646  23881533.407    23881532.8404   23881537.2254
        42.200          38.9004
 121201775.459 6  94442971.75646  23063929.070    23063928.6374   23063933.0584
        41.700          37.6004
 148122977.405 6                  28186854.729
        36.900
 127530386.957 7                  24268215.839
        47.300
 127717057.978 7  99335535.125 6  23850262.871    23850263.438    23850270.155
        42.600          38.600
 198974636.465 7                  37863606.327
        45.200
 200952807.825 7                  38240052.126
        43.900
 118896274.986 7  92646471.72944  22625199.580    22625199.0084   22625199.3234
        43.000          26.9004
 124097183.001 7                  23614887.548
        47.200
 412776260.449 5                  78548774.860
        32.400
 202103943.595 7                  38459075.325
        45.000
 105206953.865 8  81827675.538 8  19715731.801    19715732.282    19715737.663
        52.700          48.500
 135801598.732 5 105819439.71942  25842183.296    25842182.1794   25842183.4554
        34.300          12.7004
 145104932.707 6                  27612549.940
        38.300
 143216927.063 6                  27253246.764
        39.200
 110017745.783 7  85728121.61946  20935677.155    20935676.7754   20935676.7774
        47.800          38.1004
 127039124.138 6  98991568.07345  24174727.194    24174726.7034   24174728.9784
        39.700          32.4004
 128151980.966 5  99673783.379 5  23956655.532    23956656.363    23956663.253
        32.500          35.400
 106934237.753 8  83325385.15247  20348902.551    20348902.1674   20348902.4684
        50.400          43.9004
 125246100.619 8                  23833535.781
        48.000
 121698536.944 7  94830059.87446  23158451.437    23158450.8344   23158452.6304
        43.800          38.2004
 106705938.318 8  83147504.81048  20305455.455    20305455.0084   20305455.0454
        49.000          49.0004
 131717165.707 7 102446710.319 6  24649072.301    24649072.419    24649079.043
        42.600          40.300
 148580639.274 6                  28273954.961
        37.500
 127799020.894 7                  24319342.654
        47.100
 136191448.162 6 106123217.77044  25916370.782    25916370.5724   25916373.6104
        36.400          24.5004
 125672648.169 6  97926753.14445  23914708.142    23914707.3964   23914710.3874
        39.500          34.3004
 119871489.936 7  93233445.274 6  22416565.034    22416565.326    22416572.921
        46.100          41.800
 108446572.083 8  84347376.016 8  20315690.057    20315690.206    20315696.366
        50.800          48.200
 102424478.670 8  79663527.081 7  19140457.480    19140457.749    19140463.702
        51.900          47.100
 107510293.663 8  83619151.583 8  20083821.355    20083821.616    20083827.469
        51.600          48.200
 123599525.357 7  96133013.845 5  23121837.153    23121836.944    23121844.110
        43.400          35.600
 25  1  1  8  0 30.0000000  0 32G10G24E03E08R04S31S35G13E13S48S33R02
                                G16E29E15G23G05R19G18E07G29G15R11E33
                                E26G32G27R24R18R17R03R01
 125463390.074 7  97763692.78646  23874889.092    23874888.5344   23874892.1084
        42.400          38.8004
 121156962.437 6  94408052.53446  23055400.674    23055400.2094   23055405.2944
        41.800          37.7004
 148165333.564 6                  28194914.899
        37.000
 127549200.736 7                  24271795.817
        47.300
 127661167.073 7  99292064.382 6  23839825.976    23839826.184    23839832.292
        42.400          38.300
 198974633.700 7                  37863609.207
        45.100
 200952813.936 7                  38240058.785
        43.900
 118942813.740 7  92682735.68244  22634055.646    22634055.0794   22634055.2694
        43.600          27.3004
 124107822.131 7                  23616911.991
        47.200
 412776025.125 5                  78548743.335
        31.900
 202103912.478 7                  38459070.393
        44.800
 105235121.693 8  81849583.830 8  19721010.715    19721011.059    19721016.467
        52.800          48.800
 135832101.580 5 105843208.21841  25847987.744    25847986.6184   25847987.9704
        32.500          10.1004
 145059666.756 6                  27603936.688
        38.300
 143252325.492 6                  27259983.274
        38.800
 110000763.079 8  85714888.37146  20932445.347    20932444.9674   20932445.0824
        48.300          38.3004
 127081479.790 6  99024572.40845  24182786.746    24182786.2324   24182788.7604
        39.200          32.4004
 128089273.827 5  99625011.193 5  23944934.292    23944932.909    23944939.956
        31.300          35.200
 106927098.449 8  83319822.06047  20347544.009    20347543.6254   20347543.9004
        50.500          44.0004
 125222487.874 8                  23829042.243
        48.100
 121752015.111 7  94871731.13746  23168628.018    23168627.4154   23168629.1274
        43.600          38.6004
 106730116.603 8  83166345.03348  20310056.415    20310055.9684   20310056.0274
        49.100          49.1004
 131690712.979 6 102426135.914 5  24644122.760    24644122.687    24644127.942
        40.300          34.300
 148541905.873 6                  28266583.664
        37.600
 127773932.309 7                  24314568.627
        47.400
 136138217.658 6 106081739.47845  25906241.097    25906240.8344   25906244.0664
        38.800          30.0004
 125639074.240 6  97900591.62045  23908319.017    23908318.2984   23908321.3774
        40.300          34.6004
 119930139.434 7  93279061.471 6  22427532.072    22427532.615    22427540.421
        46.400          41.400
 108404599.360 8  84314730.547 8  20307827.020    20307827.117    20307832.955
        51.300          48.100
 102437093.284 8  79673338.429 7  19142814.619    19142814.974    19142821.021
        51.200          47.400
 107482398.568 8  83597455.387 8  20078610.695    20078610.736    20078616.500
        51.500          48.000
 123656716.247 7  96177495.513 6  23132536.064    23132536.079    23132544.282
        43.700          36.500
 25  1  1  8  0 45.0000000  0 31G10G24E03E08R04S31S35G13E13S48S33R02
                                G16E29E15G23G05R19G18E07G29G15R11E33
                                E26G27R24R18R17R03R01
 125428501.405 7  97736506.82646  23868250.091    23868249.5464   23868252.8934
        42.900          39.0004
 121112219.477 6  94373187.90446  23046886.907    23046886.4294   23046890.8334
        41.700          37.8004
 148207714.089 6                  28202979.628
        36.800
 127568106.356 7                  24275393.803
        47.500
 127605333.838 7  99248638.520 6  23829399.334    23829399.925    23829406.763
        42.800          39.100
 198974638.496 7                  37863612.185
        45.400
 200952826.905 7                  38240057.389
        43.800
 118989442.623 7  92719069.87044  22642929.036    22642928.4644   22642928.3854
        43.300          27.1004
 124118534.068 7                  23618950.551
        47.300
 412775796.650 5                  78548718.075
        32.100
 202103887.106 7                  38459063.994
        44.600
 105263409.230 8  81871585.252 8  19726311.796    19726312.127    19726317.401
        53.000          48.700
 135862675.251 5 105867031.83741  25853805.487    25853804.3074   25853806.0744
        33.300           8.6004
 145014425.865 6                  27595327.508
        38.100
 143287766.823 6                  27266727.087
        39.000
 109983841.103 8  85701702.43746  20929225.035    20929224.6604   20929224.9374
        48.600          38.4004
 127123847.605 6  99057586.21145  24190849.974    24190849.4784   24190851.2344
        39.300          32.3004
 128026574.153 5  99576244.806 5  23933213.554    23933212.429    23933219.024
        31.200          35.600
 106920075.248 8  83314349.43947  20346207.535    20346207.1464   20346207.4534
        50.500          44.1004
 125198968.982 8                  23824566.978
        48.100
 121805543.905 7  94913441.85346  23178814.435    23178813.8324   23178815.1074
        44.100          38.3004
 106754429.657 8  83185290.27048  20314683.116    20314682.6694   20314682.6404
        49.400          49.2004
 131664400.604 7 102405670.700 6  24639198.171    24639197.901    24639204.355
        43.200          39.500
 148503165.401 6                  28259211.712
        37.100
 127748886.900 7                  24309802.768
        47.500
 125605623.123 6  97874525.79445  23901953.571    23901952.8524   23901955.9964
        39.500          34.9004
 119988871.513 7  93324741.926 6  22438515.601    22438515.747    22438524.322
        46.100          41.900
 108362747.429 8  84282179.052 8  20299986.686    20299986.918    20299993.177
        51.000          48.100
 102449895.755 8  79683295.904 7  19145207.219    19145207.547    19145213.339
        51.800          47.500
 107454643.553 8  83575868.178 8  20073425.303    20073425.626    20073431.497
        51.800          48.100
 123713913.284 7  96221982.026 6  23143235.165    23143235.487    23143242.541
        43.700          36.100
 25  1  1  8  1  0.0000000  0 31G10G24E03E08R04S31S35G13E13S48S33R02
                                G16E29E15G23G05R19G18E07G29G15R11E33
                                E26G27R24R18R17R03R01
 125393630.498 7  97709334.71146  23861614.178    23861613.6204   23861617.3234
        43.400          38.9004
 121067534.239 6  94338368.25046  23038383.865    23038383.3874   23038387.6584
        41.500          38.0004
 148250106.054 6                  28211046.728
        36.700
 127587090.854 7                  24279006.187
        47.400
 127549545.657 7  99205247.699 6  23818980.515    23818981.791    23818987.448
        43.200          38.000
 198974637.812 7                  37863608.720
        45.200
 200952834.831 7                  38240059.129
        43.500
 119036148.555 7  92755464.09744  22651816.986    22651816.4234   22651816.4914
        42.900          27.2004
 124129306.112 7                  23621000.294
        47.400
 412775563.314 5                  78548687.874
        32.200
 202103857.915 7                  38459057.331
        44.500
 105291802.945 8  81893669.258 8  19731632.534    19731632.848    19731638.373
        52.700          48.700
 135893306.648 5 105890900.42042  25859634.416    25859633.2724   25859635.0534
        35.100          12.6004
 144969197.462 6                  27586720.858
        39.000
 143323238.299 6                  27273477.142
        39.200
 109966967.068 8  85688553.86046  20926013.905    20926013.5304   20926013.8694
        48.600          38.4004
 127166214.874 6  99090599.62145  24198911.491    24198911.0314   24198913.5164
        39.100          32.5004
 127963869.751 5  99527474.800 5  23921489.466    23921489.855    23921496.021
        31.300          34.400
 106913155.531 8  83308957.45047  20344890.802    20344890.4184   20344890.6584
        50.400          44.2004
 125175531.214 8                  23820106.816
        48.000
 121859110.578 7  94955182.09946  23189007.404    23189006.7964   23189008.4844
        43.600          38.4004
 106778864.786 8  83204330.62648  20319332.837    20319332.3904   20319332.4844
        49.100          49.3004
 131638215.892 7 102385304.838 6  24634298.816    24634298.532    24634304.212
        42.500          39.600
 148464405.164 6                  28251835.864
        37.200
 127723872.070 7                  24305042.299
        47.300
 125572282.304 6  97848545.91745  23895609.067    23895608.3744   23895611.5554
        39.400          35.0004
 120047673.177 7  93370476.495 6  22449512.421    22449512.165    22449520.565
        46.900          41.700
 108321003.580 8  84249711.614 8  20292166.550    20292167.124    20292172.931
        50.900          48.200
 102462873.277 8  79693389.528 7  19147632.393    19147632.638    19147638.577
        51.500          47.200
 107427015.911 8  83554380.023 8  20068264.078    20068264.676    20068270.596
        51.600          48.300
 123771103.229 7  96266463.040 6  23153934.113    23153934.202    23153942.338
        43.700          36.000
 25  1  1  8  1 15.0000000  0 31G10G24E03E08R04S31S35G13E13S48S33R02
                                G16E29E15G23G05R19G18E07G29G15R11E33
                                E26G27R24R18R17R03R01
 125358782.951 7  97682180.80446  23854982.586    23854982.0054   23854985.8354
        43.100          38.9004
 121022912.793 6  94303598.32246  23029892.319    23029891.8594   23029896.5974
        41.100          38.0004
 148292514.909 6                  28219116.779
        36.700
 127606159.718 7                  24282634.982
        47.300
 127493808.283 7  99161896.396 6  23808572.658    23808572.364    23808579.165
        42.500          38.400
 198974636.465 7                  37863611.488
        45.300
 200952841.868 7                  38240061.034
        43.900
 119082936.528 7  92791922.23944  22660720.429    22660719.8664   22660719.7954
        43.500          27.3004
 124140143.965 7                  23623062.727
        47.400
 412775329.440 5                  78548661.974
        32.500
 202103828.234 7                  38459051.920
        44.700
 105320308.310 8  81915840.085 8  19736974.931    19736974.895    19736980.325
        52.900          48.600
 135924000.978 6 105914818.11542  25865475.227    25865474.1324   25865475.9894
        36.000          13.0004
 144923987.270 6                  27578117.873
        39.000
 143358745.469 6                  27280234.059
        38.800
 109950146.577 8  85675446.99246  20922813.351    20922812.9714   20922812.9884
        48.400          38.5004
 127208587.327 6  99123617.06045  24206974.849    24206974.4024   24206976.7684
        38.900          32.4004
 127901166.721 5  99478705.832 5  23909769.521    23909768.414    23909775.635
        31.100          35.200
 106906345.122 8  83303650.63547  20343594.824    20343594.4404   20343594.6754
        50.400          44.2004
 125152180.315 8                  23815663.495
        48.100
 121912720.222 7  94996955.82146  23199209.267    23199208.6554   23199210.1914
        43.300          38.3004
 106803427.216 8  83223470.18048  20324007.083    20324006.6454   20324006.5464
        49.300          49.3004
 131612164.865 7 102365042.848 6  24629422.653    24629423.690    24629429.307
        42.500          37.500
 148425630.868 6                  28244457.936
        38.200
 127698893.584 7                  24300289.312
        47.400
 125539057.694 6  97822656.59045  23889286.808    23889286.1294   23889289.0214
        40.300          34.8004
 120106549.407 7  93416269.056 6  22460522.869    22460522.838    22460530.509
        47.300          41.300
 108279374.288 8  84217333.277 8  20284368.421    20284368.328    20284374.390
        51.000          48.100
 102476031.474 8  79703623.663 7  19150091.341    19150091.578    19150097.594
        51.000          47.300
 107399521.355 8  83532995.377 8  20063128.144    20063128.374    20063134.383
        51.800          48.400
 123828291.522 7  96310942.757 6  23164632.483    23164631.977    23164640.171
        43.700          36.300
 25  1  1  8  1 30.0000000  0 32G10G24E03E08R04S31S35G13E13S48S33R02
                                G16E29E15G23G05R19G18E07G29G15R11E33
                                E26G27R24G32R18R17R03R01
 125323955.027 7  97655042.17546  23848355.145    23848354.5604   23848358.5064
        43.300          39.1004
 120978351.841 7  94268875.54746  23021412.877    23021412.4354   23021416.6794
        42.000          38.0004
 148334936.766 6                  28227189.571
        37.100
 127625309.014 7                  24286278.992
        47.400
 127438118.342 7  99118581.972 6  23798172.859    23798173.310    23798180.738
        43.200          38.900
 198974632.286 7                  37863609.068
        45.300
 200952845.409 7                  38240062.192
        43.600
 119129802.447 7  92828441.13644  22669638.206    22669637.6164   22669637.9244
        43.700          27.1004
 124151043.944 7                  23625136.878
        47.400
 412775091.440 5                  78548638.002
        32.200
 202103794.637 7                  38459045.535
        44.400
 105348920.905 8  81938094.328 8  19742336.751    19742336.960    19742342.230
        53.000          48.600
 135954754.214 5 105938781.78841  25871327.946    25871326.8204   25871328.1634
        33.400           9.1004
 144878791.744 6                  27569516.845
        38.900
 143394284.545 6                  27286996.952
        39.400
 109933375.852 8  85662378.89846  20919621.908    20919621.5284   20919621.6004
        48.200          38.5004
 127250961.258 6  99156635.65645  24215038.925    24215038.4874   24215040.2174
        40.000          32.3004
 127838461.302 5  99429934.957 5  23898048.255    23898046.118    23898053.916
        32.100          35.400
 106899640.442 8  83298426.21047  20342319.050    20342318.6664   20342318.8364
        50.400          44.1004
 125128912.617 8                  23811235.653
        48.200
 121966368.453 7  95038759.60846  23209418.464    23209417.8564   23209419.2724
        43.500          38.0004
 106828112.783 8  83242705.68548  20328704.481    20328704.0304   20328704.0394
        49.300          49.3004
 131586243.946 6 102344882.049 6  24624571.769    24624573.021    24624578.590
        39.800          37.000
 148386838.846 6                  28237075.522
        37.300
 127673947.851 7                  24295542.231
        47.400
 125505945.782 6  97796855.08345  23882985.621    23882984.9244   23882988.1244
        40.800          35.1004
 120165496.268 7  93462116.589 6  22471545.322    22471545.204    22471553.752
        46.000          41.500
 135925392.514 6 105915897.73444  25865740.176    25865739.9934   25865744.2054
        37.200          25.0004
 108237855.990 8  84185041.266 8  20276590.527    20276590.754    20276596.601
        51.400          48.200
 102489366.452 8  79713995.286 7  19152583.535    19152583.578    19152589.545
        52.100          47.500
 107372156.251 8  83511711.419 8  20058016.328    20058016.402    20058022.245
        52.100          48.200
 123885473.901 7  96355417.983 5  23175330.625    23175330.294    23175337.460
        44.100          35.800
 25  1  1  8  1 45.0000000  0 32G10G24E03E08R04S31S35G13E13S48S33R02
                                G16E29E15G23G05R19G18E07G29G15R11E33
                                E26G27R24G32R18R17R03R01
 125289155.742 7  97627925.86046  23841733.153    23841732.5724   23841736.5654
        42.300          38.8004
 120933860.825 6  94234207.28046  23012945.990    23012945.5524   23012950.3374
        41.600          37.9004
 148377380.452 6                  28235266.357
        37.200
 127644547.648 7                  24289939.739
        47.400
 127382485.020 7  99075311.583 6  23787783.758    23787785.347    23787790.659
        43.600          37.600
 198974633.100 7                  37863610.365
        45.500
 200952854.807 7                  38240068.068
        43.900
 119176755.066 7  92865027.58044  22678573.022    22678572.4144   22678572.8384
        43.900          27.2004
 124162015.181 7                  23627224.642
        47.300
 412774858.628 5                  78548608.516
        32.400
 202103767.174 7                  38459036.739
        44.400
 105377649.841 8  81960439.041 8  19747720.818    19747720.807    19747726.081
        53.000          48.600
 135985575.117 5 105962798.06241  25877192.200    25877191.1994   25877193.1564
        31.000           7.9004
 144833620.129 6                  27560921.248
        38.700
 143429864.559 6                  27293767.423
        39.200
 109916663.963 8  85649356.62346  20916441.816    20916441.4364   20916441.3994
        48.200          38.5004
 127293345.709 6  99189662.45345  24223103.759    24223103.3174   24223106.1164
        38.500          32.4004
 127775763.298 5  99381169.980 5  23886324.861    23886326.697    23886332.134
        31.500          34.500
 106893050.737 8  83293291.36947  20341064.993    20341064.6044   20341064.8324
        50.700          44.1004
 125105737.219 7                  23806825.612
        47.700
 122020064.283 7  95080600.50646  23219636.063    23219635.4554   23219637.0774
        43.500          38.1004
 106852930.294 8  83262043.99948  20333427.209    20333426.7764   20333426.6584
        49.400          49.2004
 131560463.275 7 102324830.349 6  24619747.247    24619748.199    24619754.044
        43.100          38.700
 148348038.285 6                  28229692.261
        38.000
 127649044.101 7                  24290803.151
        47.600
 125472955.917 6  97771148.68845  23876707.725    23876707.0284   23876710.4404
        40.600          35.6004
 120224522.510 7  93508025.830 6  22482583.654    22482583.494    22482592.225
        46.100          41.300
 135872206.700 6 105874454.30244  25855619.756    25855619.3814   25855622.7414
        38.700          27.4004
 108196458.438 8  84152843.172 8  20268834.929    20268835.414    20268841.565
        50.800          48.100
 102502887.733 8  79724511.832 7  19155109.844    19155110.282    19155116.436
        51.700          47.200
 107344929.464 8  83490535.045 8  20052930.184    20052930.248    20052936.262
        51.700          48.300
 123942659.416 7  96399895.605 6  23186026.692    23186027.587    23186035.320
        44.200          36.400
 25  1  1  8  2  0.0000000  0 32G10G24E03E08R04S31S35G13E13S48S33R02
                                G16E29E15G23G05R19G18E07G29G15R11E33
                                E26G27R24G32R18R17R03R01
 125254375.783 7  97600824.61846  23835114.808    23835114.2274   23835118.2644
        42.400          38.8004
 120889430.868 7  94199586.59146  23004491.438    23004490.9964   23004495.5494
        42.000          38.0004
 148419836.526 6                  28243345.818
        37.200
 127663866.136 7                  24293616.144
        47.100
 127326899.086 7  99032078.066 6  23777402.826    23777404.788    23777410.986
        43.300          38.600
 198974629.585 7                  37863608.210
        45.000
 200952859.882 7                  38240064.772
        44.000
 119223784.750 7  92901674.08344  22687522.565    22687521.9624   22687522.3614
        43.800          27.4004
 124173048.428 7                  23629324.239
        47.400
 412774622.534 5                  78548590.491
        32.600
 202103735.233 7                  38459033.229
        44.800
 105406484.969 8  81982866.369 8  19753123.861    19753124.169    19753129.711
        52.400          48.700
 136016454.044 4 105986859.49041  25883068.706    25883067.7814   25883069.1144
        28.500           7.3004
 144788463.221 6                  27552328.590
        38.500
 143465476.118 6                  27300544.432
        38.900
 109900001.616 8  85636372.95646  20913271.213    20913270.8384   20913270.7644
        48.100          38.4004
 127335731.107 6  99222689.98545  24231170.159    24231169.7264   24231171.8414
        38.800          32.4004
 127713063.771 5  99332403.680 5  23874605.753    23874604.334    23874610.531
        32.200          34.800
 106886566.868 8  83288239.00547  20339831.001    20339830.6124   20339830.9824
        50.100          44.1004
 125082644.932 8                  23802431.242
        48.100
 122073797.668 7  95122470.66646  23229861.426    23229860.8094   23229862.4134
        44.000          38.2004
 106877870.181 8  83281477.67448  20338173.145    20338172.7124   20338172.5574
        49.600          49.3004
 131534813.206 7 102304880.224 6  24614947.759    24614948.073    24614954.303
        42.100          39.300
 148309219.839 6                  28222305.136
        37.700
 127624173.153 7                  24286070.314
        47.400
 125440079.019 6  97745530.31345  23870451.468    23870450.7664   23870454.3994
        39.800          35.3004
 120283618.274 7  93553989.147 6  22493634.887    22493634.809    22493644.001
        45.500          41.900
 135819025.877 6 105833014.72543  25845499.295    25845498.9114   25845502.5244
        36.000          22.0004
 108155172.624 8  84120731.981 8  20261100.850    20261101.318    20261107.138
        51.100          48.100
 102516585.705 8  79735165.809 7  19157669.680    19157670.098    19157676.257
        51.700          47.200
 107317832.239 8  83469459.419 8  20047868.025    20047868.193    20047874.278
        52.300          48.200
 123999838.147 7  96444367.943 5  23196722.921    23196722.890    23196731.853
        42.200          35.700
 25  1  1  8  2 15.0000000  0 31G10G24E03E08R04S31S35G13E13S48S33R02
                                E29E15G23G05R19G18E07G29G15R11E33E26
                                G27R24G32R18R17R03R01
 125219619.459 7  97573741.78546  23828500.793    23828500.1994   23828504.2254
        42.600          38.9004
 120845066.682 7  94165017.13646  22996048.901    22996048.4364   22996053.2824
        42.000          38.1004
 148462309.036 6                  28251427.289
        37.500
 127683268.636 7                  24297308.335
        46.800
 127271365.337 7  98988885.123 6  23767033.256    23767033.722    23767039.192
        42.600          37.800
 198974627.456 7                  37863606.542
        45.300
 200952865.339 7                  38240065.264
        44.100
 119270895.330 7  92938383.62044  22696487.491    22696486.8884   22696487.3564
        43.500          27.1004
 124184148.064 7                  23631436.286
        47.000
 412774386.510 5                  78548558.764
        32.700
 202103703.545 7                  38459026.182
        44.800
 105435430.487 8  82005379.545 8  19758548.688    19758548.707    19758554.084
        52.600          48.600
 144743325.528 6                  27543739.062
        38.300
 143501123.524 6                  27307327.970
        38.700
 109883393.129 8  85623431.27246  20910110.666    20910110.2954   20910110.3244
        48.100          38.5004
 127378121.499 6  99255721.40545  24239236.697    24239236.2644   24239238.3714
        39.600          32.5004
 127650367.298 5  99283639.796 5  23862885.823    23862884.095    23862890.533
        32.900          34.900
 106880193.344 8  83283272.62647  20338618.428    20338618.0484   20338618.1264
        50.200          44.1004
 125059640.170 8                  23798053.568
        48.200
 122127572.968 7  95164373.48346  23240094.581    23240093.9474   23240095.4034
        43.600          37.8004
 106902936.577 8  83301009.92848  20342943.033    20342942.6004   20342942.5664
        49.600          49.2004
 131509298.842 7 102285035.678 6  24610174.144    24610173.909    24610179.455
        42.200          38.100
 148270388.028 6                  28214915.951
        36.600
 127599339.490 7                  24281344.751
        47.100
 125407319.732 6  97720003.58945  23864217.419    23864216.7044   23864220.4074
        40.000          35.1004
 120342787.721 7  93600009.762 6  22504700.023    22504700.872    22504708.669
        46.600          41.500
 135765854.548 6 105791582.57044  25835380.982    25835380.5854   25835383.9984
        38.300          27.5004
 108114003.432 8  84088711.496 8  20253388.563    20253388.726    20253394.939
        50.700          48.100
 102530464.661 8  79745960.549 7  19160263.731    19160263.715    19160269.825
        51.400          47.300
 107290868.276 8  83448487.460 8  20042830.383    20042831.152    20042836.995
        51.800          48.200
 124057014.474 7  96488838.451 6  23207420.556    23207420.281    23207427.241
        43.400          36.100
 25  1  1  8  2 30.0000000  0 31G10G24E03E08R04S31S35G13E13S48S33R02
                                E29E15G23G05R19G18E07G29G15R11E33E26
                                G27R24G32R18R17R03R01
 125184889.923 7  97546679.83146  23821891.670    23821891.0714   23821895.0464
        42.800          38.6004
 120800771.851 6  94130501.71646  22987619.850    22987619.3904   22987624.2204
        41.300          38.0004
 148504801.023 6                  28259513.621
        37.700
 127702758.130 7                  24301016.958
        47.100
 127215887.079 7  98945735.342 6  23756671.862    23756672.874    23756679.524
        42.700          38.200
 198974628.325 7                  37863605.040
        45.200
 200952875.141 7                  38240068.890
        44.100
 119318089.721 7  92975158.46444  22705468.581    22705467.9824   22705468.1774
        43.100          27.4004
 124195317.315 7                  23633561.913
        47.300
 412774154.249 5                  78548540.140
        32.300
 202103676.120 7                  38459024.223
        45.200
 105464489.102 8  82027980.699 8  19763994.054    19763994.406    19763999.698
        52.600          48.600
 144698210.396 6                  27535153.819
        38.500
 143536809.890 6                  27314118.726
        38.700
 109866841.646 8  85610534.01246  20906960.932    20906960.5794   20906960.7284
        48.100          38.5004
 127420520.258 6  99288759.34845  24247304.732    24247304.2994   24247306.6984
        39.300          32.4004
 127587677.565 5  99234881.184 5  23851164.854    23851165.542    23851171.260
        32.300          35.400
 106873933.478 8  83278394.81047  20337427.122    20337426.7474   20337426.8944
        50.200          44.1004
 125036726.113 7                  23793692.920
        47.600
 122181392.932 7  95206311.10646  23250336.200    23250335.5704   23250336.8644
        42.500          38.1004
 106928132.246 8  83320642.91548  20347737.638    20347737.2054   20347737.1484
        49.200          49.3004
 131483923.778 6 102265299.558 6  24605423.998    24605424.223    24605431.044
        41.200          38.300
 148231546.108 6                  28207524.289
        38.100
 127574546.443 7                  24276626.728
        47.300
 125374681.435 6  97694571.14245  23858006.766    23858006.0694   23858009.2924
        40.300          35.5004
 120402033.725 7  93646089.958 6  22515778.926    22515779.380    22515787.749
        45.700          41.300
 135712695.803 6 105750160.20144  25825264.719    25825264.3084   25825267.9004
        38.100          26.8004
 108072954.622 8  84056784.659 8  20245698.977    20245699.100    20245704.907
        51.300          48.000
 102544528.123 8  79756898.803 7  19162891.808    19162891.902    19162897.882
        51.800          47.300
 107264041.379 8  83427622.128 8  20037819.212    20037819.514    20037825.415
        52.000          48.400
 124114191.181 7  96533309.283 6  23218116.093    23218115.213    23218123.456
        43.200          36.400
 25  1  1  8  2 45.0000000  0 31G10G24E03E08R04S31S35G13E13S48S33R02
                                E29E15G23G05R19G18E07G29G15R11E33E26
                                G27R24G32R18R17R03R01
 125150182.177 7  97519634.84346  23815287.130    23815286.5224   23815290.1644
        42.600          38.4004
 120756541.852 6  94096036.81846  22979203.407    22979202.9514   22979207.4014
        41.000          37.8004
 148547307.286 6                  28267602.538
        37.800
 127722329.454 7                  24304741.150
        47.100
 127160459.618 7  98902625.065 6  23746321.816    23746322.472    23746328.751
        43.000          38.900
 198974627.108 7                  37863607.450
        45.300
 200952882.425 7                  38240069.619
        43.700
 119365362.455 7  93011994.36144  22714464.476    22714463.8864   22714463.8474
        43.500          27.4004
 124206551.250 7                  23635699.721
        47.200
 412773921.516 5                  78548500.065
        32.500
 202103646.066 7                  38459019.935
        45.000
 105493655.483 8  82050665.652 8  19769459.659    19769460.213    19769465.286
        52.700          48.600
 144653112.964 6                  27526571.971
        38.900
 143572530.187 6                  27320916.141
        39.100
 109850342.174 7  85597677.29746  20903820.979    20903820.6264   20903820.9924
        47.800          38.3004
 127462921.990 6  99321799.61345  24255373.880    24255373.4384   24255375.6164
        39.000          32.3004
 127524989.428 5  99186123.773 5  23839445.242    23839446.179    23839452.023
        32.700          34.600
 106867782.453 8  83273601.80347  20336256.550    20336256.1754   20336256.4204
        50.300          43.9004
 125013897.886 7                  23789348.931
        47.900
 122235251.894 7  95248279.11046  23260585.201    23260584.5714   23260586.0684
        43.400          37.9004
 106953451.850 8  83340372.47648  20352555.956    20352555.5184   20352555.3074
        49.200          49.1004
 131458682.999 6 102245667.825 6  24600700.916    24600701.577    24600707.584
        41.500          39.200
 148192689.100 6                  28200130.351
        37.700
 127549789.154 7                  24271915.580
        47.400
 125342159.412 6  97669229.29345  23851817.897    23851817.2094   23851820.5674
        39.900          35.6004
 120461350.929 7  93692225.494 6  22526872.274    22526872.474    22526881.085
        46.800          41.600
 135659545.050 5 105708744.06744  25815151.059    25815150.6444   25815153.8194
        35.900          24.7004
 108032021.408 8  84024947.711 8  20238030.613    20238030.938    20238037.022
        51.500          48.200
 102558770.654 8  79767976.316 7  19165553.191    19165553.466    19165559.415
        51.800          47.500
 107237345.784 8  83406858.876 8  20032832.466    20032832.778    20032838.479
        52.100          48.500
 124171362.753 7  96577776.100 6  23228811.057    23228810.480    23228818.790
        42.700          36.300
 25  1  1  8  3  0.0000000  0 31G10G24E03E08R04S31S35G13E13S48S33R02
                                E29E15G23G05R19G18E07G29G15R11E33E26
                                G27R24G32R18R17R03R01
 125115498.196 7  97492608.38346  23808687.073    23808686.4564   23808690.0894
        42.200          38.5004
 120712379.116 6  94061624.32946  22970799.680    22970799.2384   22970803.5054
        41.600          37.9004
 148589829.692 6                  28275694.388
        36.900
 127741984.487 7                  24308481.611
        47.000
 127105085.178 7  98859556.007 6  23735981.367    23735982.024    23735987.534
        43.500          38.100
 198974627.515 7                  37863603.045
        45.400
 200952890.534 7                  38240070.898
        44.100
 119412715.281 7  93048892.66444  22723475.112    22723474.5044   22723474.8154
        43.900          27.5004
 124217851.984 7                  23637850.154
        47.400
 412773688.162 5                  78548480.542
        33.000
 202103617.930 7                  38459010.612
        44.800
 105522931.070 8  82073435.553 8  19774945.822    19774946.357    19774951.582
        52.900          48.700
 144608035.417 6                  27517993.852
        38.600
 143608286.436 6                  27327720.173
        38.200
 109833896.703 8  85584862.67246  20900691.696    20900691.3484   20900691.5224
        48.400          38.5004
 127505329.061 6  99354844.02745  24263444.344    24263443.9114   24263445.3344
        38.800          32.5004
 127462306.009 5  99137369.968 5  23827728.631    23827729.164    23827733.479
        32.400          34.300
 106861742.482 8  83268895.33447  20335107.277    20335106.9024   20335107.0524
        50.400          44.0004
 124991157.477 8                  23785021.772
        48.100
 122289151.700 7  95290278.94146  23270841.820    23270841.1904   23270842.8574
        43.800          37.6004
 106978897.255 8  83360200.06448  20357397.912    20357397.4744   20357397.4174
        49.500          49.2004
 131433579.168 7 102226142.608 6  24596003.514    24596004.218    24596009.805
        42.800          38.900
 148153819.158 6                  28192733.546
        37.200
 127525069.819 7                  24267211.680
        47.500
 125309755.902 6  97643979.79445  23845651.909    23845651.2034   23845654.2664
        40.200          35.7004
 120520740.937 7  93738417.677 6  22537978.886    22537978.307    22537986.283
        45.300          41.500
 135606404.553 6 105667335.90144  25805038.456    25805038.0414   25805041.6654
        37.600          25.3004
 107991206.447 8  83993202.764 8  20230384.620    20230384.857    20230390.735
        51.300          48.100
 102573194.532 8  79779194.887 7  19168248.492    19168248.893    19168254.909
        51.500          47.500
 107210783.963 8  83386199.677 8  20027870.335    20027870.699    20027876.668
        52.400          48.300
 124228531.073 7  96622240.364 5  23239506.646    23239505.581    23239512.716
        44.000          35.600
 25  1  1  8  3 15.0000000  0 31G10G24E03E08R04S31S35G13E13S48S33R02
                                E29E15G23G05R19G18E07G29G15R11E33E26
                                G27R24G32R18R17R03R01
 125080837.628 7  97465600.17346  23802091.636    23802091.0244   23802094.6124
        42.800          38.8004
 120668283.713 6  94027264.30446  22962408.303    22962407.8834   22962412.3944
        41.300          38.2004
 148632367.572 6                  28283789.034
        36.600
 127761722.692 7                  24312237.568
        46.900
 127049763.546 7  98816528.037 6  23725650.249    23725651.100    23725657.424
        43.700          38.600
 198974627.705 7                  37863609.990
        45.500
 200952898.502 7                  38240075.692
        44.200
 119460147.466 7  93085852.79644  22732501.160    22732500.5484   22732500.8574
        44.100          27.8004
 124229219.214 7                  23640013.086
        47.400
 412773455.679 5                  78548457.674
        33.000
 202103589.292 7                  38459008.474
        44.800
 105552315.412 8  82096290.023 8  19780452.700    19780452.955    19780458.327
        52.900          48.600
 144562977.602 6                  27509419.551
        38.800
 143644078.180 6                  27334531.628
        39.200
 109817504.876 8  85572089.82846  20897572.237    20897571.8804   20897572.2434
        48.400          38.7004
 127547741.204 6  99387892.39545  24271514.377    24271513.9354   24271516.0994
        39.800          32.9004
 127399626.930 5  99088619.604 5  23816011.761    23816011.510    23816017.868
        32.300          35.200
 106855813.353 8  83264275.22847  20333979.198    20333978.8324   20333978.7734
        50.400          44.2004
 124968504.680 8                  23780710.980
        48.300
 122343091.702 7  95332310.10246  23281106.023    23281105.4024   23281107.1814
        42.800          37.8004
 107004467.865 8  83380125.21148  20362263.872    20362263.4344   20362263.3614
        49.300          49.3004
 131408612.171 6 102206723.713 6  24591331.500    24591331.364    24591337.572
        41.300          38.600
 148114935.990 6                  28185334.159
        37.900
 127500388.233 7                  24262514.775
        47.500
 125277470.852 6  97618822.59846  23839507.845    23839507.1304   23839510.6774
        40.300          36.0004
 120580203.173 7  93784666.003 6  22549098.564    22549098.182    22549106.587
        45.600          41.200
 135553274.130 6 105625935.60644  25794928.376    25794927.9524   25794931.3624
        36.700          26.8004
 107950509.832 8  83961549.817 8  20222760.828    20222760.920    20222767.053
        51.300          48.100
 102587799.291 8  79790554.127 7  19170978.054    19170978.099    19170984.199
        51.400          47.300
 107184355.864 8  83365644.482 8  20022933.710    20022933.719    20022939.447
        52.000          48.500
 124285695.432 7  96666701.455 5  23250199.215    23250199.310    23250207.428
        42.700          35.700
 25  1  1  8  3 30.0000000  0 31G10G24E03E08R04S31S35G13E13S48S33R02
                                E29E15G23G05R19G18E07G29G15R11E33E26
                                G27R24G32R18R17R03R01
 125046195.808 7  97438606.56446  23795498.921    23795498.2954   23795502.4964
        42.100          38.6004
 120624251.362 7  93992953.40246  22954028.989    22954028.5564   22954033.1774
        42.100          38.3004
 148674916.109 6                  28291885.877
        37.000
 127781539.172 7                  24316008.601
        46.600
 126994490.197 7  98773537.668 6  23715328.094    23715329.402    23715336.351
        42.700          38.600
 198974623.078 7                  37863607.056
        45.500
 200952902.422 7                  38240072.736
        44.200
 119507653.900 7  93122870.80144  22741541.313    22741540.7054   22741541.1584
        44.200          27.8004
 124240648.280 7                  23642188.148
        47.000
 412773219.716 5                  78548421.521
        32.700
 202103556.322 7                  38458996.960
        44.900
 105581803.114 8  82119224.914 8  19785978.518    19785978.888    19785984.399
        52.600          48.800
 144517934.896 6                  27500848.420
        38.000
 143679900.592 6                  27341348.000
        38.300
 109801161.944 7  85559355.08746  20894462.376    20894462.0104   20894462.2844
        47.900          38.6004
 127590153.510 6  99420940.89345  24279585.410    24279584.9724   24279586.7874
        39.400          32.7004
 127336947.904 5  99039869.311 5  23804293.801    23804294.437    23804299.981
        33.200          34.800
 106849990.528 8  83259737.95847  20332870.998    20332870.6324   20332870.7274
        50.500          44.2004
 124945934.833 7                  23776415.991
        47.600
 122397066.444 7  95374368.32446  23291377.690    23291377.0644   23291378.3284
        42.600          37.6004
 107030158.716 8  83400144.05248  20367152.752    20367152.3194   20367152.1774
        49.400          49.3004
 131383777.555 6 102187407.850 6  24586683.935    24586684.338    24586690.796
        40.900          39.000
 148076034.947 6                  28177931.804
        37.700
 127475739.825 7                  24257824.376
        47.000
 125245299.792 6  97593754.23545  23833386.705    23833385.9904   23833388.7984
        41.200          35.8004
 120639732.377 7  93830966.439 6  22560231.036    22560230.881    22560238.991
        46.000          41.000
 135500149.197 6 105584539.58244  25784818.795    25784818.3754   25784822.0474
        36.200          26.5004
 107909927.258 8  83929985.607 8  20215158.563    20215158.531    20215164.449
        51.800          48.100
 102602580.095 8  79802050.305 7  19173740.124    19173740.287    19173746.348
        51.300          47.300
 107158056.247 8  83345189.250 8  20018020.382    20018020.765    20018026.596
        52.200          48.500
 124342850.590 7  96711155.407 6  23260892.151    23260891.264    23260899.462
        42.500          36.200
 25  1  1  8  3 45.0000000  0 31G10G24E03E08R04S31S35G13E13S48S33R02
                                E29E15G23G05R19G18E07G29G15R11E33E26
                                G27R24G32R18R17R03R01
 125011579.991 7  97411633.23246  23788911.912    23788911.3044   23788915.2514
        43.100          38.6004
 120580289.756 6  93958697.62146  22945663.718    22945663.2944   22945667.5814
        41.800          38.2004
 148717482.404 6                  28299985.680
        36.900
 127801441.055 7                  24319795.636
        46.700
 126939272.772 7  98730590.708 6  23705017.786    23705018.940    23705023.019
        44.600          37.400
 198974622.058 7                  37863606.488
        45.400
 200952909.344 7                  38240072.123
        43.900
 119555241.352 7  93159951.91944  22750596.794    22750596.1824   22750596.7754
        44.100          27.6004
 124252146.574 7                  23644376.098
        47.200
 412774586.631 5                  78548404.458
        32.400
 202103526.250 7                  38458993.892
        44.800
 105611401.355 8  82142245.752 8  19791525.188    19791525.708    19791530.937
        52.900          48.600
 144472914.818 6                  27492281.904
        38.300
 143715761.010 6                  27348172.289
        38.000
 109784875.189 8  85546664.12146  20891363.266    20891362.9044   20891363.0294
        48.200          38.7004
 127632573.252 6  99453995.18945  24287657.266    24287656.8284   24287659.1484
        39.800          32.8004
 127274276.692 5  98991125.096 6  23792580.276    23792578.066    23792584.880
        32.400          36.000
 106844281.512 8  83255289.37247  20331784.500    20331784.1344   20331784.3194
        50.600          44.1004
 124923455.328 8                  23772138.279
        48.300
 122451083.244 7  95416459.31546  23301656.670    23301656.0494   23301657.6354
        43.700          37.7004
 107055976.797 8  83420262.03248  20372065.832    20372065.3994   20372065.2114
        49.600          49.1004
 131359083.372 6 102168201.304 6  24582062.837    24582062.334    24582068.462
        41.500          39.000
 148037123.493 6                  28170527.350
        38.400
 127451132.085 7                  24253141.754
        47.300
 125213250.301 6  97568780.59546  23827287.287    23827286.5904   23827289.9974
        40.600          36.1004
 120699335.478 7  93877324.353 6  22571376.458    22571376.883    22571385.619
        45.900          41.600
 135447037.328 6 105543153.73044  25774711.440    25774711.0164   25774715.1294
        38.500          28.6004
 107869466.575 8  83898516.175 8  20207578.417    20207578.907    20207584.781
        51.400          48.100
 102617544.668 8  79813689.399 7  19176536.736    19176536.862    19176542.757
        51.700          47.500
 107131892.862 8  83324839.950 8  20013132.940    20013133.179    20013138.942
        52.200          48.600
 124400003.973 7  96755607.935 6  23271583.160    23271583.146    23271591.331
        42.500          36.400
 25  1  1  8  4  0.0000000  0 31G10G24E03E08R04S31S35G13E13S48S33R02
                                E29E15G23G05R19G18E07G29G15R11E33E26
                                G27R24G32R18R17R03R01
 124976988.361 7  97384678.72946  23782329.299    23782328.6964   23782332.7364
        42.700          38.5004
 120536397.661 6  93924496.00346  22937311.324    22937310.8954   22937315.3724
        41.800          38.6004
 148760064.576 6                  28308089.223
        37.600
 127821426.463 7                  24323598.730
        47.000
 126884109.469 7  98687685.910 6  23694716.228    23694716.505    23694722.757
        44.300          38.400
 198974621.603 7                  37863607.311
        45.500
 200952916.899 7                  38240077.856
        44.300
 119602907.952 7  93197094.72444  22759667.763    22759667.1644   22759667.2114
        44.200          27.8004
 124263712.414 7                  23646577.078
        47.300
 412774355.026 5                  78548363.574
        32.400
 202103497.495 7                  38458986.662
        44.900
 105641107.918 8  82165350.856 8  19797092.500    19797092.694    19797098.116
        52.800          48.600
 144427915.789 6                  27483718.640
        37.800
 143751657.650 6                  27355002.955
        38.600
 109768642.896 7  85534015.56946  20888274.155    20888273.7894   20888274.1174
        47.900          38.6004
 127674998.580 6  99487053.83045  24295730.927    24295730.5034   24295732.6944
        39.300          33.0004
 127211611.644 5  98942385.716 5  23780863.988    23780863.090    23780870.221
        33.100          35.700
 106838684.721 8  83250928.23547  20330719.439    20330719.0734   20330719.3184
        50.400          44.1004
 124901064.482 8                  23767877.535
        48.200
 122505139.972 7  95458581.42646  23311943.235    23311942.6054   23311944.2324
        42.500          37.5004
 107081920.185 8  83440477.65148  20377002.508    20377002.0704   20377002.0714
        49.500          49.1004
 131334527.986 7 102149102.594 6  24577467.487    24577467.939    24577474.589
        42.200          40.200
 147998199.878 6                  28163120.051
        38.000
 127426563.425 7                  24248466.347
        47.500
 125181320.874 6  97543900.51145  23821211.149    23821210.4744   23821213.8134
        39.900          35.9004
 120759010.674 7  93923738.365 6  22582536.831    22582536.837    22582544.518
        46.000          41.000
 135393936.925 6 105501776.80844  25764607.513    25764607.0804   25764610.9614
        36.700          26.0004
 107829126.496 8  83867140.564 8  20200021.947    20200021.793    20200027.927
        51.600          48.100
 102632691.032 8  79825469.900 7  19179366.867    19179367.198    19179373.250
        51.900          47.500
 107105864.034 8  83304595.340 8  20008270.614    20008270.795    20008276.741
        52.100          48.500
 124457153.790 7  96800057.826 6  23282274.827    23282274.800    23282282.252
        43.000          36.400
 25  1  1  8  4 15.0000000  0 31G10G24E03E08R04S31S35G13E13S48S33R02
                                E29E15G23G05R19G18E07G29G15R11E33E26
                                G27R24G32R18R17R03R01
 124942419.695 7  97357742.12646  23775751.216    23775750.6044   23775754.2514
        42.800          38.2004
 120492574.214 7  93890347.88646  22928971.667    22928971.2524   22928976.1004
        42.200          38.5004
 148802661.102 6                  28316194.912
        37.500
 127841493.928 7                  24327417.285
        46.700
 126828999.654 7  98644822.707 6  23684423.620    23684424.368    23684431.402
        42.300          38.400
 198974620.991 7                  37863607.991
        45.600
 200952924.665 7                  38240076.747
        44.100
 119650652.117 7  93234297.96644  22768753.044    22768752.4454   22768752.5964
        43.500          27.9004
 124275344.562 7                  23648790.593
        47.300
 412774123.311 5                  78548343.469
        32.200
 202103467.556 7                  38458984.591
        44.800
 105670921.213 8  82188538.969 8  19802679.572    19802679.745    19802685.002
        52.800          48.500
 144382936.678 6                  27475159.270
        38.600
 143787589.187 6                  27361840.354
        38.300
 109752463.824 8  85521408.51846  20885195.319    20885194.9574   20885195.3244
        48.000          38.6004
 127717427.818 6  99520115.50845  24303805.062    24303804.6294   24303806.8434
        40.100          33.1004
 127148952.553 5  98893650.893 5  23769150.421    23769149.916    23769156.100
        32.600          35.300
 106833199.044 8  83246653.67547  20329675.789    20329675.4234   20329675.4404
        50.500          44.1004
 124878761.099 8                  23763633.439
        48.000
 122559234.899 7  95500733.29446  23322237.343    23322236.7224   23322238.1584
        43.600          37.7004
 107107987.237 8  83460789.63348  20381962.957    20381962.5194   20381962.4864
        49.300          49.1004
 131310110.422 7 102130111.072 6  24572897.906    24572897.851    24572904.940
        42.000          40.400
 147959263.007 6                  28155710.566
        38.000
 127402032.707 7                  24243798.230
        47.500
 125149510.542 6  97519113.23446  23815158.549    23815157.8744   23815160.5374
        39.800          36.0004
 120818756.285 7  93970207.153 6  22593708.955    22593709.177    22593717.108
        46.100          41.100
 135340847.033 6 105460408.07844  25754504.289    25754503.8384   25754508.3454
        37.700          27.6004
 107788906.196 8  83835858.113 7  20192486.616    20192486.971    20192492.970
        51.300          47.800
 102648017.866 8  79837390.755 7  19182231.212    19182231.353    19182237.449
        51.600          47.200
 107079968.304 8  83284454.237 8  20003433.027    20003433.130    20003438.974
        52.200          48.500
 124514298.065 7  96844503.416 5  23292963.717    23292964.258    23292972.318
        42.500          35.800
 25  1  1  8  4 30.0000000  0 31G10G24E03E08R04S31S35G13E13S48S33R02
                                E29E15G23G05R19G18E07G29G15R11E33E26
                                G27R24G32R18R17R03R01
 124907872.911 7  97330822.56946  23769177.242    23769176.6304   23769180.2144
        42.500          38.5004
 120448818.751 6  93856252.74646  22920645.471    22920645.0334   22920649.5814
        41.900          38.7004
 148845270.706 6                  28324302.823
        37.000
 127861642.197 7                  24331251.725
        46.500
 126773942.225 7  98602000.249 6  23674142.537    23674143.383    23674150.172
        43.900          38.700
 198974619.651 7                  37863606.873
        45.600
 200952930.140 7                  38240077.136
        44.000
 119698472.383 7  93271560.49844  22777853.017    22777852.4274   22777852.6524
        44.100          28.0004
 124287042.034 7                  23651016.487
        46.700
 412773889.877 5                  78548321.581
        32.500
 202103437.763 7                  38458978.425
        44.700
 105700839.574 8  82211808.801 8  19808286.315    19808286.507    19808291.441
        52.900          48.400
 144337976.593 6                  27466603.580
        38.100
 143823554.472 6                  27368684.115
        38.200
 109736336.787 8  85508842.00546  20882126.455    20882126.0934   20882126.4774
        48.000          38.9004
 127759860.245 6  99553179.66745  24311879.694    24311879.2564   24311881.5074
        39.300          33.4004
 127086298.047 5  98844919.706 5  23757439.020    23757438.111    23757443.060
        32.100          34.800
 106827823.575 8  83242464.99547  20328652.700    20328652.3344   20328652.4984
        50.400          44.2004
 124856544.166 7                  23759405.512
        47.300
 122613366.523 7  95542913.75446  23332538.013    23332537.3794   23332539.0414
        43.500          38.0004
 107134176.542 8  83481196.88248  20386946.683    20386946.2454   20386946.1504
        49.400          49.1004
 131285830.160 7 102111226.389 6  24568355.109    24568355.000    24568360.859
        42.000          40.400
 147920311.830 6                  28148298.351
        37.500
 127377539.020 7                  24239137.450
        47.000
 125117818.428 6  97494418.07746  23809127.785    23809127.1194   23809129.7854
        40.200          36.4004
 120878570.763 7  94016729.482 6  22604894.326    22604894.570    22604902.899
        45.700          41.500
 135287766.607 6 105419046.72544  25744404.034    25744403.5744   25744407.1654
        37.300          28.0004
 107748805.064 8  83804668.345 8  20184974.538    20184974.860    20184980.639
        51.600          48.000
 102663524.079 8  79849451.121 7  19185129.100    19185129.152    19185135.320
        51.800          47.300
 107054204.764 8  83264415.950 8  19998620.285    19998620.425    19998626.095
        52.200          48.500
 124571435.531 7  96888943.602 6  23303652.793    23303652.572    23303660.216
        42.700          36.000
 25  1  1  8  4 45.0000000  0 31G10G24E03E08R04S31S35G13E13S48S33R02
                                E29E15G23G05R19G18E07G29G15R11E33E26
                                G27R24G32R18R17R03R01
