     2.11           OBSERVATION DATA    M (MIXED)           RINEX VERSION / TYPE
teqc  2019Feb25                         20260317 16:20:09UTCPGM / RUN BY / DATE
Linux 2.4.21-27.ELsmp|Opteron|gcc -static|Linux 64|=+       COMMENT
BIT 2 OF LLI FLAGS DATA COLLECTED UNDER A/S CONDITION       COMMENT
-Unknown-                                                   MARKER NAME
-Unknown-           -Unknown-                               OBSERVER / AGENCY
-Unknown-           -Unknown-           -Unknown-           REC # / TYPE / VERS
-Unknown-           -Unknown-                               ANT # / TYPE
        0.0000        0.0000        0.0000                  APPROX POSITION XYZ
        0.0000        0.0000        0.0000                  ANTENNA: DELTA H/E/N
     1     1                                                WAVELENGTH FACT L1/2
     7    L1    L2    C1    P1    P2    S1    S2            # / TYPES OF OBSERV
 SNR is mapped to RINEX snr flag value [0-9]                COMMENT
  L1 & L2: min(max(int(snr_dBHz/6), 0), 9)                  COMMENT
  2025     1     1    20     0    0.0000000     GPS         TIME OF FIRST OBS
    18                                                      LEAP SECONDS
                                                            END OF HEADER
 25  1  1 20  0  0.0000000  0 33G09E05G17G08S31S35G07E13E33S48S33R19
                                G30E04E31G27R01G04E06R20R08R10E26R11
                                G21E24R21R09E09R02G13G14G02
 121467392.231 6  94649883.54046  23114508.132    23114507.5564   23114521.5464
        40.900          39.1004
 132380689.142 6                  25191209.004
        41.600
 126422072.389 6  98510801.92045  24057308.443    24057307.9074   24057331.4944
        41.000          33.9004
 109944194.583 8  85670942.05548  20921632.443    20921631.6834   20921636.0824
        48.100          48.3004
 198975653.456 7                  37863812.138
        45.900
 200894869.772 7                  38229034.929
        44.100
 106971724.142 8  83354637.50948  20356022.910    20356022.2984   20356023.0634
        50.500          51.9004
 150364151.402 6                  28613295.526
        39.100
 140605332.554 6                  26756264.720
        41.000
 412937859.379 5                  78579447.803
        33.700
 202125401.390 7                  38463171.568
        45.500
 125825423.536 6  97864418.359 6  23521680.996    23521680.609    23521692.310
        36.100          40.300
 111778710.376 8  87100330.03748  21270772.254    21270771.4144   21270774.9354
        49.200          49.2004
 135145286.294 7                  25717312.598
        42.700
 123565859.850 8                  23513746.641
        48.500
 124294299.485 6  96852857.42646  23652362.739    23652361.9574   23652368.7774
        41.500          36.9004
 115781779.694 7  90052525.088 6  21659377.379    21659377.124    21659385.412
        46.200          37.600
 130905854.783 5 102004471.58542  24910628.281    24910627.9514   24910652.9504
        34.500          17.1004
 128980391.031 7                  24544157.901
        47.500
 109587244.538 6  85234703.720 7  20493302.783    20493302.686    20493311.762
        38.800          46.100
 119678066.355 7  93082920.446 7  22349061.468    22349061.958    22349077.171
        42.800          43.800
 108511260.263 8                  20356389.165    20356388.626
        48.600
 140133344.933 7                  26666416.140
        42.600
 110310825.320 8  85797472.559 7  20643115.424    20643115.421    20643121.030
        51.600          47.500
 116643336.350 6  90891061.14744  22196435.890    22196434.5134   22196439.8714
        41.500          26.7004
 139114772.796 7                  26472602.911
        44.200
 117163206.404 7  91127126.987 7  21894703.165    21894703.201    21894717.681
        46.900          44.400
 121910171.854 7  94819091.707 7  22829852.431    22829853.368    22829865.619
        45.100          42.600
 128809858.124 7                  24511700.677
        47.600
 126592736.727 7  98461112.889 6  23723405.964    23723406.651    23723413.065
        42.900          39.300
 127282229.576 6  99180968.08642  24221002.289    24221001.6374   24221003.5164
        38.600          17.8004
 118303505.586 7  92184707.45545  22512348.955    22512348.5404   22512351.2204
        44.200          31.9004
 121175485.014 7  94422584.79945  23058884.243    23058882.9564   23058891.6504
        43.600          30.0004
 25  1  1 20  0 15.0000000  0 33G09E05G17G08S31S35G07E13E33S48S33R19
                                G30E04E31G27R01G04E06R20R08R10E26R11
                                G21E24R21R09E09R02G13G14G02
 121520493.283 7  94691260.67846  23124613.216    23124612.6444   23124626.3264
        42.300          39.0004
 132353242.967 6                  25185986.233
        41.800
 126367922.388 6  98468607.53345  24047003.467    24047002.9094   24047026.3224
        41.600          33.8004
 109976649.126 8  85696231.29348  20927808.333    20927807.5734   20927812.0064
        48.300          48.4004
 198975640.616 7                  37863809.433
        45.900
 200894844.596 7                  38229033.386
        44.100
 106967450.894 8  83351307.69348  20355209.951    20355209.3394   20355209.9034
        50.400          51.8004
 150385092.467 6                  28617280.069
        39.100
 140566382.390 6                  26748852.106
        40.100
 412938425.475 5                  78579469.513
        33.100
 202125409.243 7                  38463179.604
        45.500
 125875336.752 5  97903239.682 6  23531010.409    23531011.633    23531022.825
        35.600          40.300
 111746846.122 8  87075500.75848  21264708.569    21264707.7244   21264711.3394
        49.100          49.2004
 135187991.234 7                  25725439.304
        42.900
 123564130.590 8                  23513417.607
        48.400
 124348325.601 6  96894955.61146  23662643.696    23662642.9274   23662649.2254
        41.100          36.6004
 115791603.376 7  90060165.684 6  21661214.645    21661214.947    21661223.410
        46.400          38.100
 130962782.658 6 102048830.84942  24921461.385    24921461.0464   24921485.9754
        36.700          17.5004
 129009949.150 7                  24549782.633
        47.200
 109574178.058 6  85224540.897 7  20490859.017    20490859.266    20490868.441
        39.500          46.000
 119734056.140 7  93126467.724 7  22359518.119    22359518.141    22359533.215
        43.000          43.500
 108526735.243 8                  20359292.237    20359291.764
        48.300
 140120896.079 7                  26664047.151
        42.700
 110285353.877 8  85777661.438 7  20638348.815    20638348.900    20638354.254
        51.100          47.600
 116616878.555 6  90870444.79744  22191401.336    22191399.9684   22191404.9004
        41.000          26.6004
 139087601.176 7                  26467432.212
        43.900
 117102425.512 7  91079853.288 7  21883343.682    21883344.457    21883358.982
        46.900          44.300
 121948959.320 7  94849259.564 7  22837116.913    22837117.156    22837129.117
        44.800          42.500
 128821753.198 7                  24513964.592
        47.500
 126553171.860 7  98430340.291 6  23715989.704    23715990.595    23715999.084
        43.800          39.600
 127237487.288 6  99146103.97942  24212488.598    24212487.9464   24212489.1494
        40.300          17.5004
 118269760.690 7  92158412.75445  22505927.703    22505927.2834   22505929.8584
        44.100          32.0004
 121136183.234 7  94391960.31145  23051405.822    23051404.5394   23051412.6024
        43.900          30.0004
 25  1  1 20  0 30.0000000  0 33G09E05G17G08S31S35G07E13E33S48S33R19
                                G30E04E31G27R01G04E06R20R08R10E26R11
                                G21E24R21R09E09R02G13G14G02
 121573632.540 7  94732667.59546  23134725.600    23134725.0284   23134738.8244
        42.000          39.2004
 132325883.880 6                  25180780.027
        41.200
 126313813.283 6  98426445.04845  24036706.649    24036706.0914   24036729.0384
        40.700          33.3004
 110009220.931 8  85721611.89648  20934006.545    20934005.7854   20934010.2334
        48.500          48.3004
 198975632.807 7                  37863807.197
        45.800
 200894825.159 7                  38229030.972
        44.100
 106963286.066 8  83348062.35348  20354417.270    20354416.6534   20354417.3704
        50.600          51.6004
 150406132.439 6                  28621283.972
        38.700
 140527471.314 6                  26741447.719
        40.300
 412938997.509 5                  78579501.521
        33.200
 202125423.082 7                  38463178.915
        45.500
 125925376.407 6  97942159.268 6  23540366.553    23540365.896    23540378.143
        36.300          40.600
 111715058.316 8  87050731.04848  21258659.832    21258658.9874   21258662.3114
        49.700          49.0004
 135230741.609 7                  25733574.568
        42.800
 123562442.581 8                  23513096.345
        48.300
 124402402.125 6  96937093.08146  23672933.766    23672933.0024   23672939.7434
        41.600          36.4004
 115801622.994 7  90067958.717 6  21663089.195    21663089.456    21663097.583
        46.600          37.600
 131019698.115 6 102093180.49042  24932290.955    24932290.5934   24932316.6834
        38.200          17.5004
 129039592.919 7                  24555423.738
        47.400
 109561322.495 6  85214542.155 7  20488454.075    20488454.786    20488464.304
        39.100          45.900
 119790118.242 7  93170071.258 7  22369988.049    22369987.627    22370002.907
        43.300          43.600
 108542274.586 7                  20362207.007    20362206.654
        47.800
 140108552.954 7                  26661698.243
        42.100
 110259926.979 8  85757884.979 7  20633590.377    20633590.758    20633595.732
        51.700          47.600
 116590546.354 6  90849926.32344  22186390.124    22186388.7564   22186393.9824
        41.700          26.5004
 139060460.110 7                  26462267.545
        44.200
 117041726.105 7  91032642.968 7  21872000.640    21872000.809    21872016.135
        46.400          44.400
 121987784.443 7  94879456.731 7  22844388.024    22844388.770    22844399.703
        44.000          42.000
 128833759.132 7                  24516249.355
        47.400
 126513756.416 7  98399683.928 6  23708604.068    23708604.069    23708612.151
        43.100          39.200
 127192835.493 6  99111310.35942  24203991.116    24203990.4644   24203992.2844
        39.800          17.9004
 118236057.844 7  92132150.83445  22499514.537    22499514.1354   22499516.3534
        44.000          31.8004
 121096951.675 7  94361390.55144  23043939.990    23043938.7124   23043946.8704
        43.800          29.5004
 25  1  1 20  0 45.0000000  0 33G09E05G17G08S31S35G07E13E33S48S33R19
                                G30E04E31G27R01G04E06R20R08R10E26R11
                                G21E24R21R09E09R02G13G14G02
 121626801.372 6  94774097.57446  23144843.409    23144842.8424   23144856.8014
        41.500          38.9004
 132298603.820 6                  25175588.919
        40.900
 126259737.139 6  98384308.23445  24026416.339    24026415.7814   24026438.0284
        41.000          33.1004
 110041901.447 8  85747077.19948  20940225.684    20940224.9244   20940229.1784
        48.500          48.4004
 198975623.069 7                  37863806.021
        45.800
 200894803.272 7                  38229029.885
        44.100
 106959221.553 8  83344895.18248  20353643.852    20353643.2354   20353643.9324
        50.400          51.7004
 150427262.779 6                  28625305.240
        38.900
 140488591.339 6                  26734048.766
        40.600
 412939567.179 5                  78579525.372
        33.200
 202125434.487 7                  38463172.060
        45.000
 125975533.591 5  97981170.036 6  23549742.122    23549742.137    23549755.127
        35.800          40.600
 111683338.990 8  87026014.69048  21252623.477    21252622.6234   21252626.3274
        49.200          49.1004
 135273528.948 7                  25741716.896
        42.900
 123560787.523 8                  23512781.533
        48.300
 124456520.465 6  96979263.11246  23683232.002    23683231.2204   23683238.5794
        41.400          36.7004
 115811830.275 7  90075897.695 6  21664998.669    21664998.441    21665007.239
        46.300          37.800
 131076592.583 5 102137513.76042  24943118.324    24943117.9804   24943143.0944
        35.800          17.4004
 129069313.897 7                  24561079.568
        46.900
 109548670.009 6  85204701.357 7  20486089.079    20486089.145    20486098.042
        39.500          45.800
 119846243.744 7  93213724.079 7  22380468.240    22380468.954    22380484.122
        44.100          43.700
 108557869.976 8                  20365133.674    20365132.437
        48.200
 140096307.435 7                  26659367.746
        42.300
 110234536.311 8  85738136.680 7  20628839.003    20628839.409    20628844.306
        51.900          47.700
 116564331.763 6  90829499.49944  22181401.505    22181400.1424   22181405.3724
        41.600          26.7004
 139033341.386 7                  26457106.854
        43.500
 116981100.014 7  90985489.670 7  21860671.015    21860671.314    21860685.928
        46.600          44.400
 122026639.240 7  94909676.952 7  22851664.610    22851664.467    22851676.540
        45.100          42.500
 128845867.654 7                  24518553.290
        47.200
 126474482.523 6  98369137.628 6  23701242.971    23701243.228    23701252.191
        41.400          39.300
 127148266.343 6  99076581.18343  24195509.991    24195509.3434   24195511.6014
        40.400          18.1004
 118202388.829 7  92105915.26545  22493107.284    22493106.8914   22493109.3414
        44.300          32.0004
 121057782.558 7  94330869.44144  23036486.192    23036484.9184   23036492.7164
        42.800          29.8004
 25  1  1 20  1  0.0000000  0 33G09E05G17G08S31S35G07E13E33S48S33R19
                                G30E04E31G27R01G04E06R20R08R10E26R11
                                G21E24R21R09E09R02G13G14G02
 121680000.028 7  94815550.77546  23154966.790    23154966.2234   23154980.7824
        42.300          39.0004
 132271403.596 6                  25170412.685
        41.300
 126205694.638 6  98342197.64445  24016131.895    24016131.3324   24016153.8914
        41.800          33.5004
 110074691.000 8  85772627.47948  20946465.196    20946464.4324   20946468.8584
        48.500          48.3004
 198975611.330 7                  37863807.470
        45.800
 200894779.692 7                  38229012.982
        43.700
 106955258.150 8  83341806.79548  20352889.760    20352889.1434   20352889.7484
        50.700          51.5004
 150448484.421 6                  28629343.152
        38.800
 140449743.448 6                  26726655.591
        40.400
 412938434.125 5                  78579564.280
        33.300
 202125444.532 7                  38463176.711
        45.300
 126025808.747 5  98020272.552 6  23559140.008    23559140.840    23559153.731
        35.400          40.700
 111651689.046 8  87001352.39448  21246600.827    21246599.9734   21246603.5344
        49.300          48.9004
 135316353.650 7                  25749866.422
        42.700
 123559166.067 8                  23512472.827
        48.200
 124510680.895 6  97021465.93946  23693538.567    23693537.7944   23693545.0924
        41.100          36.3004
 115822225.390 7  90083982.757 6  21666943.207    21666943.355    21666951.840
        46.400          38.000
 131133466.355 6 102181830.88442  24953940.133    24953939.8474   24953965.7894
        36.500          16.4004
 129099112.565 7                  24566749.994
        47.000
 109536221.148 6  85195018.933 7  20483760.945    20483760.767    20483770.232
        39.000          45.900
 119902432.622 7  93257426.215 7  22390962.150    22390961.643    22390977.839
        42.800          43.400
 108573522.354 8                  20368069.252    20368069.032
        48.300
 140084160.320 7                  26657056.270
        42.200
 110209182.548 8  85718417.086 7  20624094.336    20624094.525    20624099.973
        51.600          47.800
 116538235.672 6  90809165.00644  22176435.406    22176434.0474   22176439.4434
        41.500          26.7004
 139006245.630 7                  26451950.898
        43.300
 116920548.562 7  90938394.390 7  21849355.312    21849355.578    21849369.821
        46.600          44.200
 122065524.242 7  94939920.674 7  22858945.939    22858946.410    22858958.510
        44.400          42.700
 128858079.328 7                  24520877.228
        47.400
 126435351.251 7  98338702.235 6  23693910.183    23693910.130    23693918.735
        42.700          38.800
 127103780.937 6  99041917.22042  24187044.055    24187043.4214   24187045.8494
        40.300          17.8004
 118168754.277 7  92079706.54945  22486706.871    22486706.4784   22486708.8304
        45.100          31.8004
 121018676.746 7  94300397.66244  23029044.278    23029043.0224   23029050.9304
        44.000          29.8004
 25  1  1 20  1 15.0000000  0 33G09E05G17G08S31S35G07E13E33S48S33R19
                                G30E04E31G27R01G04E06R20R08R10E26R11
                                G21E24R21R09E09R02G13G14G02
 121733236.933 6  94857033.79746  23165097.688    23165097.1214   23165111.4084
        41.700          38.6004
 132244292.133 6                  25165253.655
        40.900
 126151695.033 6  98300120.48645  24005855.363    24005854.8004   24005877.7674
        40.200          33.6004
 110107598.015 8  85798269.28348  20952727.317    20952726.5534   20952730.8694
        48.400          48.4004
 198975606.077 7                  37863799.001
        45.400
 200894763.141 7                  38229017.503
        44.000
 106951404.761 8  83338804.13148  20352156.424    20352155.7984   20352156.4874
        50.700          51.4004
 150469805.843 6                  28633400.457
        38.200
 140410936.578 6                  26719271.017
        40.300
 412939008.473 5                  78579594.065
        34.000
 202125460.302 7                  38463186.418
        45.300
 126076210.502 6  98059473.565 6  23568563.344    23568563.572    23568576.410
        36.200          40.900
 111620117.491 8  86976751.17748  21240592.837    21240591.9794   21240595.6684
        49.500          48.8004
 135359224.328 7                  25758024.396
        42.600
 123557586.928 8                  23512172.549
        48.100
 124564891.859 6  97063708.13245  23703854.776    23703854.0164   23703860.7324
        41.200          35.9004
 115832817.060 7  90092220.702 6  21668925.410    21668924.888    21668932.845
        46.300          37.700
 131190327.918 6 102226138.53942  24964761.392    24964761.1114   24964786.0204
        36.700          15.6004
 129128997.490 7                  24572437.041
        46.800
 109523985.165 6  85185502.065 7  20481472.203    20481472.633    20481481.821
        39.500          46.100
 119958693.172 7  93301184.105 7  22401468.234    22401468.829    22401484.480
        43.800          43.500
 108589240.323 8                  20371018.028    20371017.289
        48.200
 140072120.492 7                  26654765.539
        42.300
 110183874.766 8  85698733.257 7  20619358.603    20619358.500    20619363.818
        51.600          47.900
 116512267.345 7  90788930.07344  22171493.983    22171492.6464   22171497.7464
        42.300          26.7004
 138979181.540 7                  26446800.937
        43.300
 116860081.210 7  90891364.564 7  21838055.436    21838055.948    21838070.219
        47.300          44.400
 122104448.347 7  94970194.781 7  22866235.922    22866235.946    22866247.586
        45.100          42.200
 128870402.810 7                  24523222.307
        47.300
 126396371.936 7  98308385.132 6  23686605.314    23686605.287    23686614.943
        42.000          39.800
 127059388.133 6  99007325.42242  24178596.625    24178595.9994   24178597.8184
        39.400          17.0004
 118135162.992 7  92053531.55145  22480314.259    22480313.8534   22480316.5344
        44.700          31.9004
 120979643.329 7  94269982.27244  23021616.011    23021614.7464   23021623.0014
        43.900          29.9004
 25  1  1 20  1 30.0000000  0 33G09E05G17G08S31S35G07E13E33S48S33R19
                                G30E04E31G27R01G04E06R20R08R10E26R11
                                G21E24R21R09E09R02G13G14G02
 121786499.102 6  94898536.49246  23175233.598    23175233.0264   23175247.1284
        41.700          38.6004
 132217257.138 6                  25160108.877
        40.800
 126097725.876 6  98258067.06745  23995585.446    23995584.8744   23995607.4304
        40.600          33.6004
 110140609.642 8  85823992.60548  20959009.269    20959008.5094   20959012.8104
        48.700          48.3004
 198975595.642 7                  37863799.251
        45.600
 200894740.315 7                  38229011.690
        43.700
 106947649.015 8  83335877.56048  20351441.922    20351441.2964   20351441.7964
        50.600          51.4004
 150491214.311 6                  28637474.207
        39.100
 140372158.559 6                  26711891.773
        40.400
 412939576.479 5                  78579620.578
        33.400
 202125471.044 7                  38463181.924
        45.300
 126126725.725 5  98098762.961 6  23578006.404    23578006.593    23578019.448
        34.400          40.800
 111588612.093 8  86952201.51148  21234597.690    21234596.8274   21234600.3674
        49.200          48.8004
 135402128.156 7                  25766188.544
        42.600
 123556037.484 8                  23511877.540
        48.200
 124619140.487 6  97105979.69046  23714177.971    23714177.2074   23714184.3854
        41.900          36.4004
 115843592.278 7  90100601.430 6  21670940.442    21670940.266    21670948.648
        45.800          38.000
 131247164.438 5 102270426.63842  24975576.601    24975576.2884   24975601.5824
        35.100          16.0004
 129158955.963 7                  24578137.912
        47.000
 109511949.516 6  85176141.031 7  20479221.573    20479221.605    20479231.025
        39.000          46.100
 120015012.013 7  93344987.298 7  22411986.174    22411985.504    22412000.994
        43.100          43.100
 108605011.633 8                  20373976.907    20373976.237
        48.600
 140060175.588 7                  26652492.265
        42.400
 110158600.242 8  85679075.288 7  20614628.458    20614628.641    20614634.080
        51.300          47.800
 116486414.977 6  90768785.50544  22166574.133    22166572.8014   22166578.0534
        41.800          26.9004
 138952136.602 7                  26441653.987
        43.500
 116799685.690 7  90844390.602 7  21826768.161    21826768.867    21826783.244
        46.600          44.200
 122143398.823 7  95000489.430 7  22873529.636    22873530.057    22873541.763
        44.800          42.100
 128882825.522 7                  24525586.212
        47.400
 126357531.988 6  98278176.376 6  23679326.944    23679326.112    23679335.231
        41.200          39.200
 127015075.862 6  98972796.41142  24170164.984    24170164.3904   24170165.3804
        39.400          17.5004
 118101602.437 7  92027380.51045  22473928.399    22473928.0024   22473930.2924
        44.300          31.9004
 120940670.313 7  94239613.94944  23014199.694    23014198.4344   23014206.3234
        43.900          29.8004
 25  1  1 20  1 45.0000000  0 33G09E05G17G08S31S35G07E13E33S48S33R19
                                G30E04E31G27R01G04E06R20R08R10E26R11
                                G21E24R21R09E09R02G13G14G02
 121839791.777 6  94940062.95046  23185374.862    23185374.2814   23185388.7724
        41.900          38.7004
 132190304.342 6                  25154980.092
        40.900
 126043793.004 6  98216041.90545  23985321.971    23985321.3814   23985343.7684
        40.900          33.3004
 110173731.139 8  85849801.53448  20965312.206    20965311.4514   20965315.6564
        48.700          48.6004
 198975585.115 7                  37863795.642
        45.500
 200894718.861 7                  38229008.886
        44.100
 106943996.658 8  83333031.54648  20350746.909    20350746.2834   20350746.8084
        50.700          51.6004
 150512715.105 6                  28641565.376
        38.500
 140333415.210 6                  26704518.343
        40.700
 412940142.897 5                  78579653.547
        33.200
 202125481.888 7                  38463189.106
        45.300
 126177359.100 6  98138144.253 6  23587472.471    23587473.134    23587484.916
        36.500          40.600
 111557178.666 8  86927707.92748  21228616.174    21228615.3204   21228618.7714
        49.200          49.0004
 135445070.467 7                  25774360.839
        42.900
 123554523.208 8                  23511589.331
        48.200
 124673431.967 6  97148284.60046  23724509.752    23724508.9974   23724515.8094
        41.600          36.5004
 115854556.648 7  90109129.242 6  21672991.854    21672991.583    21672999.786
        46.200          37.500
 131303981.124 6 102314699.25642  24986389.210    24986388.8714   24986413.8364
        36.800          16.3004
 129188993.357 7                  24583853.858
        46.700
 109500120.095 6  85166940.388 7  20477009.876    20477010.044    20477018.704
        38.900          46.100
 120071394.327 7  93388839.899 7  22422514.720    22422514.986    22422531.616
        42.700          44.000
 108620841.480 8                  20376946.446    20376945.547
        48.200
 140048331.292 6                  26650238.350
        41.900
 110133364.861 8  85659447.781 7  20609905.981    20609906.469    20609911.716
        51.900          47.800
 116460683.880 7  90748735.42644  22161677.614    22161676.2824   22161681.4884
        42.400          27.1004
 138925116.295 7                  26436512.390
        43.400
 116739368.566 7  90797477.605 7  21815496.458    21815497.234    21815511.053
        46.400          44.200
 122182381.477 7  95030809.093 6  22880830.953    22880831.475    22880842.170
        45.500          41.700
 128895352.936 7                  24527970.151
        47.300
 126318837.406 7  98248080.668 6  23672075.287    23672075.246    23672084.795
        42.000          39.900
 126970849.871 6  98938334.61043  24161748.815    24161748.2394   24161749.3754
        39.400          18.1004
 118068078.222 7  92001257.78045  22467548.661    22467548.2644   22467550.7854
        45.500          32.2004
 120901763.815 7  94209297.45145  23006795.920    23006794.6734   23006802.3314
        44.300          30.0004
 25  1  1 20  2  0.0000000  0 33G09E05G17G08S31S35G07E13E33S48S33R19
                                G30E04E31G27R01G04E06R20R08R10E26R11
                                G21E24R21R09E09R02G13G14G02
 121893113.494 6  94981612.03146  23195522.114    23195521.5244   23195535.7074
        41.500          38.6004
 132163432.837 6                  25149866.863
        41.500
 125989895.708 6  98174044.47445  23975065.829    23975065.2484   23975086.5104
        40.500          33.2004
 110206961.119 8  85875694.99748  20971635.511    20971634.7564   20971639.1614
        48.300          48.8004
 198975573.157 7                  37863798.361
        45.800
 200894695.323 7                  38229005.859
        44.200
 106940446.791 8  83330265.40448  20350071.262    20350070.6364   20350071.3254
        50.500          51.8004
 150534307.182 6                  28645673.884
        38.600
 140294705.735 6                  26697152.059
        40.300
 412939108.803 5                  78579678.579
        33.700
 202125491.663 7                  38463194.239
        45.100
 126228109.615 6  98177616.697 6  23596960.166    23596960.576    23596972.108
        36.300          39.900
 111525816.392 8  86903269.78948  21222647.999    21222647.1504   21222650.7254
        49.000          49.1004
 135488049.986 7                  25782539.648
        43.000
 123553042.970 8                  23511307.627
        48.400
 124727764.935 6  97190621.85146  23734848.627    23734847.8634   23734855.1984
        41.000          36.4004
 115865708.699 7  90117803.038 6  21675078.428    21675077.805    21675086.245
        46.000          38.100
 131360776.666 6 102358955.44142  24997195.940    24997195.5514   24997221.7834
        36.800          16.3004
 129219108.406 7                  24589584.596
        47.000
 109488496.117 6  85157899.532 7  20474836.042    20474836.169    20474845.093
        39.200          46.100
 120127838.410 7  93432740.499 7  22433056.778    22433056.232    22433071.664
        43.400          43.300
 108636729.262 8                  20379926.835    20379926.232
        48.400
 140036586.664 7                  26648003.590
        42.000
 110108167.500 8  85639849.823 8  20605190.755    20605190.987    20605196.197
        51.900          48.000
 116435073.592 7  90728779.48444  22156803.978    22156802.6334   22156807.8584
        42.100          27.3004
 138898119.592 7                  26431374.912
        43.800
 116679129.034 7  90750624.936 7  21804239.540    21804240.009    21804253.707
        47.200          44.300
 122221394.988 7  95061152.763 7  22888136.422    22888136.666    22888148.846
        45.500          42.500
 128907983.901 7                  24530373.767
        47.400
 126280287.835 7  98218097.775 6  23664851.489    23664851.376    23664860.526
        42.500          39.500
 126926709.496 6  98903939.51343  24153349.043    24153348.4534   24153350.2194
        39.600          18.5004
 118034589.265 7  91975162.52345  22461175.958    22461175.5614   22461178.0344
        44.300          32.3004
 120862922.851 7  94179032.03545  22999404.465    22999403.1964   22999410.9764
        43.800          30.1004
 25  1  1 20  2 15.0000000  0 33G09E05G17G08S31S35G07E13E33S48S33R19
                                G30E04E31G27R01G04E06R20R08R10E26R11
                                G21E24R21R09E09R02G13G14G02
 121946468.053 6  95023186.71246  23205675.531    23205674.9554   23205688.9734
        41.700          38.6004
 132136646.967 7                  25144769.382
        42.000
 125936038.551 6  98132078.31145  23964815.992    23964815.4114   23964837.2514
        40.800          33.2004
 110240303.409 8  85901675.98348  20977980.372    20977979.6264   20977984.0494
        48.600          48.7004
 198975564.245 7                  37863789.078
        45.500
 200894675.271 7                  38229001.763
        44.300
 106937003.702 8  83327582.46948  20349416.134    20349415.5084   20349416.1344
        50.800          51.7004
 150555994.576 6                  28649800.379
        38.700
 140256034.572 6                  26689793.134
        40.900
 412939677.954 5                  78579707.859
        32.900
 202125503.986 7                  38463187.688
        45.200
 126278980.854 6  98217183.133 6  23606469.348    23606470.438    23606482.332
        36.700          40.200
 111494529.720 8  86878890.56248  21216694.504    21216693.6594   21216697.0724
        49.500          49.1004
 135531070.686 7                  25790726.276
        43.200
 123551600.839 8                  23511033.351
        48.500
 124782143.258 6  97232994.47246  23745196.961    23745196.1924   23745203.1544
        41.400          36.5004
 115877052.626 7  90126626.052 6  21677200.112    21677200.256    21677208.736
        46.300          38.200
 131417554.838 6 102403198.08742  25008001.234    25008000.8684   25008026.3554
        38.100          17.1004
 129249305.115 7                  24595330.987
        47.100
 109477081.643 6  85149021.633 7  20472702.309    20472701.063    20472710.447
        39.300          46.200
 120184347.909 7  93476691.982 7  22443608.807    22443609.163    22443625.319
        43.500          43.500
 108652678.719 8                  20382918.818    20382918.391
        48.600
 140024945.944 7                  26645788.083
        42.200
 110083012.475 8  85620284.814 8  20600482.963    20600483.531    20600488.911
        50.900          48.000
 116409588.433 6  90708921.04444  22151953.993    22151952.6524   22151957.9634
        41.800          27.4004
 138871150.617 7                  26426242.976
        44.200
 116618971.958 7  90703836.399 7  21792997.759    21792997.966    21793012.384
        47.000          44.800
 122260443.955 7  95091523.994 7  22895448.889    22895449.866    22895461.116
        45.200          42.100
 128920722.530 7                  24532797.815
        47.700
 126241887.814 7  98188231.154 6  23657655.408    23657654.500    23657663.960
        42.900          40.000
 126882659.322 6  98869614.72743  24144966.474    24144965.8574   24144968.0464
        40.400          18.0004
 118001139.785 7  91949098.03545  22454810.646    22454810.2354   22454812.7954
        44.900          32.4004
 120824152.060 7  94148821.29245  22992026.596    22992025.3274   22992032.8624
        44.500          30.1004
 25  1  1 20  2 30.0000000  0 33G09E05G17G08S31S35G07E13E33S48S33R19
                                G30E04E31G27R01G04E06R20R08R10E26R11
                                G21E24R21R09E09R02G13G14G02
 121999848.098 7  95064781.26746  23215833.348    23215832.7674   23215847.2474
        42.100          38.4004
 132109939.880 6                  25139687.082
        41.400
 125882214.702 6  98090138.16245  23954573.114    23954572.5384   23954594.7544
        40.300          34.0004
 110273750.697 8  85927738.78848  20984345.394    20984344.6574   20984348.8814
        48.400          48.7004
 198975551.369 7                  37863794.994
        45.900
 200894651.085 7                  38228992.391
        43.400
 106933660.616 8  83324977.45748  20348780.093    20348779.4674   20348779.9784
        50.500          51.6004
 150577769.790 6                  28653943.857
        37.600
 140217395.015 6                  26682439.964
        40.900
 412940242.024 5                  78579734.407
        33.200
 202125512.938 7                  38463193.756
        45.000
 126329964.805 6  98256837.223 6  23615999.028    23616001.313    23616013.654
        36.000          40.600
 111463311.895 8  86854564.97948  21210753.864    21210753.0194   21210756.5354
        49.500          49.0004
 135574125.264 7                  25798919.173
        42.500
 123550189.809 8                  23510764.700
        48.300
 124836559.546 6  97275396.67946  23755551.708    23755550.9354   23755558.4524
        41.600          36.7004
 115888580.957 7  90135592.522 6  21679356.677    21679356.710    21679364.953
        46.400          38.100
 131474308.399 6 102447421.55442  25018801.108    25018800.7424   25018826.2894
        37.400          17.2004
 129279576.266 7                  24601091.464
        46.900
 109465870.076 6  85140301.570 7  20470603.737    20470604.798    20470613.999
        38.900          46.000
 120240915.067 7  93520688.332 7  22454171.322    22454172.593    22454188.616
        42.400          43.000
 108668683.201 8                  20385920.731    20385920.822
        48.100
 140013402.272 7                  26643591.583
        42.400
 110057892.770 8  85600747.263 8  20595782.583    20595782.590    20595787.971
        51.700          48.100
 116384221.642 7  90689154.82344  22147126.877    22147125.5454   22147130.8554
        42.000          27.3004
 138844202.287 7                  26421114.680
        43.500
 116558890.685 7  90657106.862 7  21781769.358    21781770.254    21781783.634
        47.700          44.400
 122299521.041 7  95121917.145 7  22902767.499    22902767.430    22902779.637
        44.000          42.200
 128933561.707 7                  24535241.219
        47.300
 126203630.628 7  98158475.616 6  23650485.663    23650485.613    23650494.352
        42.100          39.700
 126838692.730 6  98835355.07743  24136599.584    24136598.9454   24136601.4934
        40.200          18.7004
 117967722.737 7  91923058.81745  22448451.628    22448451.2224   22448453.7014
        45.100          32.3004
 120785444.824 7  94118660.07745  22984660.645    22984659.3624   22984666.7764
        44.500          30.1004
 25  1  1 20  2 45.0000000  0 33G09E05G17G08S31S35G07E13E33S48S33R19
                                G30E04E31G27R01G04E06R20R08R10E26R11
                                G21E24R21R09E09R02G13G14G02
 122053259.687 6  95106400.39946  23225997.628    23225997.0474   23226011.4474
        40.900          38.4004
 132083318.224 7                  25134621.374
        42.000
 125828431.059 6  98048229.33645  23944338.467    23944337.8954   23944360.2344
        40.700          33.4004
 110307309.093 8  85953888.18048  20990731.305    20990730.5684   20990734.8324
        48.700          48.8004
 198975541.236 7                  37863793.796
        45.700
 200894629.556 7                  38228981.498
        43.300
 106930424.198 8  83322455.56648  20348164.012    20348163.3824   20348164.1294
        50.600          51.7004
 150599639.321 6                  28658105.820
        38.000
 140178793.726 6                  26675094.087
        40.600
 412940808.418 5                  78579755.813
        32.900
 202125524.026 7                  38463194.172
        45.500
 126381067.988 6  98296584.103 6  23625554.580    23625553.843    23625566.685
        36.700          40.800
 111432169.607 8  86830298.26448  21204827.341    21204826.4964   21204830.3394
        49.500          49.0004
 135617219.936 7                  25807119.937
        42.700
 123548816.267 8                  23510503.454
        48.400
 124891019.907 6  97317833.26146  23765915.289    23765914.5164   23765921.7954
        41.300          36.3004
 115900300.169 7  90144707.452 6  21681548.436    21681548.856    21681557.528
        45.500          38.100
 131531043.414 5 102491630.56042  25029597.182    25029596.8614   25029622.4674
        35.500          15.7004
 129309928.133 7                  24606867.063
        46.900
 109454867.907 6  85131744.373 7  20468546.652    20468547.494    20468556.739
        39.200          46.200
 120297545.962 7  93564734.226 7  22464749.301    22464749.412    22464764.580
        43.900          43.400
 108684749.135 8                  20388935.374    20388934.799
        48.500
 140001962.236 7                  26641414.427
        42.500
 110032815.105 8  85581242.417 7  20591089.324    20591090.047    20591094.770
        51.900          47.900
 116358980.151 6  90669486.26144  22142323.885    22142322.5534   22142327.4524
        41.900          27.5004
 138817281.060 7                  26415991.803
        43.800
 116498892.472 7  90610441.839 7  21770556.942    21770557.521    21770571.112
        47.400          44.500
 122338632.807 7  95152337.220 7  22910091.830    22910092.190    22910104.446
        44.000          42.500
 128946507.804 7                  24537704.711
        47.600
 126165523.335 7  98128836.662 6  23643344.302    23643344.673    23643353.802
        42.500          40.500
 126794816.439 6  98801165.79243  24128250.195    24128249.5654   24128252.5854
        40.400          19.6004
 117934344.604 7  91897049.92145  22442099.677    22442099.2624   22442101.9274
        45.400          32.4004
 120746807.959 7  94088553.69845  22977308.082    22977306.7954   22977314.3424
        44.300          30.1004
 25  1  1 20  3  0.0000000  0 33G09E05G17G08S31S35G07E13E33S48S33R19
                                G30E04E31G27R01G04E06R20R08R10E26R11
                                G21E24R21R09E09R02G13G14G02
 122106699.243 6  95148041.32346  23236166.868    23236166.2874   23236181.0574
        41.600          38.5004
 132056778.996 6                  25129571.272
        41.400
 125774684.344 6  98006349.28345  23934110.538    23934109.9534   23934131.1964
        40.000          33.1004
 110340975.108 8  85980121.43548  20997137.727    20997136.9944   20997141.2544
        48.400          49.0004
 198975530.262 7                  37863792.056
        45.700
 200894607.325 7                  38228979.530
        43.300
 106927291.381 8  83320014.40748  20347567.907    20347567.2734   20347567.9674
        50.700          51.8004
 150621599.803 6                  28662283.943
        38.400
 140140227.814 6                  26667754.875
        40.700
 412939774.143 5                  78579787.450
        32.600
 202125534.534 7                  38463195.169
        45.200
 126432286.005 5  98336420.244 6  23635128.825    23635128.231    23635141.404
        35.300          40.000
 111401099.953 8  86806088.15148  21198915.317    21198914.4684   21198917.9554
        49.400          49.2004
 135660351.324 7                  25815327.419
        43.000
 123547476.983 8                  23510248.598
        48.600
 124945520.906 6  97360301.55446  23776287.186    23776286.4404   23776292.8884
        41.200          36.5004
 115912206.642 7  90153967.992 6  21683776.869    21683776.520    21683784.790
        45.500          37.600
 131587756.417 5 102535822.44042  25040390.083    25040389.7884   25040414.7914
        35.200          15.7004
 129340357.344 7                  24612657.664
        47.200
 109444072.263 6  85123347.775 7  20466528.302    20466528.122    20466537.623
        38.800          46.100
 120354236.643 7  93608826.639 7  22475335.088    22475335.075    22475351.276
        42.200          43.200
 108700873.674 8                  20391959.822    20391959.547
        48.700
 139990622.751 7                  26639256.408
        42.800
 110007776.260 8  85561767.752 8  20586404.041    20586403.939    20586409.337
        51.100          48.200
 116333860.853 7  90649912.91344  22137543.981    22137542.6494   22137547.0324
        42.000          27.5004
 138790383.726 7                  26410873.388
        44.000
 116438974.676 7  90563839.408 7  21759360.883    21759360.610    21759373.923
        47.700          44.400
 122377776.115 7  95182781.867 7  22917421.554    22917422.199    22917434.330
        44.300          42.600
 128959557.547 7                  24540188.028
        47.700
 126127562.782 7  98099311.813 6  23636231.440    23636231.534    23636239.383
        42.700          40.200
 126751027.469 6  98767044.55143  24119917.570    24119916.9534   24119919.8914
        40.800          20.1004
 117901002.213 7  91871068.88445  22435755.176    22435754.7564   22435756.9454
        44.500          32.7004
 120708238.727 7  94058500.02245  22969967.895    22969966.5994   22969974.2724
        44.700          30.2004
 25  1  1 20  3 15.0000000  0 33G09E05G17G08S31S35G07E13E33S48S33R19
                                G30E04E31G27R01G04E06R20R08R10E26R11
                                G21E24R21R09E09R02G13G14G02
 122160170.076 6  95189706.63246  23246342.145    23246341.5694   23246356.2834
        40.800          38.1004
 132030326.045 7                  25124537.254
        42.200
 125720978.524 6  97964501.09445  23923890.029    23923889.4534   23923911.2624
        40.800          34.1004
 110374752.063 8  86006441.14048  21003565.376    21003564.6484   21003568.7734
        49.100          48.8004
 198975522.049 7                  37863788.331
        46.000
 200894587.762 7                  38228977.348
        43.600
 106924265.989 8  83317656.95348  20346992.327    20346991.6934   20346992.2514
        50.700          51.6004
 150643654.728 6                  28666480.728
        39.100
 140101701.252 6                  26660423.178
        40.800
 412940343.395 5                  78579822.127
        33.500
 202125547.989 7                  38463191.717
        44.800
 126483622.946 6  98376348.987 6  23644726.370    23644724.901    23644738.119
        36.400          40.200
 111370106.885 8  86781937.70748  21193017.455    21193016.5924   21193020.1754
        49.900          49.0004
 135703522.849 7                  25823543.107
        43.400
 123546175.546 8                  23510000.899
        48.700
 125000065.718 6  97402803.97546  23786666.345    23786665.5994   23786672.3514
        41.400          36.4004
 115924304.119 7  90163377.084 6  21686039.746    21686039.384    21686047.999
        45.900          37.800
 131644450.798 5 102579999.79042  25051179.156    25051178.8434   25051203.2834
        34.900          15.4004
 129370867.381 7                  24618463.423
        47.000
 109433486.991 6  85115114.793 7  20464548.548    20464548.786    20464557.929
        38.900          46.300
 120410990.494 7  93652968.173 7  22485933.132    22485933.822    22485950.005
        42.500          43.300
 108717060.115 8                  20394996.367    20394996.105
        48.300
 139979387.642 7                  26637118.427
        42.900
 109982780.087 8  85542326.274 8  20581726.194    20581726.443    20581731.814
        51.400          48.200
 116308868.309 6  90630438.34944  22132787.471    22132786.1484   22132791.2204
        41.700          27.5004
 138763513.917 7                  26405760.309
        43.900
 116379141.548 8  90517302.812 7  21748178.867    21748179.340    21748192.609
        48.300          44.600
 122416954.585 7  95213253.835 7  22924758.452    22924759.572    22924771.940
        44.300          42.400
 128972714.547 8                  24542691.696
        48.000
 126089753.396 7  98069904.588 6  23629145.116    23629144.933    23629154.003
        42.600          40.400
 126707330.045 6  98732994.64243  24111601.908    24111601.2964   24111604.5644
        40.500          19.1004
 117867699.279 7  91845118.57845  22429417.806    22429417.3954   22429419.6454
        44.700          32.5004
 120669741.215 7  94028502.22045  22962642.121    22962640.8204   22962648.0824
        44.200          30.0004
 25  1  1 20  3 30.0000000  0 33G09E05G17G08S31S35G07E13E33S48S33R19
                                G30E04E31G27R01G04E06R20R08R10E26R11
                                G21E24R21R09E09R02G13G14G02
 122213669.070 7  95231393.86546  23256523.126    23256522.5634   23256537.1124
        42.500          38.2004
 132003956.824 7                  25119519.616
        42.300
 125667311.301 6  97922682.98745  23913677.105    23913676.5334   23913697.8394
        40.500          32.9004
 110408636.962 8  86032844.95148  21010013.367    21010012.6344   21010016.8574
        48.900          48.8004
 198975514.572 7                  37863787.585
        45.900
 200894569.028 7                  38228978.712
        43.800
 106921345.411 8  83315381.17548  20346436.501    20346435.8674   20346436.4774
        50.600          51.6004
 150665801.327 6                  28670695.206
        38.900
 140063211.620 6                  26653098.898
        40.600
 412940911.395 5                  78579855.982
        33.800
 202125562.082 7                  38463198.420
        45.400
 126535074.804 5  98416367.046 6  23654344.809    23654343.773    23654356.516
        35.700          40.000
 111339187.938 8  86757845.02748  21187133.993    21187133.1304   21187136.4864
        49.300          49.0004
 135746731.607 7                  25831765.366
        43.300
 123544909.229 8                  23509759.909
        48.800
 125054651.438 7  97445338.29646  23797053.869    23797053.1274   23797059.8454
        42.300          36.5004
 115936589.428 7  90172932.304 6  21688338.016    21688337.968    21688345.706
        46.200          37.500
 131701123.615 5 102624160.35542  25061963.006    25061962.6894   25061987.9194
        35.100          14.3004
 129401455.370 7                  24624284.261
        47.000
 109423109.406 6  85107043.369 7  20462607.709    20462608.227    20462617.410
        39.600          46.400
 120467804.141 7  93697156.195 7  22496543.604    22496543.802    22496560.307
        42.700          43.600
 108733305.977 8                  20398044.347    20398043.977
        48.800
 139968254.301 7                  26634999.651
        42.800
 109957823.907 8  85522915.910 8  20577055.852    20577056.267    20577061.679
        51.800          48.200
 116284000.037 7  90611060.59244  22128055.275    22128053.9344   22128059.0014
        42.200          27.7004
 138736668.927 7                  26400651.760
        44.400
 116319390.905 7  90470830.386 7  21737012.565    21737012.657    21737026.811
        47.200          44.600
 122456165.628 7  95243751.149 7  22932102.988    22932103.680    22932115.212
        45.600          42.600
 128985976.002 8                  24545215.146
        48.000
 126052092.368 7  98040612.718 6  23622087.379    23622087.908    23622096.254
        43.600          40.100
 126663721.779 6  98699014.19643  24103303.815    24103303.1854   24103305.9304
        40.100          19.0004
 117834433.096 7  91819196.91345  22423087.442    22423087.0364   22423089.2994
        44.800          32.4004
 120631313.075 7  93998558.47645  22955329.532    22955328.2184   22955335.4144
        44.700          30.0004
 25  1  1 20  3 45.0000000  0 33G09E05G17G08S31S35G07E13E33S48S33R19
                                G30E04E31G27R01G04E06R20R08R10E26R11
                                G21E24R21R09E09R02G13G14G02
 122267194.771 6  95273101.90846  23266708.610    23266708.0474   23266723.2274
        41.400          38.4004
 131977670.419 7                  25114517.400
        42.100
 125613681.842 6  97880894.30045  23903471.571    23903470.9634   23903491.7144
        40.700          33.3004
 110442628.312 8  86059331.70948  21016481.715    21016480.9784   21016485.1894
        48.900          48.9004
 198975505.977 7                  37863780.332
        45.500
 200894549.372 7                  38228970.113
        43.700
 106918528.723 8  83313186.34848  20345900.539    20345899.9054   20345900.4864
        50.700          51.6004
 150688038.258 6                  28674927.081
        39.300
 140024758.008 6                  26645781.226
        41.300
 412941478.015 5                  78579878.349
        33.100
 202125574.947 7                  38463201.564
        45.000
 126586640.563 5  98456473.758 6  23663984.002    23663983.634    23663996.208
        35.800          39.600
 111308342.267 8  86733809.43948  21181264.045    21181263.1784   21181266.7444
        49.500          49.0004
 135789976.205 7                  25839994.975
        43.300
 123543676.816 8                  23509525.316
        48.800
 125109276.465 6  97487903.22846  23807448.338    23807447.5784   23807454.8744
        41.200          36.3004
 115949061.154 7  90182632.532 6  21690671.095    21690670.519    21690679.200
        45.600          37.400
 131757773.354 5 102668302.92142  25072743.934    25072743.6264   25072767.7764
        35.000          14.6004
 129432119.978 7                  24630119.577
        47.200
 109412938.426 6  85099132.638 7  20460706.088    20460706.280    20460715.419
        39.400          46.300
 120524675.676 7  93741389.262 7  22507163.756    22507164.473    22507180.732
        43.200          43.000
 108749609.994 8                  20401102.789    20401102.513
        48.500
 139957221.682 7                  26632900.790
        42.800
 109932906.634 8  85503535.832 8  20572393.143    20572393.370    20572398.223
        51.500          48.000
 116259255.450 7  90591779.21944  22123346.072    22123344.7314   22123350.0384
        42.100          27.7004
 138709847.595 7                  26395547.733
        44.200
 116259722.069 8  90424421.589 7  21725861.804    21725862.313    21725875.090
        48.000          44.100
 122495408.034 7  95274272.878 7  22939451.270    22939451.804    22939463.367
        44.600          42.400
 128999340.697 7                  24547758.579
        47.900
 126014579.378 7  98011436.053 6  23615057.654    23615058.003    23615067.073
        43.200          40.500
 126620201.763 6  98665102.51943  24095022.524    24095021.9074   24095023.9084
        39.000          18.7004
 117801202.543 7  91793303.01145  22416763.797    22416763.4044   22416765.7804
        44.800          32.5004
 120592953.537 7  93968668.18645  22948029.195    22948027.8584   22948035.5524
        44.000          30.2004
 25  1  1 20  4  0.0000000  0 33G09E05G17G08S31S35G07E13E33S48S33R19
                                G30E04E31G27R01G04E06R20R08R10E26R11
                                G21E24R21R09E09R02G13G14G02
 122320746.440 6  95314830.17846  23276899.565    23276899.0074   23276914.0374
        41.000          37.9004
 131951466.619 6                  25109531.013
        41.200
 125560090.089 6  97839135.01345  23893273.126    23893272.5184   23893293.3614
        39.800          33.3004
 110476725.446 8  86085900.89148  21022970.013    21022969.2804   21022973.6524
        48.500          48.8004
 198975496.320 7                  37863787.692
        45.900
 200894528.577 7                  38228967.985
        43.500
 106915815.890 8  83311072.42848  20345384.363    20345383.7374   20345384.2554
        50.600          51.6004
 150710365.309 6                  28679175.568
        38.600
 139986340.407 6                  26638470.521
        40.600
 412940443.934 5                  78579912.593
        33.100
 202125586.706 7                  38463203.616
        44.900
 126638319.134 6  98496668.235 6  23673644.166    23673644.181    23673656.647
        36.000          39.800
 111277569.797 8  86709830.90048  21175408.022    21175407.1554   21175410.9304
        49.500          49.0004
 135833256.062 7                  25848230.865
        42.800
 123542477.916 8                  23509297.189
        48.300
 125163940.082 6  97530498.19046  23817850.846    23817850.0774   23817857.0094
        41.800          36.4004
 115961718.935 7  90192477.427 6  21693039.294    21693038.847    21693046.880
        45.600          37.600
 131814399.358 5 102712427.00242  25083519.478    25083519.1614   25083543.6764
        34.300          14.2004
 129462860.682 7                  24635969.178
        46.600
 109402973.641 6  85091382.281 7  20458841.403    20458842.508    20458851.933
        38.600          46.300
 120581604.253 7  93785666.675 7  22517795.283    22517796.024    22517811.948
        42.400          43.100
 108765972.201 7                  20404172.028    20404172.014
        47.900
 139946289.664 7                  26630820.358
        42.400
 109908028.109 8  85484185.871 7  20567737.282    20567737.584    20567743.023
        51.100          47.900
 116234634.096 7  90572593.86144  22118661.054    22118659.7004   22118664.7394
        42.000          27.9004
 138683049.530 7                  26390448.181
        43.100
 116200135.402 8  90378076.640 7  21714726.656    21714727.422    21714740.262
        48.500          44.700
 122534681.538 7  95304818.765 7  22946805.769    22946806.353    22946818.636
        43.500          42.500
 129012808.213 7                  24550321.301
        47.400
 125977214.401 7  97982374.475 6  23608056.124    23608055.992    23608063.860
        44.200          40.100
 126576770.080 6  98631259.66243  24086757.612    24086757.0184   24086759.2954
        40.000          19.3004
 117768007.323 7  91767436.62845  22410446.746    22410446.3574   22410449.0374
        44.600          32.5004
 120554662.582 7  93938831.33545  22940742.541    22940741.2134   22940748.8474
        43.700          30.0004
 25  1  1 20  4 15.0000000  0 33G09E05G17G08S31S35G07E13E33S48S33R19
                                G30E04E31G27R01G04E06R20R08R10E26R11
                                G21E24R21R09E09R02G13G14G02
 122374324.616 6  95356579.10546  23287095.794    23287095.2364   23287109.7754
        41.900          38.2004
 131925346.544 6                  25104560.320
        41.200
 125506537.274 6  97797406.07545  23883081.964    23883081.3704   23883102.1754
        39.600          33.5004
 110510928.967 8  86112552.96048  21029478.839    21029478.1154   21029482.3854
        48.800          48.8004
 198975485.701 7                  37863783.650
        45.700
 200894507.958 7                  38228965.579
        43.900
 106913207.987 8  83309040.28548  20344887.951    20344887.3254   20344887.9954
        50.600          51.6004
 150732783.089 6                  28683441.341
        39.100
 139947959.950 6                  26631166.765
        40.800
 412941008.340 5                  78579940.531
        33.000
 202125598.369 7                  38463203.429
        45.000
 126690110.672 5  98536950.658 6  23683326.757    23683325.512    23683338.318
        35.500          39.800
 111246871.691 8  86685910.30148  21169566.933    21169566.0704   21169569.2654
        49.200          49.0004
 135876571.896 7                  25856473.641
        43.000
 123541313.378 8                  23509075.778
        48.400
 125218642.940 6  97573123.72546  23828260.466    23828259.6844   23828266.6604
        41.600          36.4004
 115974563.201 7  90202467.405 6  21695441.184    21695441.579    21695450.524
        45.800          38.200
 131871002.289 5 102756533.13842  25094290.646    25094290.3564   25094314.8404
        35.300          14.1004
 129493678.199 7                  24641834.065
        46.500
 109393216.682 6  85083793.541 7  20457018.238    20457018.354    20457027.301
        39.000          46.300
 120638590.288 7  93829988.769 7  22528437.862    22528438.271    22528453.864
        43.000          43.100
 108782393.299 8                  20407252.952    20407252.725
        48.500
 139935459.195 6                  26628759.292
        41.900
 109883189.335 8  85464866.825 8  20563089.285    20563089.037    20563094.659
        51.400          48.000
 116210136.771 7  90553505.15244  22113999.337    22113997.9654   22114002.9744
        42.300          27.8004
 138656275.688 7                  26385353.084
        43.700
 116140632.480 8  90331796.885 7  21703606.523    21703606.595    21703620.204
        48.000          44.600
 122573987.249 7  95335389.698 7  22954166.892    22954167.364    22954179.705
        44.500          42.500
 129026379.404 7                  24552903.898
        47.600
 125939998.550 7  97953428.912 6  23601080.486    23601080.847    23601089.971
        43.300          40.200
 126533427.966 6  98597486.62443  24078510.158    24078509.5644   24078511.5264
        40.400          19.4004
 117734848.362 7  91741598.50945  22404136.695    22404136.3154   22404139.0594
        44.800          32.6004
 120516441.594 7  93909048.99644  22933469.640    22933468.3304   22933475.3914
        44.200          29.9004
 25  1  1 20  4 30.0000000  0 33G09E05G17G08S31S35G07E13E33S48S33R19
                                G30E04E31G27R01G04E06R20R08R10E26R11
                                G21E24R21R09E09R02G13G14G02
 122427930.821 6  95398349.86846  23297296.914    23297296.3604   23297310.9774
        41.000          37.9004
 131899312.279 6                  25099606.597
        41.300
 125453025.405 6  97755709.03145  23872898.574    23872897.9984   23872918.4624
        41.600          33.4004
 110545240.438 8  86139289.14148  21036007.966    21036007.2424   21036011.6694
        49.000          48.8004
 198975477.467 7                  37863784.629
        46.000
 200894487.884 7                  38228959.453
        43.800
 106910706.878 8  83307091.36148  20344412.196    20344411.5664   20344412.0714
        50.500          51.6004
 150755293.285 6                  28687724.470
        38.300
 139909618.824 6                  26623870.068
        40.500
 412941572.638 5                  78579971.175
        33.400
 202125611.278 7                  38463207.985
        45.100
 126742016.911 5  98577322.323 6  23693030.043    23693029.027    23693041.941
        35.800          40.000
