     2.11           OBSERVATION DATA    M (MIXED)           RINEX VERSION / TYPE
teqc  2019Feb25                         20260317 16:20:09UTCPGM / RUN BY / DATE
Linux 2.4.21-27.ELsmp|Opteron|gcc -static|Linux 64|=+       COMMENT
BIT 2 OF LLI FLAGS DATA COLLECTED UNDER A/S CONDITION       COMMENT
-Unknown-                                                   MARKER NAME
-Unknown-           -Unknown-                               OBSERVER / AGENCY
-Unknown-           -Unknown-           -Unknown-           REC # / TYPE / VERS
-Unknown-           -Unknown-                               ANT # / TYPE
        0.0000        0.0000        0.0000                  APPROX POSITION XYZ
        0.0000        0.0000        0.0000                  ANTENNA: DELTA H/E/N
     1     1                                                WAVELENGTH FACT L1/2
     7    L1    L2    C1    P1    P2    S1    S2            # / TYPES OF OBSERV
 SNR is mapped to RINEX snr flag value [0-9]                COMMENT
  L1 & L2: min(max(int(snr_dBHz/6), 0), 9)                  COMMENT
  2025     1     1    14     0    0.0000000     GPS         TIME OF FIRST OBS
    18                                                      LEAP SECONDS
                                                            END OF HEADER
 25  1  1 14  0  0.0000000  0 34G10G26E19E10R04S31S35G21G03R06S48S33
                                E27E11E29E04G16R22E07E21E30G04R15E33
                                R14R05G32R16E12G28G31G25R21G02
 127613729.142 6  99439247.12645  24284111.257    24284110.5964   24284122.6054
        39.900          34.5004
 112533039.313 7  87688109.10247  21414322.728    21414322.0624   21414326.6794
        46.600          45.1004
 122826731.531 7                  23373148.367
        44.600
 140022697.467 7                  26645429.514
        42.700
 119913509.470 7  93266092.147 7  22393016.485    22393017.485    22393028.803
        46.500          42.500
 198980287.445 7                  37864686.381
        45.900
 200942226.782 7                  38238049.014
        44.400
 130951881.726 5 102040425.28542  24919318.002    24919316.6614   24919320.7814
        35.900          17.2004
 113611119.175 7  88528160.33747  21619472.979    21619472.7344   21619475.5934
        46.200          45.1004
 115332474.519 6                  21613257.406    21613256.870
        37.300
 412705993.991 5                  78535086.933
        33.000
 202099475.660 7                  38458219.774
        44.800
 132537015.692 7                  25220952.147
        45.000
 144499370.561 6                  27497313.536
        36.700
 127418048.055 7                  24246844.970
        47.500
 144627794.392 6                  27521756.258
        38.800
 125848081.713 6  98063485.05143  23948088.970    23948087.8884   23948094.8154
        39.500          22.5004
 127987474.881 7  99545825.955 6  23976364.471    23976365.592    23976370.223
        42.700          39.300
 149308205.013 6                  28412450.551
        36.200
 131575640.677 7                  25038005.778
        45.400
 150911423.282 6                  28717483.030
        38.500
 128523086.387 6 100147861.19943  24457131.994    24457131.5744   24457134.7724
        38.200          20.7004
 104539332.821 8  81308419.667 8  19563104.796    19563104.691    19563110.872
        52.700          48.200
 144152153.472 6                  27431256.356
        38.600
 123406118.206 7  95982581.292 7  23150668.251    23150668.156    23150674.202
        47.600          43.100
 104727159.010 8  81454465.518 7  19591376.834    19591377.368    19591383.322
        52.900          47.800
 117121569.237 7  91263566.56447  22287492.318    22287491.8184   22287495.5304
        47.600          45.7004
 107822741.977 8  83862176.036 8  20184638.567    20184638.631    20184645.638
        51.500          48.300
 139417950.002 6                  26530351.898
        39.800
 109751549.941 8  85520692.45346  20885024.026    20885023.6734   20885024.5004
        48.500          39.5004
 105034647.861 8  81845181.76648  19987428.351    19987427.8374   19987427.4314
        51.000          51.4004
 122055467.876 7  95108185.14446  23226380.087    23226379.0954   23226383.4634
        42.200          36.6004
 127735883.318 6  99350178.137 6  23870500.072    23870499.796    23870507.421
        41.800          40.100
 128172211.070 6  99874455.38244  24390362.454    24390361.2704   24390362.5394
        40.800          24.4004
 25  1  1 14  0 15.0000000  0 34G10G26E19E10R04S31S35G21G03R06S48S33
                                E27E11E29E04G16R22E07E21E30G04R15E33
                                R14R05G32R16E12G28G31G25R21G02
 127670725.873 6  99483659.90445  24294956.886    24294956.2294   24294968.8434
        40.200          35.0004
 112492135.988 7  87656236.37347  21406539.111    21406538.4504   21406543.0424
        46.500          45.4004
 122815415.044 7                  23370995.015
        44.700
 140030966.461 7                  26647003.243
        42.800
 119957083.650 7  93299982.992 7  22401155.083    22401154.863    22401165.175
        47.100          42.100
 198980293.993 7                  37864689.175
        45.700
 200942202.600 7                  38238044.073
        44.500
 130987257.458 5 102067990.63342  24926049.734    24926048.3624   24926052.5144
        35.700          17.4004
 113575401.515 7  88500328.37747  21612676.173    21612675.9194   21612678.7094
        46.400          45.4004
 115284755.354 6                  21604314.459    21604314.036
        37.500
 412706311.743 5                  78535095.585
        33.000
 202099499.307 7                  38458226.356
        45.000
 132542939.410 7                  25222079.299
        45.100
 144488344.982 6                  27495215.655
        36.700
 127433494.344 7                  24249784.342
        47.600
 144596280.970 6                  27515760.184
        39.500
 125788336.048 6  98016930.15843  23936719.843    23936718.7704   23936725.8664
        40.100          22.8004
 127986888.577 7  99545369.978 6  23976255.695    23976255.523    23976260.123
        42.500          39.200
 149339374.121 5                  28418382.874
        35.800
 131541949.120 7                  25031594.469
        45.200
 150947593.346 6                  28724365.804
        37.300
 128480532.691 6 100114702.48443  24449034.619    24449034.1724   24449037.1694
        39.700          21.0004
 104559141.812 8  81323826.674 8  19566811.585    19566811.805    19566817.910
        52.800          48.000
 144196337.197 6                  27439663.690
        38.200
 123466832.817 7  96029803.748 7  23162057.162    23162057.678    23162064.006
        47.500          43.000
 104733316.961 8  81459255.016 7  19592529.439    19592529.486    19592535.350
        52.700          47.800
 117149662.569 7  91285457.42747  22292838.476    22292837.9854   22292841.4944
        47.200          45.7004
 107778865.783 8  83828050.118 8  20176424.867    20176425.150    20176432.019
        51.500          48.300
 139442309.318 6                  26534986.991
        40.200
 109775719.431 8  85539525.83546  20889623.251    20889622.8894   20889623.7744
        48.500          39.5004
 105033851.145 8  81844560.94748  19987276.735    19987276.2174   19987275.7984
        50.800          51.5004
 122095380.408 7  95139285.84846  23233974.958    23233973.9614   23233978.6354
        43.000          36.9004
 127777247.271 7  99382350.041 6  23878230.985    23878230.771    23878237.305
        42.000          40.200
 128201974.785 6  99897647.82344  24396026.607    24396025.4274   24396026.0054
        41.300          24.3004
 25  1  1 14  0 30.0000000  0 34G10G26E19E10R04S31S35G21G03R06S48S33
                                E27E11E29E04G16R22E07E21E30G04R15E33
                                R14R05G32R16E12G28G31G25R21G02
 127727750.933 6  99528094.75445  24305808.893    24305808.2234   24305820.7734
        40.400          35.0004
 112451333.791 7  87624442.44147  21398774.144    21398773.4604   21398778.6604
        46.800          45.4004
 122804121.436 7                  23368845.890
        44.400
 140039337.975 7                  26648596.233
        42.300
 120000727.709 7  93333928.225 7  22409304.345    22409305.044    22409315.740
        46.600          42.000
 198980295.936 7                  37864688.684
        46.000
 200942175.658 7                  38238036.511
        44.300
 131022637.546 5 102095559.43942  24932783.194    24932781.8314   24932785.3964
        35.600          17.5004
 113539787.951 7  88472577.52747  21605899.049    21605898.7814   21605901.6884
        46.000          45.5004
 115237060.366 6                  21595375.844    21595375.920
        36.900
 412705026.114 5                  78535117.662
        33.100
 202099518.483 7                  38458229.003
        45.000
 132548967.032 7                  25223226.546
        45.000
 144477421.691 5                  27493136.553
        35.900
 127448968.628 7                  24252729.108
        47.400
 144564759.903 6                  27509761.736
        39.500
 125728595.537 6  97970379.28143  23925351.180    23925350.1034   23925357.3794
        40.000          22.2004
 127986472.279 7  99545046.355 6  23976176.111    23976176.134    23976181.807
        42.600          40.100
 149370550.583 6                  28424315.504
        36.100
 131508324.329 7                  25025195.709
        45.300
 150983816.028 6                  28731258.958
        37.300
 128437971.104 6 100081537.61143  24440935.115    24440934.6644   24440937.4554
        39.700          21.1004
 104579128.690 8  81339372.012 8  19570551.841    19570552.112    19570558.141
        53.200          48.100
 144240511.432 6                  27448070.403
        38.600
 123527592.681 7  96077061.357 7  23173456.084    23173456.117    23173462.011
        47.300          42.500
 104739586.545 8  81464131.343 7  19593701.913    19593702.258    19593708.163
        52.600          47.900
 117177805.967 7  91307387.29847  22298193.915    22298193.4334   22298197.0674
        47.300          45.7004
 107735132.966 8  83794035.721 8  20168237.816    20168238.352    20168244.800
        51.800          48.300
 139466748.753 6                  26539638.151
        39.600
 109799961.277 8  85558415.57446  20894236.375    20894236.0184   20894236.8114
        48.500          39.5004
 105033168.336 8  81844028.86648  19987146.842    19987146.3194   19987145.8674
        50.800          51.6004
 122135400.432 7  95170470.25646  23241590.441    23241589.4444   23241594.6134
        42.300          36.8004
 127818698.869 7  99414590.077 6  23885977.597    23885976.909    23885983.340
        42.800          40.000
 128231790.198 6  99920880.53844  24401699.679    24401698.5084   24401699.6454
        39.900          24.1004
 25  1  1 14  0 45.0000000  0 34G10G26E19E10R04S31S35G21G03R06S48S33
                                E27E11E29E04G16R22E07E21E30G04R15E33
                                R14R05G32R16E12G28G31G25R21G02
 127784809.613 6  99572555.80445  24316667.272    24316666.6114   24316679.1744
        39.200          34.6004
 112410638.673 7  87592731.95147  21391030.383    21391029.7044   21391034.6374
        46.700          45.5004
 122792856.376 7                  23366702.119
        44.500
 140047817.537 7                  26650209.364
        42.500
 120044447.495 7  93367932.324 7  22417468.868    22417469.305    22417480.534
        46.200          42.400
 198980301.073 7                  37864689.864
        45.800
 200942150.063 7                  38238030.926
        44.200
 131058027.262 5 102123135.78642  24939517.242    24939515.9194   24939519.7714
        34.500          16.7004
 113504284.388 7  88444912.38747  21599143.227    21599142.9734   21599145.6704
        46.100          45.4004
 115189395.211 6                  21586444.103    21586443.152
        37.000
 412705343.197 5                  78535122.558
        32.400
 202099540.523 7                  38458232.563
        44.800
 132555104.112 7                  25224394.300
        45.200
 144466605.984 5                  27491079.262
        35.900
 127464476.584 7                  24255680.034
        47.600
 144533236.760 6                  27503763.187
        39.000
 125668866.087 6  97923836.98743  23913985.447    23913984.3704   23913990.3664
        39.700          22.6004
 127986231.390 7  99544859.082 6  23976131.476    23976131.785    23976136.165
        42.200          39.400
 149401740.083 5                  28430250.377
        35.100
 131474772.203 7                  25018811.025
        45.100
 151020096.970 6                  28738163.373
        39.200
 128395407.169 6 100048370.92243  24432836.059    24432835.6034   24432837.7824
        39.000          21.6004
 104599298.970 8  81355060.028 8  19574326.302    19574326.573    19574332.660
        53.100          48.200
 144284681.537 6                  27456475.650
        38.900
 123588402.767 8  96124358.018 7  23184864.643    23184864.943    23184870.528
        48.100          42.700
 104745973.934 8  81469099.303 7  19594896.729    19594897.134    19594903.048
        52.700          47.900
 117206005.105 7  91329360.61047  22303559.904    22303559.4174   22303563.3224
        47.100          45.7004
 107691549.528 8  83760137.490 8  20160078.885    20160079.103    20160086.029
        51.200          48.200
 139491273.667 6                  26544304.693
        39.800
 109824280.925 8  85577365.93946  20898864.315    20898863.9534   20898864.6684
        48.400          39.4004
 105032605.009 8  81843589.89248  19987039.737    19987039.2104   19987038.7004
        51.100          51.5004
 122175533.453 6  95201742.76746  23249227.774    23249226.7914   23249231.3584
        41.800          36.4004
 127860243.687 6  99446902.651 6  23893739.050    23893739.109    23893748.170
        41.400          40.700
 128261662.650 6  99944157.67444  24407384.812    24407383.6364   24407384.7764
        41.100          24.6004
 25  1  1 14  1  0.0000000  0 34G10G26E19E10R04S31S35G21G03R06S48S33
                                E27E11E29E04G16R22E07E21E30G04R15E33
                                R14R05G32R16E12G28G31G25R21G02
 127841900.798 6  99617042.18445  24327530.927    24327530.2614   24327543.3084
        40.300          34.6004
 112370050.177 7  87561104.54447  21383306.651    21383305.9724   21383310.8974
        46.600          45.7004
 122781618.917 7                  23364563.617
        44.600
 140056404.153 7                  26651843.727
        42.600
 120088241.929 7  93401994.480 7  22425647.570    22425647.724    22425658.765
        47.400          42.400
 198980307.294 7                  37864692.109
        46.000
 200942125.547 7                  38238024.947
        44.200
 131093425.370 5 102150718.58142  24946253.170    24946251.8834   24946256.2084
        35.100          17.2004
 113468890.433 7  88417332.70947  21592407.973    21592407.7194   21592410.4454
        46.500          45.5004
 115141759.849 6                  21577517.419    21577516.411
        37.700
 412705661.798 5                  78535142.743
        32.800
 202099563.365 7                  38458238.492
        44.800
 132561349.726 7                  25225582.842
        45.200
 144455897.329 5                  27489041.106
        35.700
 127480017.357 7                  24258637.358
        47.400
 144501710.704 6                  27497764.066
        39.800
 125609147.184 6  97877302.95243  23902620.754    23902619.6814   23902626.1894
        40.800          22.6004
 127986165.150 7  99544807.681 6  23976118.705    23976119.304    23976123.886
        42.800          39.000
 149432941.708 5                  28436188.522
        35.600
 131441292.156 7                  25012439.848
        45.100
 151056434.965 6                  28745078.011
        38.000
 128352840.259 6 100015201.89243  24424735.348    24424734.8974   24424737.2544
        39.200          20.8004
 104619651.428 8  81370889.699 8  19578134.632    19578135.143    19578141.338
        52.400          48.100
 144328846.520 6                  27464880.423
        39.400
 123649261.843 7  96171692.731 7  23196280.502    23196281.085    23196287.614
        47.500          43.000
 104752478.329 8  81474158.248 7  19596113.529    19596114.010    19596119.852
        52.800          47.900
 117234259.126 7  91351376.68947  22308936.609    22308936.1134   22308939.9754
        47.500          45.7004
 107648114.923 8  83726355.036 8  20151948.445    20151948.539    20151955.095
        52.300          48.400
 139515883.070 6                  26548988.060
        40.000
 109848677.281 8  85596376.07646  20903506.927    20903506.5654   20903507.1294
        48.600          39.5004
 105032160.237 8  81843243.32648  19986955.098    19986954.5664   19986954.0834
        51.200          51.6004
 122215778.195 7  95233102.33646  23256886.471    23256885.5014   23256889.4814
        42.300          36.6004
 127901880.452 7  99479286.673 6  23901521.459    23901521.709    23901528.963
        42.100          40.800
 128291590.911 6  99967478.29944  24413080.004    24413078.8374   24413080.0184
        40.800          24.4004
 25  1  1 14  1 15.0000000  0 34G10G26E19E10R04S31S35G21G03R06S48S33
                                E27E11E29E04G16R22E07E21E30G04R15E33
                                R14R05G32R16E12G28G31G25R21G02
 127899021.661 6  99661551.69845  24338400.929    24338400.2684   24338413.0224
        40.000          34.8004
 112329566.111 7  87529558.51947  21375603.031    21375602.3704   21375607.0744
        46.400          45.8004
 122770406.723 7                  23362430.016
        44.900
 140065095.295 7                  26653497.423
        42.700
 120132108.347 8  93436112.616 7  22433839.652    22433840.403    22433851.086
        48.200          42.400
 198980311.585 7                  37864691.434
        46.000
 200942099.996 7                  38238020.655
        44.400
 131128829.100 5 102178305.80942  24952989.795    24952988.5434   24952993.2754
        35.300          17.0004
 113433603.753 7  88389836.59747  21585692.651    21585692.3794   21585695.5844
        46.400          45.7004
 115094151.627 6                  21568595.441    21568595.225
        38.000
 412705980.030 5                  78535151.771
        32.700
 202099584.095 7                  38458242.217
        45.000
 132567701.442 7                  25226791.371
        45.300
 144445293.548 6                  27487023.048
        36.800
 127495588.544 7                  24261600.425
        47.400
 144470179.252 6                  27491763.911
        40.000
 125549436.745 6  97830775.50643  23891257.402    23891256.3074   23891263.8504
        40.400          22.9004
 127986270.735 7  99544889.846 6  23976139.734    23976139.141    23976144.236
        43.500          39.900
 149464153.058 6                  28442127.835
        36.100
 131407881.790 7                  25006082.169
        45.200
 151092827.306 6                  28752003.475
        38.900
 128310267.971 6  99982028.77243  24416633.886    24416633.4354   24416636.0164
        39.100          21.4004
 104640183.178 8  81386858.848 8  19581976.982    19581977.541    19581983.561
        52.800          48.100
 144373003.554 6                  27473282.692
        38.600
 123710167.523 7  96219063.747 7  23207706.288    23207706.219    23207712.967
        46.400          42.600
 104759097.419 8  81479306.400 7  19597351.942    19597352.310    19597358.165
        52.800          47.700
 117262565.587 7  91373433.62247  22314323.156    22314322.6564   22314326.5314
        47.200          45.6004
 107604826.901 8  83692686.591 8  20143843.808    20143844.546    20143851.285
        51.600          48.400
 139540574.259 6                  26553686.264
        39.800
 109873147.677 8  85615443.89146  20908163.501    20908163.1394   20908163.6984
        48.300          39.5004
 105031831.335 8  81842987.03348  19986892.580    19986892.0484   19986891.5034
        51.000          51.7004
 122256131.630 6  95264546.48246  23264564.734    23264563.7644   23264568.6474
        41.700          36.3004
 127943605.953 7  99511739.760 6  23909318.184    23909317.992    23909326.199
        42.600          40.600
 128321572.370 6  99990840.36644  24418785.205    24418784.0474   24418785.7864
        40.700          24.3004
 25  1  1 14  1 30.0000000  0 34G10G26E19E10R04S31S35G21G03R06S48S33
                                E27E11E29E04G16R22E07E21E30G04R15E33
                                R14R05G32R16E12G28G31G25R21G02
 127956175.747 6  99706087.09545  24349277.141    24349276.4714   24349289.7114
        39.500          34.9004
 112289190.615 7  87498097.08447  21367919.757    21367919.1004   21367923.8654
        46.500          45.9004
 122759223.615 7                  23360301.910
        44.900
 140073894.691 7                  26655172.075
        42.600
 120176050.568 7  93470289.714 7  22442045.464    22442045.406    22442056.835
        47.200          42.200
 198980318.727 7                  37864692.690
        45.600
 200942076.841 7                  38238017.288
        44.100
 131164242.051 6 102205900.18142  24959729.495    24959728.2394   24959732.1674
        36.000          17.9004
 113398428.529 7  88362427.33247  21578999.263    21578998.9824   21579001.9904
        46.400          45.8004
 115046574.961 6                  21559679.738    21559678.863
        37.400
 412706301.090 5                  78535173.061
        32.500
 202099608.850 7                  38458248.325
        44.800
 132574162.846 7                  25228020.880
        45.600
 144434798.038 6                  27485025.791
        37.000
 127511193.959 7                  24264570.303
        47.700
 144438646.226 6                  27485763.057
        39.200
 125489738.905 6  97784257.86243  23879897.687    23879896.5834   23879903.7514
        39.400          22.6004
 127986551.841 7  99545108.404 6  23976190.235    23976191.155    23976196.894
        42.100          39.200
 149495377.909 5                  28448070.005
        35.800
 131374545.146 7                  24999738.779
        45.600
 151129277.315 6                  28758939.140
        37.700
 128267693.742 6  99948853.99743  24408532.765    24408532.3004   24408534.8004
        38.400          21.2004
 104660897.964 8  81402970.359 8  19585853.766    19585853.924    19585860.042
        52.800          48.100
 144417156.204 6                  27481685.400
        38.700
 123771122.848 7  96266473.448 7  23219143.021    23219142.631    23219148.270
        47.700          42.700
 104765835.148 8  81484546.823 7  19598612.516    19598612.820    19598618.488
        52.900          47.800
 117290928.259 7  91395534.36247  22319720.373    22319719.8684   22319723.7534
        47.200          45.7004
 107561689.980 8  83659135.653 8  20135769.345    20135769.292    20135776.107
        51.700          48.400
 139565350.740 6                  26558401.152
        39.700
 109897695.632 8  85634572.13946  20912834.819    20912834.4574   20912835.1044
        48.200          39.5004
 105031622.015 8  81842823.92348  19986852.472    19986851.9364   19986851.6744
        50.700          51.8004
 122296597.727 6  95296078.52846  23272265.778    23272264.8224   23272269.3944
        41.900          36.7004
 127985423.379 7  99544264.235 6  23917133.941    23917133.015    23917140.001
        42.000          39.100
 128351610.407 6 100014246.53444  24424501.802    24424500.6444   24424501.9374
        40.300          24.5004
 25  1  1 14  1 45.0000000  0 34G10G26E19E10R04S31S35G21G03R06S48S33
                                E27E11E29E04G16R22E07E21E30G04R15E33
                                R14R05G32R16E12G28G31G25R21G02
 128013361.028 6  99750646.79445  24360159.204    24360158.5294   24360172.2504
        39.500          34.9004
 112248922.368 7  87466719.22847  21360256.917    21360256.2654   21360261.0654
        47.400          46.0004
 122748067.946 7                  23358179.217
        44.700
 140082800.472 7                  26656867.000
        42.600
 120220066.849 7  93504524.414 7  22450265.099    22450265.522    22450277.247
        46.100          42.400
 198980326.934 7                  37864693.052
        45.600
 200942054.268 7                  38238011.202
        44.300
 131199662.107 5 102233500.12042  24966469.541    24966468.2634   24966472.7264
        35.500          17.3004
 113363363.387 7  88335103.84947  21572326.720    21572326.4304   21572329.3144
        46.500          45.9004
 114999028.277 6                  21550768.292    21550767.814
        36.700
 412706623.470 5                  78535189.615
        33.100
 202099632.676 7                  38458254.263
        45.100
 132580732.296 7                  25229271.052
        45.400
 144424409.407 6                  27483048.570
        36.100
 127526831.927 7                  24267546.060
        47.700
 144407109.991 6                  27479762.138
        38.700
 125430052.476 6  97737749.10643  23868540.293    23868539.1984   23868545.5664
        40.100          22.7004
 127987007.093 6  99545462.542 6  23976276.127    23976275.686    23976281.408
        41.900          39.400
 149526614.640 5                  28454014.373
        35.100
 131341280.768 7                  24993408.338
        45.700
 151165783.375 6                  28765886.325
        38.600
 128225116.343 6  99915676.79543  24400430.023    24400429.5364   24400432.7294
        38.900          21.3004
 104681793.409 8  81419222.361 8  19589763.852    19589764.255    19589770.418
        52.400          48.000
 144461302.565 6                  27490086.165
        38.900
 123832125.436 7  96313919.859 7  23230584.868    23230585.446    23230591.483
        46.400          42.200
 104772689.863 8  81489878.248 7  19599894.686    19599894.960    19599900.949
        52.600          47.900
 117319345.475 7  91417677.60047  22325128.258    22325127.7494   22325131.3584
        46.900          45.7004
 107518702.573 8  83625701.019 8  20127721.401    20127722.053    20127728.667
        52.100          48.400
 139590210.651 6                  26563132.037
        39.700
 109922319.286 8  85653759.38146  20917520.524    20917520.1674   20917520.8324
        48.400          39.5004
 105031530.563 8  81842752.66948  19986835.241    19986834.7144   19986834.2714
        51.000          51.8004
 122337173.970 6  95327696.34046  23279987.394    23279986.4514   23279990.6574
        40.700          36.2004
 128027330.801 6  99576858.874 6  23924963.751    23924964.114    23924972.585
        41.700          40.300
 128381702.989 6 100037695.21844  24430227.905    24430226.7434   24430227.8414
        41.000          24.6004
 25  1  1 14  2  0.0000000  0 34G10G26E19E10R04S31S35G21G03R06S48S33
                                E27E11E29E04G16R22E07E21E30G04R15E33
                                R14R05G32R16E12G28G31G25R21G02
 128070570.046 6  99795224.98645  24371046.799    24371046.1474   24371059.0864
        39.800          34.8004
 112208754.504 7  87435419.60347  21352613.071    21352612.4144   21352617.3634
        47.200          45.9004
 122736932.763 7                  23356060.163
        44.600
 140091805.329 7                  26658580.305
        42.300
 120264149.763 7  93538810.932 7  22458497.568    22458497.967    22458508.919
        46.500          42.300
 198980328.417 7                  37864695.011
        45.900
 200942025.640 7                  38238006.770
        44.500
 131235081.691 5 102261099.65942  24973209.156    24973207.8644   24973212.9284
        35.700          16.1004
 113328401.457 7  88307860.79747  21565673.712    21565673.4224   21565676.2824
        46.600          45.9004
 114951504.718 6                  21541863.376    21541862.693
        37.600
 412705340.758 5                  78535209.352
        33.200
 202099650.861 7                  38458255.234
        45.100
 132587402.481 7                  25230540.165
        45.300
 144414120.252 6                  27481091.250
        36.000
 127542495.329 7                  24270526.586
        47.400
 144375563.350 6                  27473759.220
        39.000
 125370370.664 6  97691243.98343  23857182.657    23857181.5844   23857188.1194
        40.700          22.7004
 127987628.913 6  99545946.151 6  23976392.811    23976392.874    23976398.985
        41.200          40.500
 149557856.055 5                  28459959.461
        35.600
 131308081.661 7                  24987091.104
        45.300
 151202338.109 6                  28772842.438
        38.000
 128182528.624 6  99882491.59643  24392326.003    24392325.5124   24392328.3024
        39.100          20.5004
 104702862.304 8  81435609.339 8  19593706.834    19593706.979    19593713.035
        52.800          48.100
 144505435.135 6                  27498484.537
        38.700
 123893167.584 7  96361397.052 7  23242038.130    23242037.124    23242043.255
        46.900          42.500
 104779654.430 8  81495295.119 7  19601197.828    19601198.004    19601203.886
        52.900          47.800
 117347810.070 7  91439857.76147  22330544.900    22330544.4044   22330548.0624
        47.500          45.6004
 107475857.612 8  83592377.223 8  20119701.153    20119701.161    20119707.855
        51.600          48.300
 139615146.602 6                  26567877.149
        39.600
 109947011.262 8  85672999.88346  20922219.387    20922219.0344   20922219.5864
        48.300          39.3004
 105031549.508 8  81842767.44748  19986838.998    19986838.4714   19986837.8484
        51.400          51.7004
 122377852.901 7  95359394.10046  23287728.226    23287727.2874   23287731.5414
        42.200          36.1004
 128069320.071 6  99609517.154 6  23932812.398    23932811.235    23932819.469
        41.900          40.500
 128411842.519 6 100061180.48644  24435963.077    24435961.9154   24435963.3994
        41.500          24.3004
 25  1  1 14  2 15.0000000  0 34G10G26E19E10R04S31S35G21G03R06S48S33
                                E27E11E29E04G16R22E07E21E30G04R15E33
                                R14R05G32R16E12G28G31G25R21G02
 128127810.810 6  99839827.93145  24381938.764    24381938.1034   24381951.5294
        39.900          34.5004
 112168695.668 7  87404204.92647  21344990.164    21344989.4984   21344994.3964
        46.500          45.9004
 122725826.165 7                  23353946.723
        44.600
 140100917.642 7                  26660314.502
        42.600
 120308307.652 7  93573155.735 7  22466744.351    22466744.744    22466755.440
        47.700          42.700
 198980331.475 7                  37864693.316
        46.000
 200941998.478 7                  38238001.427
        44.300
 131270508.802 5 102288705.10442  24979950.928    24979949.6364   24979954.5574
        34.800          16.6004
 113293551.400 7  88280704.91447  21559041.883    21559041.5934   21559044.5394
        46.200          46.0004
 114904012.682 6                  21532962.934    21532963.100
        36.900
 412705660.355 5                  78535216.391
        32.300
 202099670.875 7                  38458258.628
        45.000
 132594181.708 7                  25231830.494
        45.200
 144403939.150 6                  27479153.333
        36.200
 127558192.517 7                  24273513.870
        47.300
 144344014.576 6                  27467755.423
        40.200
 125310702.059 6  97644749.17943  23845827.928    23845826.8514   23845833.4844
        39.400          22.3004
 127988425.834 6  99546565.981 6  23976542.214    23976541.269    23976547.090
        41.400          38.600
 149589110.497 5                  28465907.102
        35.100
 131274956.381 7                  24980787.646
        45.400
 151238949.466 6                  28779809.332
        37.300
 128139938.853 6  99849304.78043  24384221.411    24384220.9114   24384223.7104
        38.500          21.2004
 104724112.579 8  81452137.365 8  19597683.450    19597683.624    19597689.778
        52.800          48.100
 144549561.998 6                  27506881.518
        39.700
 123954257.461 7  96408911.410 7  23253497.395    23253497.275    23253503.518
        46.900          42.800
 104786737.763 8  81500804.352 7  19602522.136    19602522.959    19602528.935
        52.600          47.800
 117376330.400 7  91462081.34947  22335972.093    22335971.5974   22335975.3424
        46.600          45.5004
 107433164.059 8  83559171.184 8  20111708.698    20111708.842    20111715.590
        51.900          48.500
 139640166.676 6                  26572638.147
        40.000
 109971779.570 8  85692299.85246  20926932.616    20926932.2684   20926932.8284
        48.200          39.2004
 105031687.034 8  81842874.62248  19986865.086    19986864.5504   19986864.0124
        50.900          51.7004
 122418642.981 6  95391178.61446  23295490.252    23295489.2914   23295493.6024
        41.800          36.0004
 128111399.200 7  99642245.348 6  23940673.151    23940674.190    23940682.558
        42.200          40.200
 128442037.232 6 100084708.76743  24441709.304    24441708.1424   24441709.0094
        40.600          23.5004
 25  1  1 14  2 30.0000000  0 34G10G26E19E10R04S31S35G21G03R06S48S33
                                E27E11E29E04G16R22E07E21E30G04R15E33
                                R14R05G32R16E12G28G31G25R21G02
 128185081.737 6  99884454.36745  24392837.313    24392836.6434   24392849.6114
        40.000          34.2004
 112128744.918 7  87373074.46947  21337387.789    21337387.1284   21337392.0694
        47.100          46.1004
 122714747.107 7                  23351838.294
        44.700
 140110135.891 7                  26662068.838
        42.800
 120352539.167 7  93607557.838 7  22475003.902    22475004.054    22475015.972
        46.700          42.700
 198980335.688 7                  37864697.068
        45.700
 200941972.114 7                  38237996.168
        44.200
 131305941.987 6 102316315.29942  24986694.265    24986692.9964   24986697.2764
        36.700          17.3004
 113258812.166 7  88253635.38447  21552431.416    21552431.1394   21552433.8854
        45.700          46.0004
 114856551.591 6                  21524068.286    21524068.667
        37.400
 412705981.496 5                  78535230.901
        32.700
 202099691.740 7                  38458262.898
        44.900
 132601068.754 7                  25233141.055
        45.100
 144393864.791 6                  27477236.191
        36.200
 127573922.253 7                  24276506.899
        47.500
 144312462.376 6                  27461751.065
        40.000
 125251045.784 6  97598263.94843  23834475.770    23834474.7154   23834480.6784
        40.000          22.4004
 127989396.264 7  99547320.768 6  23976723.594    23976723.962    23976730.462
        42.400          39.400
 149620376.684 5                  28471857.864
        34.700
 131241903.810 7                  24974497.738
        45.400
 151275615.969 6                  28786787.028
        38.500
 128097345.704 6  99816115.34643  24376115.928    24376115.3964   24376118.3714
        39.500          20.9004
 104745542.428 8  81468805.035 8  19601693.787    19601693.860    19601700.046
        52.400          48.100
 144593681.640 6                  27515277.369
        38.800
 124015393.214 7  96456461.463 7  23264966.061    23264966.191    23264972.930
        47.000          42.600
 104793938.247 8  81506404.713 7  19603869.730    19603869.995    19603875.824
        52.800          47.700
 117404905.119 7  91484347.31647  22341409.828    22341409.3324   22341413.0054
        47.200          45.6004
 107390620.802 8  83526081.997 8  20103743.483    20103744.440    20103751.411
        51.400          48.300
 139665269.358 6                  26577415.123
        39.500
 109996622.775 8  85711658.21146  20931660.089    20931659.7364   20931660.2864
        48.300          39.2004
 105031941.706 8  81843073.07248  19986913.564    19986913.0284   19986912.4714
        51.000          51.8004
 122459542.078 6  95423048.05145  23303272.926    23303271.9564   23303276.6404
        40.800          35.9004
 128153566.302 7  99675041.900 6  23948554.760    23948555.380    23948562.370
        43.200          39.900
 128472285.159 6 100108278.50743  24447465.779    24447464.6534   24447464.8244
        40.500          23.8004
 25  1  1 14  2 45.0000000  0 34G10G26E19E10R04S31S35G21G03R06S48S33
                                E27E11E29E04G16R22E07E21E30G04R15E33
                                R14R05G32R16E12G28G31G25R21G02
 128242388.075 6  99929108.41445  24403742.780    24403742.0874   24403754.9864
        39.800          34.5004
 112088908.130 7  87342032.81647  21329807.251    21329806.5944   21329811.3684
        46.600          46.1004
 122703701.010 7                  23349736.395
        44.700
 140119465.546 7                  26663843.959
        42.100
 120396849.980 7  93642021.593 7  22483278.271    22483279.288    22483291.009
        46.800          42.800
 198980346.124 7                  37864698.387
        45.900
 200941952.345 7                  38237993.315
        44.500
 131341386.367 5 102343934.21642  24993438.517    24993437.2034   24993442.4064
        34.800          17.2004
 113224189.666 7  88226656.78547  21545843.162    21545842.8904   21545845.4594
        46.500          46.2004
 114809127.283 6                  21515181.304    21515181.291
        37.200
 412706308.347 5                  78535248.891
        32.400
 202099718.832 7                  38458270.934
        45.200
 132608069.083 7                  25234473.024
        45.400
 144383902.869 6                  27475340.751
        36.400
 127589690.091 7                  24279507.619
        47.700
 144280912.297 6                  27455747.172
        40.300
 125191407.776 6  97551792.96643  23823126.841    23823125.8004   23823132.1974
        40.300          22.9004
 127990545.701 7  99548214.681 6  23976939.908    23976940.044    23976944.393
        44.000          39.300
 149651660.191 5                  28477811.422
        35.700
 131208929.693 7                  24968222.936
        45.400
 151312342.898 6                  28793776.130
        38.600
 128054754.926 6  99782927.73643  24368011.793    24368011.2524   24368013.4434
        38.500          20.7004
 104767157.306 8  81485616.570 8  19605738.748    19605738.877    19605744.995
        52.500          48.100
 144637799.349 6                  27523672.865
        38.500
 124076580.056 7  96504051.292 7  23276444.873    23276444.426    23276450.691
        45.800          42.700
 104801262.170 8  81512101.068 7  19605239.593    19605239.859    19605245.987
        52.200          47.800
 117433539.856 7  91506660.04347  22346858.768    22346858.2594   22346862.0934
        47.500          45.5004
 107348233.842 8  83493114.389 8  20095809.481    20095809.545    20095816.445
        51.700          48.500
 139690460.034 6                  26582208.849
        39.300
 110021546.139 8  85731078.99646  20936402.732    20936402.3754   20936403.0504
        48.400          39.1004
 105032319.005 8  81843367.08948  19986985.316    19986984.7804   19986984.2454
        50.800          51.8004
 122500555.782 6  95455006.78945  23311077.898    23311076.9154   23311081.3434
        41.400          35.7004
 128195826.573 7  99707910.980 6  23956451.915    23956452.422    23956460.195
        42.000          40.300
 128502591.651 6 100131893.89244  24453232.440    24453231.3094   24453232.3144
        40.400          24.0004
 25  1  1 14  3  0.0000000  0 34G10G26E19E10R04S31S35G21G03R06S48S33
                                E27E11E29E04G16R22E07E21E30G04R15E33
                                R14R05G32R16E12G28G31G25R21G02
 128299719.246 6  99973781.80345  24414652.765    24414652.0464   24414665.3074
        39.200          34.3004
 112049175.353 7  87311072.20847  21322246.450    21322245.7984   21322250.4624
        46.700          46.1004
 122692677.804 7                  23347638.691
        45.200
 140128896.210 7                  26665638.776
        42.300
 120441229.276 7  93676538.609 7  22491566.695    22491567.476    22491578.620
        46.900          42.800
 198980351.818 7                  37864700.574
        45.900
 200941927.765 7                  38237988.629
        44.500
 131376831.315 5 102371553.51042  25000185.346    25000184.0634   25000187.2134
        34.800          16.6004
 113189674.013 7  88199761.49247  21539274.588    21539274.3164   21539277.3564
        46.800          46.2004
 114761729.420 6                  21506298.992    21506299.048
        38.000
 412706631.481 5                  78535265.462
        32.300
 202099741.413 7                  38458276.689
        45.300
 132615171.962 7                  25235824.704
        45.600
 144374043.047 6                  27473464.133
        36.700
 127605485.767 7                  24282513.333
        47.900
 144249354.094 6                  27449742.016
        40.300
 125131778.068 6  97505328.39343  23811779.459    23811778.4224   23811784.6004
        40.000          22.9004
 127991863.814 7  99549239.897 6  23977185.317    23977186.498    23977192.135
        42.300          40.100
 149682950.722 5                  28483765.186
        35.900
 131176023.940 7                  24961961.487
        46.000
 151349120.256 6                  28800774.268
        38.000
 128012156.189 6  99749733.95943  24359904.976    24359904.4134   24359907.1434
        39.300          20.9004
 104788946.433 8  81502563.687 8  19609816.555    19609816.487    19609822.466
        53.100          48.000
 144681904.525 6                  27532065.560
        39.300
 124137806.992 7  96551672.260 7  23287930.852    23287931.345    23287937.775
        47.200          42.700
 104808699.003 8  81517885.241 7  19606631.368    19606631.361    19606637.350
        52.400          47.900
 117462224.288 7  91529011.49947  22352317.015    22352316.5014   22352320.5714
        47.200          45.5004
 107305993.321 8  83460260.723 8  20087901.674    20087902.196    20087909.136
        51.700          48.600
 139715728.134 6                  26587017.114
        39.900
 110046539.119 8  85750554.03446  20941158.667    20941158.3014   20941159.0004
        48.300          39.1004
 105032808.375 8  81843748.40048  19987078.606    19987078.0834   19987077.3894
        51.200          51.9004
 122541673.446 6  95487046.73045  23318901.949    23318900.9754   23318905.4534
        41.500          35.8004
 128238168.910 7  99740843.883 6  23964366.031    23964365.087    23964373.008
        42.800          40.500
 128532945.998 6 100155546.53443  24459009.063    24459007.9054   24459008.8054
        40.500          23.9004
 25  1  1 14  3 15.0000000  0 34G10G26E19E10R04S31S35G21G03R06S48S33
                                E27E11E29E04G16R22E07E21E30G04R15E33
                                R14R05G32R16E12G28G31G25R21G02
 128357073.941 6 100018473.52245  24425566.773    24425566.0364   24425579.8854
        39.000          33.9004
 112009545.939 7  87280192.15447  21314705.237    21314704.5854   21314709.2194
        46.900          46.1004
 122681676.385 7                  23345545.216
        44.800
 140138426.818 6                  26667452.600
        41.800
 120485676.135 7  93711108.188 7  22499866.944    22499867.367    22499878.792
        47.000          42.500
 198980353.153 7                  37864699.478
        45.900
 200941898.292 7                  38237984.180
        44.500
 131412275.630 6 102399172.34442  25006929.205    25006927.9004   25006931.8784
        36.100          16.9004
 113155264.333 7  88172948.72947  21532726.537    21532726.2604   21532729.4304
        47.000          46.2004
 114714357.646 6                  21497422.671    21497421.974
        38.100
 412706950.656 5                  78535279.866
        32.400
 202099759.487 7                  38458277.091
        45.200
 132622376.824 7                  25237196.040
        45.500
 144364284.300 6                  27471607.746
        37.000
 127621308.360 7                  24285524.366
        47.700
 144217786.723 6                  27443734.977
        40.500
 125072156.065 6  97458869.84243  23800433.821    23800432.7754   23800438.8514
        40.000          22.4004
 127993349.538 7  99550395.426 6  23977464.798    23977465.442    23977469.890
        42.800          39.800
 149714247.326 5                  28489721.601
        34.800
 131143185.775 7                  24955712.363
        45.900
 151385946.126 6                  28807781.932
        37.900
 127969548.688 6  99716533.36243  24351797.585    24351797.0094   24351799.2954
        38.400          21.5004
 104810908.405 8  81519645.263 8  19613925.931    19613926.359    19613932.308
        52.700          48.100
 144725995.910 6                  27540456.563
        38.900
 124199072.349 7  96599323.119 7  23299423.843    23299423.643    23299430.426
        47.200          42.500
 104816247.797 8  81523756.505 7  19608043.162    19608043.472    19608049.480
        52.600          47.700
 117490957.452 7  91551400.93047  22357785.222    22357784.7134   22357788.3644
        47.200          45.3004
 107263898.208 8  83427520.165 8  20080021.307    20080021.682    20080028.550
        51.700          48.400
 139741072.438 6                  26591840.342
        39.600
 110071600.619 8  85770082.48446  20945927.815    20945927.4494   20945928.0404
        48.400          38.9004
 105033408.794 8  81844216.26148  19987192.800    19987192.2824   19987191.6614
        51.100          51.8004
 122582893.302 6  95519166.15645  23326745.477    23326744.5074   23326749.1844
        40.800          35.5004
 128280591.702 7  99773839.329 6  23972293.628    23972294.057    23972300.086
        42.900          40.000
 128563347.034 6 100179235.58943  24464794.484    24464793.3264   24464794.1324
        40.200          23.6004
 25  1  1 14  3 30.0000000  0 34G10G26E19E10R04S31S35G21G03R06S48S33
                                E27E11E29E04G16R22E07E21E30G04R15E33
                                R14R05G32R16E12G28G31G25R21G02
 128414461.818 6 100063191.10745  24436488.044    24436487.3164   24436500.7774
        38.200          34.4004
 111970030.157 7  87249400.64747  21307185.432    21307184.7754   21307189.5994
        46.700          46.1004
 122670706.799 7                  23343457.784
        44.800
 140148067.162 6                  26669287.142
        41.800
 120530200.530 7  93745738.051 7  22508181.299    22508181.938    22508193.412
        46.800          42.700
 198980359.060 7                  37864699.769
        46.000
 200941874.126 7                  38237980.486
        44.500
 131447728.852 5 102426798.10042  25013675.496    25013674.1514   25013678.8184
        35.600          17.1004
 113120970.989 7  88146226.60047  21526200.673    21526200.4014   21526203.6384
        46.200          46.3004
 114667022.000 6                  21488550.451    21488550.449
        37.100
 412707275.464 5                  78535299.688
        33.100
 202099781.617 7                  38458281.384
        45.200
 132629693.303 7                  25238588.237
        45.100
 144354636.690 6                  27469771.633
        36.500
 127637167.836 7                  24288542.277
        47.500
 144186220.179 6                  27437728.415
        39.800
 125012551.998 6  97412425.29743  23789091.251    23789090.1964   23789096.9024
        39.800          22.8004
 127995012.618 7  99551688.926 6  23977776.420    23977776.658    23977780.761
        42.400          38.900
 149745559.961 5                  28495680.639
        35.100
 131110425.365 7                  24949478.291
        45.700
 151422830.784 6                  28814801.479
        38.800
 127926942.226 6  99683333.58543  24343690.460    24343689.8704   24343691.6134
        37.200          21.1004
 104833052.951 8  81536868.797 7  19618070.295    19618070.387    19618076.313
        52.800          47.900
 144770083.224 6                  27548846.161
        38.700
 124260385.981 7  96647011.512 7  23310926.350    23310926.154    23310932.745
        47.000          42.600
 104823918.806 8  81529722.815 7  19609478.115    19609478.573    19609484.392
        52.800          47.900
 117519749.296 7  91573836.09547  22363264.059    22363263.5454   22363267.3634
        46.700          45.6004
 107221959.010 8  83394900.869 8  20072170.128    20072170.487    20072177.414
        51.600          48.400
 139766502.769 6                  26596679.328
        39.300
 110096740.176 8  85789671.70646  20950712.017    20950711.6554   20950711.9204
        48.100          38.8004
 105034130.155 8  81844778.36448  19987329.922    19987329.4084   19987328.9444
        50.900          51.9004
 122624225.584 6  95551373.35445  23334610.982    23334610.0264   23334614.1834
        40.500          35.4004
 128323104.457 7  99806904.754 6  23980237.325    23980237.094    23980244.706
        42.600          39.800
 128593804.188 6 100202968.36744  24470590.096    24470588.9434   24470590.1644
        40.900          24.2004
 25  1  1 14  3 45.0000000  0 34G10G26E19E10R04S31S35G21G03R06S48S33
                                E27E11E29E04G16R22E07E21E30G04R15E33
                                R14R05G32R16E12G28G31G25R21G02
 128471881.338 6 100107933.34445  24447413.941    24447413.1904   24447427.8044
        39.100          34.5004
 111930627.190 7  87218697.04847  21299687.361    21299686.7134   21299691.4714
        46.800          46.2004
 122659768.084 7                  23341376.423
        44.600
 140157816.002 6                  26671142.301
        41.900
 120574801.200 7  93780427.251 7  22516510.580    22516510.876    22516522.350
        47.900          42.800
 198980367.680 7                  37864700.851
        46.000
 200941852.117 7                  38237973.546
        44.500
 131483189.502 5 102454429.64942  25020423.985    25020422.6664   25020426.6944
        35.300          16.5004
 113086793.226 7  88119594.58047  21519697.274    21519697.0024   21519699.8824
        46.800          46.4004
 114619721.734 6                  21479686.337    21479687.156
        37.600
 412706004.636 5                  78535311.551
        33.100
 202099808.463 7                  38458285.838
        45.000
 132637120.384 7                  25240001.616
        45.100
 144345099.226 6                  27467956.113
        36.000
 127653063.066 7                  24291567.137
        47.500
 144154653.147 6                  27431721.404
        40.100
 124952965.134 6  97365994.15243  23777751.980    23777750.9394   23777757.7844
        40.400          22.9004
 127996852.196 7  99553119.777 6  23978121.969    23978122.002    23978125.926
        43.300          39.300
 149776887.496 5                  28501641.251
        34.600
 131077741.746 7                  24943258.718
        45.900
 151459772.449 6                  28821831.266
        39.200
 127884335.776 6  99650133.77143  24335582.144    24335581.5634   24335584.1104
        39.600          21.5004
 104855378.630 8  81554233.180 7  19622248.430    19622248.470    19622254.378
        52.900          47.900
 144814165.051 6                  27557234.278
        39.200
 124321746.254 7  96694736.171 7  23322437.438    23322438.056    23322443.475
        46.900          42.900
 104831711.284 8  81535783.596 7  19610935.963    19610936.299    19610942.155
        52.600          47.800
 117548598.660 7  91596316.07247  22368753.964    22368753.4594   22368757.2724
        47.000          45.7004
 107180174.931 8  83362402.181 8  20064348.405    20064348.452    20064355.334
        51.900          48.700
 139792017.612 6                  26601534.915
        39.200
 110121956.529 7  85809320.79546  20955510.291    20955509.9294   20955510.4324
        47.900          38.8004
 105034971.079 8  81845433.65648  19987490.082    19987489.5684   19987488.9434
        50.900          52.0004
 122665668.178 6  95583666.42545  23342496.826    23342495.8704   23342500.3994
        41.000          35.6004
 128365705.686 7  99840038.938 6  23988198.812    23988198.621    23988205.192
        42.900          39.100
 128624315.987 6 100226743.68744  24476396.098    24476394.9494   24476396.4104
        40.000          24.0004
 25  1  1 14  4  0.0000000  0 34G10G26E19E10R04S31S35G21G03R06S48S33
                                E27E11E29E04G16R22E07E21E30G04R15E33
                                R14R05G32R16E12G28G31G25R21G02
 128529325.868 6 100152695.07245  24458345.745    24458344.9854   24458358.7304
        39.000          33.3004
 111891330.889 7  87188076.56547  21292209.519    21292208.8624   21292213.6534
        46.500          46.3004
 122648853.643 7                  23339299.517
        44.500
 140167666.742 7                  26673016.636
        42.200
 120619471.420 7  93815170.532 7  22524852.975    22524853.117    22524864.198
        46.900          42.400
 198980374.464 7                  37864704.840
        45.800
 200941828.114 7                  38237972.138
        44.300
 131518650.745 6 102482061.60142  25027171.555    25027170.2144   25027175.0654
        36.300          17.4004
 113052724.815 7  88093047.76247  21513214.321    21513214.0494   21513216.9324
        46.600          46.5004
 114572450.571 6                  21470828.843    21470828.188
        37.600
 412706331.165 5                  78535327.949
        32.900
 202099831.785 7                  38458289.366
        44.900
 132644651.499 7                  25241434.667
        45.200
 144335665.521 6                  27466161.921
        36.000
 127668987.641 7                  24294597.440
        47.600
 144123079.368 6                  27425712.674
        40.000
 124893389.467 6  97319571.68443  23766414.806    23766413.7694   23766420.3924
        40.000          22.6004
 127998861.129 7  99554682.235 6  23978497.875    23978498.669    23978502.325
        44.400          39.000
 149808223.411 5                  28507604.724
        35.000
 131045128.631 7                  24937052.688
        45.900
 151496764.517 6                  28828869.981
        37.400
 127841722.970 6  99616929.02343  24327472.227    24327471.6334   24327474.9924
        39.800          21.6004
 104877878.519 8  81571733.082 8  19626458.941    19626458.954    19626465.072
        52.800          48.100
 144858234.735 6                  27565620.884
        38.600
 124383146.073 7  96742491.581 7  23333955.367    23333955.797    23333962.630
        46.400          42.800
 104839618.437 8  81541933.577 7  19612415.018    19612415.463    19612421.376
        52.600          47.500
 117577499.105 7  91618835.84547  22374253.435    22374252.9354   22374256.8274
        47.200          45.6004
 107138539.648 8  83330019.210 8  20056554.075    20056554.200    20056560.911
        52.100          48.400
 139817610.377 6                  26606404.943
        39.100
 110147243.107 8  85829024.65046  20960322.240    20960321.8784   20960322.2464
        48.100          38.7004
 105035924.957 8  81846176.94448  19987671.462    19987670.9534   19987670.4474
        51.000          52.0004
 122707214.283 6  95616040.03145  23350402.988    23350402.0414   23350406.4244
        40.500          35.3004
 128408388.062 7  99873236.237 6  23996175.486    23996176.586    23996182.714
        44.300          39.900
 128654875.796 6 100250556.43243  24482212.578    24482211.4254   24482211.8944
        39.600          23.7004
 25  1  1 14  4 15.0000000  0 34G10G26E19E10R04S31S35G21G03R06S48S33
                                E27E11E29E04G16R22E07E21E30G04R15E33
                                R14R05G32R16E12G28G31G25R21G02
 128586795.641 6 100197476.49345  24469282.102    24469281.3424   24469294.8294
        39.300          33.9004
 111852142.205 7  87157539.92847  21284751.974    21284751.2954   21284756.3104
        46.700          46.3004
 122637964.321 7                  23337227.230
        44.600
 140177619.930 7                  26674910.760
        42.200
 120664211.701 7  93849968.308 7  22533208.030    22533207.923    22533220.194
        46.300          42.800
 198980378.876 7                  37864702.899
        45.600
 200941802.632 7                  38237964.970
        44.300
 131554113.108 5 102509694.53442  25033920.201    25033918.8964   25033923.6564
        35.400          16.8004
 113018766.747 7  88066586.94847  21506752.250    21506751.9874   21506754.9374
        46.600          46.6004
 114525209.474 6                  21461975.330    21461975.028
        36.900
 412706655.870 5                  78535348.728
        32.100
 202099852.939 7                  38458295.063
        44.900
 132652286.983 7                  25242887.463
        45.200
 144326336.277 6                  27464386.061
        36.000
 127684942.231 7                  24297633.340
        47.500
 144091499.348 6                  27419703.357
        39.900
 124833825.968 6  97273158.71143  23755080.244    23755079.1894   23755085.7324
        40.300          22.9004
 128001040.226 7  99556377.092 6  23978905.033    23978906.123    23978910.852
        43.600          39.700
 149839568.450 5                  28513569.928
        34.600
 131012586.906 7                  24930860.238
        45.600
 151533807.629 6                  28835918.850
        37.200
 127799104.380 6  99583719.74043  24319362.682    24319362.0924   24319364.7974
        38.500          21.4004
 104900552.845 8  81589368.668 8  19630702.023    19630702.099    19630708.150
        52.700          48.000
 144902292.560 6                  27574005.044
        39.100
 124444585.708 7  96790277.946 7  23345481.427    23345482.080    23345487.857
        45.900          42.500
 104847641.138 8  81548173.460 8  19613915.911    19613916.162    19613922.317
        52.100          48.000
 117606451.268 7  91641395.91947  22379762.967    22379762.4624   22379766.2154
        47.200          45.5004
 107097054.442 8  83297752.985 8  20048787.704    20048788.190    20048794.870
        51.900          48.600
 139843281.477 6                  26611289.985
        39.600
 110172600.138 7  85848783.39146  20965147.392    20965147.0304   20965147.4854
        47.800          38.5004
 105036992.230 8  81847008.60048  19987874.642    19987874.1334   19987873.5434
        51.100          52.0004
 122748864.598 6  95648494.92545  23358329.101    23358328.1764   23358332.0624
        40.500          35.3004
 128451151.676 7  99906496.729 6  24004165.823    24004166.374    24004173.709
        43.100          39.200
 128685483.973 6 100274406.88544  24488035.737    24488034.5614   24488036.5894
        40.900          24.0004
 25  1  1 14  4 30.0000000  0 34G10G26E19E10R04S31S35G21G03R06S48S33
                                E27E11E29E04G16R22E07E21E30G04R15E33
                                R14R05G32R16E12G28G31G25R21G02
 128644294.009 6 100242280.17745  24480224.166    24480223.4114   24480237.0334
        37.600          33.4004
 111813065.051 7  87127090.19747  21277315.960    21277315.2724   21277320.1494
        46.600          46.3004
 122627103.473 7                  23335160.426
        44.800
 140187678.950 6                  26676824.518
        41.800
 120709025.667 7  93884823.367 7  22541576.642    22541577.312    22541588.254
        47.300          42.200
 198980384.116 7                  37864707.057
        45.400
 200941777.646 7                  38237959.514
        44.000
 131589579.514 6 102537330.57042  25040668.968    25040667.6814   25040672.7834
        36.200          17.1004
