     2.11           OBSERVATION DATA    M (MIXED)           RINEX VERSION / TYPE
teqc  2019Feb25                         20260317 16:20:09UTCPGM / RUN BY / DATE
Linux 2.4.21-27.ELsmp|Opteron|gcc -static|Linux 64|=+       COMMENT
BIT 2 OF LLI FLAGS DATA COLLECTED UNDER A/S CONDITION       COMMENT
-Unknown-                                                   MARKER NAME
-Unknown-           -Unknown-                               OBSERVER / AGENCY
-Unknown-           -Unknown-           -Unknown-           REC # / TYPE / VERS
-Unknown-           -Unknown-                               ANT # / TYPE
        0.0000        0.0000        0.0000                  APPROX POSITION XYZ
        0.0000        0.0000        0.0000                  ANTENNA: DELTA H/E/N
     1     1                                                WAVELENGTH FACT L1/2
     7    L1    L2    C1    P1    P2    S1    S2            # / TYPES OF OBSERV
 SNR is mapped to RINEX snr flag value [0-9]                COMMENT
  L1 & L2: min(max(int(snr_dBHz/6), 0), 9)                  COMMENT
  2025     1     1    21     0    0.0000000     GPS         TIME OF FIRST OBS
    18                                                      LEAP SECONDS
                                                            END OF HEADER
 25  1  1 21  0  0.0000000  0 33G09E05G17G08S31S35G07G15E33S48S33G30
                                E04E31E12R01E06E10R20R10E26R11G21E24
                                R21E09R02G13G14G02R12G19R22
 134320193.750 5 104665004.55243  25560351.997    25560351.4564   25560376.4244
        33.600          21.9004
 128463815.581 7                  24445854.387
        43.600
 115001810.939 7  89611973.74147  21884046.984    21884046.3854   21884050.7854
        47.200          43.9004
 120178298.065 7  93645561.58246  22869122.376    22869121.6704   22869127.5424
        43.500          39.4004
 198973725.921 7                  37863446.874
        45.300
 200891214.802 7                  38228344.868
        43.900
 109175259.451 8  85071671.89347  20775346.589    20775345.9284   20775347.9134
        48.000          46.9004
 131166050.777 6 102207323.57344  24960068.204    24960067.8204   24960071.5294
        38.600          27.0004
 132816425.432 7                  25274061.927
        44.100
 412972096.323 5                  78585681.746
        33.300
 202128311.427 7                  38463727.114
        44.900
 106742669.280 8  83176140.72548  20312446.578    20312445.7244   20312449.5504
        50.600          52.1004
 146001918.464 6                  27783297.929
        38.100
 124061172.826 7                  23608003.004
        47.800
 144425810.306 5                  27483277.393
        34.700
 122843062.568 6  95544611.687 5  22980352.867    22980352.052    22980366.887
        41.400          35.600
 137889285.819 7                  26239480.627
        42.400
 151537050.882 5                  28836538.012
        35.700
 112390774.703 6  87415227.044 7  21017575.824    21017576.573    21017586.588
        39.100          46.700
 114023505.393 7                  21390479.119    21390478.240
        46.100
 140190763.126 7                  26677340.172
        42.900
 105576394.360 8  82115136.574 8  19757131.830    19757131.818    19757137.587
        53.500          49.700
 114303038.162 7  89067463.55245  21751083.505    21751082.1644   21751085.0344
        43.900          32.0004
 133245304.620 7                  25355676.897
        45.100
 105977412.888 8  82427092.253 7  19804350.276    19804350.487    19804358.327
        51.300          47.400
 134401499.414 7                  25575763.846
        44.600
 121899924.435 7  94811150.948 6  22843971.540    22843971.860    22843979.705
        46.700          41.700
 119674188.290 7  93252625.35644  22773239.596    22773238.9934   22773240.5544
        44.100          27.4004
 111290658.333 7  86720154.40346  21177846.402    21177845.9824   21177847.5554
        47.400          37.0004
 114396491.401 7  89140279.20546  21768864.515    21768863.2774   21768865.3604
        47.400          37.7004
 122085345.011 7  94955314.239 7  22854626.378    22854626.584    22854634.802
        46.400          42.800
 130956636.185 6 102044237.80043  24920196.733    24920195.2364   24920215.4294
        38.300          19.9004
 122425357.063 7  95219882.679 7  22934361.320    22934361.341    22934379.489
        45.800          42.000
 25  1  1 21  0 15.0000000  0 33G09E05G17G08S31S35G07G15E33S48S33G30
                                E04E31E12R01E06E10R20R10E26R11G21E24
                                R21E09R02G13G14G02R12G19R22
 134370934.755 5 104704542.88343  25570008.787    25570008.2334   25570032.5764
        34.800          22.0004
 128459759.870 7                  24445082.552
        43.500
 114962989.346 7  89581723.22747  21876659.603    21876659.0134   21876663.1014
        45.900          43.8004
 120228047.873 7  93684327.62546  22878589.484    22878588.7744   22878594.6024
        43.400          39.3004
 198973720.766 7                  37863447.960
        45.600
 200891206.798 7                  38228340.419
        43.600
 109198682.441 7  85089923.52647  20779803.562    20779802.8964   20779805.2044
        47.900          46.8004
 131142010.337 6 102188590.77444  24955493.782    24955493.3894   24955496.6754
        37.600          26.3004
 132792902.215 7                  25269585.476
        44.200
 412970993.596 5                  78585698.519
        32.600
 202128324.712 7                  38463726.975
        44.800
 106734950.675 8  83170126.21248  20310977.859    20310977.0104   20310980.7524
        51.000          52.1004
 146047452.323 6                  27791963.580
        38.100
 124066719.255 7                  23609058.450
        47.800
 144379500.547 5                  27474464.197
        34.900
 122888053.881 6  95579604.698 5  22988768.680    22988768.706    22988782.865
        40.600          35.100
 137931817.572 7                  26247574.041
        42.200
 151491746.847 6                  28827917.028
        36.100
 112426014.412 6  87442635.680 7  21024166.936    21024167.302    21024176.580
        39.400          46.600
 114054518.453 7                  21396297.507    21396296.666
        46.800
 140204017.074 7                  26679862.131
        42.500
 105563913.636 8  82105429.349 8  19754796.309    19754796.254    19754802.081
        53.300          49.800
 114311620.356 7  89074150.99145  21752716.531    21752715.1864   21752718.1914
        43.700          32.1004
 133223339.198 7                  25351496.752
        45.200
 105949835.615 8  82405643.311 7  19799196.526    19799196.991    19799204.809
        51.500          47.500
 134434697.389 7                  25582081.130
        44.500
 121902250.435 7  94812960.044 6  22844407.144    22844407.884    22844415.326
        47.100          41.600
 119658124.358 7  93240107.99944  22770182.746    22770182.1434   22770183.6774
        45.100          27.6004
 111266259.286 7  86701142.16346  21173203.309    21173202.8894   21173204.5624
        46.800          37.0004
 114382342.223 7  89129253.89946  21766172.290    21766171.0564   21766172.7324
        47.400          37.7004
 122039649.109 7  94919772.993 7  22846072.494    22846072.620    22846080.942
        46.100          43.100
 130904429.417 6 102003557.86143  24910261.491    24910259.9764   24910280.4994
        38.800          20.6004
 122358187.460 7  95167640.110 6  22921777.950    22921778.642    22921795.860
        45.200          41.300
 25  1  1 21  0 30.0000000  0 33G09E05G17G08S31S35G07G15E33S48S33G30
                                E04E31E12R01E06E10R20R10E26R11G21E24
                                R21E09R02G13G14G02R12G19R22
 134421630.840 5 104744046.18043  25579655.628    25579655.0704   25579680.2584
        34.800          23.4004
 128455814.205 7                  24444332.008
        44.000
 114924258.957 7  89551543.77947  21869289.670    21869289.0944   21869292.8394
        46.100          43.8004
 120277834.668 7  93723122.49246  22888063.878    22888063.1684   22888068.6734
        43.500          39.3004
 198973718.299 7                  37863446.941
        45.400
 200891201.379 7                  38228339.507
        43.700
 109222227.404 8  85108270.21547  20784283.933    20784283.2674   20784285.6804
        48.100          46.8004
 131118101.018 6 102169960.17744  24950944.281    24950943.8974   24950946.0574
        38.500          25.8004
 132769474.176 7                  25265127.418
        44.600
 412971494.366 5                  78585723.667
        32.500
 202128339.967 7                  38463729.743
        44.700
 106727361.963 8  83164212.91848  20309533.648    20309532.7994   20309536.7004
        50.800          52.1004
 146092973.345 6                  27800625.906
        37.300
 124072296.068 8                  23610119.509
        48.200
 144333196.155 5                  27465652.734
        35.800
 122933136.309 6  95614668.613 5  22997202.196    22997202.553    22997216.739
        41.400          35.200
 137974377.830 7                  26255673.398
        42.800
 151446411.891 5                  28819289.924
        35.500
 112461428.863 6  87470180.229 7  21030788.449    21030789.418    21030799.209
        38.900          46.500
 114085605.088 7                  21402128.836    21402128.252
        45.800
 140217379.663 7                  26682405.237
        42.700
 105551510.854 8  82095782.735 8  19752475.167    19752475.236    19752481.117
        53.600          49.900
 114320361.844 7  89080962.55545  21754380.048    21754378.7254   21754381.5284
        43.900          31.8004
 133201395.950 7                  25347321.426
        45.600
 105922452.367 8  82384345.259 7  19794079.503    19794079.764    19794087.609
        51.300          47.300
 134467964.353 7                  25588411.728
        44.700
 121904764.241 7  94814915.191 6  22844878.849    22844878.728    22844886.819
        46.100          41.500
 119642208.904 7  93227706.34644  22767153.760    22767153.1574   22767155.1504
        44.400          27.3004
 111241906.491 7  86682165.96446  21168569.087    21168568.6724   21168570.3924
        47.300          37.0004
 114368332.925 7  89118337.58546  21763506.267    21763505.0384   21763506.8504
        47.500          37.6004
 121993951.927 7  94884230.772 7  22837517.790    22837517.758    22837525.757
        45.800          42.600
 130852246.009 6 101962896.09443  24900331.176    24900329.6344   24900349.7094
        37.500          19.5004
 122291053.281 7  95115425.099 6  22909200.840    22909201.546    22909218.384
        45.100          41.600
 25  1  1 21  0 45.0000000  0 33G09E05G17G08S31S35G07G15E33S48S33G30
                                E04E31E12R01E06E10R20R10E26R11G21E24
                                R21E09R02G13G14G02R12G19R22
 134472275.619 5 104783509.51043  25589293.090    25589292.5324   25589317.7724
        34.200          21.5004
 128451972.649 7                  24443600.338
        43.800
 114885613.781 7  89521430.73647  21861935.192    21861934.6294   21861938.8224
        46.200          43.8004
 120327652.156 7  93761941.27646  22897543.578    22897542.8724   22897548.9164
        43.400          39.5004
 198973713.844 7                  37863447.303
        45.700
 200891193.111 7                  38228335.532
        43.400
 109245888.415 7  85126707.32247  20788786.628    20788785.9584   20788788.2384
        47.600          46.7004
 131094317.163 6 102151427.33344  24946417.990    24946417.5974   24946419.9304
        37.100          25.8004
 132746135.480 7                  25260686.072
        44.500
 412971991.837 5                  78585754.244
        32.800
 202128353.394 7                  38463729.984
        44.500
 106719897.295 8  83158396.28148  20308113.266    20308112.4124   20308116.2494
        50.600          52.1004
 146138475.310 6                  27809284.741
        37.600
 124077897.255 8                  23611185.584
        48.300
 144286891.380 5                  27456840.805
        35.300
 122978303.452 6  95649798.375 5  23005652.616    23005652.672    23005666.536
        41.700          35.100
 138016960.340 7                  26263776.770
        42.200
 151401040.314 5                  28810656.047
        34.900
 112497011.673 6  87497855.730 7  21037443.330    21037443.876    21037453.435
        38.900          46.400
 114116759.079 7                  21407973.503    21407972.663
        45.500
 140230844.761 7                  26684967.130
        42.600
 105539180.016 8  82086192.066 8  19750167.451    19750167.758    19750173.424
        53.400          49.800
 114329256.642 7  89087893.57845  21756072.554    21756071.2314   21756074.0734
        43.500          31.9004
 133179468.855 7                  25343148.565
        45.600
 105895257.322 8  82363193.593 7  19788997.266    19788997.676    19789005.525
        51.100          47.400
 134501294.050 7                  25594754.148
        45.000
 121907459.344 7  94817011.374 6  22845384.096    22845383.713    22845391.594
        45.400          41.800
 119626436.016 7  93215415.76944  22764152.553    22764151.9414   22764153.8104
        44.100          27.5004
 111217594.025 7  86663221.19146  21163942.491    21163942.0674   21163943.8414
        47.200          37.0004
 114354457.546 7  89107525.63146  21760865.740    21760864.5064   21760866.4554
        47.000          37.6004
 121948247.403 7  94848682.829 7  22828960.979    22828961.420    22828969.527
        46.000          42.500
 130800080.109 6 101922247.97543  24890404.156    24890402.6144   24890421.2324
        38.100          19.8004
 122223948.979 7  95063233.302 6  22896631.331    22896631.305    22896647.607
        45.800          41.700
 25  1  1 21  1  0.0000000  0 33G09E05G17G08S31S35G07G15E33S48S33G30
                                E04E31E12R01E06E10R20R10E26R11G21E24
                                R21E09R02G13G14G02R12G19R22
 134522869.217 6 104822932.97743  25598920.116    25598919.5714   25598945.4974
        36.100          23.0004
 128448235.417 7                  24442889.473
        44.000
 114847054.213 7  89491384.39047  21854597.738    21854597.1804   21854601.0954
        46.200          43.9004
 120377500.283 7  93800783.94046  22907029.717    22907029.0204   22907034.5694
        43.200          39.4004
 198973706.304 7                  37863444.531
        45.400
 200891183.031 7                  38228333.260
        43.300
 109269665.415 7  85145234.81647  20793311.357    20793310.6874   20793312.8764
        47.700          46.8004
 131070659.161 6 102132992.53944  24941916.332    24941915.9434   24941917.9274
        37.600          25.6004
 132722886.552 7                  25256261.918
        44.600
 412972485.263 5                  78585773.012
        32.800
 202128363.923 7                  38463733.016
        44.700
 106712557.045 8  83152676.59648  20306716.313    20306715.4594   20306719.4524
        50.800          52.1004
 146183958.207 6                  27817940.048
        37.400
 124083523.061 8                  23612256.114
        48.100
 144240586.730 5                  27448029.356
        34.800
 123023554.607 6  95684993.492 5  23014117.563    23014117.556    23014132.171
        40.900          35.000
 138059565.112 6                  26271884.030
        41.800
 151355632.526 5                  28802014.861
        35.600
 112532762.217 6  87525661.693 7  21044129.127    21044129.507    21044139.065
        39.400          46.500
 114147980.820 7                  21413830.633    21413830.194
        45.600
 140244412.573 7                  26687549.365
        42.900
 105526921.643 8  82076657.774 8  19747873.504    19747873.744    19747879.558
        53.500          49.700
 114338305.103 7  89094944.32845  21757794.461    21757793.1514   21757795.9384
        43.900          32.0004
 133157558.136 7                  25338979.183
        45.500
 105868251.071 8  82342188.761 7  19783950.920    19783951.034    19783958.803
        51.600          47.600
 134534686.534 7                  25601108.618
        44.500
 121910336.130 7  94819248.835 6  22845922.857    22845922.892    22845930.822
        46.500          41.900
 119610806.078 7  93203236.57544  22761177.937    22761177.3294   22761179.6404
        44.100          27.5004
 111193322.155 7  86644308.04946  21159323.733    21159323.3044   21159325.0714
        46.700          37.1004
 114340716.424 7  89096818.29346  21758250.744    21758249.5104   21758251.5894
        47.100          37.5004
 121902535.898 7  94813129.462 7  22820403.804    22820403.727    22820412.643
        45.200          42.700
 130747932.181 6 101881613.87243  24880480.134    24880478.5924   24880497.4674
        38.600          20.6004
 122156875.224 7  95011065.290 6  22884064.238    22884063.757    22884082.079
        44.500          41.600
 25  1  1 21  1 15.0000000  0 32E05G17G08S31S35G07G15E33S48S33G30E04
                                E31E12R01E06E10R20R10E26R11G21E24R21
                                E09R02G13G14G02R12G19R22
 128444607.255 7                  24442199.321
        43.500
 114808585.031 7  89461408.48147  21847277.111    21847276.5444   21847280.6374
        46.300          44.0004
 120427383.452 7  93839653.91046  22916522.127    22916521.4434   22916526.8754
        43.500          39.5004
 198973700.905 7                  37863448.761
        45.500
 200891175.000 7                  38228335.062
        43.700
 109293563.039 8  85163856.30547  20797859.149    20797858.4794   20797860.4854
        48.100          46.8004
 131047132.034 6 102114659.73044  24937438.947    24937438.5764   24937440.9964
        37.500          26.1004
 132699732.313 7                  25251855.749
        44.800
 412971380.614 5                  78585793.447
        32.000
 202128376.734 7                  38463733.745
        44.600
 106705346.138 8  83147057.69648  20305344.251    20305343.3934   20305347.2814
        51.000          52.2004
 146229426.597 6                  27826592.517
        37.700
 124089178.175 8                  23613332.260
        48.100
 144194287.128 5                  27439218.547
        34.800
 123068894.299 6  95720257.463 5  23022599.609    23022599.392    23022614.003
        41.000          35.300
 138102196.606 7                  26279996.970
        43.200
 151310193.439 6                  28793367.816
        36.000
 112568685.559 6  87553602.035 7  21050846.849    21050847.122    21050856.869
        39.100          46.600
 114179274.830 7                  21419700.877    21419700.875
        45.900
 140258087.666 7                  26690151.455
        43.200
 105514740.623 8  82067183.618 8  19745594.023    19745594.415    19745600.086
        53.300          49.900
 114347511.389 7  89102118.06745  21759546.205    21759544.9004   21759547.9294
        43.700          31.9004
 133135668.532 7                  25334813.586
        45.400
 105841438.821 8  82321334.800 7  19778939.977    19778940.456    19778948.220
        51.700          47.500
 134568146.257 7                  25607475.988
        44.900
 121913399.292 7  94821631.243 6  22846496.894    22846496.990    22846504.920
        46.700          41.900
 119595323.837 7  93191172.49344  22758232.573    22758231.9834   22758233.5254
        44.300          27.7004
 111169095.672 7  86625430.27646  21154713.799    21154713.3664   21154714.8994
        47.200          37.2004
 114327114.595 7  89086219.49446  21755662.572    21755661.3384   21755663.1634
        47.100          37.6004
 121856822.370 7  94777574.470 7  22811846.933    22811846.678    22811854.695
        46.400          42.500
 130695807.054 6 101840997.55643  24870560.455    24870558.9314   24870578.0984
        38.100          20.3004
 122089837.326 7  94958925.122 6  22871505.791    22871505.674    22871523.152
        45.700          41.700
 25  1  1 21  1 30.0000000  0 32E05G17G08S31S35G07G15E33S48S33G30E04
                                E31E12R01E06E10R20R10E26R11G21E24R21
                                E09R02G13G14G02R12G19R22
 128441086.871 7                  24441529.461
        44.100
 114770205.097 7  89431502.11347  21839973.671    21839973.0814   21839977.0604
        46.800          44.0004
 120477300.107 7  93878549.97046  22926020.739    22926020.0554   22926025.9074
        43.700          39.6004
 198973696.758 7                  37863442.433
        45.400
 200891167.335 7                  38228331.203
        43.600
 109317580.018 7  85182570.78747  20802429.290    20802428.6154   20802430.7834
        47.600          46.8004
 131023734.526 6 102096427.92244  24932986.533    24932986.1674   24932988.2804
        37.500          25.5004
 132676671.622 7                  25247467.272
        45.000
 412971877.745 5                  78585810.354
        32.100
 202128390.343 7                  38463733.839
        44.600
 106698263.396 8  83141538.66648  20303996.433    20303995.5704   20303999.4904
        50.800          52.2004
 146274878.942 6                  27835241.796
        38.600
 124094861.321 8                  23614413.659
        48.400
 144147991.547 5                  27430408.266
        35.200
 123114320.648 6  95755588.836 5  23031098.033    23031097.769    23031111.513
        41.200          35.100
 138144853.272 7                  26288113.734
        42.600
 151264721.959 5                  28784714.695
        35.900
 112604779.865 6  87581675.373 7  21057596.586    21057597.099    21057606.359
        38.900          46.300
 114210640.076 7                  21425585.244    21425584.994
        45.800
 140271868.665 7                  26692773.607
        42.700
 105502635.877 8  82057768.821 8  19743328.903    19743329.158    19743334.927
        53.500          49.800
 114356874.116 7  89109413.70145  21761327.975    21761326.6524   21761329.5174
        43.700          31.9004
 133113798.700 7                  25330651.957
        45.600
 105814819.434 8  82300630.878 7  19773965.399    19773965.843    19773973.616
        51.200          47.400
 134601671.677 7                  25613855.674
        45.000
 121916647.290 7  94824157.484 7  22847104.633    22847105.015    22847113.638
        45.800          42.100
 119579988.201 7  93179222.62644  22755313.665    22755313.0804   22755315.2104
        44.200          27.3004
 111144913.306 7  86606586.88046  21150111.971    21150111.5424   21150113.0954
        46.900          37.1004
 114313650.819 7  89075728.26446  21753100.669    21753099.4444   21753101.0584
        47.100          37.5004
 121811105.552 7  94742016.975 7  22803288.742    22803289.334    22803297.190
        47.200          42.800
 130643703.778 6 101800398.22143  24860644.964    24860643.4354   24860662.3514
        39.100          20.3004
 122022834.497 7  94906812.233 6  22858954.741    22858954.398    22858970.744
        46.300          41.200
 25  1  1 21  1 45.0000000  0 32E05G17G08S31S35G07G15E33S48S33G30E04
                                E31E12R01E06E10R20R10E26R11G21E24R21
                                E09R02G13G14G02R12G19R22
 128437670.262 7                  24440879.281
        43.900
 114731910.612 7  89401662.32747  21832686.072    21832685.4824   21832689.7464
        46.500          43.9004
 120527245.969 7  93917468.78346  22935525.521    22935524.8334   22935530.3774
        43.800          39.5004
 198973689.263 7                  37863442.957
        45.500
 200891157.038 7                  38228331.628
        43.600
 109341712.345 8  85201375.15047  20807021.521    20807020.8464   20807023.0454
        48.000          46.7004
 131000462.916 6 102078294.22044  24928557.305    24928556.9394   24928559.7914
        37.700          25.2004
 132653700.702 7                  25243096.098
        44.500
 412972370.012 5                  78585837.568
        32.900
 202128400.327 7                  38463739.639
        44.500
 106691304.990 8  83136116.51648  20302672.465    20302671.6024   20302675.3664
        50.900          52.1004
 146320311.014 6                  27843887.607
        37.900
 124100568.493 8                  23615499.672
        48.200
 144101696.235 5                  27421598.490
        35.500
 123159828.744 6  95790983.762 5  23039611.484    23039610.974    23039625.862
        41.100          35.300
 138187530.892 7                  26296235.632
        42.400
 151219214.276 5                  28776054.699
        35.900
 112641040.510 6  87609878.071 7  21064377.147    21064377.796    21064387.740
        39.000          46.500
 114242072.461 7                  21431481.801    21431481.499
        45.300
 140285751.535 7                  26695416.006
        43.100
 105490603.728 8  82048410.481 8  19741077.616    19741077.504    19741083.166
        53.600          49.800
 114366389.427 7  89116828.23745  21763138.996    21763137.6774   21763140.1714
        43.600          31.9004
 133091944.631 7                  25326493.404
        45.600
 105788388.981 8  82280073.863 7  19769026.300    19769026.672    19769034.360
        51.700          47.500
 134635258.594 7                  25620247.343
        44.900
 121920076.037 7  94826824.231 7  22847747.660    22847748.428    22847756.165
        46.900          42.000
 119564795.289 7  93167383.97944  22752422.479    22752421.8944   22752424.1904
        43.900          27.0004
 111120771.133 7  86587774.80446  21145517.827    21145517.4034   21145519.0084
        47.400          37.1004
 114300321.271 7  89065341.63246  21750563.860    21750562.6314   21750564.5394
        47.200          37.3004
 121765381.600 7  94706453.913 7  22794728.918    22794728.994    22794737.262
        46.400          42.700
 130591618.465 6 101759812.90843  24850732.919    24850731.3954   24850750.2044
        39.000          20.9004
 121955863.108 7  94854723.783 6  22846407.418    22846407.745    22846424.306
        45.200          41.400
 25  1  1 21  2  0.0000000  0 32E05G17G08S31S35G07G15E33S48S33G30E04
                                E31E12R01E06E10R20R10E26R11G21E24R21
                                E09R02G13G14G02R12G19R22
 128434365.756 7                  24440250.202
        44.000
 114693709.964 7  89371895.65447  21825416.775    21825416.1764   21825420.2574
        46.200          43.8004
 120577229.071 7  93956416.62146  22945036.869    22945036.1594   22945041.8894
        43.400          39.6004
 198973686.352 7                  37863440.600
        45.200
 200891151.969 7                  38228329.669
        43.500
 109365968.176 8  85220275.74447  20811637.352    20811636.6824   20811638.8244
        48.000          46.7004
 130977325.702 6 102060265.24744  24924155.231    24924154.8654   24924156.9954
        37.400          25.8004
 132630828.017 7                  25238743.698
        44.300
 412972865.905 5                  78585856.148
        32.000
 202128415.775 7                  38463735.176
        44.200
 106684479.388 8  83130797.85448  20301373.435    20301372.5684   20301376.5124
        50.900          52.2004
 146365730.883 6                  27852530.817
        38.500
 124106308.000 8                  23616591.947
        48.400
 144055409.732 5                  27412789.987
        35.300
 123205426.760 6  95826448.664 5  23048140.139    23048140.174    23048156.788
        39.200          35.700
 138230237.495 7                  26304362.508
        42.500
 151173678.906 5                  28767389.759
        35.700
 112677475.165 6  87638216.155 7  21071191.091    21071191.445    21071201.232
        38.500          46.400
 114273580.329 7                  21437393.358    21437392.635
        45.800
 140299744.452 7                  26698078.550
        43.000
 105478652.650 8  82039115.202 8  19738840.834    19738841.022    19738846.599
        53.400          49.800
 114376065.481 7  89124368.02745  21764980.060    21764978.7414   21764981.4154
        43.700          31.8004
 133070114.646 7                  25322339.152
        45.500
 105762156.419 8  82259670.796 7  19764124.017    19764124.549    19764132.380
        51.500          47.400
 134668915.085 7                  25626651.476
        45.100
 121923693.795 7  94829638.038 7  22848426.084    22848426.272    22848433.974
        46.400          42.000
 119549753.507 7  93155663.10344  22749560.479    22749559.8894   22749561.5244
        44.400          27.1004
 111096677.509 7  86569000.55546  21140932.597    21140932.1644   21140934.1594
        47.200          37.2004
 114287134.481 7  89055066.23346  21748054.310    21748053.0814   21748055.1764
        46.800          37.3004
 121719659.012 7  94670891.923 7  22786169.323    22786169.633    22786177.744
        46.700          42.800
 130539559.610 6 101719248.17943  24840825.873    24840824.3314   24840842.8454
        38.300          20.9004
 121888932.098 7  94802666.755 6  22833868.699    22833868.644    22833885.706
        46.100          41.400
 25  1  1 21  2 15.0000000  0 32E05G17G08S31S35G07G15E33S48S33G30E04
                                E31E12R01E06E10R20R10E26R11G21E24R21
                                E09R02G13G14G02R12G19R22
 128431164.934 7                  24439641.672
        43.600
 114655594.960 7  89342195.72347  21818163.930    21818163.3364   21818167.0574
        45.800          44.0004
 120627240.673 7  93995386.66046  22954553.655    22954552.9454   22954558.9154
        43.800          39.8004
 198973680.830 7                  37863439.755
        45.400
 200891142.924 7                  38228331.270
        43.500
 109390339.091 7  85239266.01347  20816275.129    20816274.4544   20816276.5584
        47.800          46.9004
 130954314.494 6 102042334.45444  24919776.365    24919775.9994   24919778.1684
        37.800          25.7004
 132608045.332 7                  25234408.124
        44.600
 412971757.208 5                  78585871.700
        32.800
 202128428.280 7                  38463740.148
        44.300
 106677778.321 8  83125576.23348  20300098.384    20300097.5174   20300101.3534
        50.700          52.2004
 146411129.954 6                  27861170.247
        38.100
 124112071.405 8                  23617688.624
        48.200
 144009123.910 5                  27403982.202
        34.900
 123251105.470 6  95861976.284 5  23056687.029    23056686.276    23056701.321
        40.300          35.200
 138272964.387 7                  26312493.434
        42.400
 151128107.668 5                  28758717.019
        35.100
 112714075.129 6  87666682.757 7  21078035.754    21078035.800    21078045.524
        38.600          46.400
 114305155.088 7                  21443316.491    21443315.943
        45.800
 140313838.916 7                  26700760.754
        42.800
 105466774.355 8  82029876.519 8  19736618.052    19736618.057    19736623.684
        53.300          49.800
 114385893.848 7  89132026.50345  21766849.695    21766848.3764   21766851.7394
        43.700          31.8004
 133048300.265 7                  25318188.011
        45.300
 105736113.415 8  82239415.154 7  19759257.427    19759257.751    19759265.631
        51.500          47.300
 134702632.460 7                  25633068.121
        44.900
 121927491.980 7  94832592.175 7  22849137.473    22849138.279    22849146.067
        46.800          42.000
 119534854.363 7  93144053.36844  22746724.816    22746724.2264   22746726.1714
        43.800          27.3004
 111072624.067 7  86550257.61946  21136355.500    21136355.0674   21136356.8994
        47.000          37.2004
 114274082.059 7  89044895.54646  21745570.893    21745569.6684   21745571.3194
        46.900          37.3004
 121673929.291 7  94635324.381 7  22777608.141    22777608.484    22777616.801
        45.800          42.600
 130487518.961 6 101678697.62043  24830922.452    24830920.9284   24830939.2664
        38.300          20.3004
 121822033.340 7  94750634.786 6  22821335.346    22821335.648    22821352.039
        45.100          41.000
 25  1  1 21  2 30.0000000  0 32E05G17G08S31S35G07G15E33S48S33G30E04
                                E31E12R01E06E10R20R10E26R11G21E24R21
                                E09R02G13G14G02R12G19R22
 128428068.049 7                  24439052.033
        43.300
 114617566.008 7  89312562.84147  21810927.104    21810926.5324   21810930.3394
        46.900          43.9004
 120677280.758 7  94034378.91046  22964076.059    22964075.3264   22964081.2494
        43.800          39.8004
 198973672.490 7                  37863436.996
        45.600
 200891131.794 7                  38228320.261
        43.400
 109414825.229 7  85258346.07347  20820934.613    20820933.9344   20820936.1954
        47.700          46.8004
 130931429.850 6 102024502.29344  24915421.777    24915421.4204   24915423.8904
        37.100          26.7004
 132585353.094 7                  25230089.736
        44.400
 412972246.071 5                  78585911.033
        33.600
 202128437.236 7                  38463744.683
        44.800
 106671202.150 8  83120451.93648  20298846.864    20298846.0064   20298849.9654
        50.500          52.2004
 146456508.193 6                  27869805.422
        37.700
 124117858.924 8                  23618790.026
        48.000
 143962839.261 5                  27395174.402
        34.300
 123296864.419 6  95897566.339 5  23065246.500    23065246.165    23065261.956
        40.200          35.100
 138315711.587 7                  26320627.918
        42.200
 151082501.009 6                  28750038.752
        36.000
 112750840.546 6  87695278.058 7  21084911.040    21084911.027    21084920.943
        38.700          46.400
 114336797.283 7                  21449252.574    21449251.732
        45.600
 140328035.086 7                  26703461.905
        42.900
 105454969.168 8  82020694.718 8  19734408.712    19734408.785    19734414.631
        53.400          49.900
 114395874.865 7  89139803.93345  21768749.424    21768748.1014   21768751.1234
        43.600          31.8004
 133026501.757 7                  25314040.101
        45.100
 105710260.440 8  82219307.316 7  19754426.439    19754426.588    19754434.227
        51.700          47.200
 134736410.736 7                  25639495.779
        44.700
 121931470.490 7  94835686.557 6  22849883.604    22849883.735    22849891.441
        46.300          41.900
 119520098.458 7  93132555.25444  22743917.307    22743916.7134   22743918.4534
        43.500          27.1004
 111048611.103 7  86531546.22646  21131786.177    21131785.7444   21131787.4284
        47.100          37.3004
 114261164.596 7  89034830.01846  21743112.779    21743111.5684   21743113.0494
        47.100          37.2004
 121628192.954 7  94599751.682 7  22769047.238    22769047.276    22769055.405
        47.000          42.800
 130435496.955 6 101638161.57043  24821022.557    24821021.0554   24821039.6924
        39.800          21.5004
 121755167.655 7  94698628.537 6  22808809.453    22808809.470    22808826.447
        46.100          41.800
 25  1  1 21  2 45.0000000  0 32E05G17G08S31S35G07G15E33S48S33G30E04
                                E31E12R01E06E10R20R10E26R11G21E24R21
                                E09R02G13G14G02R12G19R22
 128425086.353 7                  24438484.639
        43.800
 114579634.402 7  89283005.81147  21803708.542    21803707.9394   21803712.2014
        46.300          44.0004
 120727360.290 7  94073401.88946  22973605.878    22973605.1414   22973611.0374
        43.300          39.8004
 198973671.450 7                  37863436.741
        45.600
 200891128.971 7                  38228322.376
        43.700
 109439437.719 7  85277524.58347  20825618.411    20825617.7414   20825619.8394
        47.400          46.8004
 130908683.035 6 102006777.50844  24911092.601    24911092.2264   24911095.4674
        37.500          26.6004
 132562762.708 7                  25225790.945
        44.600
 412972743.534 5                  78585933.623
        33.500
 202128454.659 7                  38463747.589
        44.700
 106664762.307 8  83115433.86448  20297621.506    20297620.6484   20297624.5084
        50.600          52.2004
 146501876.654 6                  27878438.846
        38.200
 124123681.820 8                  23619898.024
        48.200
 143916567.283 5                  27386368.672
        34.800
 123342714.707 6  95933227.412 5  23073824.047    23073823.948    23073839.592
        40.500          35.400
 138358490.083 7                  26328768.265
        42.700
 151036870.353 5                  28741354.928
        35.700
 112787781.874 6  87724010.196 7  21091820.391    21091819.742    21091828.880
        39.100          46.300
 114368518.196 7                  21455203.257    21455202.849
        45.800
 140342344.085 7                  26706185.184
        42.800
 105443248.784 8  82011578.837 8  19732215.575    19732215.588    19732221.362
        53.200          49.900
 114406019.737 7  89147709.04045  21770680.209    21770678.8864   21770681.6524
        43.300          31.7004
 133004730.313 7                  25309896.673
        45.300
 105684609.197 8  82199356.367 7  19749632.637    19749632.981    19749640.683
        52.000          47.300
 134770260.933 7                  25645937.725
        44.800
 121935640.845 7  94838930.141 7  22850665.725    22850665.030    22850672.629
        46.100          42.200
 119505497.170 7  93121177.61544  22741139.093    22741138.5214   22741140.0014
        43.900          27.2004
 111024649.889 7  86512875.15646  21127226.770    21127226.3464   21127227.7374
        47.100          37.3004
 114248393.411 7  89024878.47046  21740682.334    21740681.1234   21740682.7584
        46.800          37.1004
 121582461.433 7  94564182.770 7  22760485.089    22760484.977    22760493.988
        45.300          42.500
 130383505.086 6 101597649.01643  24811127.788    24811126.2774   24811145.9594
        38.500          21.4004
 121688346.963 7  94646657.270 6  22796292.027    22796291.606    22796307.970
        45.700          41.800
 25  1  1 21  3  0.0000000  0 33E05G17G08S31S35G07G15E33S48S33G30E04
                                E31E12R01E03E06E10R20R10E26R11G21E24
                                R21E09R02G13G14G02R12G19R22
 128422206.397 7                  24437936.569
        43.800
 114541786.887 7  89253514.30547  21796506.526    21796505.9234   21796510.0324
        46.400          43.9004
 120777465.486 7  94112444.85946  22983140.686    22983139.9404   22983145.8604
        44.200          39.8004
 198973665.829 7                  37863436.965
        45.300
 200891120.530 7                  38228318.835
        43.500
 109464163.093 7  85296791.05147  20830323.534    20830322.8734   20830324.9924
        47.700          46.8004
 130886060.839 6 101989149.85644  24906788.273    24906787.8984   24906790.7204
        38.300          26.7004
 132540260.873 7                  25221509.207
        44.400
 412973236.342 5                  78585944.798
        32.600
 202128466.895 7                  38463751.131
        44.800
 106658445.453 8  83110511.62948  20296419.344    20296418.4904   20296422.4644
        50.800          52.1004
 146547221.652 6                  27887067.532
        37.700
 124129526.598 8                  23621010.467
        48.000
 143870294.714 5                  27377563.334
        34.700
 123388642.095 6  95968948.439 5  23082416.244    23082415.657    23082431.712
        40.800          35.300


 138401286.169 7                  26336912.476
        42.200
 150991202.430 6                  28732664.530
        36.400
 112824884.739 6  87752867.979 7  21098757.127    21098757.929    21098767.126
        39.000          46.200
 114400304.110 7                  21461165.425    21461165.198
        45.300
 140356752.360 7                  26708926.977
        42.600
 105431599.793 8  82002518.505 8  19730035.503    19730035.570    19730041.379
        53.200          49.700
 114416314.761 7  89155731.14645  21772638.906    21772637.5834   21772640.6884
        43.000          31.6004
 132982972.495 7                  25305756.659
        45.700
 105659146.328 8  82179551.943 7  19744873.932    19744874.531    19744882.412
        51.500          47.600
 134804169.332 7                  25652390.207
        44.900
 121939989.103 7  94842312.096 7  22851479.712    22851480.632    22851488.231
        46.300          42.100
 119491037.000 7  93109909.94044  22738386.828    22738386.2344   22738388.4114
        44.200          27.1004
 111000727.061 7  86494233.99846  21122674.034    21122673.6144   21122675.3884
        47.500          37.3004
 114235755.175 7  89015030.51146  21738277.230    21738276.0194   21738277.7544
        46.900          37.1004
 121536721.258 7  94528607.080 7  22751922.659    22751923.220    22751931.380
        47.200          42.700
 130331530.006 6 101557149.51843  24801237.552    24801236.0234   24801253.9794
        39.700          20.7004
 121621558.011 7  94594710.691 6  22783779.201    22783779.362    22783795.359
        45.300          41.000
 25  1  1 21  3 15.0000000  0 33E05G17G08S31S35G07G15E33S48S33G30E04
                                E31E12R01E03E06E10R20R10E26R11G21E24
                                R21E09R02G13G14G02R12G19R22
 128419432.955 7                  24437408.738
        43.700
 114504028.344 7  89224092.12847  21789321.563    21789320.9644   21789324.7164
        46.600          43.9004
 120827600.900 7  94151511.37746  22992680.936    22992680.1764   22992686.3484
        43.900          39.7004
 198973659.604 7                  37863429.622
        45.500
 200891111.197 7                  38228323.691
        44.100
 109489006.112 8  85316149.19647  20835051.025    20835050.3504   20835052.5484
        48.200          46.8004
 130863568.300 6 101971623.23944  24902507.489    24902507.1234   24902510.1884
        38.700          26.4004
 132517852.619 7                  25217245.003
        44.700
 412972127.936 5                  78585966.664
        33.100
 202128478.397 7                  38463751.909
        44.900
 106652256.564 8  83105689.10648  20295241.584    20295240.7354   20295244.7734
        50.700          52.1004
 146592547.785 6                  27895693.450
        38.400
 124135398.109 8                  23622127.534
        48.000
 143824026.722 5                  27368757.811
        34.900
 123434650.778 6  96004732.724 5  23091023.487    23091023.620    23091038.834
        40.200          35.100


 138444104.409 7                  26345060.772
        42.300
 150945502.281 6                  28723967.993
        36.400
 112862154.226 6  87781855.348 7  21105727.567    21105727.203    21105736.820
        39.300          46.000
 114432160.245 7                  21467142.244    21467142.336
        46.200
 140371264.648 7                  26711688.485
        42.800
 105420027.304 8  81993517.678 8  19727869.872    19727870.030    19727875.679
        53.200          49.700
 114426764.530 7  89163873.83345  21774627.769    21774626.4554   21774629.0894
        43.400          31.4004
 132961233.077 7                  25301619.690
        45.700
 105633876.964 8  82159898.019 7  19740151.610    19740152.382    19740160.267
        50.900          47.600
 134838140.534 7                  25658854.816
        45.100
 121944520.202 7  94845836.288 7  22852329.343    22852328.809    22852337.236
        45.600          42.400
 119476722.823 7  93098756.01144  22735662.989    22735662.3864   22735664.5624
        44.800          27.3004
 110976847.473 7  86475626.53146  21118130.031    21118129.6164   21118131.2724
        47.200          37.3004
 114223254.918 7  89005290.07046  21735898.601    21735897.3904   21735898.9584
        47.200          37.0004
 121490977.383 7  94493028.548 7  22743359.259    22743359.642    22743367.794
        45.900          42.600
 130279576.762 6 101516667.04243  24791350.473    24791348.9354   24791367.0474
        39.200          20.7004
 121554806.221 7  94542793.032 6  22771274.365    22771274.527    22771290.605
        45.700          41.700
 25  1  1 21  3 30.0000000  0 33E05G17G08S31S35G07G15E33S48S33G30E04
                                E31E12R01E03E06E10R20R10E26R11G21E24
                                R21E09R02G13G14G02R12G19R22
 128416771.221 7                  24436902.767
        43.900
 114466364.039 7  89194743.38547  21782154.151    21782153.5484   21782157.3754
        46.600          43.9004
 120877771.407 7  94190605.22946  23002228.364    23002227.6094   23002233.4994
        44.100          39.9004
 198973657.297 7                  37863431.183
        45.600
 200891107.180 7                  38228320.127
        43.800
 109513971.914 8  85335603.01847  20839801.801    20839801.1354   20839803.4694
        48.100          46.8004
 130841210.605 6 101954201.68144  24898253.004    24898252.6334   24898254.9744
        38.100          25.9004
 132495543.262 7                  25212999.653
        44.600
 412972622.408 5                  78585992.211
        33.000
 202128494.702 7                  38463759.256
        45.000
 106646200.917 8  83100970.40648  20294089.472    20294088.6324   20294092.4144
        50.700          52.1004
 146637859.947 6                  27904316.074
        38.200
 124141301.463 8                  23623250.906
        48.000
 143777768.562 5                  27359955.770
        34.000
 123480745.503 6  96040583.933 5  23099647.227    23099646.375    23099661.674
        40.300          34.400
 152056250.152 6                  28935340.463
        37.600
 138486949.681 7                  26353213.968
        42.400
 150899775.247 5                  28715265.746
        35.500
 112899594.829 6  87810975.815 7  21112728.678    21112729.125    21112738.532
        39.000          46.000
 114464091.560 7                  21473132.479    21473132.043
        45.700
 140385885.978 7                  26714470.704
        42.700
 105408536.675 8  81984580.495 8  19725719.386    19725719.729    19725725.454
        53.700          49.700
 114437374.296 7  89172141.20145  21776646.450    21776645.1224   21776647.9684
        43.700          31.3004
 132939517.226 7                  25297487.534
        45.600
 105608806.585 8  82140398.846 7  19735466.975    19735467.445    19735475.138
        51.200          47.400
 134872179.415 7                  25665332.066
        45.000
 121949239.005 7  94849506.448 7  22853213.863    22853213.323    22853221.262
        45.800          42.100
 119462559.971 7  93087720.00144  22732967.892    22732967.2844   22732969.4354
        44.300          26.9004
 110953016.312 7  86457056.80346  21113595.141    21113594.7304   21113596.2914
        47.600          37.4004
 114210897.809 7  88995661.17646  21733546.863    21733545.6524   21733547.4894
        46.700          36.9004
 121445235.027 7  94457451.183 7  22734796.523    22734796.373    22734804.972
        46.400          42.800
 130227650.627 6 101476205.66043  24781468.577    24781467.0394   24781485.2894
        39.100          20.7004
 121488097.269 7  94490908.695 6  22758776.731    22758776.414    22758793.556
        45.300          41.400
 25  1  1 21  3 45.0000000  0 32E05G17G08S31S35G07G15E33S48S33G30E04
                                E31E12R01E06E10R20R10E26R11G21E24R21
                                E09R02G13G14G02R12G19R22
 128414214.826 7                  24436415.807
        43.200
 114428787.945 7  89165463.36947  21775003.322    21775002.6964   21775006.7864
        46.700          43.7004
 120927970.342 7  94229721.22646  23011780.756    23011779.9964   23011786.2674
        43.800          39.7004
 198973654.341 7                  37863433.553
        45.700
 200891101.573 7                  38228312.883
        43.200
 109539053.952 7  85355147.41347  20844574.775    20844574.1054   20844576.4784
        47.500          46.6004
 130818981.583 6 101936880.40544  24894023.147    24894022.7724   24894024.3464
        38.800          25.9004
 132473326.574 7                  25208771.872
        44.300
 412973112.014 5                  78586006.623
        32.600
 202128509.803 7                  38463758.352
        44.800
 106640272.299 8  83096350.68848  20292961.320    20292960.4804   20292964.2504
        50.600          51.8004
 146683151.568 6                  27912934.846
        38.000
 124147230.275 7                  23624379.411
        47.900
 143731514.181 5                  27351154.185
        34.800
 123526919.207 6  96076496.554 5  23108283.546    23108283.564    23108299.566
        40.200          34.500
 138529815.401 7                  26361371.110
        42.100
 150854015.153 5                  28706558.057
        34.600
 112937199.616 6  87840223.968 7  21119760.538    21119761.302    21119770.798
        39.200          45.700
 114496091.604 7                  21479135.419    21479135.116
        45.600
 140400609.888 7                  26717272.630
        42.800
 105397121.628 8  81975702.127 8  19723583.650    19723583.658    19723589.235
        53.500          49.800
 114448137.423 7  89180528.06245  21778694.306    21778692.9694   21778696.2174
        43.300          31.1004
 132917818.542 7                  25293357.788
        45.500
 105583928.852 8  82121049.525 7  19730818.320    19730818.446    19730826.184
        51.500          47.600
 134906279.420 7                  25671821.003
        44.900
 121954139.030 7  94853317.570 7  22854132.762    22854132.470    22854139.827
        46.400          42.700
 119448542.041 7  93076796.91844  22730300.553    22730299.9454   22730301.7684
        44.300          26.7004
 110929227.262 7  86438519.88546  21109068.112    21109067.7014   21109069.3954
        47.300          37.2004
 114198677.632 7  88986138.99646  21731221.605    21731220.3854   21731222.0304
        47.200          36.8004
 121399488.065 7  94421870.234 7  22726232.832    22726232.925    22726240.795
        46.700          43.000
 130175745.432 6 101435760.59143  24771591.470    24771589.9554   24771607.4344
        38.300          21.0004
 121421425.190 7  94439053.014 6  22746286.482    22746286.416    22746302.910
        44.800          41.600
 25  1  1 21  4  0.0000000  0 32E05G17G08S31S35G07G15E33S48S33G30E04
                                E31E12R01E06E10R20R10E26R11G21E24R21
                                E09R02G13G14G02R12G19R22
 128411759.911 7                  24435948.762
        43.700
 114391296.078 7  89136248.99547  21767869.120    21767868.5034   21767872.2414
        46.200          43.9004
 120978193.586 7  94268856.16846  23021338.217    23021337.4624   23021343.3544
        44.200          39.8004
 198973645.863 7                  37863430.150
        45.400
 200891090.586 7                  38228317.641
        43.500
 109564248.234 8  85374779.26447  20849369.344    20849368.6784   20849370.8584
        48.100          46.8004
 130796877.551 6 101919656.47844  24889816.532    24889816.1484   24889818.3114
        38.500          26.4004
 132451198.947 7                  25204561.060
        44.500
 412973596.250 5                  78586030.219
        32.100
 202128518.697 7                  38463764.246
        44.600
 106634467.040 8  83091827.09148  20291856.655    20291855.8154   20291859.5634
        50.800          52.0004
 146728418.670 6                  27921548.590
        38.200
 124153180.753 8                  23625511.498
        48.000
 143685260.025 5                  27342350.968
        34.300
 123573167.255 6  96112467.003 5  23116936.261    23116935.904    23116951.910
        40.400          35.200
 138572697.453 7                  26369531.185
        42.400
 150808218.412 6                  28697843.399
        36.500
 112974964.034 6  87869596.260 7  21126823.291    21126823.501    21126832.867
        39.800          45.800
 114528156.662 7                  21485151.203    21485151.058
        45.900
 140415432.482 7                  26720092.950
        42.900
 105385778.518 8  81966879.685 8  19721460.935    19721460.961    19721466.614
        53.500          49.800
 114459049.952 7  89189031.34245  21780771.408    21780770.0674   21780772.7944
        43.500          31.2004
 132896133.177 7                  25289231.553
        45.500
 105559240.294 8  82101847.330 7  19726204.289    19726204.747    19726212.458
        51.500          47.600
 134940436.422 7                  25678321.168
        45.400
 121959215.919 7  94857266.258 7  22855082.610    22855082.913    22855091.129
        45.900          42.400
 119434665.271 7  93065983.84044  22727659.483    22727658.8624   22727660.9934
        44.200          26.9004
 110905476.556 7  86420012.84646  21104548.658    21104548.2524   21104549.7784
        47.200          37.3004
 114186590.787 7  88976720.69446  21728921.420    21728920.2004   21728922.0384
        46.700          36.9004
 121353732.462 7  94386282.572 7  22717666.501    22717666.897    22717674.571
        46.600          42.600
 130123857.502 6 101395328.99943  24761717.385    24761715.9054   24761733.5194
        38.300          21.5004
 121354786.572 7  94387223.329 6  22733802.303    22733802.974    22733819.222
        44.800          41.900
 25  1  1 21  4 15.0000000  0 33E03E05G17G08S31S35G07G15E33S48S33G30
                                E04E31E12R01E06E10R20R10E26R11G21E24
                                R21E09R02G13G14G02R12G19R22
 151959308.926 5                  28916890.651
        32.800
 128409414.055 7                  24435502.308
        43.600
 114353896.139 7  89107106.24447  21760752.101    21760751.4894   21760755.2384
        46.900          44.0004
 121028448.441 7  94308015.74646  23030901.553    23030900.7934   23030906.4734
        43.600          40.0004
 198973638.588 7                  37863432.489
        45.500
 200891080.837 7                  38228319.385
        43.300
 109589562.272 7  85394504.43947  20854186.245    20854185.5754   20854188.0484
        47.800          46.9004
 130774906.249 6 101902535.99544  24885636.681    24885636.2844   24885638.0774
        37.800          27.4004
 132429168.069 7                  25200368.992
        44.900
 412974083.272 5                  78586049.291
        32.300
 202128528.946 7                  38463768.007
        44.500
 106628792.835 8  83087405.61548  20290776.794    20290775.9454   20290779.8274
        50.800          52.1004
 146773668.503 6                  27930159.722
        38.800
 124159160.437 8                  23626649.320
        48.100
 143639013.962 5                  27333551.011
        35.400
 123619497.026 6  96148501.032 5  23125603.498    23125603.124    23125618.267
        40.300          34.700
 138615603.173 7                  26377695.885
        42.200
 150762392.765 6                  28689122.625
        37.200
 113012895.725 6  87899098.671 7  21133916.980    21133916.956    21133926.220
        39.000          45.500
 114560294.519 7                  21491180.831    21491180.021
        45.700
 140430361.177 7                  26722933.842
        43.000
 105374515.215 8  81958119.339 8  19719352.734    19719353.006    19719358.794
        53.300          49.800
 114470119.503 7  89197656.97545  21782877.833    21782876.4964   21782879.1974
        43.000          31.2004
 132874468.693 7                  25285108.885
        45.400
 105534748.870 8  82082798.478 7  19721627.037    19721628.006    19721635.707
        51.600          47.700
 134974657.760 7                  25684833.226
        44.800
 121964477.669 7  94861358.720 7  22856068.875    22856069.590    22856077.118
        45.000          42.400
 119420937.311 7  93055286.70944  22725047.303    22725046.6824   22725048.6184
        44.500          27.1004
 110881771.805 7  86401541.62146  21100037.804    21100037.4074   21100038.9534
        47.500          37.5004
 114174644.875 7  88967412.21346  21726648.146    21726646.9304   21726648.7464
        46.300          36.9004
 121307976.398 7  94350694.556 7  22709101.134    22709101.487    22709109.902
        46.500          43.000
 130071994.710 6 101354916.93843  24751847.224    24751845.7714   24751863.4234
        39.300          20.8004
 121288189.581 7  94335426.050 7  22721327.202    22721326.946    22721342.908
        45.300          42.000
 25  1  1 21  4 30.0000000  0 33E03E05G17G08S31S35G07G15E33S48S33G30
                                E04E31E12R01E06E10R20R10E26R11G21E24
                                R21E09R02G13G14G02R12G19R22
 151927124.159 5                  28910766.087
        35.400
 128407176.388 7                  24435076.672
        43.200
 114316587.479 7  89078034.62147  21753652.226    21753651.5964   21753655.5934
        46.500          44.1004
 121078733.758 7  94347199.04746  23040470.595    23040469.8314   23040475.5004
        43.700          40.0004
 198973633.736 7                  37863428.245
        45.600
 200891073.541 7                  38228315.754
        43.900
 109614995.160 7  85414322.22347  20859026.189    20859025.5284   20859027.8464
        47.800          47.1004
 130753066.911 6 101885518.33944  24881480.454    24881480.0524   24881482.3704
        39.200          27.3004
 132407233.291 7                  25196194.716
        44.700
 412972970.358 5                  78586067.969
        32.500
 202128542.415 7                  38463773.449
        44.700
 106623248.950 8  83083085.68748  20289721.831    20289720.9824   20289724.8734
        50.800          52.2004
 146818899.964 6                  27938766.989
        37.700
 124165168.456 7                  23627792.888
        47.700
 143592775.290 5                  27324751.591
        34.600
 123665907.122 6  96184597.526 5  23134285.747    23134285.187    23134300.862
        40.500          34.400
 138658531.411 6                  26385865.171
        41.700
 150716537.555 5                  28680395.624
        35.000
 113050993.170 6  87928730.011 7  21141041.559    21141041.020    21141050.879
        39.000          45.500
 114592504.225 7                  21497221.358    21497221.957
        46.000
 140445395.030 7                  26725795.131
        42.900
 105363331.090 8  81949420.548 8  19717259.646    19717260.166    19717265.985
        52.900          49.800
 114481345.292 7  89206404.35245  21785013.848    21785012.5114   21785015.3674
        42.900          31.2004
 132852824.185 7                  25280990.229
        45.400
 105510453.789 8  82063902.313 7  19717087.312    19717087.677    19717095.414
        51.400          47.600
 135008942.325 7                  25691357.573
        44.700
 121969922.889 7  94865593.859 7  22857090.172    22857090.180    22857098.025
        46.100          42.500
 119407357.588 7  93044705.09344  22722463.525    22722462.8994   22722464.7444
        43.800          27.1004
 110858112.177 7  86383105.55546  21095535.555    21095535.1584   21095536.6644
        47.300          37.6004
 114162839.250 7  88958213.04946  21724401.743    21724400.5274   21724402.1444
        46.900          36.9004
 121262218.856 7  94315105.362 7  22700535.293    22700535.539    22700543.480
        47.000          42.900
 130020156.324 6 101314523.89643  24741982.312    24741980.8414   24741998.2194
        38.600          21.0004
 121221633.871 7  94283660.837 7  22708858.839    22708859.052    22708874.177
        46.300          42.300
 25  1  1 21  4 45.0000000  0 33E03E05G17G08S31S35G07G15E33S48S33G30
                                E04E31E12R01E06E10R20R10E26R11G21E24
                                R21E09R02G13G14G02R12G19R22
 151895006.781 5                  28904654.493
        35.100
 128405046.357 7                  24434671.291
        43.600
