     2.11           OBSERVATION DATA    M (MIXED)           RINEX VERSION / TYPE
teqc  2019Feb25                         20260317 16:20:08UTCPGM / RUN BY / DATE
Linux 2.4.21-27.ELsmp|Opteron|gcc -static|Linux 64|=+       COMMENT
BIT 2 OF LLI FLAGS DATA COLLECTED UNDER A/S CONDITION       COMMENT
-Unknown-                                                   MARKER NAME
-Unknown-           -Unknown-                               OBSERVER / AGENCY
-Unknown-           -Unknown-           -Unknown-           REC # / TYPE / VERS
-Unknown-           -Unknown-                               ANT # / TYPE
        0.0000        0.0000        0.0000                  APPROX POSITION XYZ
        0.0000        0.0000        0.0000                  ANTENNA: DELTA H/E/N
     1     1                                                WAVELENGTH FACT L1/2
     7    L1    L2    C1    P1    P2    S1    S2            # / TYPES OF OBSERV
 SNR is mapped to RINEX snr flag value [0-9]                COMMENT
  L1 & L2: min(max(int(snr_dBHz/6), 0), 9)                  COMMENT
  2025     1     1     5     0    0.0000000     GPS         TIME OF FIRST OBS
    18                                                      LEAP SECONDS
                                                            END OF HEADER
 25  1  1  5  0  0.0000000  0 34E34G25E03E08S31S35G13E21E13S48S33R02
                                G12G20E15G05G11G26G18G06G29G15R07R23
                                E27R15E26E05R24R17E30R14R01R08
 145170336.318 6                  27624947.269
        38.100
 118748853.826 7  92531658.69446  22597130.420    22597129.4414   22597132.9794
        43.800          40.4004
 133979201.916 7                  25495381.016
        44.100
 138753001.883 6                  26403814.364
        41.100
 198980215.999 7                  37864669.518
        45.600
 200945970.615 7                  38238758.316
        44.600
 120110249.952 7  93592421.19244  22856215.457    22856214.9034   22856216.2054
        43.000          26.0004
 134525313.881 7                  25599300.015
        44.100
 128071843.345 7                  24371240.027
        47.400
 412883357.205 5                  78569150.461
        34.100
 202122879.813 7                  38462678.120
        45.100
 123813033.769 7  96299063.025 6  23202509.450    23202510.066    23202516.382
        44.400          41.700
 126181184.517 7  98323127.22345  24011436.092    24011435.5254   24011436.1744
        42.100          34.7004
 111689546.961 8  87030869.40546  21253788.790    21253787.5034   21253788.0854
        48.500          38.2004
 126699754.874 7                  24110123.686
        47.300
 105491697.180 8  82201373.98848  20074381.796    20074381.3144   20074380.9724
        51.200          53.5004
 118371925.777 7  92237965.32645  22525392.820    22525392.4364   22525393.0474
        46.500          33.9004
 133200059.268 5 103792276.66143  25347128.276    25347127.6284   25347133.5904
        34.900          23.9004
 128281181.612 6  99959362.78844  24411094.337    24411093.9804   24411095.6454
        40.900          25.1004
 133902440.590 5 104339702.04843  25480751.204    25480750.8474   25480757.3124
        35.000          23.6004
 111390366.092 8  86797726.99548  21196865.462    21196864.8324   21196864.9664
        49.400          48.7004
 124742917.337 7  97202285.13645  23737785.592    23737785.1454   23737786.0094
        42.100          34.7004
 131529401.388 7 102300707.049 6  24570782.621    24570782.695    24570790.855
        42.900          38.500
 113708551.747 7                  21256582.285    21256582.129
        47.900
 135710134.326 7                  25824727.080
        43.200
 121970907.555 7  94866307.712 7  22825192.301    22825192.578    22825199.417
        47.000          43.000
 148992114.264 6                  28352257.001
        36.100
 137118632.204 6                  26092795.740
        39.800
 106962809.835 8  83193371.422 7  20002568.778    20002568.942    20002574.807
        53.100          47.500
 124103639.899 7  96525092.469 6  23191730.562    23191730.410    23191737.897
        44.000          41.900
 152221899.896 5                  28966818.870
        34.200
 122429477.408 7  95222972.322 6  22967451.995    22967452.310    22967459.416
        46.300          41.500
 106175185.565 8  82580751.684 6  19862252.118    19862252.030    19862259.151
        48.900          41.400
 111347996.345 8  86604067.150 7  20793438.686    20793439.033    20793444.708
        48.400          47.400
 25  1  1  5  0 15.0000000  0 34E34G25E03E08S31S35G13E21E13S48S33R02
                                G12G20E15G05G11G26G18G06G29G15R07R23
                                E27R15E26E05R24R17E30R14R01R08
 145199798.031 6                  27630553.784
        37.700
 118785758.224 7  92560415.35446  22604152.853    22604151.8744   22604155.6944
        43.500          40.5004
 133964817.697 7                  25492643.764
        44.100
 138710819.749 6                  26395788.031
        41.600
 198980204.623 7                  37864669.107
        45.700
 200945988.040 7                  38238765.922
        44.400
 120063774.031 7  93556206.22144  22847371.186    22847370.6284   22847372.3554
        42.600          26.1004
 134529818.972 7                  25600157.379
        44.300
 128056226.160 7                  24368268.342
        47.700
 412883132.555 5                  78569118.078
        32.700
 202122858.466 7                  38462673.407
        45.000
 123745613.020 7  96246624.688 7  23189873.912    23189873.990    23189882.524
        44.200          42.700
 126234517.842 7  98364685.65045  24021584.969    24021584.3884   24021585.1024
        42.100          34.6004
 111721538.786 8  87055798.09946  21259876.494    21259875.2074   21259875.9004
        48.600          38.2004
 126712777.646 7                  24112602.003
        47.800
 105493132.016 8  82202492.04348  20074654.936    20074654.4494   20074654.0054
        51.200          53.6004
 118403341.637 7  92262445.21945  22531371.170    22531370.7864   22531371.2534
        46.300          34.1004
 133173254.162 6 103771389.62144  25342027.771    25342027.1234   25342032.6354
        36.500          24.8004
 128241955.884 6  99928797.31444  24403630.408    24403630.0424   24403630.7504
        40.500          24.9004
 133942221.477 5 104370700.08943  25488321.166    25488320.8274   25488327.3444
        32.500          22.9004
 111359093.822 8  86773359.00348  21190914.827    21190914.2014   21190914.0324
        49.100          48.7004
 124685397.082 6  97157464.17145  23726839.502    23726839.0554   23726840.4874
        41.800          34.7004
 131591694.060 6 102349156.893 6  24582419.900    24582419.842    24582427.940
        41.900          39.500
 113736503.376 7                  21261807.119    21261807.328
        47.400
 135748669.238 7                  25832060.044
        43.500
 121976523.956 7  94870676.040 7  22826242.787    22826242.896    22826250.150
        45.500          42.500
 148962138.773 6                  28346552.940
        36.500
 137139813.025 6                  26096826.069
        38.700
 106943367.018 8  83178249.241 7  19998932.768    19998932.883    19998938.860
        52.900          47.600
 124057828.365 7  96489461.311 6  23183169.209    23183170.017    23183176.506
        44.900          41.200
 152266173.771 5                  28975243.416
        33.400
 122475622.830 7  95258863.163 6  22976109.670    22976109.318    22976116.384
        46.200          41.700
 106139665.074 8  82553124.655 6  19855606.969    19855606.980    19855614.213
        49.000          41.000
 111379913.497 8  86628891.603 7  20799398.959    20799399.205    20799404.790
        48.100          47.500
 25  1  1  5  0 30.0000000  0 34E34G25E03E08S31S35G13E21E13S48S33R02
                                G12G20E15G05G11G26G18G06G29G15R07R23
                                E27R15E26E05R24R17E30R14R01R08
 145229262.203 6                  27636160.806
        38.000
 118822748.146 7  92589238.65846  22611191.485    22611190.5064   22611194.5424
        43.800          40.3004
 133950533.105 7                  25489925.587
        44.100
 138668665.120 6                  26387766.244
        41.600
 198980193.574 7                  37864665.628
        45.800
 200946006.600 7                  38238763.905
        44.300
 120017355.859 7  93520036.23944  22838538.177    22838537.6104   22838539.0764
        42.400          26.3004
 134534431.597 7                  25601035.183
        44.200
 128040630.737 7                  24365300.343
        47.500
 412882909.032 5                  78569076.518
        32.600
 202122837.930 7                  38462667.961
        45.000
 123678218.501 7  96194206.694 7  23177244.288    23177245.488    23177252.694
        44.100          42.300
 126287863.627 6  98406253.79445  24031736.483    24031735.9074   24031736.6294
        41.800          34.7004
 111753596.792 8  87080778.35446  21265976.863    21265975.5714   21265976.3734
        48.400          38.2004
 126725822.081 7                  24115084.083
        47.500
 105494694.432 8  82203709.51948  20074952.203    20074951.7124   20074951.3504
        51.400          53.7004
 118434791.524 7  92286951.62645  22537355.726    22537355.3334   22537355.9024
        46.800          34.2004
 133146560.368 6 103750589.31344  25336948.480    25336947.8374   25336953.1764
        37.500          26.5004
 128202738.854 6  99898238.61544  24396167.025    24396166.6724   24396167.7864
        40.900          25.5004
 133982005.081 5 104401700.23243  25495892.261    25495891.9314   25495897.8104
        33.400          23.6004
 111327915.410 8  86749064.14748  21184981.606    21184980.9804   21184980.9544
        49.200          48.8004
 124627888.003 7  97112651.91545  23715895.536    23715895.0854   23715897.1934
        42.800          35.1004
 131654030.227 6 102397640.633 6  24594064.788    24594064.471    24594072.581
        41.400          38.500
 113764523.568 7                  21267045.567    21267045.637
        47.400
 135787252.297 7                  25839401.889
        43.700
 121982321.037 7  94875184.871 7  22827327.687    22827327.622    22827335.077
        46.000          42.800
 148932166.638 5                  28340849.731
        35.900
 137161086.102 6                  26100874.408
        39.200
 106923987.194 8  83163176.034 7  19995308.779    19995308.726    19995314.574
        52.800          47.500
 124012006.225 7  96453821.902 6  23174605.763    23174606.278    23174614.007
        44.000          41.500
 152310415.846 5                  28983662.775
        35.000
 122521848.984 7  95294816.856 6  22984781.685    22984780.917    22984787.361
        45.800          41.100
 106104319.502 8  82525633.677 6  19848994.847    19848994.787    19849002.297
        48.700          41.500
 111412003.394 8  86653850.404 7  20805391.642    20805391.993    20805397.386
        48.200          47.400
 25  1  1  5  0 45.0000000  0 34E34G25E03E08S31S35G13E21E13S48S33R02
                                G12G20E15G05G11G26G18G06G29G15R07R23
                                E27R15E26E05R24R17E30R14R01R08
 145258728.590 6                  27641768.082
        38.000
 118859823.009 7  92618128.14946  22618246.912    22618245.9334   22618249.5824
        43.400          40.1004
 133936348.024 7                  25487226.566
        44.000
 138626538.026 7                  26379749.515
        42.100
 198980183.558 7                  37864663.781
        45.600
 200946025.647 7                  38238768.516
        44.100
 119970995.638 7  93483911.41144  22829715.936    22829715.3694   22829716.8374
        42.400          26.0004
 134539151.558 7                  25601933.458
        44.400
 128025056.897 7                  24362337.078
        47.800
 412882686.076 5                  78569047.426
        32.000
 202122817.532 7                  38462666.248
        44.900
 123610850.435 7  96141809.308 6  23164620.072    23164620.314    23164627.430
        43.600          41.800
 126341221.217 6  98447831.14245  24041889.911    24041889.3394   24041890.2354
        41.100          34.2004
 111785720.610 7  87105809.89246  21272089.720    21272088.4334   21272089.2874
        47.900          38.0004
 126738888.001 7                  24117570.639
        47.500
 105496384.398 8  82205026.37748  20075273.816    20075273.3254   20075272.9274
        50.900          53.5004
 118466275.255 7  92311484.40845  22543347.161    22543346.7774   22543347.1844
        45.700          34.2004
 133119977.709 5 103729875.51144  25331889.162    25331888.5284   25331894.4344
        35.700          25.5004
 128163530.312 6  99867686.53544  24388706.105    24388705.7484   24388707.0004
        40.400          25.2004
 134021791.203 5 104432702.34843  25503463.564    25503463.2434   25503469.1524
        32.200          23.0004
 111296830.887 8  86724842.44748  21179066.634    21179066.0044   21179065.7664
        49.100          48.6004
 124570390.262 6  97067848.49345  23704954.335    23704953.8884   23704955.2444
        41.700          34.4004
 131716409.679 7 102446158.143 6  24605717.635    24605716.938    24605725.022
        42.500          39.000
 113792612.715 7                  21272296.204    21272296.440
        47.200
 135825883.112 7                  25846753.061
        43.300
 121988298.337 7  94879833.898 7  22828447.288    22828447.169    22828453.198
        45.500          42.200
 148902197.638 6                  28335146.930
        36.000
 137182451.256 6                  26104940.219
        39.500
 106904670.393 8  83148151.858 7  19991696.057    19991696.559    19991702.303
        53.100          47.600
 123966173.598 7  96418174.346 6  23166041.127    23166041.332    23166049.128
        42.300          41.600
 152354625.722 6                  28992075.567
        36.900
 122568154.580 7  95330832.312 6  22993469.132    22993468.626    22993474.999
        47.300          41.800
 106069149.019 8  82498278.874 6  19842415.164    19842415.389    19842423.007
        48.700          41.200
 111444265.638 8  86678943.266 7  20811416.476    20811416.695    20811422.249
        48.100          47.400
 25  1  1  5  1  0.0000000  0 34E34G25E03E08S31S35G13E21E13S48S33R02
                                G12G20E15G05G11G26G18G06G29G15R07R23
                                E27R15E26E05R24R17E30R14R01R08
 145288196.130 6                  27647375.468
        38.200
 118896981.290 7  92647082.64346  22625318.185    22625317.2064   22625320.4874
        43.900          40.0004
 133922261.478 7                  25484545.724
        44.200
 138584437.662 6                  26371737.686
        41.500
 198980172.867 7                  37864660.910
        45.500
 200946043.834 7                  38238775.138
        44.200
 119924692.634 7  93447831.17244  22820904.799    22820904.2494   22820905.5184
        42.500          26.0004
 134543977.544 7                  25602851.820
        44.400
 128009503.403 7                  24359377.119
        47.600
 412882462.427 5                  78569026.959
        32.600
 202122796.835 7                  38462659.939
        44.900
 123543508.098 7  96089431.918 6  23152000.758    23152000.393    23152007.545
        42.700          41.800
 126394588.985 6  98489416.41145  24052045.690    24052045.1274   24052046.1174
        40.900          34.2004
 111817908.791 8  87130891.58646  21278215.196    21278213.9184   21278214.4894
        48.200          37.7004
 126751974.235 7                  24120060.669
        47.800
 105498200.405 8  82206441.44948  20075619.326    20075618.8354   20075618.4984
        51.300          53.4004
 118497791.622 7  92336042.61245  22549344.379    22549344.0084   22549344.6004
        46.400          34.0004
 133093505.718 6 103709248.09244  25326852.650    25326852.0204   25326856.8384
        36.700          25.3004
 128124329.112 6  99837140.17444  24381246.085    24381245.7014   24381247.3814
        41.000          25.2004
 134061578.686 5 104463705.51643  25511035.410    25511035.0844   25511040.4544
        33.000          22.6004
 111265839.295 8  86700693.16048  21173168.792    21173168.1584   21173168.2594
        49.200          48.5004
 124512903.120 6  97023053.33345  23694014.948    23694014.5014   23694015.9564
        41.800          34.6004
 131778830.069 6 102494707.511 6  24617377.554    24617377.955    24617386.200
        41.500          37.000
 113820769.154 7                  21277559.677    21277559.826
        47.500
 135864560.197 7                  25854113.502
        43.600
 121994454.376 7  94884621.942 7  22829598.954    22829599.139    22829605.481
        46.100          42.400
 148872230.547 6                  28329443.948
        36.400
 137203907.012 6                  26109022.913
        38.600
 106885415.644 8  83133175.950 7  19988095.334    19988095.771    19988101.520
        52.700          47.700
 123920329.320 7  96382517.646 6  23157475.195    23157475.434    23157482.036
        44.800          41.500
 152398802.064 5                  29000481.471
        34.700
 122614538.326 7  95366908.555 6  23002169.674    23002169.885    23002175.663
        47.200          41.300
 106034152.720 8  82471059.561 6  19835868.611    19835868.465    19835876.377
        48.400          41.300
 111476698.443 8  86704168.793 7  20817473.055    20817473.445    20817478.628
        48.600          47.300
 25  1  1  5  1 15.0000000  0 34E34G25E03E08S31S35G13E21E13S48S33R02
                                G12G20E15G05G11G26G18G06G29G15R07R23
                                E27R15E26E05R24R17E30R14R01R08
 145317665.501 6                  27652983.270
        37.500
 118934223.298 7  92676102.36946  22632404.865    22632403.8684   22632407.4814
        43.600          40.0004
 133908274.271 7                  25481884.117
        44.100
 138542365.002 6                  26363731.628
        41.300
 198980162.469 7                  37864662.954
        45.900
 200946062.104 7                  38238774.078
        44.300
 119878447.895 7  93411796.36144  22812104.790    22812104.2234   22812105.4954
        42.600          26.1004
 134548910.297 7                  25603790.332
        44.400
 127993970.986 7                  24356421.321
        47.500
 412882238.884 5                  78569009.873
        32.900
 202122777.293 7                  38462655.203
        45.000
 123476192.576 7  96037075.402 7  23139383.957    23139385.369    23139393.644
        44.300          42.600
 126447967.291 6  98531009.89345  24062202.999    24062202.4494   24062203.4084
        40.600          33.8004
 111850161.785 8  87156023.79246  21284352.468    21284351.1904   21284352.0464
        48.100          37.8004
 126765081.519 7                  24122554.891
        47.600
 105500143.153 8  82207955.28248  20075989.158    20075988.6714   20075988.1724
        51.000          53.4004
 118529341.317 7  92360626.79045  22555348.028    22555347.6574   22555348.3884
        46.600          34.2004
 133067144.833 6 103688707.18144  25321836.727    25321836.0974   25321840.6134
        36.400          25.4004
 128085135.976 6  99806600.10044  24373787.650    24373787.2614   24373788.9654
        40.200          25.2004
 134101368.248 5 104494710.32043  25518607.951    25518607.6214   25518612.2574
        34.000          23.3004
 111234941.715 8  86676617.13748  21167289.419    21167288.7854   21167288.6354
        49.200          48.5004
 124455427.806 7  96978267.39145  23683077.495    23683077.0484   23683078.6984
        42.400          34.5004
 131841291.393 6 102543288.427 6  24629045.669    24629045.303    24629053.955
        41.700          38.700
 113848993.723 7                  21282835.826    21282836.412
        47.200
 135903284.088 7                  25861482.109
        43.200
 122000789.697 7  94889549.431 7  22830783.949    22830784.088    22830791.369
        45.800          42.500
 148842266.058 5                  28323742.128
        34.200
 137225454.014 6                  26113123.349
        38.900
 106866223.946 8  83118249.082 7  19984506.491    19984506.789    19984512.569
        52.900          47.700
 123874474.166 7  96346852.543 6  23148904.184    23148905.440    23148912.708
        44.000          41.500
 152442945.250 5                  29008882.038
        33.100
 122661000.278 7  95403045.637 6  23010886.099    23010886.777    23010891.969
        47.200          41.300
 105999331.930 8  82443976.755 6  19829354.803    19829354.621    19829361.768
        48.800          41.600
 111509302.271 8  86729527.335 7  20823561.286    20823561.917    20823567.463
        48.600          47.300
 25  1  1  5  1 30.0000000  0 34E34G25E03E08S31S35G13E21E13S48S33R02
                                G12G20E15G05G11G26G18G06G29G15R07R23
                                E27R15E26E05R24R17E30R14R01R08
 145347135.280 6                  27658591.604
        38.600
 118971547.218 7  92705185.92846  22639507.208    22639506.2164   22639510.0824
        43.800          40.0004
 133894385.089 7                  25479240.825
        44.300
 138500318.698 6                  26355730.487
        41.600
 198980150.668 7                  37864656.139
        45.500
 200946080.057 7                  38238778.335
        44.100
 119832260.462 6  93375806.22644  22803315.463    22803314.8874   22803316.3114
        41.700          26.2004
 134553948.258 7                  25604749.260
        44.600
 127978458.111 7                  24353469.648
        47.600
 412882014.075 5                  78568967.116
        32.300
 202122755.451 7                  38462656.424
        45.000
 123408902.829 7  95984738.903 7  23126774.971    23126775.550    23126783.078
        44.100          42.200
 126501354.339 6  98572610.19045  24072362.457    24072361.9124   24072362.4564
        41.400          33.7004
 111882477.895 8  87181205.17146  21290502.475    21290501.1924   21290501.5424
        48.200          37.8004
 126778208.312 7                  24125052.618
        47.600
 105502211.070 8  82209566.65048  20076382.589    20076382.0984   20076381.6934
        51.400          53.5004
 118560922.842 7  92385235.76745  22561357.626    22561357.2514   22561358.1464
        46.800          34.3004
 133040893.800 5 103668251.81644  25316840.914    25316840.2664   25316844.8624
        35.900          24.8004
 128045949.444 6  99776065.17344  24366331.656    24366331.3124   24366331.7214
        41.200          25.3004
 134141158.335 5 104525715.50343  25526178.022    25526177.6654   25526184.5304
        32.800          23.6004
 111204136.973 8  86652613.44748  21161427.439    21161426.7964   21161426.6774
        49.200          48.5004
 124397963.005 7  96933489.61945  23672142.540    23672142.1164   23672143.3054
        43.100          34.6004
 131903792.322 6 102591899.934 6  24640722.224    24640721.792    24640730.171
        39.300          38.100
 113877285.181 7                  21288124.383    21288124.834
        47.300
 135942053.009 7                  25868859.694
        43.600
 122007302.820 7  94894615.164 7  22832003.484    22832003.830    22832010.360
        46.400          42.700
 148812302.639 6                  28318040.653
        36.700
 137247090.780 6                  26117240.723
        38.800
 106847093.791 8  83103370.079 7  19980929.112    19980929.392    19980935.168
        52.600          47.700
 123828606.537 7  96311177.710 6  23140334.211    23140333.840    23140341.931
        44.700          41.700
 152487053.796 5                  29017275.495
        35.500
 122707538.270 7  95439241.827 6  23019616.330    23019616.041    23019622.123
        46.500          41.300
 105964685.325 8  82417029.411 6  19822873.169    19822873.214    19822880.889
        48.600          41.400
 111542075.274 7  86755017.452 7  20829681.404    20829682.030    20829687.383
        47.500          47.200
 25  1  1  5  1 45.0000000  0 34E34G25E03E08S31S35G13E21E13S48S33R02
                                G12G20E15G05G11G26G18G06G29G15R07R23
                                E27R15E26E05R24R17E30R14R01R08
 145376606.914 6                  27664199.910
        38.500
 119008954.004 7  92734334.06146  22646625.867    22646624.8844   22646628.2124
        43.600          40.0004
 133880595.407 7                  25476616.972
        44.200
 138458300.407 6                  26347734.419
        41.600
 198980138.590 7                  37864658.791
        45.700
 200946096.744 7                  38238778.693
        44.200
 119786132.079 7  93339862.06044  22794537.364    22794536.8064   22794538.4044
        42.700          26.5004
 134559092.764 7                  25605728.104
        43.900
 127962966.166 7                  24350521.520
        47.700
 412881789.351 5                  78568950.785
        33.300
 202122734.058 7                  38462649.600
        44.700
 123341641.073 7  95932424.200 7  23114169.585    23114171.052    23114177.864
        44.900          42.200
 126554751.102 6  98614218.05845  24082523.440    24082522.8774   24082523.3914
        40.900          34.1004
 111914858.242 7  87206436.61046  21296663.776    21296662.4934   21296663.3214
        47.900          37.7004
 126791356.032 7                  24127554.825
        47.400
 105504405.282 8  82211276.42748  20076800.084    20076799.5974   20076799.2444
        50.800          53.5004
 118592537.550 7  92409870.61045  22567374.047    22567373.6814   22567374.2764
        46.400          34.3004
 133014754.183 6 103647883.19944  25311865.711    25311865.0634   25311870.5134
        36.100          24.2004
 128006770.899 6  99745536.47744  24358875.595    24358875.2424   24358876.5514
        41.100          25.9004
 134180950.450 5 104556722.28644  25533750.158    25533749.8054   25533756.9684
        32.900          24.3004
 111173426.681 8  86628683.35048  21155583.313    21155582.6704   21155582.6744
        48.800          48.5004
 124340510.424 7  96888721.38245  23661209.446    23661209.0264   23661210.5144
        42.000          34.6004
 131966334.091 7 102640543.366 6  24652405.858    24652405.636    24652413.555
        43.100          38.700
 113905645.008 7                  21293426.680    21293426.721
        47.200
 135980868.121 7                  25876245.846
        43.400
 122013994.965 7  94899820.184 7  22833255.771    22833255.880    22833262.705
        46.700          42.500
 148782341.684 5                  28312338.951
        35.300
 137268818.522 6                  26121375.245
        39.300
 106828026.894 8  83088540.268 7  19977363.593    19977363.506    19977369.666
        52.500          47.500
 123782728.098 7  96275494.442 6  23131761.118    23131760.250    23131767.814
        43.800          41.300
 152531128.842 5                  29025662.567
        35.300
 122754153.126 7  95475497.844 6  23028361.253    23028361.346    23028367.772
        46.500          41.700
 105930214.735 8  82390218.985 6  19816424.754    19816424.812    19816432.389
        48.500          41.400
 111575018.313 8  86780639.820 7  20835833.421    20835833.789    20835839.308
        48.200          47.300
 25  1  1  5  2  0.0000000  0 34E34G25E03E08S31S35G13E21E13S48S33R02
                                G12G20E15G05G11G26G18G06G29G15R07R23
                                E27R15E26E05R24R17E30R14R01R08
 145406083.557 6                  27669808.483
        38.300
 119046446.521 7  92763548.99346  22653760.232    22653759.2494   22653762.8964
        43.400          40.0004
 133866908.542 7                  25474012.703
        44.100
 138416313.799 6                  26339744.539
        41.800
 198980129.828 7                  37864657.677
        45.900
 200946116.857 7                  38238782.132
        44.600
 119740066.424 7  93303966.74144  22785771.358    22785770.7824   22785772.6284
        43.300          26.6004
 134564346.984 7                  25606728.035
        44.500
 127947498.356 7                  24347577.979
        47.800
 412881568.224 5                  78568924.313
        33.100
 202122715.756 7                  38462650.410
        45.200
 123274410.688 7  95880133.894 6  23101571.042    23101570.856    23101578.683
        43.300          41.900
 126608160.404 6  98655835.70045  24092687.055    24092686.5014   24092686.9064
        41.300          34.1004
 111947305.700 7  87231720.34046  21302838.577    21302837.2944   21302837.8684
        47.800          37.7004
 126804527.886 7                  24130061.500
        47.500
 105506728.878 8  82213087.02548  20077242.424    20077241.9424   20077241.4024
        51.200          53.6004
 118624188.609 7  92434533.77345  22573396.789    22573396.4144   22573397.2614
        46.700          34.5004
 132988729.600 6 103627604.27143  25306913.239    25306912.5914   25306917.6994
        36.500          23.4004
 127967603.654 6  99715016.58344  24351422.248    24351421.8774   24351423.2784
        40.900          26.0004
 134220747.687 5 104587733.07243  25541323.729    25541323.4034   25541330.2784
        32.700          23.8004
 111142814.472 8  86604829.69748  21149758.034    21149757.3864   21149757.3484
        49.200          48.6004
 124283073.818 7  96843965.60345  23650280.144    23650279.7514   23650280.6844
        42.300          34.4004
 132028918.879 6 102689220.037 5  24664097.540    24664097.472    24664105.028
        40.600          33.200
 113934076.392 7                  21298741.452    21298741.303
        46.400
 136019732.407 7                  25883641.430
        43.200
 122020869.076 7  94905166.722 7  22834542.509    22834542.786    22834549.151
        46.400          42.900
 148752386.352 6                  28306638.452
        36.100
 137290640.089 6                  26125528.058
        38.400
 106809026.847 8  83073762.459 7  19973810.243    19973810.556    19973816.560
        52.700          47.600
 123736842.407 7  96239805.565 6  23123185.374    23123185.820    23123192.717
        44.400          41.500
 152575173.381 5                  29034043.869
        35.000
 122800847.751 7  95511815.869 6  23037120.739    23037121.482    23037127.515
        46.700          41.500
 105895923.939 8  82363548.394 6  19810009.575    19810009.863    19810017.328
        48.300          41.400
 111608134.504 8  86806396.861 7  20842017.770    20842018.177    20842023.436
        48.200          47.400
 25  1  1  5  2 15.0000000  0 33E34G25E03E08S31S35G13E21E13S48S33R02
                                G12G20E15G05G11G26G18G06G29G15R23E27
                                R15E26E05R24R17E30R14R01R08
 145435558.636 6                  27675417.507
        37.500
 119084017.651 7  92792825.17546  22660910.129    22660909.1464   22660912.6184
        44.200          39.8004
 133853317.929 7                  25471426.566
        44.100
 138374352.323 7                  26331759.673
        42.100
 198980118.234 7                  37864656.609
        45.700
 200946134.301 7                  38238785.079
        44.300
 119694057.162 7  93268115.34944  22777016.440    22777015.8464   22777017.2094
        42.600          26.5004
 134569704.117 7                  25607747.223
        44.300
 127932047.936 7                  24344637.830
        47.900
 412881342.798 5                  78568901.521
        33.100
 202122693.442 7                  38462642.960
        45.500
 123207205.328 7  95827863.020 7  23088977.467    23088978.177    23088984.278
        45.000          42.300
 126661575.212 6  98697457.62245  24102851.178    24102850.5974   24102851.5574
        41.900          33.9004
 111979813.480 7  87257051.07746  21309024.584    21309023.3014   21309023.8614
        47.800          37.4004
 126817717.166 7                  24132571.070
        47.500
 105509174.878 8  82214992.99948  20077707.844    20077707.3624   20077706.8544
        51.300          53.3004
 118655869.292 7  92459220.02245  22579425.308    22579424.9374   22579425.7594
        46.400          34.2004
 132962813.702 6 103607410.14644  25301982.244    25301981.5924   25301986.2064
        36.300          24.0004
 127928440.877 6  99684500.17244  24343969.670    24343969.2954   24343970.7064
        41.000          25.4004
 134260543.497 5 104618742.72143  25548895.756    25548895.4394   25548902.8684
        34.000          23.0004
 111112293.972 8  86581047.49748  21143950.235    21143949.5924   21143949.4934
        48.900          48.3004
 124225646.759 7  96799217.24345  23639351.612    23639351.2154   23639352.2084
        42.500          34.0004
 113962572.550 7                  21304068.402    21304068.499
        46.900
 136058638.840 7                  25891045.291
        43.300
 122027918.306 7  94910649.442 7  22835860.265    22835861.034    22835867.953
        45.900          42.400
 148722429.876 5                  28300938.144
        35.600
 137312548.797 6                  26129697.322
        39.600
 106790086.961 8  83059031.425 7  19970268.521    19970268.655    19970274.664
        52.900          47.600
 123690942.466 7  96204105.606 6  23114607.934    23114607.862    23114615.398
        43.600          41.300
 152619180.589 5                  29042418.238
        33.200
 122847614.514 7  95548189.998 6  23045894.780    23045895.293    23045900.360
        46.800          41.500
 105861806.292 8  82337012.473 6  19803627.512    19803627.355    19803635.053
        48.200          41.700
 111641416.342 8  86832282.751 7  20848233.075    20848233.232    20848238.572
        48.300          47.200
 25  1  1  5  2 30.0000000  0 34E34G25E03E08S31S35G13E21E13S48S33R02
                                G12G20E15R16G05G11G26G18G06G29G15R23
                                E27R15E26E05R24R17E30R14R01R08
 145465037.197 6                  27681027.314
        38.100
 119121672.160 7  92822166.33746  22668075.439    22668074.4564   22668077.9954
        44.400          39.8004
 133839828.799 7                  25468859.184
        44.100
 138332421.139 6                  26323780.345
        41.500
 198980107.684 7                  37864646.078
        45.700
 200946152.100 7                  38238795.055
        44.700
 119648109.962 7  93232312.36344  22768273.411    22768272.8214   22768273.7654
        43.600          26.5004
 134575169.232 7                  25608787.440
        44.300
 127916620.021 7                  24341701.975
        47.600
 412881118.770 5                  78568869.272
        33.100
 202122673.417 7                  38462641.399
        45.200
 123140030.933 7  95775616.263 7  23076389.052    23076389.472    23076396.857
        45.200          42.500
 126715000.312 6  98739087.56645  24113017.592    24113016.9934   24113018.1624
        41.300          33.9004
 112012386.364 8  87282432.54246  21315222.916    21315221.6384   21315222.3044
        48.100          37.4004
 126830928.989 7                  24135085.453
        47.500
 131975374.822 6                  24706066.249    24706066.341
        39.500
 105511748.456 8  82216998.38848  20078197.452    20078196.9654   20078196.5994
        51.800          53.3004
 118687584.684 7  92483933.31345  22585460.944    22585460.5734   22585460.9114
        46.800          34.3004
 132937011.495 5 103587304.60844  25297072.899    25297072.2334   25297076.4414
        35.600          24.7004
 127889287.820 6  99653991.33744  24336519.389    24336519.0144   24336519.9594
        41.500          25.5004
 134300342.982 5 104649755.24043  25556469.820    25556469.4994   25556476.4504
        33.100          22.9004
 111081870.314 8  86557340.76648  21138160.839    21138160.2004   21138160.0384
        49.700          48.3004
 124168234.791 7  96754480.66345  23628426.284    23628425.8914   23628427.5744
        42.500          34.3004
 113991138.772 7                  21309408.510    21309408.761
        46.900
 136097592.334 7                  25898457.915
        43.500
 122035147.493 7  94916272.166 7  22837214.148    22837213.123    22837220.977
        44.600          42.700
 148692477.343 5                  28295237.993
        35.100
 137334549.588 6                  26133883.790
        38.100
 106771212.570 8  83044351.355 7  19966738.875    19966739.248    19966745.002
        52.800          47.800
 123645033.682 7  96168398.734 6  23106028.640    23106028.929    23106036.371
        44.300          41.600
 152663155.337 5                  29050786.863
        34.500
 122894458.118 7  95584623.918 6  23054682.848    23054683.078    23054688.802
        47.400          41.800
 105827867.369 8  82310615.556 7  19797278.555    19797278.478    19797286.243
        48.500          42.000
 111674868.790 8  86858301.354 7  20854479.839    20854480.057    20854485.504
        48.200          47.300
 25  1  1  5  2 45.0000000  0 34E34G25E03E08S31S35G13E21E13S48S33R02
                                G12G20E15R16G05G11G26G18G06G29G15R23
                                E27R15E26E05R24R17E30R14R01R08
 145494517.133 6                  27686637.216
        38.200
 119159407.433 7  92851570.42146  22675256.308    22675255.3344   22675258.8804
        44.100          40.0004
 133826439.104 7                  25466311.455
        44.300
 138290518.634 6                  26315806.734
        41.100
 198980096.799 7                  37864647.800
        45.300
 200946170.550 7                  38238797.425
        44.300
 119602222.905 7  93196556.22744  22759541.058    22759540.4734   22759541.7334
        42.200          26.8004
 134580740.090 7                  25609847.516
        44.400
 127901212.382 7                  24338770.094
        47.900
 412880894.238 5                  78568842.541
        33.300
 202122652.971 7                  38462635.801
        45.000
 123072885.546 7  95723392.072 7  23063805.674    23063806.447    23063813.251
        43.600          42.200
 126768433.056 6  98780723.46445  24123185.836    24123185.2194   24123186.2024
        41.700          34.1004
 112045021.995 8  87307862.90046  21321433.364    21321432.0864   21321432.7034
        48.100          37.6004
 126844161.168 7                  24137603.348
        47.600
 131940245.476 6 102620221.703 6  24699489.575    24699490.109    24699499.137
        41.100          36.500
 105514447.508 8  82219101.54748  20078711.038    20078710.5474   20078710.2054
        51.800          53.6004
 118719332.559 7  92508671.90445  22591502.151    22591501.7714   22591502.3694
        46.600          34.5004
 132911320.877 6 103567285.96744  25292183.647    25292182.9724   25292187.8754
        36.400          24.5004
 127850142.238 7  99623488.32844  24329069.951    24329069.5804   24329071.1794
        42.000          26.1004
 134340143.850 5 104680768.86143  25564044.807    25564044.4774   25564049.8814
        34.400          23.6004
 111051541.678 8  86533708.06548  21132389.185    21132388.5334   21132388.6634
        49.200          48.5004
 124110836.016 7  96709754.35845  23617504.308    23617503.9064   23617505.0184
        42.300          34.2004
 114019772.923 7                  21314761.698    21314761.566
        47.500
 136136590.454 7                  25905879.007
        43.200
 122042554.656 7  94922033.282 7  22838600.176    22838600.592    22838606.809
        47.200          42.200
 148662526.541 6                  28289538.415
        36.000
 137356640.045 6                  26138087.713
        38.600
 106752401.719 8  83029720.691 7  19963221.185    19963221.436    19963227.351
        52.800          47.800
 123599113.927 7  96132683.339 6  23097447.492    23097447.979    23097454.706
        44.100          41.200
 152707095.266 5                  29059147.240
        32.800
 122941376.078 7  95621115.661 6  23063483.953    23063484.403    23063488.964
        47.100          40.500
 105794105.142 8  82284356.083 6  19790962.386    19790962.441    19790970.045
        48.300          41.700
 111708489.130 8  86884450.537 7  20860758.102    20860758.484    20860764.119
        48.100          47.500
 25  1  1  5  3  0.0000000  0 34E34G25E03E08S31S35G13E21E13S48S33R02
                                G12G20E15R16G05G11G26G18G06G29G15R23
                                E27R15E26E05R24R17E30R14R01R08
 145523997.551 6                  27692247.092
        37.300
 119197222.278 7  92881036.51246  22682452.031    22682451.0524   22682454.7184
        44.400          39.9004
 133813148.045 7                  25463782.009
        44.100
 138248644.101 6                  26307838.297
        41.700
 198980084.647 7                  37864644.768
        45.400
 200946187.161 7                  38238800.926
        43.900
 119556395.539 7  93160846.59944  22750820.497    22750819.9344   22750820.7854
        43.500          26.5004
 134586415.767 7                  25610927.498
        44.400
 127885824.145 8                  24335841.890
        48.000
 412880668.619 5                  78568814.826
        32.600
 202122630.700 7                  38462629.871
        44.900
 123005768.975 7  95671190.285 7  23051228.079    23051227.970    23051236.222
        44.100          42.600
 126821872.171 6  98822364.34145  24133355.066    24133354.4274   24133355.2854
        41.900          34.1004
 112077719.258 7  87333341.29146  21327655.569    21327654.3004   21327654.7474
        47.900          37.4004
 126857412.792 7                  24140125.069
        47.400
 131905253.904 6 102593005.864 5  24692939.688    24692939.902    24692948.599
        41.200          35.800
 105517270.806 8  82221301.52148  20079248.211    20079247.7114   20079247.4574
        51.600          53.4004
 118751112.015 7  92533435.11345  22597549.718    22597549.3434   22597549.8944
        46.400          34.3004
 132885741.321 6 103547353.88444  25287316.042    25287315.3454   25287320.4564
        37.200          26.1004
 127811003.307 6  99592990.48744  24321621.860    24321621.4764   24321623.3614
        41.700          26.1004
 134379945.235 5 104711782.88943  25571617.786    25571617.4204   25571624.1744
        33.400          22.5004
 111021307.500 8  86510148.97048  21126635.854    21126635.2024   21126635.2594
        49.100          48.4004
 124053449.907 6  96665037.91245  23606583.642    23606583.2404   23606584.5344
        41.500          34.0004
 114048474.014 7                  21320127.334    21320127.473
        47.700
 136175632.063 7                  25913308.602
        42.800
 122050138.330 7  94927931.690 7  22840018.785    22840018.798    22840025.400
        46.300          42.000
 148632576.593 6                  28283840.253
        36.500
 137378819.202 6                  26142308.087
        38.300
 106733653.659 8  83015138.859 7  19959714.977    19959715.376    19959721.326
        52.800          47.600
 123553182.358 7  96096958.739 6  23088864.585    23088864.024    23088871.963
        44.300          41.600
 152750999.317 5                  29067502.608
        33.400
 122988366.535 7  95657663.790 6  23072298.371    23072298.257    23072305.247
        46.200          41.200
 105760519.078 8  82258233.597 6  19784679.767    19784679.762    19784686.924
        48.000          41.600
 111742275.990 8  86910729.177 7  20867067.914    20867068.404    20867073.180
        48.400          47.300
 25  1  1  5  3 15.0000000  0 34E34G25E03E08S31S35G13E21E13S48S33R02
                                G12G20E15R16G05G11G26G18G06G29G15R23
                                E27R15E26E05R24R17E30R14R01R08
 145553481.367 6                  27697858.142
        37.500
 119235119.112 7  92910566.49746  22689663.474    22689662.4954   22689666.0814
        44.300          39.9004
 133799958.627 7                  25461272.393
        44.400
 138206800.597 6                  26299875.564
        41.800
 198980073.818 7                  37864642.201
        45.600
 200946205.202 7                  38238803.578
        44.200
 119510631.204 7  93125186.08844  22742111.188    22742110.6214   22742112.0464
        43.400          26.8004
 134592199.068 7                  25612027.981
        44.800
 127870458.128 8                  24332917.729
        48.100
 412880444.245 5                  78568785.358
        33.000
 202122610.001 7                  38462629.201
        45.200
 122938684.376 7  95619013.378 7  23038656.452    23038657.085    23038664.036
        44.000          42.200
 126875319.957 6  98864011.96545  24143525.723    24143525.0804   24143525.9054
        40.600          34.2004
 112110480.680 7  87358869.66546  21333889.633    21333888.3644   21333889.0434
        47.900          37.5004
 126870686.780 7                  24142650.900
        47.800
 131870403.807 7 102565900.084 6  24686415.644    24686415.845    24686424.632
        42.600          37.500
 105520220.989 8  82223600.36848  20079809.826    20079809.3264   20079808.8614
        51.500          53.5004
 118782925.953 7  92558225.19445  22603603.710    22603603.3354   22603603.8724
        46.300          34.4004
 132860275.755 6 103527510.58244  25282470.252    25282469.5684   25282474.5364
        36.400          26.4004
 127771873.884 6  99562500.07544  24314175.699    24314175.3154   24314177.3494
        41.400          26.1004
 134419750.092 5 104742799.58843  25579193.321    25579192.9734   25579198.9064
        32.800          22.3004
 110991170.968 8  86486665.96848  21120901.083    21120900.4264   21120900.4564
        49.000          48.4004
 123996079.588 6  96620333.76945  23595666.551    23595666.1454   23595667.1744
        41.900          34.2004
 114077245.009 7                  21325505.020    21325505.377
        47.200
 136214719.769 7                  25920746.705
        43.700
 122057901.524 7  94933969.748 7  22841471.714    22841471.763    22841478.748
        46.000          42.400
 148602630.308 6                  28278140.799
        36.200
 137401089.911 6                  26146546.090
        39.300
 106714971.632 8  83000608.398 7  19956221.634    19956221.599    19956227.835
        52.700          47.800
 123507242.057 7  96061227.357 7  23080279.592    23080280.651    23080287.516
        45.500          42.200
 152794870.176 6                  29075850.988
        36.200
 123035432.277 7  95694270.480 6  23081127.869    23081128.697    23081135.029
        46.600          41.300
 105727112.740 8  82232250.921 6  19778430.311    19778430.317    19778437.536
        48.100          41.500
 111776232.198 8  86937139.589 7  20873408.654    20873409.107    20873414.688
        48.400          47.400
 25  1  1  5  3 30.0000000  0 33E34G25E03E08S31S35G13E21E13S48S33R02
                                G12G20E15G05G11G26G18G06G29G15R23E27
                                R15E26E05R24R17E30R14R01R08
 145582966.737 6                  27703468.876
        38.000
 119273095.738 7  92940158.65046  22696890.642    22696889.6684   22696892.7464
        43.600          39.8004
 133786869.111 7                  25458781.529
        44.400
 138164986.482 6                  26291918.833
        41.600
 198980062.153 7                  37864638.668
        45.800
 200946222.979 7                  38238805.509
        44.500
 119464928.611 6  93089573.70444  22733414.884    22733414.3214   22733415.3844
        41.900          26.7004
 134598088.029 7                  25613148.710
        44.400
 127855112.486 8                  24329997.590
        48.000
 412880220.146 5                  78568745.265
        33.000
 202122589.379 7                  38462625.722
        45.300
 122871630.416 7  95566860.264 7  23026090.899    23026091.441    23026098.289
        45.900          42.000
 126928774.537 6  98905664.87845  24153697.545    24153696.9064   24153698.4754
        41.000          34.2004
 112143304.257 8  87384446.47546  21340135.727    21340134.4534   21340135.1574
        48.000          37.3004
 126883981.242 7                  24145180.883
        47.500
 105523296.085 8  82225996.54948  20080394.974    20080394.4744   20080394.0314
        51.300          53.4004
 118814772.411 7  92583040.62245  22609663.935    22609663.5554   22609663.9804
        46.400          34.3004
 132834922.530 6 103507754.82444  25277645.561    25277644.8684   25277650.1794
        36.900          26.5004
 127732752.138 6  99532015.63944  24306731.301    24306730.9124   24306732.4644
        40.700          26.3004
 134459556.525 5 104773817.52843  25586766.855    25586766.4844   25586773.9964
        33.400          21.9004
 110961130.604 8  86463257.90448  21115184.765    21115184.1134   21115183.9614
        49.000          48.3004
 123938723.780 6  96575640.93745  23584752.347    23584751.9544   23584752.6504
        41.800          34.0004
 114106084.361 7                  21330896.588    21330896.642
        46.700
 136253851.472 7                  25928192.993
        43.300
 122065841.900 7  94940145.575 7  22842958.484    22842958.662    22842964.409
        46.400          42.100
 148572685.744 5                  28272443.276
        35.800
 137423450.054 6                  26150801.058
        38.500
 106696353.745 8  82986127.816 7  19952740.137    19952740.078    19952746.136
        52.900          47.800
 123461291.279 7  96025487.904 6  23071691.890    23071692.971    23071699.828
        44.700          41.200
 152838705.782 5                  29084192.433
        31.700
 123082570.479 7  95730933.508 6  23089971.105    23089971.277    23089977.622
        46.500          40.600
 105693884.349 8  82206406.648 6  19772213.713    19772214.207    19772221.699
        48.600          41.500
 111810355.180 8  86963679.701 7  20879780.662    20879781.379    20879786.495
        48.000          47.300
 25  1  1  5  3 45.0000000  0 33E34G25E03E08S31S35G13E21E13S48S33R02
                                G12G20E15G05G11G26G18G06G29G15R23E27
                                R15E26E05R24R17E30R14R01R08
 145612456.947 6                  27709080.245
        37.600
 119311154.986 7  92969815.19246  22704133.060    22704132.0814   22704135.2284
        43.900          39.5004
 133773882.823 7                  25456310.080
        44.300
 138123205.340 7                  26283968.022
        42.100
 198980054.093 7                  37864640.453
        45.900
 200946243.034 7                  38238809.355
        44.600
 119419291.285 7  93054012.13244  22724730.340    22724729.7774   22724731.0144
        43.300          26.6004
 134604085.848 7                  25614290.021
        44.600
 127839790.407 8                  24327081.814
        48.000
 412879999.521 5                  78568722.026
        33.200
 202122571.376 7                  38462614.811
        45.100
 122804610.632 7  95514733.782 7  23013530.825    23013531.203    23013538.910
        44.800          42.300
 126982238.861 6  98947325.38645  24163871.913    24163871.2744   24163871.9314
        41.400          34.0004
 112176192.878 7  87410073.96146  21346394.156    21346392.8784   21346393.6764
        47.900          37.0004
 126897299.383 7                  24147715.180
        47.700
 105526499.186 8  82228492.47048  20081004.640    20081004.1444   20081003.5624
        51.300          53.1004
 118846654.615 7  92607883.90045  22615730.637    22615730.2484   22615730.9794
        46.500          34.0004
 132809685.307 6 103488089.51744  25272843.290    25272842.6024   25272847.9824
        36.900          26.1004
 127693641.304 6  99501539.69744  24299288.717    24299288.3334   24299289.9674
        41.000          26.2004
 134499367.845 5 104804839.26043  25594344.664    25594344.2934   25594350.0784
        33.700          22.2004
 110931189.955 8  86439927.53748  21109487.247    21109486.5954   21109486.4304
        48.700          48.0004
 123881386.057 6  96530962.19245  23573841.413    23573841.0024   23573841.6774
        41.600          33.7004
 114134995.046 7                  21336301.233    21336301.175
        47.200
 136293030.124 7                  25935648.627
        43.300
 122073962.583 7  94946461.682 6  22844477.426    22844477.292    22844484.256
        46.500          41.800
 148542746.143 5                  28266745.737
        35.900
 137445902.676 6                  26155073.850
        39.500
 106677803.697 8  82971700.018 7  19949271.177    19949270.949    19949277.020
        52.600          47.700
 123415333.324 7  95989742.861 6  23063104.081    23063104.228    23063111.357
        44.300          41.700
 152882509.213 5                  29092528.590
        33.100
 123129783.893 7  95767655.066 6  23098828.543    23098827.611    23098834.793
        45.100          40.700
 105660837.630 8  82180703.681 6  19766032.080    19766032.041    19766039.489
        48.500          41.500
 111844647.855 8  86990351.789 7  20886184.734    20886185.360    20886190.780
        48.000          47.500
 25  1  1  5  4  0.0000000  0 34E34G25E03E08S31S35G13E21E13S48S33R02
                                G12G20E15G05G11G26G18G06G29G15R23E27
                                R15E26E05R24R16R17E30R14R01R08
 145641946.399 6                  27714692.346
        37.800
 119349290.882 7  92999531.47046  22711390.162    22711389.2014   22711392.4164
        44.000          39.9004
 133760994.270 7                  25453857.484
        44.500
 138081451.842 6                  26276022.374
        41.400
 198980043.319 7                  37864640.591
        45.800
 200946260.781 7                  38238813.388
        44.300
 119373714.037 7  93018497.39444  22716056.748    22716056.1764   22716057.8554
        42.500          26.6004
 134610186.843 7                  25615450.895
        44.300
 127824486.278 7                  24324169.576
        47.900
 412879776.027 5                  78568692.071
        32.800
 202122550.590 7                  38462610.719
        45.100
 122737619.984 7  95462629.941 7  23000976.783    23000977.655    23000984.673
        45.200          42.100
 127035706.752 6  98988988.67345  24174045.716    24174045.0864   24174046.7104
        41.700          34.4004
 112209140.745 8  87435747.61546  21352663.914    21352662.6314   21352663.4684
        48.200          37.2004
 126910635.636 7                  24150252.982
        47.600
 105529824.577 8  82231083.68748  20081637.505    20081637.0144   20081636.3684
        51.300          53.4004
 118878566.932 7  92632750.64445  22621803.400    22621803.0074   22621803.7474
        46.300          34.3004
 132784558.298 6 103468510.04744  25268061.655    25268060.9714   25268066.1634
        36.500          25.9004
 127654535.775 6  99471067.89144  24291847.382    24291847.0074   24291848.1504
        40.700          25.9004
 134539178.364 5 104835860.42244  25601919.458    25601919.1014   25601925.4904
        34.800          24.2004
 110901343.624 8  86416670.66648  21103807.544    21103806.8964   21103806.8394
        49.200          48.3004
 123824061.072 7  96486293.37545  23562932.540    23562932.1344   23562932.9034
        42.100          34.1004
 114163971.632 7                  21341718.327    21341718.143
        47.100
 136332249.902 7                  25943111.607
        43.200
 122082257.697 7  94952913.432 6  22846030.315    22846030.502    22846036.396
        46.800          41.900
 148512805.846 5                  28261048.071
        35.800
 137468442.129 6                  26159362.938
        38.600
 106659316.021 8  82957320.707 8  19945813.883    19945813.776    19945819.803
        53.000          48.000
 131766684.558 7                  24667001.737
        42.800
 123369362.629 7  95953987.890 6  23054513.496    23054512.872    23054520.377
        44.700          41.200
 152926274.699 6                  29100856.710
        36.100
 123177066.328 7  95804430.256 6  23107698.823    23107698.573    23107705.218
        46.500          40.700
 105627967.060 8  82155137.714 6  19759882.732    19759882.814    19759890.368
        48.500          41.200
 111879104.135 7  87017151.112 7  20892619.198    20892619.497    20892625.225
        47.700          47.200
 25  1  1  5  4 15.0000000  0 34E34G25E03E08S31S35G13E21E13S48S33R02
                                G12G20E15G05G11G26G18G06G29G15R23E27
                                R15E26E05R24R16R17E30R14R01R08
 145671436.472 6                  27720304.175
        38.300
 119387504.379 7  93029308.20546  22718661.868    22718660.9074   22718664.2404
        44.100          39.7004
 133748204.940 7                  25451423.908
        44.500
 138039727.498 7                  26268082.598
        42.300
 198980030.482 7                  37864639.983
        46.200
 200946277.219 7                  38238814.497
        44.600
 119328198.636 7  92983030.84744  22707395.779    22707395.2214   22707396.5914
        43.600          26.8004
 134616392.342 7                  25616631.626
        44.600
 127809201.462 8                  24321261.098
        48.200
 412881150.790 5                  78568665.075
        32.800
 202122527.833 7                  38462605.725
        45.300
 122670660.365 7  95410550.224 6  22988429.460    22988428.740    22988436.455
        44.000          41.700
 127089179.207 6  99030655.52045  24184221.943    24184221.3224   24184222.4644
        41.200          34.5004
 112242148.918 8  87461468.27146  21358945.089    21358943.8024   21358944.7114
        48.300          37.3004
 126923991.370 7                  24152794.540
        47.900
 105533273.097 8  82233770.84948  20082293.635    20082293.1444   20082292.6014
        51.500          53.3004
 118910510.669 7  92657641.85945  22627882.473    22627882.0894   22627882.3594
        46.400          34.1004
 132759542.972 5 103449017.44443  25263301.494    25263300.7974   25263305.7284
        35.200          23.9004
 127615436.984 6  99440601.32744  24284407.184    24284406.7874   24284407.7374
        41.300          25.9004
 134578989.461 5 104866882.00943  25609495.333    25609494.9804   25609501.2234
        33.800          22.3004
 110871593.198 8  86393488.53148  21098146.226    21098145.5744   21098145.5144
        49.000          48.2004
 123766750.535 7  96441635.81945  23552026.408    23552025.9884   23552026.9734
        42.000          34.1004
 114193015.402 7                  21347147.360    21347147.762
        47.100
 136371511.926 7                  25950583.187
        43.300
 122090728.530 7  94959501.824 7  22847615.102    22847615.186    22847622.409
        46.000          42.200
 148482866.216 6                  28255351.031
        37.400
 137491069.539 6                  26163668.609
        38.300
 106640892.050 8  82942990.934 7  19942368.322    19942368.543    19942374.234
        53.000          47.700
 131732396.009 6 102458581.950 5  24660583.153    24660583.478    24660591.782
        39.000          35.600
 123323380.444 7  95918223.941 6  23045920.736    23045920.958    23045927.412
        44.400          41.500
 152970003.390 5                  29109177.796
        30.400
 123224418.668 7  95841259.871 6  23116581.613    23116581.956    23116588.440
        46.400          40.800
 105595274.499 8  82129710.194 6  19753767.093    19753766.882    19753774.365
        48.300          41.300
 111913724.991 8  87044078.449 7  20899084.586    20899085.177    20899090.101
        48.200          47.200
 25  1  1  5  4 30.0000000  0 34E34G25E03E08S31S35G13E21E13S48S33R02
                                G12G20E15G05G11G26G18G06G29G15R23E27
                                R15E26E05R24R16R17E30R14R01R08
 145700931.165 6                  27725916.726
        37.900
 119425799.032 7  93059148.17246  22725948.736    22725947.7714   22725951.4874
        44.200          39.7004
 133735518.927 7                  25449009.849
        44.200
