     2.11           OBSERVATION DATA    M (MIXED)           RINEX VERSION / TYPE
teqc  2019Feb25                         20260317 16:20:09UTCPGM / RUN BY / DATE
Linux 2.4.21-27.ELsmp|Opteron|gcc -static|Linux 64|=+       COMMENT
BIT 2 OF LLI FLAGS DATA COLLECTED UNDER A/S CONDITION       COMMENT
-Unknown-                                                   MARKER NAME
-Unknown-           -Unknown-                               OBSERVER / AGENCY
-Unknown-           -Unknown-           -Unknown-           REC # / TYPE / VERS
-Unknown-           -Unknown-                               ANT # / TYPE
        0.0000        0.0000        0.0000                  APPROX POSITION XYZ
        0.0000        0.0000        0.0000                  ANTENNA: DELTA H/E/N
     1     1                                                WAVELENGTH FACT L1/2
     7    L1    L2    C1    P1    P2    S1    S2            # / TYPES OF OBSERV
 SNR is mapped to RINEX snr flag value [0-9]                COMMENT
  L1 & L2: min(max(int(snr_dBHz/6), 0), 9)                  COMMENT
  2025     1     1     9     0    0.0000000     GPS         TIME OF FIRST OBS
    18                                                      LEAP SECONDS
                                                            END OF HEADER
 25  1  1  9  0  0.0000000  0 29G10G24E08R04S31S35G13R12E13S48S33R02
                                R13E29G23R19G18E07G29G15R11E33E26G08
                                G27G32R18R17R03
 117798395.769 7  91790974.08747  22416285.741    22416285.1744   22416287.9484
        47.100          46.3004
 113199144.343 7  88207161.76547  21541073.943    21541073.5634   21541076.7514
        45.700          46.3004
 134024738.038 7                  25504050.656
        44.900
 116214565.722 8  90389153.984 7  21702251.993    21702252.835    21702259.082
        49.400          44.800
 198974527.283 7                  37863586.192
        46.000
 200953995.701 7                  38240276.812
        44.500
 131577225.794 6 102527727.04542  25038308.675    25038307.9874   25038309.3104
        38.500          17.8004
 126420014.767 7  98326707.238 7  23666089.629    23666090.137    23666099.312
        43.500          42.200
 128609092.948 7                  24473477.952
        46.400
 412744891.698 5                  78542742.579
        33.000
 202097301.890 7                  38457809.055
        45.400
 114285143.997 8  88888488.375 7  21416982.719    21416982.540    21416988.056
        50.800          46.300
 130897260.214 6                  24512848.066    24512847.941
        36.400
 135135145.192 7                  25715360.239
        43.200
 107479951.809 8  83750621.20046  20452749.798    20452749.4144   20452749.2854
        48.000          39.6004
 114122639.957 6  88762077.790 7  21334015.270    21334015.608    21334021.707
        38.600          43.300
 108621262.776 7  84639948.78146  20669933.650    20669933.2664   20669934.0164
        47.100          39.8004
 122150931.234 8                  23244543.424
        48.300
 134898826.237 6 105116001.52543  25670381.351    25670380.7034   25670382.6964
        36.500          23.2004
 115444596.601 7  89956847.27447  21968367.915    21968367.4684   21968368.0644
        46.000          42.9004
 129806733.034 7 100960814.543 6  24291563.760    24291564.509    24291570.315
        43.600          38.100
 139156120.389 7                  26480526.819
        42.100
 123192231.439 8                  23442699.167
        48.700
 130056170.210 6 101342483.66345  24748864.196    24748863.4724   24748867.5704
        39.700          30.1004
 121391384.318 7  94590703.74146  23100009.742    23100009.0324   23100012.4804
        43.400          39.2004
 124161859.154 7  96749507.90846  23627214.620    23627214.1384   23627216.8234
        43.900          39.9004
 102619141.765 8  79814930.693 8  19224015.400    19224015.689    19224021.527
        52.300          48.600
 110340426.828 8  85820372.379 7  20619743.833    20619744.108    20619751.622
        49.600          46.900
 104537947.360 8  81307327.980 8  19528561.307    19528561.597    19528566.909
        52.600          48.300
 25  1  1  9  0 15.0000000  0 29G10G24E08R04S31S35G13R12E13S48S33R02
                                R13E29G23R19G18E07G29G15R11E33E26G08
                                G27G32R18R17R03
 117768896.247 7  91767987.43347  22410672.527    22410671.9694   22410674.3054
        47.900          46.2004
 113180637.750 7  88192741.07647  21537552.041    21537551.6574   21537555.0314
        46.200          46.2004
 134058504.569 7                  25510476.081
        45.000
 116175644.254 8  90358881.761 7  21694984.148    21694984.423    21694990.603
        48.800          44.700
 198974523.509 7                  37863587.645
        46.200
 200953996.200 7                  38240271.549
        44.300
 131633668.725 6 102571708.51942  25049049.080    25049048.3784   25049050.0674
        38.900          17.2004
 126387427.209 7  98301361.422 7  23659990.643    23659990.624    23659998.906
        46.100          42.300
 128636459.924 7                  24478685.701
        46.400
 412744689.588 5                  78542722.899
        33.200
 202097276.172 7                  38457803.989
        45.400
 114329627.013 8  88923086.287 7  21425318.475    21425318.848    21425324.108
        50.700          46.000
 130845929.362 6                  24503236.602    24503236.390
        38.700
 135098312.986 7                  25708351.698
        43.100
 107475863.129 8  83747435.23246  20451971.401    20451971.0174   20451971.2774
        48.300          39.5004
 114072436.418 6  88723030.603 7  21324630.761    21324630.804    21324636.786
        38.300          43.300
 108643349.436 7  84657159.16046  20674136.693    20674136.3224   20674136.9844
        47.700          39.7004
 122148701.161 8                  23244119.002
        48.400
 134952492.669 6 105157819.56544  25680593.860    25680593.2174   25680594.8664
        38.000          25.4004
 115490665.362 7  89992745.01247  21977134.462    21977134.0154   21977134.5864
        46.600          42.8004
 129818904.638 7 100970281.311 6  24293841.164    24293841.223    24293848.119
        42.100          37.600
 139117216.037 7                  26473123.514
        42.600
 123180394.389 8                  23440446.589
        48.900
 130031001.664 6 101322871.85044  24744074.386    24744073.6584   24744078.3734
        39.400          29.6004
 121390447.051 7  94589973.41046  23099831.623    23099830.9084   23099834.2194
        43.000          38.9004
 124116354.719 7  96714049.91446  23618555.269    23618554.7964   23618557.9114
        44.100          40.0004
 102616000.420 8  79812487.430 8  19223426.907    19223427.215    19223432.932
        52.300          48.500
 110392076.610 8  85860544.417 7  20629396.311    20629396.145    20629403.181
        49.600          46.500
 104540061.174 8  81308972.085 8  19528956.105    19528956.245    19528961.709
        52.500          48.400
 25  1  1  9  0 30.0000000  0 29G10G24E08R04S31S35G13R12E13S48S33R02
                                R13E29G23R19G18E07G29G15R11E33E26G08
                                G27G32R18R17R03
 117739422.351 7  91745020.72847  22405063.199    22405062.6274   22405065.5404
        47.500          46.3004
 113162283.358 7  88178438.97847  21534059.552    21534059.1684   21534062.2474
        45.700          46.3004
 134092312.523 7                  25516909.635
        44.700
 116136809.513 8  90328676.996 7  21687731.346    21687731.750    21687738.279
        48.800          44.600
 198974521.133 7                  37863588.942
        46.200
 200953998.285 7                  38240277.214
        44.300
 131690117.647 6 102615694.67342  25059790.696    25059790.0034   25059791.9734
        38.600          17.6004
 126354961.797 7  98276110.587 7  23653911.694    23653912.035    23653921.671
        44.300          42.700
 128663898.914 7                  24483907.138
        46.300
 412744490.485 5                  78542698.301
        32.400
 202097252.380 7                  38457797.702
        45.200
 114374140.289 8  88957707.719 7  21433660.352    21433660.490    21433665.893
        50.600          46.100
 130794603.299 6                  24493623.102    24493624.105
        36.100
 135061533.062 7                  25701352.569
        43.400
 107471833.065 7  83744294.94046  20451204.568    20451204.1794   20451204.3404
        47.900          39.5004
 114022345.969 6  88684071.368 7  21315266.769    21315266.614    21315273.209
        38.500          43.200
 108665564.205 7  84674469.36446  20678364.024    20678363.6584   20678364.2904
        47.400          39.7004
 122146559.166 8                  23243711.527
        48.400
 135006122.011 6 105199608.70844  25690799.213    25690798.5654   25690800.3164
        36.600          26.1004
 115536790.510 7  90028686.68947  21985911.714    21985911.2634   21985911.9924
        45.800          42.9004
 129831248.900 7 100979882.304 6  24296151.692    24296152.153    24296159.049
        43.100          38.600
 139078330.408 7                  26465723.791
        42.200
 123168634.402 8                  23438208.964
        48.900
 130005952.448 6 101303353.02044  24739307.906    24739307.1874   24739311.6154
        38.600          29.3004
 121389656.213 7  94589357.18046  23099681.539    23099680.8374   23099683.7364
        42.900          39.1004
 124070907.115 7  96678636.20346  23609906.541    23609906.0594   23609909.6274
        44.100          40.1004
 102613059.499 8  79810200.044 8  19222875.996    19222876.374    19222882.024
        52.300          48.600
 110443856.413 8  85900817.584 7  20639072.096    20639072.495    20639079.540
        49.900          47.200
 104542285.343 8  81310702.001 8  19529371.289    19529371.838    19529377.127
        52.700          48.300
 25  1  1  9  0 45.0000000  0 29G10G24E08R04S31S35G13R12E13S48S33R02
                                R13E29G23R19G18E07G29G15R11E33E26G08
                                G27G32R18R17R03
 117709975.692 7  91722075.23147  22399459.885    22399459.3224   22399462.1184
        47.400          46.2004
 113144082.963 7  88164256.88647  21530596.016    21530595.6324   21530598.8014
        46.200          46.3004
 134126163.278 7                  25523351.255
        44.500
 116098062.938 8  90298540.797 7  21680496.082    21680496.102    21680502.564
        48.400          44.700
 198974523.012 7                  37863586.344
        46.000
 200954004.254 7                  38240277.769
        44.400
 131746573.715 6 102659686.38943  25070534.174    25070533.5044   25070535.2604
        38.800          18.5004
 126322620.589 7  98250956.387 7  23647857.492    23647857.744    23647867.027
        44.000          42.400
 128691411.440 7                  24489142.648
        46.500
 412744294.693 5                  78542675.267
        32.600
 202097231.840 7                  38457793.709
        45.200
 114418685.554 8  88992354.055 7  21442007.785    21442008.235    21442013.957
        50.500          46.300
 130743284.372 6                  24484014.142    24484013.417
        37.100
 135024807.088 7                  25694363.749
        43.600
 107467863.224 7  83741201.57046  20450449.186    20450448.8064   20450448.8864
        47.800          39.5004
 113972370.700 6  88645201.761 7  21305924.210    21305923.659    21305930.250
        38.100          43.100
 108687908.594 7  84691880.57446  20682615.844    20682615.4734   20682616.3124
        47.500          39.6004
 122144506.743 8                  23243320.871
        48.600
 135059715.566 6 105241369.96243  25700998.316    25700997.6594   25700998.0314
        36.300          23.2004
 115582973.342 7  90064673.31147  21994700.655    21994700.2134   21994700.2604
        46.300          42.9004
 129843767.740 7 100989619.333 6  24298494.075    24298493.897    24298500.762
        42.000          37.900
 139039465.187 7                  26458327.690
        42.200
 123156953.196 8                  23435985.990
        49.100
 129981024.272 6 101283928.48644  24734564.338    24734563.6144   24734567.6704
        38.100          29.4004
 121389013.368 7  94588856.27346  23099558.600    23099557.9034   23099561.3924
        43.000          39.1004
 124025518.108 7  96643268.14946  23601269.158    23601268.6714   23601272.3224
        44.000          40.1004
 102610320.779 8  79808069.930 8  19222362.955    19222363.233    19222369.075
        52.000          48.500
 110495767.419 8  85941192.784 7  20648773.365    20648773.202    20648780.622
        50.000          46.900
 104544620.678 8  81312518.388 8  19529807.979    19529808.103    19529813.539
        52.700          48.400
 25  1  1  9  1  0.0000000  0 29G10G24E08R04S31S35G13R12E13S48S33R02
                                R13E29G23R19G18E07G29G15R11E33E26G08
                                G27G32R18R17R03
 117680550.511 7  91699146.47747  22393860.602    22393860.0354   22393862.8284
        47.500          46.2004
 113126030.962 7  88150190.42447  21527160.477    21527160.0934   21527163.5844
        46.100          46.3004
 134160050.790 7                  25529799.621
        44.900
 116059398.810 8  90268468.714 7  21673275.611    21673275.965    21673282.279
        48.500          44.700
 198974522.422 7                  37863587.618
        46.100
 200954007.897 7                  38240278.999
        44.300
 131803030.903 6 102703678.94443  25081278.437    25081277.7894   25081278.8934
        38.600          18.5004
 126290398.008 7  98225894.396 7  23641825.564    23641825.668    23641835.063
        44.200          42.400
 128718991.632 7                  24494390.860
        46.500
 412744098.333 5                  78542652.131
        32.700
 202097209.158 7                  38457787.614
        45.200
 114463256.459 8  89027020.295 7  21450360.092    21450360.422    21450366.174
        50.200          46.200
 130691967.038 6                  24474403.814    24474403.918
        36.300
 134988129.304 7                  25687384.169
        43.100
 107463947.798 7  83738150.60146  20449704.303    20449703.9374   20449703.8204
        47.900          39.5004
 113922505.319 6  88606417.585 7  21296602.058    21296602.025    21296608.254
        38.200          43.200
 108710376.674 7  84709388.17246  20686891.519    20686891.1534   20686891.9034
        47.800          39.7004
 122142537.934 8                  23242946.247
        48.500
 135113267.396 6 105283098.69343  25711188.314    25711187.6394   25711188.0184
        36.500          22.9004
 115629207.789 7  90100700.15547  22003498.326    22003497.8664   22003498.4064
        46.300          42.9004
 129856454.022 6 100999486.234 6  24300868.387    24300867.810    24300874.867
        41.600          38.000
 139000614.761 7                  26450934.735
        42.300
 123145345.033 8                  23433776.949
        49.000
 129956211.536 6 101264593.93044  24729842.392    24729841.6644   24729845.8654
        37.800          29.6004
 121388512.552 7  94588466.03946  23099463.024    23099462.3094   23099466.0664
        43.300          38.9004
 123980181.985 7  96607941.31146  23592642.338    23592641.8514   23592644.9704
        44.400          40.1004
 102607778.550 8  79806092.609 8  19221886.704    19221887.157    19221892.838
        52.300          48.500
 110547803.265 8  85981665.083 7  20658497.444    20658497.210    20658504.456
        48.400          46.600
 104547061.140 8  81314416.514 8  19530263.839    19530263.918    19530269.386
        52.600          48.300
 25  1  1  9  1 15.0000000  0 29G10G24E08R04S31S35G13R12E13S48S33R02
                                R13E29G23R19G18E07G29G15R11E33E26G08
                                G27G32R18R17R03
 117651148.829 8  91676236.05347  22388265.403    22388264.8454   22388267.8944
        48.200          46.2004
 113108129.548 7  88136241.30447  21523753.931    21523753.5514   21523757.0314
        46.400          46.3004
 134193976.860 7                  25536255.308
        44.800
 116020819.215 8  90238462.402 7  21666071.108    21666071.595    21666077.789
        48.900          44.900
 198974521.220 7                  37863586.639
        46.300
 200954011.134 7                  38240273.306
        44.000
 131859490.844 6 102747673.67543  25092021.928    25092021.3024   25092023.0034
        39.200          18.3004
 126258296.860 7  98200926.882 7  23635816.368    23635816.653    23635824.849
        44.200          42.500
 128746641.428 7                  24499652.736
        46.000
 412743901.840 5                  78542630.931
        32.600
 202097186.278 7                  38457782.440
        45.000
 114507854.739 8  89061707.855 7  21458718.341    21458718.255    21458724.115
        50.100          46.500
 130640653.832 6                  24464795.216    24464794.307
        37.000
 134951501.799 7                  25680414.187
        42.900
 107460088.842 8  83735143.63246  20448969.828    20448969.4624   20448969.4544
        48.200          39.4004
 113872752.374 6  88567720.863 7  21287301.550    21287301.355    21287307.462
        38.400          43.300
 108732970.390 8  84726993.66146  20691190.835    20691190.4644   20691191.3414
        48.000          39.6004
 122140654.683 8                  23242587.831
        48.100
 135166779.206 6 105324796.24843  25721371.132    25721370.4224   25721371.3784
        37.100          23.4004
 115675495.439 7  90136768.45247  22012306.840    22012306.3934   22012306.6754
        46.300          42.8004
 129869310.900 7 101009485.979 6  24303274.539    24303275.255    24303281.682
        42.900          38.800
 138961781.315 7                  26443545.314
        42.000
 123133812.093 8                  23431582.342
        48.600
 129931516.372 6 101245350.97144  24725143.238    24725142.5104   24725146.7354
        39.200          29.5004
 121388155.717 7  94588187.99646  23099395.354    23099394.6444   23099398.0134
        42.700          38.9004
 123934900.882 7  96572657.34146  23584025.806    23584025.3284   23584028.4444
        44.800          40.2004
 102605434.966 8  79804269.820 8  19221448.158    19221448.196    19221453.873
        52.300          48.300
 110599965.568 8  86022235.735 7  20668245.479    20668245.298    20668252.477
        49.400          47.100
 104549608.611 8  81316397.923 8  19530739.647    19530739.832    19530745.283
        52.600          48.400
 25  1  1  9  1 30.0000000  0 29G10G24E08R04S31S35G13R12E13S48S33R02
                                R13E29G23R19G18E07G29G15R11E33E26G08
                                G27G32R18R17R03
 117621769.267 7  91653342.83447  22382675.150    22382674.5834   22382677.1544
        47.800          46.2004
 113090377.688 7  88122408.71547  21520376.021    21520375.6374   21520378.9434
        46.700          46.3004
 134227939.992 7                  25542718.522
        44.700
 115982322.805 8  90208520.750 7  21658882.239    21658882.747    21658888.940
        48.900          45.000
 198974519.397 7                  37863582.467
        45.800
 200954013.272 7                  38240279.374
        44.300
 131915952.081 6 102791669.38042  25102765.928    25102765.3254   25102766.8234
        38.900          17.5004
 126226315.984 7  98176052.939 7  23629829.072    23629829.767    23629838.201
        44.900          42.400
 128774359.480 7                  24504927.276
        46.100
 412743703.576 5                  78542605.014
        32.900
 202097162.347 7                  38457780.611
        45.200
 114552478.817 8  89096415.466 7  21467080.369    21467080.856    21467086.563
        49.800          46.500
 130589344.009 5                  24455186.459    24455184.996
        34.100
 134914923.386 7                  25673453.764
        43.200
 107456285.083 8  83732179.68146  20448245.861    20448245.4994   20448245.5794
        48.500          39.6004
 113823111.052 6  88529110.977 7  21278021.187    21278021.683    21278027.759
        38.700          43.600
 108755688.345 7  84744695.96346  20695514.098    20695513.7274   20695514.3994
        47.600          39.6004
 122138855.575 8                  23242245.333
        48.400
 135220249.325 6 105366461.31644  25731546.248    25731545.5464   25731546.4664
        37.100          26.6004
 115721834.817 7  90172877.05547  22021125.087    22021124.6224   22021124.7684
        46.400          42.9004
 129882336.013 6 101019616.430 6  24305711.473    24305712.151    24305719.101
        41.900          37.700
 138922963.726 7                  26436158.501
        42.000
 123122353.214 8                  23429401.782
        48.800
 129906937.725 6 101226198.80644  24720465.346    24720464.6004   24720469.8614
        39.100          29.5004
 121387941.512 7  94588021.10146  23099354.634    23099353.9244   23099357.0484
        42.800          38.7004
 123889673.675 7  96537415.36646  23575419.068    23575418.5814   23575421.9214
        45.300          40.4004
 102603288.794 8  79802600.571 8  19221045.608    19221046.031    19221051.704
        52.100          48.500
 110652252.582 8  86062903.380 7  20678016.415    20678016.514    20678023.402
        49.400          46.700
 104552261.378 8  81318461.215 8  19531235.061    19531235.445    19531240.868
        53.100          48.500
 25  1  1  9  1 45.0000000  0 29G10G24E08R04S31S35G13R12E13S48S33R02
                                R13E29G23R19G18E07G29G15R11E33E26G08
                                G27G32R18R17R03
 117592412.908 8  91630467.68547  22377088.643    22377088.0764   22377090.8544
        48.600          46.3004
 113072776.559 7  88108693.58047  21517026.679    21517026.2824   21517029.5154
        46.300          46.4004
 134261940.998 7                  25549188.863
        44.200
 115943910.568 8  90178644.584 7  21651709.374    21651709.669    21651716.140
        49.400          44.900
 198974516.312 7                  37863584.743
        46.000
 200954014.382 7                  38240276.535
        44.400
 131972415.308 6 102835666.69243  25113510.714    25113510.1204   25113511.5914
        39.000          18.5004
 126194456.842 7  98151273.632 7  23623864.442    23623864.811    23623874.071
        43.800          42.500
 128802146.732 7                  24510214.967
        45.900
 412743504.223 5                  78542577.562
        33.000
 202097137.453 7                  38457776.909
        45.300
 114597129.268 8  89131143.605 7  21475448.110    21475448.384    21475454.154
        50.200          46.500
 130538039.185 6                  24445578.321    24445577.612
        36.200
 134878395.106 7                  25666502.596
        42.700
 107452537.540 8  83729259.53246  20447532.784    20447532.4274   20447532.4764
        48.400          39.7004
 113773582.619 6  88490588.860 7  21268762.150    21268762.772    21268768.773
        38.200          43.400
 108778531.462 8  84762495.79046  20699861.017    20699860.6554   20699861.2944
        48.100          39.6004
 122137141.534 8                  23241919.132
        48.200
 135273678.141 6 105408094.20243  25741713.285    25741712.5884   25741712.7444
        36.200          21.4004
 115768226.552 7  90209026.45947  22029952.883    22029952.4184   22029953.0034
        46.300          43.0004
 129895530.807 6 101029878.894 6  24308180.964    24308181.336    24308188.112
        41.400          37.200
 138884163.076 7                  26428775.052
        42.200
 123110969.534 8                  23427235.690
        48.500
 129882476.650 6 101207138.25544  24715810.805    24715810.0684   24715815.0544
        39.800          29.9004
 121387870.854 7  94587966.05446  23099341.322    23099340.6204   23099343.3784
        42.900          38.6004
 123844501.456 7  96502216.23746  23566822.861    23566822.3744   23566825.8844
        44.500          40.4004
 102601341.129 8  79801085.739 8  19220681.059    19220681.228    19220686.824
        52.200          48.300
 110704664.926 8  86103668.505 7  20687811.142    20687810.816    20687818.272
        49.200          46.300
 104555020.373 8  81320607.133 8  19531750.595    19531750.728    19531756.124
        52.500          48.400
 25  1  1  9  2  0.0000000  0 29G10G24E08R04S31S35G13R12E13S48S33R02
                                R13E29G23R19G18E07G29G15R11E33E26G08
                                G27G32R18R17R03
 117563080.878 8  91607611.53847  22371506.808    22371506.2274   22371509.2144
        48.100          46.4004
 113055327.418 7  88095096.87847  21513706.262    21513705.8734   21513709.0224
        46.700          46.5004
 134295980.664 7                  25555666.465
        44.400
 115905583.635 8  90148834.772 7  21644551.923    21644552.194    21644558.700
        49.700          45.000
 198974513.748 7                  37863584.542
        45.900
 200954016.477 7                  38240278.940
        44.300
 132028881.325 6 102879666.12042  25124255.581    25124254.9874   25124256.8824
        37.100          17.0004
 126162721.072 7  98126590.290 7  23617924.477    23617924.542    23617933.297
        44.300          42.700
 128830004.141 7                  24515515.894
        45.900
 412743304.383 5                  78542562.229
        32.900
 202097112.895 7                  38457772.987
        45.500
 114641807.112 8  89165893.022 7  21483820.637    21483820.795    21483826.288
        50.200          46.400
 130486740.484 6                  24435971.517    24435970.876
        37.200
 134841918.096 7                  25659561.280
        43.100
 107448847.273 8  83726384.01446  20446830.558    20446830.2054   20446830.2484
        48.600          39.8004
 113724169.020 6  88452156.087 7  21259524.430    21259525.607    21259531.496
        38.700          43.400
 108801500.704 7  84780393.89246  20704231.872    20704231.5064   20704232.1804
        47.700          39.7004
 122135513.483 8                  23241609.334
        48.100
 135327067.058 5 105449696.01043  25751872.392    25751871.6994   25751872.1324
        35.400          22.3004
 115814671.326 7  90245217.19347  22038790.785    22038790.3204   22038791.0674
        46.800          43.0004
 129908895.928 7 101040273.811 6  24310682.925    24310683.545    24310689.507
        43.100          38.200
 138845380.586 7                  26421394.739
        42.100
 123099662.200 8                  23425083.679
        48.400
 129858134.436 6 101188170.33344  24711178.317    24711177.5624   24711182.8464
        38.400          29.6004
 121387944.638 7  94588023.56346  23099354.722    23099354.0204   23099357.2994
        42.600          38.9004
 123799385.445 7  96467060.89946  23558238.402    23558237.9064   23558240.5304
        44.500          40.6004
 102599593.117 8  79799726.179 8  19220353.420    19220353.717    19220359.305
        52.300          48.600
 110757203.054 8  86144531.459 7  20697628.244    20697628.737    20697636.229
        49.700          46.900
 104557886.437 8  81322836.314 8  19532285.803    19532286.155    19532291.512
        52.800          48.400
 25  1  1  9  2 15.0000000  0 29G10G24E08R04S31S35G13R12E13S48S33R02
                                R13E29G23R19G18E07G29G15R11E33E26G08
                                G27G32R18R17R03
 117533773.079 7  91584774.30047  22365929.751    22365929.1664   22365932.1134
        47.900          46.2004
 113038030.400 7  88081618.71347  21510414.552    21510414.1594   21510417.4654
        46.500          46.4004
 134330058.720 7                  25562151.071
        44.600
 115867341.987 8  90119091.297 7  21637410.409    21637410.503    21637417.027
        48.600          45.000
 198974511.567 7                  37863584.595
        46.000
 200954018.158 7                  38240280.452
        44.500
 132085349.729 6 102923667.42342  25135001.116    25135000.5134   25135002.8134
        38.800          17.0004
 126131108.925 7  98102003.095 7  23612006.751    23612006.698    23612014.908
        44.300          42.500
 128857931.551 7                  24520830.515
        46.000
 412743106.079 5                  78542544.191
        33.700
 202097089.417 7                  38457765.985
        45.300
 114686511.787 8  89200663.326 7  21492197.997    21492198.577    21492204.280
        49.900          46.600
 130435448.582 6                  24426366.235    24426365.965
        36.300
 134805492.341 7                  25652629.442
        43.300
 107445214.207 8  83723553.06646  20446139.115    20446138.7584   20446138.9444
        48.500          39.6004
 113674870.297 6  88413812.646 7  21250310.667    21250309.455    21250315.603
        38.600          43.600
 108824595.900 7  84798390.15046  20708627.083    20708626.7264   20708627.1104
        47.200          39.5004
 122133971.226 8                  23241315.853
        48.100
 135380415.398 5 105491266.19043  25762024.511    25762023.8144   25762024.1194
        35.700          22.0004
 115861168.682 7  90281448.90247  22047639.278    22047638.8134   22047639.2274
        46.100          42.9004
 129922430.772 7 101050800.495 6  24313214.665    24313215.699    24313222.524
        42.400          38.400
 138806616.303 6                  26414017.758
        41.600
 123088431.219 8                  23422946.760
        48.500
 129833911.136 6 101169295.05344  24706569.239    24706568.4844   24706573.3504
        38.200          29.3004
 121388162.719 7  94588193.50446  23099397.053    23099396.3514   23099398.7604
        42.900          38.5004
 123754325.666 7  96431949.39046  23549663.450    23549662.9504   23549666.2514
        44.500          40.7004
 102598044.807 8  79798521.960 8  19220063.139    19220063.562    19220069.204
        52.300          48.500
 110809866.653 8  86185492.007 7  20707470.788    20707470.309    20707477.416
        49.600          46.900
 104560859.486 8  81325148.699 8  19532841.437    19532841.531    19532846.941
        53.000          48.400
 25  1  1  9  2 30.0000000  0 29G10G24E08R04S31S35G13R12E13S48S33R02
                                R13E29G23R19G18E07G29G15R11E33E26G08
                                G27G32R18R17R03
 117504488.921 7  91561955.47747  22360357.486    22360356.9054   22360359.4694
        47.400          46.3004
 113020885.177 7  88068258.82747  21507152.061    21507151.6594   21507154.7824
        46.400          46.5004
 134364174.446 7                  25568642.992
        44.300
 115829185.089 8  90089413.746 7  21630285.311    21630285.209    21630291.345
        49.100          45.100
 198974508.930 7                  37863586.576
        46.000
 200954020.165 7                  38240281.248
        44.400
 132141819.697 6 102967669.93543  25145747.124    25145746.5164   25145748.8954
        39.300          18.2004
 126099620.261 7  98077511.976 7  23606111.030    23606110.743    23606120.339
        43.400          42.600
 128885928.397 7                  24526158.093
        46.200
 412742910.371 5                  78542517.160
        33.100
 202097065.040 7                  38457765.466
        45.500
 114731242.584 8  89235453.962 7  21500580.702    21500580.772    21500587.235
        49.500          46.700
 130384163.690 6                  24416762.627    24416762.861
        36.200
 134769117.400 7                  25645707.762
        43.300
 107441637.863 8  83720766.31846  20445458.423    20445458.0484   20445458.3544
        48.400          39.8004
 113625686.557 6  88375558.664 7  21241115.378    21241115.182    21241121.544
        38.900          43.600
 108847816.450 7  84816484.08646  20713045.670    20713045.3174   20713045.8384
        47.300          39.7004
 122132514.140 8                  23241038.459
        48.200
 135433722.368 5 105532804.11143  25772168.641    25772167.9394   25772168.2504
        34.900          23.3004
 115907717.899 7  90317721.01847  22056497.230    22056496.7704   22056497.3064
        46.000          43.0004
 129936135.579 6 101061459.581 6  24315781.226    24315781.655    24315788.560
        41.900          37.900
 138767869.938 7                  26406644.544
        42.100
 123077276.275 8                  23420823.846
        48.800
 129809806.339 6 101150512.14744  24701982.203    24701981.4484   24701986.4454
        37.900          29.2004
 121388524.510 7  94588475.43146  23099465.883    23099465.1814   23099467.8154
        42.000          38.7004
 123709321.710 7  96396881.39046  23541099.429    23541098.9294   23541102.1734
        44.400          40.6004
 102596695.761 8  79797472.715 8  19219810.628    19219810.853    19219816.441
        52.200          48.500
 110862654.514 8  86226549.212 7  20717335.246    20717335.169    20717342.491
        49.900          46.900
 104563938.355 8  81327543.429 8  19533416.116    19533416.667    19533422.045
        52.500          48.300
 25  1  1  9  2 45.0000000  0 29G10G24E08R04S31S35G13R12E13S48S33R02
                                R13E29G23R19G18E07G29G15R11E33E26G08
                                G27G32R18R17R03
 117475225.952 8  91539153.14247  22354788.939    22354788.3674   22354790.9044
        48.200          46.4004
 113003889.527 7  88055015.49347  21503917.593    21503917.1914   21503920.5914
        46.200          46.6004
 134398325.168 7                  25575141.787
        44.300
 115791110.485 8  90059800.178 7  21623175.219    21623175.097    21623181.411
        49.000          44.900
 198974503.827 7                  37863581.881
        45.600
 200954019.324 7                  38240280.251
        44.300
 132198288.440 6 103011671.53043  25156492.986    25156492.3604   25156494.8084
        38.600          18.4004
 126068253.226 7  98053115.394 7  23600239.342    23600239.793    23600248.629
        44.400          42.700
 128913992.177 7                  24531498.401
        46.100
 412742711.045 5                  78542492.297
        33.300
 202097038.572 7                  38457759.107
        45.000
 114775996.675 8  89270262.688 7  21508967.195    21508967.586    21508973.567
        49.100          46.400
 130332883.734 6                  24407160.077    24407159.492
        38.300
 134732790.916 7                  25638795.048
        43.400
 107438115.832 8  83718021.89246  20444788.176    20444787.7924   20444788.1344
        48.300          39.9004
 113576615.989 6  88337392.662 7  21231941.710    21231942.144    21231948.042
        39.000          43.200
 108871159.818 7  84834673.72846  20717487.608    20717487.2554   20717487.9704
        47.600          39.7004
 122131139.678 8                  23240777.033
        48.100
 135486984.877 6 105574307.38243  25782303.425    25782302.7644   25782304.6224
        36.000          23.7004
 115954316.214 7  90354031.39447  22065364.457    22065364.0064   22065364.7034
        46.200          43.1004
 129950008.017 7 101072249.383 6  24318376.941    24318376.739    24318383.899
        42.300          38.200
 138729139.121 6                  26399274.517
        41.900
 123066195.067 8                  23418715.226
        48.700
 129785817.811 6 101131819.83244  24697417.706    24697416.9604   24697421.4154
        38.000          29.0004
 121389027.450 7  94588867.34646  23099561.236    23099560.5434   23099563.6644
        43.000          38.9004
 123664371.321 7  96361855.12146  23532545.402    23532544.9154   23532548.1344
        44.400          40.8004
 102595543.630 8  79796576.600 8  19219594.800    19219594.959    19219600.623
        52.400          48.500
 110915563.996 8  86267700.983 7  20727222.588    20727222.691    20727229.771
        50.000          46.900
 104567120.646 8  81330018.547 8  19534010.808    19534011.200    19534016.476
        52.600          48.500
 25  1  1  9  3  0.0000000  0 29G10G24E08R04S31S35G13R12E13S48S33R02
                                R13E29G23R19G18E07G29G15R11E33E26G08
                                G27G32R18R17R03
 117445987.990 7  91516370.26347  22349224.803    22349224.2134   22349227.1194
        47.500          46.4004
 112987047.452 7  88041891.83747  21500713.174    21500712.7814   21500715.6054
        46.200          46.6004
 134432514.532 7                  25581647.823
        44.600
 115753121.995 8  90030253.603 7  21616080.907    21616080.863    21616086.923
        48.800          44.900
 198974500.209 7                  37863581.483
        46.100
 200954020.112 7                  38240280.438
        44.600
 132254759.695 6 103055675.06842  25167239.284    25167238.6234   25167240.7794
        38.400          17.8004
 126037011.959 7  98028816.722 7  23594391.387    23594390.951    23594400.172
        44.100          42.900
 128942126.629 7                  24536852.395
        46.200
 412742512.705 5                  78542472.032
        33.300
 202097013.078 7                  38457751.175
        45.400
 114820777.556 8  89305092.263 7  21517359.514    21517359.520    21517366.078
        49.900          46.600
 130281612.743 6                  24397558.361    24397559.084
        37.500
 134696516.741 7                  25631892.011
        43.000
 107434651.921 8  83715322.75346  20444129.205    20444128.8214   20444128.9674
        48.200          39.9004
 113527662.816 6  88299317.998 7  21222790.459    21222790.638    21222796.531
        39.000          43.100
 108894629.692 7  84852961.94346  20721953.760    20721953.4124   20721954.1684
        47.100          39.7004
 122129851.563 8                  23240531.992
        48.400
 135540206.931 5 105615779.16843  25792431.961    25792431.2914   25792432.7004
        34.200          22.5004
 116000967.092 7  90390382.72847  22074241.852    22074241.4374   22074242.1044
        45.200          43.1004
 129964050.836 6 101083171.599 6  24321004.570    24321004.510    24321012.337
        41.900          39.200
 138690427.875 7                  26391908.297
        42.400
 123055191.464 8                  23416621.251
        48.800
 129761949.513 6 101113221.21045  24692875.431    24692874.6894   24692878.9664
        38.400          30.1004
 121389675.305 7  94589372.18346  23099684.975    23099684.3144   23099686.9164
        42.400          38.7004
 123619478.410 7  96326873.64146  23524002.311    23524001.8114   23524005.5554
        44.200          41.1004
 102594592.303 8  79795836.671 8  19219416.319    19219416.765    19219422.370
        52.000          48.500
 110968598.233 8  86308949.791 7  20737133.280    20737133.291    20737140.555
        50.300          46.900
 104570409.594 8  81332576.640 8  19534625.124    19534625.440    19534630.904
        52.200          48.300
 25  1  1  9  3 15.0000000  0 29G10G24E08R04S31S35G13R12E13S48S33R02
                                R13E29G23R19G18E07G29G15R11E33E26G08
                                G27G32R18R17R03
 117416779.959 7  91493610.72047  22343667.032    22343666.4424   22343669.0264
        47.700          46.3004
 112970364.015 7  88028891.78847  21497538.137    21497537.7264   21497540.8254
        46.300          46.4004
 134466747.124 7                  25588162.114
        44.800
 115715224.530 8  90000777.814 7  21609003.695    21609003.917    21609010.133
        49.100          45.100
 198974502.089 7                  37863580.656
        46.000
 200954026.040 7                  38240280.519
        44.500
 132311237.852 6 103099684.01642  25177986.389    25177985.7234   25177987.4344
        38.200          17.2004
 126005902.024 7  98004620.126 7  23588567.225    23588566.784    23588576.210
        43.500          42.800
 128970336.529 7                  24542220.495
        46.400
 412742319.928 5                  78542457.495
        33.200
 202096993.597 7                  38457745.232
        45.100
 114865590.085 8  89339946.445 7  21525757.476    21525757.925    21525763.588
        50.200          46.400
 130230356.241 5                  24387957.585    24387958.586
        35.000
 134660299.817 7                  25625000.514
        43.500
 107431251.025 8  83712672.71546  20443481.945    20443481.5564   20443481.7854
        48.400          39.8004
 113478832.262 6  88261338.685 7  21213662.674    21213662.666    21213668.594
        39.100          43.500
 108918230.831 7  84871352.42846  20726445.090    20726444.7424   20726445.2834
        47.300          39.5004
 122128654.565 8                  23240304.138
        48.400
 135593392.988 5 105657222.83843  25802552.575    25802551.9094   25802553.9764
        35.800          23.6004
 116047675.074 7  90426778.55747  22083130.317    22083129.9244   22083130.3664
        45.800          42.9004
 129978268.865 7 101094229.967 6  24323665.942    24323665.466    24323672.841
        42.300          38.700
 138651741.187 7                  26384545.950
        42.300
 123044270.465 8                  23414542.997
        48.700
 129738206.382 6 101094720.08944  24688357.139    24688356.4114   24688360.6874
        38.500          29.3004
 121390472.807 7  94589993.63846  23099836.153    23099835.4744   23099838.5574
        42.800          38.7004
 123574647.954 7  96291940.82746  23515471.588    23515471.0974   23515474.5534
        44.500          40.9004
 102593846.781 8  79795256.797 8  19219276.780    19219277.089    19219282.744
        52.000          48.400
 111021761.895 8  86350299.263 7  20747068.068    20747068.445    20747075.463
        50.100          46.600
 104573810.181 8  81335221.554 8  19535260.678    19535260.791    19535266.178
        52.600          48.500
 25  1  1  9  3 30.0000000  0 29G10G24E08R04S31S35G13R12E13S48S33R02
                                R13E29G23R19G18E07G29G15R11E33E26G08
                                G27G32R18R17R03
 117387595.285 8  91470869.34847  22338113.199    22338112.6054   22338115.3964
        48.300          46.2004
 112953832.862 7  88016010.40747  21494392.217    21494391.8064   21494395.0114
        46.500          46.4004
 134501016.215 7                  25594683.219
        44.800
 115677411.867 8  89971367.985 7  21601942.481    21601942.693    21601948.716
        49.200          44.900
 198974503.478 7                  37863580.034
        45.800
 200954031.539 7                  38240283.631
        44.200
 132367716.177 6 103143693.07542  25188733.863    25188733.1664   25188734.7954
        38.500          17.5004
 125974917.030 7  97980520.717 7  23582767.312    23582767.362    23582775.675
        45.200          42.500
 128998615.273 7                  24547601.584
        46.600
 412742126.296 5                  78542422.786
        33.100
 202096973.739 7                  38457745.992
        45.100
 114910427.168 8  89374819.748 7  21534159.259    21534159.491    21534165.973
        49.300          46.400
 130179108.091 6                  24378363.148    24378362.256
        37.600
 134624133.678 7                  25618117.976
        43.400
 107427906.612 8  83710066.69446  20442845.637    20442845.2444   20442845.3524
        48.500          39.7004
 113430118.384 6  88223450.145 7  21204556.041    21204555.960    21204561.791
        38.900          43.700
 108941956.628 8  84889840.05446  20730959.710    20730959.3624   20730960.1514
        48.100          39.5004
 122127542.001 8                  23240092.424
        48.400
 135646536.225 5 105698633.21943  25812665.929    25812665.2814   25812666.1524
        34.200          20.1004
 116094433.256 7  90463213.50647  22092027.914    22092027.5124   22092028.1624
        45.900          42.8004
 129992656.375 7 101105420.541 6  24326357.809    24326358.299    24326364.529
        43.300          38.400
 138613072.703 7                  26377187.776
        42.500
 123033425.705 8                  23412479.518
        48.800
 129714582.072 6 101076311.57844  24683861.463    24683860.7174   24683865.4414
        38.600          29.6004
 121391413.283 7  94590726.51146  23100015.260    23100014.5814   23100017.4584
        42.900          38.6004
 123529873.542 7  96257051.68046  23506951.567    23506951.0804   23506954.1004
        45.200          40.9004
 102593300.564 8  79794831.951 8  19219174.525    19219174.846    19219180.460
        52.100          48.400
 111075047.949 8  86391743.945 7  20757026.064    20757025.837    20757033.561
        49.600          46.600
 104577315.464 8  81337947.901 8  19535915.611    19535915.597    19535921.003
        52.700          48.500
 25  1  1  9  3 45.0000000  0 29G10G24E08R04S31S35G13R12E13S48S33R02
                                R13E29G23R19G18E07G29G15R11E33E26G08
                                G27G32R18R17R03
 117358431.317 7  91448144.16047  22332563.369    22332562.7754   22332565.7554
        47.800          46.3004
 112937451.386 7  88003245.65347  21491275.082    21491274.6764   21491277.6554
        46.400          46.4004
 134535318.819 7                  25601210.668
        44.400
 115639680.815 8  89942021.610 7  21594896.316    21594896.922    21594902.991
        49.600          45.200
 198974501.765 7                  37863582.498
        45.800
 200954034.134 7                  38240284.177
        44.400
 132424191.706 6 103187699.98442  25199480.788    25199480.0464   25199481.4954
        36.000          15.7004
 125944054.561 7  97956516.639 7  23576988.403    23576988.939    23576998.352
        43.300          42.300
 129026960.008 7                  24552995.373
        46.200
 412741930.315 5                  78542403.388
        32.600
 202096949.915 7                  38457740.353
        45.200
 114955285.639 8  89409709.675 7  21542566.691    21542566.531    21542572.824
        49.500          46.700
 130127866.081 6                  24368766.925    24368766.221
        37.000
 134588015.609 7                  25611245.167
        44.000
 107424615.926 8  83707502.53646  20442219.438    20442219.0414   20442219.1374
        48.500          39.9004
 113381518.959 6  88185650.600 7  21195470.872    21195471.099    21195476.339
        38.600          43.200
 108965804.171 7  84908422.54646  20735497.659    20735497.2974   20735498.2174
        47.800          39.5004
 122126510.999 8                  23239896.307
        48.500
 135699633.283 6 105740007.55944  25822769.844    25822769.1834   25822769.9314
        36.600          26.6004
 116141238.541 7  90499685.15947  22100934.836    22100934.4214   22100934.8784
        45.800          42.8004
 130007208.881 6 101116739.149 6  24329081.236    24329081.182    24329088.454
        41.800          39.000
 138574419.771 7                  26369832.664
        42.500
 123022654.481 8                  23410429.589
        48.500
 129691073.968 6 101057993.61944  24679387.505    24679386.7364   24679392.0384
        38.600          28.5004
 121392493.893 7  94591568.57646  23100220.945    23100220.2664   23100223.0234
        42.700          38.6004
 123485152.552 7  96222204.16946  23498441.287    23498440.8004   23498444.1734
        44.700          41.1004
 102592951.048 8  79794560.140 8  19219108.958    19219109.278    19219115.031
        51.800          48.300
 111128453.126 8  86433281.295 7  20767005.908    20767006.301    20767013.158
        49.900          46.500
 104580922.479 8  81340753.383 8  19536589.111    19536589.180    19536594.800
        52.600          48.600
 25  1  1  9  4  0.0000000  0 29G10G24E08R04S31S35G13R12E13S48S33R02
                                R13E29G23R19G18E07G29G15R11E33E26G08
                                G27G32R18R17R03
 117329290.845 8  91425437.29647  22327018.321    22327017.7224   22327020.5674
        48.200          46.4004
 112921222.683 7  87990599.94247  21488186.777    21488186.3714   21488189.4104
        46.500          46.5004
 134569657.592 7                  25607745.185
        44.300
 115602034.298 8  89912741.013 7  21587866.045    21587866.052    21587872.934
        48.700          45.100
 198974498.995 7                  37863581.335
        45.700
 200954035.556 7                  38240282.804
        44.300
 132480667.108 6 103231706.78942  25210228.105    25210227.3684   25210228.7634
        38.300          16.5004
 125913318.168 7  97932610.598 7  23571234.558    23571235.276    23571244.496
        44.300          43.000
 129055373.526 7                  24558402.507
        45.900
 412741733.462 5                  78542374.054
        32.700
 202096926.090 7                  38457736.584
        45.300
 115000168.355 8  89444618.452 7  21550977.517    21550977.572    21550983.602
        49.900          46.500
 130076633.608 6                  24359172.668    24359173.147
        36.600
 134551948.532 7                  25604381.516
        43.300
 107421381.840 8  83704982.47746  20441603.752    20441603.3504   20441603.7394
        48.300          39.9004
 113333037.127 6  88147942.531 7  21186406.840    21186407.335    21186413.170
        39.100          43.300
 108989776.265 7  84927102.08946  20740059.441    20740059.0704   20740059.9344
        47.700          39.5004
 122125564.312 8                  23239715.968
        48.300
 135752686.974 5 105781348.12443  25832866.085    25832865.4104   25832865.8674
        34.600          19.8004
 116188093.631 7  90536195.61747  22109850.690    22109850.2794   22109850.9944
        45.900          42.7004
 130021929.012 7 101128187.760 6  24331835.758    24331836.274    24331842.374
        42.300          37.900
 138535785.413 6                  26362480.589
        41.800
 123011959.773 8                  23408394.442
        48.400
 129667685.073 6 101039768.55544  24674937.155    24674936.3954   24674941.3164
        39.500          29.9004
 121393717.372 7  94592521.96146  23100454.071    23100453.3924   23100455.7754
        43.200          38.8004
 123440487.933 7  96187400.59246  23489942.115    23489941.6334   23489944.8974
        45.100          41.2004
 102592800.964 8  79794443.381 8  19219080.870    19219081.170    19219086.909
        51.800          48.200
 111181979.577 8  86474912.965 7  20777009.102    20777008.843    20777016.124
        49.300          46.600
 104584633.439 8  81343639.690 8  19537282.769    19537282.554    19537288.045
        52.400          48.700
 25  1  1  9  4 15.0000000  0 29G10G24E08R04S31S35G13R12E13S48S33R02
                                R13E29G23R19G18E07G29G15R11E33E26G08
                                G27G32R18R17R03
 117300174.018 8  91402748.86447  22321477.497    22321476.9034   22321479.8564
        48.200          46.4004
 112905147.047 7  87978073.50947  21485127.662    21485127.2604   21485130.2754
        46.500          46.4004
 134604032.427 7                  25614286.403
        44.300
 115564472.348 8  89883526.191 7  21580851.975    21580851.932    21580858.376
        49.500          45.100
 198974495.818 7                  37863580.142
        45.700
 200954036.753 7                  38240281.740
        44.200
 132537141.916 6 103275713.09342  25220974.943    25220974.2284   25220975.4184
        37.700          15.7004
 125882708.295 7  97908802.999 7  23565505.062    23565505.638    23565514.009
        44.500          43.000
 129083855.861 7                  24563822.635
        46.100
 412741537.678 5                  78542345.516
        32.500
 202096901.690 7                  38457731.066
        45.000
 115045075.029 8  89479545.854 7  21559393.112    21559393.403    21559398.932
        50.200          46.400
 130025411.378 6                  24349581.653    24349580.398
        36.200
 134515932.651 7                  25597528.202
        43.600
 107418204.496 8  83702506.63646  20440999.421    20440999.0244   20440999.1004
        48.100          39.9004
 113284673.833 6  88110326.658 7  21177365.984    21177366.251    21177372.251
        39.200          43.300
 109013872.894 7  84945878.67146  20744644.880    20744644.5144   20744645.3954
        47.600          39.4004
 122124701.930 8                  23239551.942
        48.400
 135805697.028 6 105822654.68044  25842952.405    25842951.7484   25842953.4984
        36.700          25.7004
 116234998.211 7  90572744.64447  22118776.741    22118776.3354   22118776.5854
        45.400          42.6004
 130036818.254 7 101139768.287 6  24334620.925    24334622.430    24334629.564
        42.200          38.900
 138497169.869 6                  26355132.344
        41.500
 123001341.826 8                  23406374.039
        48.500
 129644415.572 6 101021636.49244  24670509.144    24670508.3894   24670513.3104
        37.900          29.1004
 121395083.743 7  94593586.69446  23100713.929    23100713.2504   23100715.8764
        42.700          38.6004
 123395879.950 7  96152641.15046  23481453.172    23481452.6904   23481456.1974
        45.400          41.4004
 102592850.689 8  79794482.045 8  19219090.319    19219090.623    19219096.219
        51.600          48.300
 111235627.185 8  86516638.852 7  20787034.489    20787034.314    20787041.216
        49.700          46.400
 104588448.817 8  81346607.237 8  19537994.779    19537995.251    19538000.692
        52.200          48.500
 25  1  1  9  4 30.0000000  0 29G10G24E08R04S31S35G13R12E13S48S33R02
                                R13E29G23R19G18E07G29G15R11E33E26G08
                                G27G32R18R17R03
 117271083.856 7  91380081.17247  22315941.960    22315941.3574   22315944.1754
        47.300          46.5004
 112889227.765 7  87965668.90447  21482098.092    21482097.6904   21482100.9024
        46.200          46.6004
 134638446.232 7                  25620835.375
        44.400
 115526998.521 8  89854379.900 7  21573853.486    21573853.503    21573860.184
        48.800          45.300
 198974495.455 7                  37863581.465
        45.900
 200954040.438 7                  38240283.014
        44.100
 132593619.088 6 103319721.27642  25231721.791    25231721.0454   25231722.8554
        39.000          16.8004
 125852228.402 7  97885096.462 7  23559799.293    23559799.723    23559808.187
        45.000          42.600
 129112410.067 7                  24569256.051
        45.600
 412741343.937 5                  78542333.729
        32.800
 202096879.669 7                  38457727.623
        45.200
 115090008.488 8  89514494.114 7  21567813.161    21567813.495    21567819.547
        50.000          46.400
 129974203.072 6                  24339991.061    24339990.476
        37.000
 134479971.117 7                  25590684.599
        43.500
 107415087.034 8  83700077.45146  20440406.270    20440405.8774   20440405.8864
        48.200          40.2004
 113236432.334 6  88072805.519 7  21168347.736    21168348.092    21168354.213
        38.700          43.400
 109038097.116 7  84964754.68246  20749254.801    20749254.4304   20749255.1424
        47.000          39.4004
 122123926.882 8                  23239404.294
        48.300
 135858666.336 6 105863929.48343  25853033.362    25853032.7234   25853033.2914
        36.800          22.0004
 116281955.040 7  90609334.38147  22127712.444    22127712.0424   22127712.2734
        45.600          42.6004
 130051878.711 6 101151481.832 6  24337440.713    24337440.881    24337448.770
        41.800          38.300
 138458576.445 6                  26347788.315
        41.900
 122990803.887 8                  23404368.793
        48.300
 129621268.774 6 101003600.04144  24666104.501    24666103.7414   24666107.6624
        38.200          29.2004
 121396596.008 7  94594765.11346  23101001.831    23101001.1704   23101003.8004
        42.300          38.7004
 123351331.836 7  96117928.35346  23472975.735    23472975.2574   23472978.8864
        45.200          41.6004
 102593103.361 8  79794678.556 8  19219137.642    19219137.875    19219143.596
        52.200          48.300
 111289398.534 8  86558460.945 7  20797082.535    20797082.757    20797089.904
        49.700          46.400
 104592371.090 8  81349657.913 8  19538727.800    19538728.100    19538733.376
        52.500          48.600
 25  1  1  9  4 45.0000000  0 29G10G24E08R04S31S35G13R12E13S48S33R02
                                R13E29G23R19G18E07G29G15R11E33E26G08
                                G27G32R18R17R03
 117242014.312 7  91357429.57247  22310410.395    22310409.7924   22310412.3224
        47.500          46.4004
 112873458.876 7  87953381.49347  21479097.356    21479096.9544   21479100.1624
        46.400          46.6004
 134672892.596 7                  25627390.100
        44.500
 115489606.328 8  89825297.141 7  21566870.770    21566870.934    21566877.512
        49.100          45.200
 198974491.379 7                  37863581.559
        45.800
 200954040.737 7                  38240283.112
        44.300
 132650092.149 6 103363726.22742  25242467.720    25242466.9114   25242469.2114
        36.600          15.2004
 125821872.842 7  97861486.680 7  23554115.628    23554116.156    23554125.345
        44.600          42.800
 129141029.871 7                  24574702.408
        46.200
 412741146.401 5                  78542318.114
        32.700
 202096855.033 7                  38457724.077
        45.200
 115134962.161 8  89549458.109 7  21576237.701    21576237.867    21576244.120
        49.900          46.700
 129923002.559 6                  24330403.056    24330402.575
        37.300
 134444057.849 7                  25583850.454
        44.000
 107412023.306 8  83697690.14246  20439822.943    20439822.5504   20439822.8844
        48.200          40.1004
 113188307.200 6  88035374.904 7  21159351.456    21159351.501    21159357.072
        38.700          43.100
 109062442.581 7  84983725.16646  20753887.783    20753887.4214   20753887.9804
        47.000          39.4004
 122123232.854 8                  23239272.260
        48.400
 135911588.651 5 105905167.69143  25863103.757    25863103.1404   25863103.9934
        34.600          21.4004
 116328957.643 7  90645959.78747  22136656.424    22136656.0134   22136656.6234
        45.700          42.6004
 130067103.961 7 101163323.533 6  24340289.829    24340289.729    24340297.788
        43.100          38.700
 138419999.086 7                  26340446.951
        42.000
 122980339.908 8                  23402377.273
        48.400
 129598238.654 6 100985654.50144  24661722.708    24661721.9484   24661725.1414
        38.700          29.2004
 121398247.863 7  94596052.30746  23101315.706    23101315.0454   23101318.1154
        42.500          39.0004
 123306837.531 7  96083257.49046  23464509.160    23464508.6694   23464511.9184
        44.400          41.5004
 102593552.740 8  79795028.099 8  19219221.726    19219222.040    19219227.806
        52.000          48.200
 111343287.061 8  86600374.226 7  20807152.916    20807152.869    20807160.177
        49.100          46.200
 104596394.169 8  81352786.996 8  19539479.709    19539479.655    19539484.890
        52.800          48.600
 25  1  1  9  5  0.0000000  0 28G10G24E08R04S31S35G13R12E13S48S33R02
                                R13E29G23R19G18E07G15R11E33E26G08G27
                                G32R18R17R03
 117212972.115 7  91334799.31247  22304883.741    22304883.1474   22304885.7184
        47.900          46.7004
 112857847.244 7  87941216.61647  21476126.325    21476125.9144   21476129.3864
        46.400          46.8004
 134707378.062 7                  25633952.588
        44.500
 115452302.447 8  89796283.034 7  21559904.695    21559904.656    21559911.199
        48.300          45.300
 198974490.456 7                  37863582.489
        45.800
 200954044.488 7                  38240282.938
        44.100
 132706567.602 6 103407733.04242  25253215.411    25253214.6164   25253216.0944
        37.800          15.3004
 125791648.673 7  97837979.060 7  23548458.754    23548458.856    23548466.762
        44.800          42.900
 129169721.949 7                  24580162.374
        46.100
 412740952.748 5                  78542286.446
